uniorb/output/strategy_4/Camera/Camera_KinoSat_111309.txt

KinoSat_111309
-------------------------
    Access    *     Start Time (UTCG)     *     Stop Time (UTCG)  *   Duration (s) *   Data (Mbytes)
         1   01 Jun 2027 04:14:35.621   01 Jun 2027 04:15:01.062            25.441         12720.500
         2   01 Jun 2027 04:25:30.032   01 Jun 2027 04:27:17.176           107.144         53572.000
         3   01 Jun 2027 04:27:39.347   01 Jun 2027 04:27:59.436            20.089         10044.500
         4   01 Jun 2027 05:49:27.424   01 Jun 2027 05:51:06.824            99.400         49700.000
         5   01 Jun 2027 07:25:12.219   01 Jun 2027 07:27:50.739           158.520         79260.000
         6   01 Jun 2027 08:59:55.874   01 Jun 2027 09:01:40.143           104.269         52134.500
         7   01 Jun 2027 09:01:48.872   01 Jun 2027 09:02:28.433            39.561         19780.500
         8   01 Jun 2027 09:06:39.508   01 Jun 2027 09:07:28.376            48.868         24434.000
         9   01 Jun 2027 10:36:43.435   01 Jun 2027 10:39:17.922           154.487         77243.500
        10   01 Jun 2027 10:40:48.931   01 Jun 2027 10:40:54.094             5.163          2581.500
        11   02 Jun 2027 03:00:45.722   02 Jun 2027 03:01:08.822            23.100         11550.000
        12   02 Jun 2027 03:01:13.768   02 Jun 2027 03:01:14.879             1.111           555.500
        13   02 Jun 2027 03:01:24.153   02 Jun 2027 03:01:33.084             8.931          4465.500
        14   02 Jun 2027 03:01:36.735   02 Jun 2027 03:01:39.095             2.360          1180.000
        15   02 Jun 2027 03:02:01.732   02 Jun 2027 03:02:01.732             0.000             0.000
        16   02 Jun 2027 03:03:02.802   02 Jun 2027 03:03:12.605             9.803          4901.500
        17   02 Jun 2027 03:03:23.089   02 Jun 2027 03:03:28.688             5.599          2799.500
        18   02 Jun 2027 03:04:17.108   02 Jun 2027 03:04:21.539             4.431          2215.500
        19   02 Jun 2027 03:05:10.586   02 Jun 2027 03:05:35.030            24.444         12222.000
        20   02 Jun 2027 03:06:16.259   02 Jun 2027 03:06:17.375             1.116           558.000
        21   02 Jun 2027 03:06:49.360   02 Jun 2027 03:06:51.704             2.344          1172.000
        22   02 Jun 2027 03:07:06.069   02 Jun 2027 03:07:15.789             9.720          4860.000
        23   02 Jun 2027 04:25:50.865   02 Jun 2027 04:26:49.720            58.855         29427.500
        24   02 Jun 2027 04:37:30.247   02 Jun 2027 04:38:18.624            48.377         24188.500
        25   02 Jun 2027 06:00:03.258   02 Jun 2027 06:01:03.530            60.272         30136.000
        26   02 Jun 2027 06:01:43.750   02 Jun 2027 06:02:13.329            29.579         14789.500
        27   02 Jun 2027 06:02:16.344   02 Jun 2027 06:02:34.000            17.656          8828.000
        28   02 Jun 2027 06:02:54.803   02 Jun 2027 06:02:54.803             0.000             0.000
        29   02 Jun 2027 06:04:00.768   02 Jun 2027 06:04:03.895             3.127          1563.500
        30   02 Jun 2027 07:35:06.978   02 Jun 2027 07:36:28.065            81.087         40543.500
        31   02 Jun 2027 07:36:56.758   02 Jun 2027 07:38:18.714            81.956         40978.000
        32   02 Jun 2027 07:39:59.324   02 Jun 2027 07:39:59.324             0.000             0.000
        33   02 Jun 2027 07:40:23.590   02 Jun 2027 07:40:26.082             2.492          1246.000
        34   02 Jun 2027 07:40:52.823   02 Jun 2027 07:41:48.369            55.546         27773.000
        35   02 Jun 2027 09:12:04.131   02 Jun 2027 09:14:13.387           129.256         64628.000
        36   02 Jun 2027 09:15:19.898   02 Jun 2027 09:15:22.295             2.397          1198.500
        37   02 Jun 2027 09:15:42.592   02 Jun 2027 09:16:12.822            30.230         15115.000
        38   02 Jun 2027 09:17:52.822   02 Jun 2027 09:18:36.183            43.361         21680.500
        39   02 Jun 2027 09:18:36.405   02 Jun 2027 09:18:38.379             1.974           987.000
        40   02 Jun 2027 09:19:18.761   02 Jun 2027 09:19:26.378             7.617          1455.969
        41   02 Jun 2027 10:49:02.849   02 Jun 2027 10:49:18.763            15.914          7919.937
        42   02 Jun 2027 10:51:40.522   02 Jun 2027 10:51:41.801             1.279           246.594
        43   02 Jun 2027 10:52:28.156   02 Jun 2027 10:52:32.290             4.134          1142.469
        44   02 Jun 2027 10:52:42.573   02 Jun 2027 10:52:45.642             3.069           199.844
        45   02 Jun 2027 10:53:22.552   02 Jun 2027 10:53:31.893             9.341          1153.438
        46   02 Jun 2027 10:53:47.381   02 Jun 2027 10:53:49.208             1.827           406.438
        47   03 Jun 2027 03:13:01.594   03 Jun 2027 03:14:13.550            71.956         35978.000
        48   03 Jun 2027 03:15:05.536   03 Jun 2027 03:15:12.888             7.352          3676.000
        49   03 Jun 2027 03:16:06.497   03 Jun 2027 03:16:56.693            50.196         25098.000
        50   03 Jun 2027 03:17:08.955   03 Jun 2027 03:17:46.525            37.570         18785.000
        51   03 Jun 2027 04:37:12.199   03 Jun 2027 04:37:39.733            27.534         13767.000
        52   03 Jun 2027 04:37:59.981   03 Jun 2027 04:38:25.939            25.958         12979.000
        53   03 Jun 2027 04:49:28.024   03 Jun 2027 04:50:23.661            55.637         27818.500
        54   03 Jun 2027 06:11:29.500   03 Jun 2027 06:12:39.878            70.378         33310.438
        55   03 Jun 2027 06:14:14.032   03 Jun 2027 06:14:23.199             9.167          2942.313
        56   03 Jun 2027 06:14:39.321   03 Jun 2027 06:14:39.321             0.000             0.000
        57   03 Jun 2027 06:14:53.227   03 Jun 2027 06:14:56.504             3.277           938.375
        58   03 Jun 2027 06:16:23.240   03 Jun 2027 06:16:33.062             9.822          2194.937
        59   03 Jun 2027 06:16:57.906   03 Jun 2027 06:16:57.906             0.000             0.000
        60   03 Jun 2027 07:46:31.835   03 Jun 2027 07:46:42.711            10.876          1884.250
        61   03 Jun 2027 07:48:17.124   03 Jun 2027 07:48:19.635             2.511           754.187
        62   03 Jun 2027 07:48:41.676   03 Jun 2027 07:48:45.261             3.585           576.594
        63   03 Jun 2027 07:49:26.687   03 Jun 2027 07:49:32.199             5.512           924.844
        64   03 Jun 2027 07:50:21.259   03 Jun 2027 07:50:26.023             4.764           916.531
        65   03 Jun 2027 07:51:54.953   03 Jun 2027 07:52:01.157             6.204          2399.188
        66   03 Jun 2027 07:52:55.595   03 Jun 2027 07:52:59.294             3.699          1348.062
        67   03 Jun 2027 07:53:14.339   03 Jun 2027 07:53:18.353             4.014            78.406
        68   03 Jun 2027 07:54:38.187   03 Jun 2027 07:54:45.781             7.594          1517.875
        69   03 Jun 2027 09:24:08.159   03 Jun 2027 09:24:15.632             7.473          3171.406
        70   03 Jun 2027 09:24:56.434   03 Jun 2027 09:25:01.764             5.330          1181.094
        71   03 Jun 2027 09:27:12.975   03 Jun 2027 09:27:19.225             6.250          1879.250
        72   03 Jun 2027 09:27:49.706   03 Jun 2027 09:27:53.328             3.622           304.156
        73   03 Jun 2027 09:28:05.128   03 Jun 2027 09:28:05.790             0.662           148.813
        74   03 Jun 2027 09:29:03.446   03 Jun 2027 09:29:08.021             4.575          1532.156
        75   03 Jun 2027 09:29:34.846   03 Jun 2027 09:29:39.437             4.591           302.813
        76   03 Jun 2027 09:30:16.363   03 Jun 2027 09:30:18.854             2.491           816.906
        77   03 Jun 2027 09:30:43.219   03 Jun 2027 09:30:44.713             1.494            49.656
        78   03 Jun 2027 09:31:03.294   03 Jun 2027 09:31:05.146             1.852           544.781
        79   03 Jun 2027 09:31:14.247   03 Jun 2027 09:31:15.903             1.656           256.094
        80   03 Jun 2027 09:31:23.508   03 Jun 2027 09:31:24.696             1.188           196.469
        81   03 Jun 2027 11:00:52.054   03 Jun 2027 11:01:06.311            14.257          6976.406
        82   03 Jun 2027 11:03:40.781   03 Jun 2027 11:03:41.835             1.054            44.562
        83   03 Jun 2027 11:04:57.195   03 Jun 2027 11:04:58.377             1.182           515.438
        84   03 Jun 2027 11:05:08.106   03 Jun 2027 11:05:13.368             5.262            76.187
        85   03 Jun 2027 11:05:15.077   03 Jun 2027 11:05:16.250             1.173            24.000
        86   03 Jun 2027 11:05:50.680   03 Jun 2027 11:06:03.809            13.129           930.437
        87   03 Jun 2027 11:06:29.086   03 Jun 2027 11:06:36.070             6.984           386.000
        88   03 Jun 2027 11:07:02.927   03 Jun 2027 11:07:07.094             4.167           680.312
        89   04 Jun 2027 03:25:07.685   04 Jun 2027 03:27:09.042           121.357         60678.500
        90   04 Jun 2027 03:27:27.299   04 Jun 2027 03:29:03.469            96.170         48085.000
        91   04 Jun 2027 03:29:32.414   04 Jun 2027 03:30:22.066            49.652         24826.000
        92   04 Jun 2027 04:49:19.483   04 Jun 2027 04:50:02.844            43.361         21680.500
        93   04 Jun 2027 05:01:51.010   04 Jun 2027 05:01:55.202             4.192          2096.000
        94   04 Jun 2027 06:23:09.201   04 Jun 2027 06:23:49.305            40.104         18467.093
        95   04 Jun 2027 06:24:41.141   04 Jun 2027 06:24:44.627             3.486          1433.781
        96   04 Jun 2027 06:25:07.225   04 Jun 2027 06:25:10.649             3.424           631.500
        97   04 Jun 2027 06:25:41.750   04 Jun 2027 06:25:44.634             2.884           223.687
        98   04 Jun 2027 06:26:12.467   04 Jun 2027 06:26:14.333             1.866           669.406
        99   04 Jun 2027 06:26:47.303   04 Jun 2027 06:26:50.231             2.928           917.219
       100   04 Jun 2027 06:27:19.147   04 Jun 2027 06:27:21.783             2.636           266.969
       101   04 Jun 2027 06:27:55.208   04 Jun 2027 06:27:59.189             3.981           466.563
       102   04 Jun 2027 06:28:05.949   04 Jun 2027 06:28:06.948             0.999           210.375
       103   04 Jun 2027 06:28:30.612   04 Jun 2027 06:28:31.910             1.298           649.000
       104   04 Jun 2027 06:28:34.528   04 Jun 2027 06:28:36.789             2.261           160.375
       105   04 Jun 2027 07:58:02.272   04 Jun 2027 07:58:08.870             6.598          2149.469
       106   04 Jun 2027 07:59:05.596   04 Jun 2027 07:59:07.635             2.039          1004.844
       107   04 Jun 2027 08:00:16.262   04 Jun 2027 08:00:20.863             4.601          2144.594
       108   04 Jun 2027 08:01:36.199   04 Jun 2027 08:01:39.336             3.137          1568.500
       109   04 Jun 2027 08:01:41.440   04 Jun 2027 08:01:43.908             2.468            98.437
       110   04 Jun 2027 08:02:50.731   04 Jun 2027 08:02:54.044             3.313           848.187
       111   04 Jun 2027 08:04:15.592   04 Jun 2027 08:04:16.706             1.114           506.719
       112   04 Jun 2027 08:05:15.572   04 Jun 2027 08:05:19.617             4.045          1154.844
       113   04 Jun 2027 08:05:56.761   04 Jun 2027 08:06:00.181             3.420          1160.750
       114   04 Jun 2027 08:06:46.489   04 Jun 2027 08:06:50.948             4.459          1141.750
       115   04 Jun 2027 09:36:06.764   04 Jun 2027 09:36:18.617            11.853          5405.906
       116   04 Jun 2027 09:37:02.493   04 Jun 2027 09:37:08.748             6.255           930.094
       117   04 Jun 2027 09:37:29.366   04 Jun 2027 09:37:30.266             0.900             3.500
       118   04 Jun 2027 09:38:19.376   04 Jun 2027 09:38:19.933             0.557           276.000
       119   04 Jun 2027 09:40:09.357   04 Jun 2027 09:40:11.753             2.396           768.563
       120   04 Jun 2027 09:41:22.706   04 Jun 2027 09:41:26.864             4.158          1945.844
       121   04 Jun 2027 09:41:34.084   04 Jun 2027 09:41:36.372             2.288            13.219
       122   04 Jun 2027 09:42:49.024   04 Jun 2027 09:42:51.456             2.432          1038.094
       123   04 Jun 2027 09:43:01.762   04 Jun 2027 09:43:03.855             2.093           105.937
       124   04 Jun 2027 09:43:14.752   04 Jun 2027 09:43:18.151             3.399           246.000
       125   04 Jun 2027 11:12:59.947   04 Jun 2027 11:13:01.104             1.157           578.500
       126   04 Jun 2027 11:13:03.178   04 Jun 2027 11:13:12.424             9.246          4434.000
       127   04 Jun 2027 11:16:56.779   04 Jun 2027 11:17:02.838             6.059          1583.281
       128   04 Jun 2027 11:17:39.065   04 Jun 2027 11:17:41.500             2.435           272.594
       129   04 Jun 2027 11:18:35.549   04 Jun 2027 11:18:38.955             3.406           874.469
       130   04 Jun 2027 11:19:03.926   04 Jun 2027 11:19:07.147             3.221           646.406
       131   05 Jun 2027 03:37:32.952   05 Jun 2027 03:40:39.301           186.349         93174.500
       132   05 Jun 2027 03:42:20.093   05 Jun 2027 03:42:27.299             7.206          3603.000
       133   05 Jun 2027 05:01:16.976   05 Jun 2027 05:01:37.312            20.336         10168.000
       134   05 Jun 2027 06:37:28.125   05 Jun 2027 06:39:11.670           103.545         48320.469
       135   05 Jun 2027 06:40:24.063   05 Jun 2027 06:40:28.199             4.136          1769.406
       136   05 Jun 2027 06:40:37.382   05 Jun 2027 06:40:38.017             0.635            84.062
       137   05 Jun 2027 08:11:01.560   05 Jun 2027 08:11:06.456             4.896          2447.469
       138   05 Jun 2027 08:12:18.760   05 Jun 2027 08:12:24.048             5.288          2259.500
       139   05 Jun 2027 08:13:28.891   05 Jun 2027 08:13:32.293             3.402            81.094
       140   05 Jun 2027 08:14:13.394   05 Jun 2027 08:14:17.262             3.868          1162.813
       141   05 Jun 2027 08:14:55.368   05 Jun 2027 08:14:58.060             2.692           928.250
       142   05 Jun 2027 08:16:18.596   05 Jun 2027 08:16:23.819             5.223           628.906
       143   05 Jun 2027 08:17:45.199   05 Jun 2027 08:17:50.213             5.014          2041.406
       144   05 Jun 2027 08:18:11.198   05 Jun 2027 08:18:12.416             1.218           428.687
       145   05 Jun 2027 08:18:37.420   05 Jun 2027 08:18:43.621             6.201           712.344
       146   05 Jun 2027 08:19:32.163   05 Jun 2027 08:19:34.606             2.443          1086.344
       147   05 Jun 2027 09:48:29.074   05 Jun 2027 09:48:40.233            11.159          5265.094
       148   05 Jun 2027 09:50:42.780   05 Jun 2027 09:50:44.775             1.995           937.562
       149   05 Jun 2027 09:51:15.756   05 Jun 2027 09:51:21.671             5.915           968.156
       150   05 Jun 2027 09:51:48.783   05 Jun 2027 09:51:49.267             0.484             5.219
       151   05 Jun 2027 09:52:59.530   05 Jun 2027 09:53:02.186             2.656          1302.688
       152   05 Jun 2027 09:53:56.746   05 Jun 2027 09:53:59.570             2.824           870.969
       153   05 Jun 2027 09:54:53.562   05 Jun 2027 09:54:56.055             2.493           875.781
       154   05 Jun 2027 09:55:09.977   05 Jun 2027 09:55:11.466             1.489           432.562
       155   05 Jun 2027 11:25:28.778   05 Jun 2027 11:25:43.831            15.053          6230.906
       156   05 Jun 2027 11:28:30.579   05 Jun 2027 11:28:38.539             7.960          2016.531
       157   05 Jun 2027 11:28:44.555   05 Jun 2027 11:28:46.745             2.190           188.000
       158   05 Jun 2027 11:29:00.525   05 Jun 2027 11:29:04.059             3.534           342.469
       159   05 Jun 2027 11:29:22.411   05 Jun 2027 11:29:24.584             2.173            81.469
       160   05 Jun 2027 11:30:06.278   05 Jun 2027 11:30:09.049             2.771          1021.531
       161   05 Jun 2027 11:30:45.313   05 Jun 2027 11:30:45.633             0.320           159.875
       162   05 Jun 2027 11:31:19.681   05 Jun 2027 11:31:20.192             0.511           255.500
       163   06 Jun 2027 03:49:27.656   06 Jun 2027 03:52:34.751           187.095         93547.500
       164   06 Jun 2027 03:54:03.519   06 Jun 2027 03:54:08.303             4.784          2392.000
       165   06 Jun 2027 05:13:06.936   06 Jun 2027 05:14:08.314            61.378         30689.000
       166   06 Jun 2027 06:49:33.831   06 Jun 2027 06:50:34.461            60.630         29503.344
       167   06 Jun 2027 06:51:37.962   06 Jun 2027 06:51:42.504             4.542          1497.062
       168   06 Jun 2027 06:52:10.354   06 Jun 2027 06:52:12.897             2.543           637.906
       169   06 Jun 2027 08:21:43.796   06 Jun 2027 08:21:50.112             6.316          3074.344
       170   06 Jun 2027 08:23:40.625   06 Jun 2027 08:23:44.969             4.344           910.125
       171   06 Jun 2027 08:25:20.651   06 Jun 2027 08:25:24.518             3.867          1807.000
       172   06 Jun 2027 08:25:29.121   06 Jun 2027 08:25:29.121             0.000             0.000
       173   06 Jun 2027 08:25:44.951   06 Jun 2027 08:25:47.040             2.089           545.875
       174   06 Jun 2027 08:27:02.656   06 Jun 2027 08:27:05.926             3.270          1100.281
       175   06 Jun 2027 08:27:56.779   06 Jun 2027 08:28:01.126             4.347           590.375
       176   06 Jun 2027 08:28:45.724   06 Jun 2027 08:28:48.050             2.326           758.469
       177   06 Jun 2027 08:29:50.972   06 Jun 2027 08:29:54.684             3.712          1713.875
       178   06 Jun 2027 08:30:24.777   06 Jun 2027 08:30:26.383             1.606           398.375
       179   06 Jun 2027 08:31:11.115   06 Jun 2027 08:31:12.140             1.025            88.281
       180   06 Jun 2027 08:31:30.301   06 Jun 2027 08:31:31.785             1.484           319.719
       181   06 Jun 2027 10:00:38.706   06 Jun 2027 10:00:49.236            10.530          5186.844
       182   06 Jun 2027 10:03:25.882   06 Jun 2027 10:03:29.150             3.268           816.500
       183   06 Jun 2027 10:03:39.160   06 Jun 2027 10:03:40.106             0.946           312.812
       184   06 Jun 2027 10:03:45.497   06 Jun 2027 10:03:47.336             1.839           168.469
       185   06 Jun 2027 10:04:20.746   06 Jun 2027 10:04:25.715             4.969           897.438
       186   06 Jun 2027 10:05:07.838   06 Jun 2027 10:05:08.452             0.614           300.469
       187   06 Jun 2027 10:05:15.165   06 Jun 2027 10:05:16.894             1.729           209.781
       188   06 Jun 2027 10:06:36.573   06 Jun 2027 10:06:43.237             6.664          2122.781
       189   06 Jun 2027 10:07:07.805   06 Jun 2027 10:07:09.756             1.951           767.750
       190   06 Jun 2027 11:37:56.298   06 Jun 2027 11:38:08.724            12.426          5703.625
       191   06 Jun 2027 11:39:27.812   06 Jun 2027 11:39:31.339             3.527          1294.094
       192   06 Jun 2027 11:40:50.903   06 Jun 2027 11:40:53.620             2.717           549.406
       193   06 Jun 2027 11:41:08.695   06 Jun 2027 11:41:13.590             4.895           471.094
       194   06 Jun 2027 11:41:41.778   06 Jun 2027 11:41:47.420             5.642           880.875
       195   06 Jun 2027 11:42:36.561   06 Jun 2027 11:42:44.307             7.746          1359.563
       196   07 Jun 2027 04:02:41.202   07 Jun 2027 04:03:51.522            70.320         35160.000
       197   07 Jun 2027 04:04:17.846   07 Jun 2027 04:04:27.073             9.227          4613.500
       198   07 Jun 2027 05:25:14.913   07 Jun 2027 05:27:07.581           112.668         56334.000
       199   07 Jun 2027 05:28:08.528   07 Jun 2027 05:28:08.528             0.000             0.000
       200   07 Jun 2027 07:01:43.043   07 Jun 2027 07:03:41.293           118.250         58965.969
       201   07 Jun 2027 07:04:12.183   07 Jun 2027 07:04:14.513             2.330           918.094
       202   07 Jun 2027 07:04:42.516   07 Jun 2027 07:04:44.926             2.410           791.219
       203   07 Jun 2027 08:36:53.834   07 Jun 2027 08:37:02.580             8.746          3384.875
       204   07 Jun 2027 08:38:07.072   07 Jun 2027 08:38:11.049             3.977          1637.531
       205   07 Jun 2027 08:39:12.693   07 Jun 2027 08:39:16.465             3.772          1369.094
       206   07 Jun 2027 08:40:24.115   07 Jun 2027 08:40:29.207             5.092           936.500
       207   07 Jun 2027 08:42:12.372   07 Jun 2027 08:42:18.704             6.332          2358.219
       208   07 Jun 2027 08:43:01.106   07 Jun 2027 08:43:06.411             5.305          1211.844
       209   07 Jun 2027 10:13:12.881   07 Jun 2027 10:13:23.652            10.771          4936.125
       210   07 Jun 2027 10:15:20.560   07 Jun 2027 10:15:25.217             4.657           629.219
       211   07 Jun 2027 10:15:37.404   07 Jun 2027 10:15:38.808             1.404           205.406
       212   07 Jun 2027 10:15:56.699   07 Jun 2027 10:16:00.897             4.198           547.406
       213   07 Jun 2027 10:16:13.595   07 Jun 2027 10:16:16.199             2.604           182.250
       214   07 Jun 2027 10:17:00.214   07 Jun 2027 10:17:01.988             1.774           838.062
       215   07 Jun 2027 10:17:32.775   07 Jun 2027 10:17:35.561             2.786           760.406
       216   07 Jun 2027 10:18:35.571   07 Jun 2027 10:18:39.376             3.805          1593.219
       217   07 Jun 2027 11:50:36.374   07 Jun 2027 11:50:48.030            11.656          5645.219
       218   07 Jun 2027 11:52:27.688   07 Jun 2027 11:52:32.576             4.888            90.219
       219   07 Jun 2027 11:53:51.841   07 Jun 2027 11:53:56.934             5.093          2197.844
       220   07 Jun 2027 11:54:30.611   07 Jun 2027 11:54:32.726             2.115           830.594
       221   08 Jun 2027 04:13:48.965   08 Jun 2027 04:14:26.537            37.572         18786.000
       222   08 Jun 2027 04:14:55.288   08 Jun 2027 04:16:35.986           100.698         50349.000
       223   08 Jun 2027 04:17:01.564   08 Jun 2027 04:17:01.564             0.000             0.000
       224   08 Jun 2027 05:37:16.290   08 Jun 2027 05:38:13.261            56.971         28485.500
       225   08 Jun 2027 05:38:22.626   08 Jun 2027 05:38:24.187             1.561           780.500
       226   08 Jun 2027 07:13:44.114   08 Jun 2027 07:15:39.831           115.717         57702.875
       227   08 Jun 2027 07:16:13.706   08 Jun 2027 07:16:20.223             6.517           784.062
       228   08 Jun 2027 08:48:56.706   08 Jun 2027 08:49:03.183             6.477          2774.469
       229   08 Jun 2027 08:49:11.000   08 Jun 2027 08:49:22.764            11.764           128.875
       230   08 Jun 2027 08:50:32.014   08 Jun 2027 08:50:33.001             0.987           493.500
       231   08 Jun 2027 08:50:55.522   08 Jun 2027 08:51:01.972             6.450           735.875
       232   08 Jun 2027 08:51:50.369   08 Jun 2027 08:51:52.494             2.125           773.156
       233   08 Jun 2027 08:52:21.586   08 Jun 2027 08:52:26.567             4.981           667.312
       234   08 Jun 2027 08:52:59.201   08 Jun 2027 08:53:03.117             3.916          1019.812
       235   08 Jun 2027 08:53:08.257   08 Jun 2027 08:53:10.436             2.179            22.375
       236   08 Jun 2027 08:53:47.063   08 Jun 2027 08:53:52.428             5.365           930.063
       237   08 Jun 2027 08:54:21.641   08 Jun 2027 08:54:23.661             2.020           829.437
       238   08 Jun 2027 08:55:34.784   08 Jun 2027 08:55:36.321             1.537           768.500
       239   08 Jun 2027 10:24:51.913   08 Jun 2027 10:25:06.416            14.503          6001.187
       240   08 Jun 2027 10:28:11.680   08 Jun 2027 10:28:12.870             1.190           268.187
       241   08 Jun 2027 10:29:17.154   08 Jun 2027 10:29:20.102             2.948          1338.813
       242   08 Jun 2027 10:30:16.585   08 Jun 2027 10:30:25.329             8.744           582.125
       243   09 Jun 2027 04:14:49.744   09 Jun 2027 04:15:11.799            22.055         11027.500
       244   09 Jun 2027 04:25:45.835   09 Jun 2027 04:27:29.238           103.403         51701.500
       245   09 Jun 2027 04:27:32.824   09 Jun 2027 04:28:13.478            40.654         20327.000
       246   09 Jun 2027 05:49:42.743   09 Jun 2027 05:50:25.720            42.977         21488.500
       247   09 Jun 2027 07:25:27.901   09 Jun 2027 07:27:46.389           138.488         68128.218
       248   09 Jun 2027 07:28:19.214   09 Jun 2027 07:28:21.347             2.133          1025.781
       249   09 Jun 2027 07:29:00.981   09 Jun 2027 07:29:04.192             3.211          1158.344
       250   09 Jun 2027 07:29:45.707   09 Jun 2027 07:29:46.645             0.938           469.000
       251   09 Jun 2027 09:00:11.793   09 Jun 2027 09:00:20.111             8.318          2620.094
       252   09 Jun 2027 09:00:45.760   09 Jun 2027 09:00:46.977             1.217           437.437
       253   09 Jun 2027 09:01:09.710   09 Jun 2027 09:01:11.378             1.668           642.781
       254   09 Jun 2027 09:03:34.216   09 Jun 2027 09:03:38.418             4.202          1979.719
       255   09 Jun 2027 09:03:53.423   09 Jun 2027 09:03:54.141             0.718           258.375
       256   09 Jun 2027 09:04:37.278   09 Jun 2027 09:04:41.022             3.744          1237.406
       257   09 Jun 2027 09:05:21.667   09 Jun 2027 09:05:26.635             4.968           713.313
       258   09 Jun 2027 09:05:48.985   09 Jun 2027 09:05:49.339             0.354            70.844
       259   09 Jun 2027 09:06:21.656   09 Jun 2027 09:06:23.225             1.569           382.531
       260   09 Jun 2027 09:07:39.985   09 Jun 2027 09:07:44.616             4.631          2078.344
       261   09 Jun 2027 10:37:01.419   09 Jun 2027 10:37:15.709            14.290          6625.625
       262   09 Jun 2027 10:39:56.932   09 Jun 2027 10:40:00.768             3.836           470.531
       263   09 Jun 2027 10:41:09.192   09 Jun 2027 10:41:15.957             6.765          1662.437
       264   09 Jun 2027 10:41:23.328   09 Jun 2027 10:41:31.849             8.521            25.938
       265   09 Jun 2027 10:42:25.572   09 Jun 2027 10:42:30.890             5.318          1481.406
       266   09 Jun 2027 10:42:50.935   09 Jun 2027 10:42:52.727             1.792           626.406
       267   09 Jun 2027 10:42:54.684   09 Jun 2027 10:42:56.784             2.100            58.156
       268   09 Jun 2027 10:43:18.987   09 Jun 2027 10:43:20.575             1.588           247.156
       269   10 Jun 2027 03:01:02.233   10 Jun 2027 03:01:25.760            23.527         11763.500
       270   10 Jun 2027 03:02:01.049   10 Jun 2027 03:02:18.038            16.989          8494.500
       271   10 Jun 2027 03:03:09.744   10 Jun 2027 03:03:17.432             7.688          3844.000
       272   10 Jun 2027 03:05:11.750   10 Jun 2027 03:05:16.904             5.154          2577.000
       273   10 Jun 2027 03:05:43.049   10 Jun 2027 03:05:52.268             9.219          4609.500
       274   10 Jun 2027 03:06:31.019   10 Jun 2027 03:06:41.748            10.729          5364.500
       275   10 Jun 2027 03:06:55.148   10 Jun 2027 03:07:03.568             8.420          4210.000
       276   10 Jun 2027 03:07:30.515   10 Jun 2027 03:07:32.855             2.340          1170.000
       277   10 Jun 2027 03:07:41.701   10 Jun 2027 03:08:22.055            40.354         20177.000
       278   10 Jun 2027 04:26:06.593   10 Jun 2027 04:26:27.451            20.858         10429.000
       279   10 Jun 2027 04:27:29.324   10 Jun 2027 04:27:32.334             3.010          1505.000
       280   10 Jun 2027 04:37:46.484   10 Jun 2027 04:39:11.872            85.388         42694.000
       281   10 Jun 2027 06:00:17.966   10 Jun 2027 06:00:37.182            19.216          9608.000
       282   10 Jun 2027 06:01:02.586   10 Jun 2027 06:01:19.007            16.421          8210.500
       283   10 Jun 2027 06:01:59.858   10 Jun 2027 06:02:04.890             5.032          2516.000
       284   10 Jun 2027 06:02:30.565   10 Jun 2027 06:03:00.363            29.798         14899.000
       285   10 Jun 2027 06:03:26.009   10 Jun 2027 06:03:58.543            32.534         16267.000
       286   10 Jun 2027 07:35:21.201   10 Jun 2027 07:35:49.802            28.601         13528.750
       287   10 Jun 2027 07:36:32.562   10 Jun 2027 07:36:37.240             4.678           151.531
       288   10 Jun 2027 07:38:03.570   10 Jun 2027 07:38:09.539             5.969          2317.313
       289   10 Jun 2027 07:38:36.086   10 Jun 2027 07:38:36.086             0.000             0.000
       290   10 Jun 2027 07:39:02.808   10 Jun 2027 07:39:05.781             2.973          1246.406
       291   10 Jun 2027 07:40:15.623   10 Jun 2027 07:40:19.278             3.655          1827.500
       292   10 Jun 2027 07:40:44.450   10 Jun 2027 07:40:46.747             2.297          1141.688
       293   10 Jun 2027 07:41:10.956   10 Jun 2027 07:41:13.717             2.761           550.937
       294   10 Jun 2027 07:41:37.845   10 Jun 2027 07:41:39.932             2.087           728.938
       295   10 Jun 2027 07:42:04.777   10 Jun 2027 07:42:05.205             0.428           214.000
       296   10 Jun 2027 09:12:19.958   10 Jun 2027 09:12:28.312             8.354          3578.812
       297   10 Jun 2027 09:16:00.890   10 Jun 2027 09:16:02.843             1.953           711.813
       298   10 Jun 2027 09:17:09.693   10 Jun 2027 09:17:14.377             4.684          1219.656
       299   10 Jun 2027 09:17:32.967   10 Jun 2027 09:17:35.742             2.775           536.750
       300   10 Jun 2027 09:18:39.517   10 Jun 2027 09:18:43.693             4.176          1544.844
       301   10 Jun 2027 09:18:53.842   10 Jun 2027 09:18:55.473             1.631           298.812
       302   10 Jun 2027 09:19:44.397   10 Jun 2027 09:19:44.472             0.075            37.500
       303   10 Jun 2027 10:49:18.035   10 Jun 2027 10:49:28.214            10.179          4350.969
       304   10 Jun 2027 10:51:28.769   10 Jun 2027 10:51:29.120             0.351           136.844
       305   10 Jun 2027 10:52:07.296   10 Jun 2027 10:52:09.960             2.664          1193.000
       306   10 Jun 2027 10:53:02.447   10 Jun 2027 10:53:06.094             3.647           152.844
       307   10 Jun 2027 10:53:34.962   10 Jun 2027 10:53:36.780             1.818           723.031
       308   10 Jun 2027 10:54:05.234   10 Jun 2027 10:54:12.400             7.166           829.625
       309   10 Jun 2027 10:54:45.658   10 Jun 2027 10:54:50.183             4.525           954.812
       310   10 Jun 2027 10:55:19.418   10 Jun 2027 10:55:21.580             2.162           767.688
       311   10 Jun 2027 10:55:21.824   10 Jun 2027 10:55:26.353             4.529             7.625
       312   11 Jun 2027 03:13:18.489   11 Jun 2027 03:14:59.425           100.936         50468.000
       313   11 Jun 2027 03:15:20.211   11 Jun 2027 03:15:25.196             4.985          2492.500
       314   11 Jun 2027 03:15:52.499   11 Jun 2027 03:16:04.378            11.879          5939.500
       315   11 Jun 2027 03:16:20.268   11 Jun 2027 03:16:30.200             9.932          4966.000
       316   11 Jun 2027 03:16:34.175   11 Jun 2027 03:16:54.846            20.671         10335.500
       317   11 Jun 2027 03:17:01.620   11 Jun 2027 03:17:07.789             6.169          3084.500
       318   11 Jun 2027 03:17:16.547   11 Jun 2027 03:17:26.154             9.607          4803.500
       319   11 Jun 2027 03:18:22.515   11 Jun 2027 03:18:34.969            12.454          6227.000
       320   11 Jun 2027 03:19:34.223   11 Jun 2027 03:20:14.494            40.271         20135.500
       321   11 Jun 2027 04:37:27.594   11 Jun 2027 04:37:54.280            26.686         13343.000
       322   11 Jun 2027 04:49:43.848   11 Jun 2027 04:50:39.168            55.320         27660.000
       323   11 Jun 2027 06:11:42.511   11 Jun 2027 06:12:30.742            48.231         22238.875
       324   11 Jun 2027 06:13:50.562   11 Jun 2027 06:13:53.237             2.675          1337.500
       325   11 Jun 2027 06:14:29.662   11 Jun 2027 06:14:29.662             0.000             0.000
       326   11 Jun 2027 06:15:02.167   11 Jun 2027 06:15:07.068             4.901          2449.688
       327   11 Jun 2027 06:16:16.959   11 Jun 2027 06:16:19.863             2.904          1452.000
       328   11 Jun 2027 06:16:22.254   11 Jun 2027 06:16:26.687             4.433           759.437
       329   11 Jun 2027 06:16:52.588   11 Jun 2027 06:16:54.607             2.019           809.406
       330   11 Jun 2027 07:46:45.474   11 Jun 2027 07:46:48.271             2.797          1398.500
       331   11 Jun 2027 07:46:58.853   11 Jun 2027 07:47:04.316             5.463           692.937
       332   11 Jun 2027 07:48:46.580   11 Jun 2027 07:48:49.187             2.607          1226.813
       333   11 Jun 2027 07:49:45.127   11 Jun 2027 07:49:49.008             3.881          1417.688
       334   11 Jun 2027 07:50:36.882   11 Jun 2027 07:50:41.040             4.158           889.531
       335   11 Jun 2027 07:52:10.888   11 Jun 2027 07:52:15.897             5.009          2360.594
       336   11 Jun 2027 07:52:30.438   11 Jun 2027 07:52:37.151             6.713           454.406
       337   11 Jun 2027 07:53:07.861   11 Jun 2027 07:53:09.964             2.103           403.313
       338   11 Jun 2027 07:53:28.590   11 Jun 2027 07:53:31.151             2.561           513.437
       339   11 Jun 2027 07:54:53.857   11 Jun 2027 07:55:00.418             6.561          1693.375
       340   11 Jun 2027 09:24:21.957   11 Jun 2027 09:24:30.651             8.694          3567.875
       341   11 Jun 2027 09:25:14.550   11 Jun 2027 09:25:19.485             4.935          1180.938
       342   11 Jun 2027 09:27:28.637   11 Jun 2027 09:27:32.760             4.123          1834.875
       343   11 Jun 2027 09:28:05.511   11 Jun 2027 09:28:12.267             6.756           280.500
       344   11 Jun 2027 09:28:23.676   11 Jun 2027 09:28:27.853             4.177           146.406
       345   11 Jun 2027 09:29:21.835   11 Jun 2027 09:29:26.955             5.120          1550.344
       346   11 Jun 2027 09:30:58.860   11 Jun 2027 09:31:07.870             9.010          2143.438
       347   11 Jun 2027 11:01:07.895   11 Jun 2027 11:01:18.712            10.817          5239.281
       348   11 Jun 2027 11:03:30.002   11 Jun 2027 11:03:34.434             4.432          1624.750
       349   11 Jun 2027 11:05:22.670   11 Jun 2027 11:05:30.734             8.064          1271.156
       350   11 Jun 2027 11:06:00.775   11 Jun 2027 11:06:02.680             1.905           937.812
       351   11 Jun 2027 11:06:38.714   11 Jun 2027 11:06:40.844             2.130           969.219
       352   11 Jun 2027 11:07:24.804   11 Jun 2027 11:07:27.357             2.553          1034.031
       353   12 Jun 2027 03:25:24.879   12 Jun 2027 03:28:08.308           163.429         81714.500
       354   12 Jun 2027 03:29:18.392   12 Jun 2027 03:29:20.252             1.860           930.000
       355   12 Jun 2027 03:29:48.550   12 Jun 2027 03:30:07.256            18.706          9353.000
       356   12 Jun 2027 03:31:15.626   12 Jun 2027 03:31:25.566             9.940          4970.000
       357   12 Jun 2027 04:49:35.475   12 Jun 2027 04:50:18.667            43.192         21596.000
       358   12 Jun 2027 05:02:08.288   12 Jun 2027 05:02:10.699             2.411          1205.500
       359   12 Jun 2027 06:23:24.986   12 Jun 2027 06:24:50.353            85.367         41727.500
       360   12 Jun 2027 06:25:05.069   12 Jun 2027 06:25:05.069             0.000             0.000
       361   12 Jun 2027 06:25:23.994   12 Jun 2027 06:25:27.999             4.005           819.312
       362   12 Jun 2027 06:25:58.196   12 Jun 2027 06:25:59.235             1.039           198.469
       363   12 Jun 2027 06:26:20.569   12 Jun 2027 06:26:26.370             5.801           404.781
       364   12 Jun 2027 06:26:35.380   12 Jun 2027 06:26:37.131             1.751           281.563
       365   12 Jun 2027 06:27:55.759   12 Jun 2027 06:27:59.387             3.628          1647.344
       366   12 Jun 2027 06:28:14.134   12 Jun 2027 06:28:17.002             2.868            95.406
       367   12 Jun 2027 06:28:25.330   12 Jun 2027 06:28:27.288             1.958            92.812
       368   12 Jun 2027 07:58:17.052   12 Jun 2027 07:58:23.128             6.076          2691.406
       369   12 Jun 2027 07:58:51.114   12 Jun 2027 07:58:56.776             5.662           310.344
       370   12 Jun 2027 08:00:39.755   12 Jun 2027 08:00:41.104             1.349           153.312
       371   12 Jun 2027 08:01:54.838   12 Jun 2027 08:01:59.288             4.450          1601.781
       372   12 Jun 2027 08:03:07.840   12 Jun 2027 08:03:11.151             3.311           841.187
       373   12 Jun 2027 08:04:33.563   12 Jun 2027 08:04:35.977             2.414           561.062
       374   12 Jun 2027 08:05:34.361   12 Jun 2027 08:05:38.285             3.924          1185.813
       375   12 Jun 2027 08:06:15.570   12 Jun 2027 08:06:19.026             3.456          1165.156
       376   12 Jun 2027 08:07:03.646   12 Jun 2027 08:07:12.447             8.801          1147.625
       377   12 Jun 2027 09:36:22.745   12 Jun 2027 09:36:33.327            10.582          4988.844
       378   12 Jun 2027 09:39:15.784   12 Jun 2027 09:39:20.033             4.249          1475.531
       379   12 Jun 2027 09:40:01.280   12 Jun 2027 09:40:04.757             3.477           646.375
       380   12 Jun 2027 09:41:39.310   12 Jun 2027 09:41:43.402             4.092          1969.594
       381   12 Jun 2027 09:41:51.095   12 Jun 2027 09:41:52.763             1.668            50.781
       382   12 Jun 2027 09:43:03.489   12 Jun 2027 09:43:05.772             2.283          1082.719
       383   12 Jun 2027 09:43:17.517   12 Jun 2027 09:43:21.893             4.376            13.750
       384   12 Jun 2027 09:43:29.814   12 Jun 2027 09:43:33.245             3.431           230.719
       385   12 Jun 2027 11:13:17.018   12 Jun 2027 11:13:33.390            16.372          8137.937
       386   12 Jun 2027 11:14:51.388   12 Jun 2027 11:14:58.834             7.446           905.625
       387   12 Jun 2027 11:15:53.094   12 Jun 2027 11:15:53.924             0.830           229.875
       388   12 Jun 2027 11:17:13.425   12 Jun 2027 11:17:17.856             4.431          1647.469
       389   12 Jun 2027 11:17:43.612   12 Jun 2027 11:17:44.361             0.749           340.250
       390   12 Jun 2027 11:17:49.603   12 Jun 2027 11:17:53.507             3.904            63.375
       391   12 Jun 2027 11:18:08.911   12 Jun 2027 11:18:09.845             0.934           240.656
       392   12 Jun 2027 11:18:59.007   12 Jun 2027 11:19:02.048             3.041           908.250
       393   12 Jun 2027 11:19:32.360   12 Jun 2027 11:19:39.010             6.650           537.688
       394   13 Jun 2027 03:38:02.437   13 Jun 2027 03:41:27.509           205.072        102536.000
       395   13 Jun 2027 03:42:34.595   13 Jun 2027 03:42:43.580             8.985          4492.500
       396   13 Jun 2027 05:01:31.669   13 Jun 2027 05:02:06.259            34.590         17295.000
       397   13 Jun 2027 05:02:21.444   13 Jun 2027 05:02:21.444             0.000             0.000
       398   13 Jun 2027 06:37:44.341   13 Jun 2027 06:39:12.028            87.687         43760.812
       399   13 Jun 2027 06:39:57.529   13 Jun 2027 06:40:02.401             4.872          1363.656
       400   13 Jun 2027 06:40:20.351   13 Jun 2027 06:40:24.663             4.312           318.281
       401   13 Jun 2027 06:40:28.550   13 Jun 2027 06:40:28.550             0.000             0.000
       402   13 Jun 2027 06:40:50.737   13 Jun 2027 06:40:52.663             1.926           814.812
       403   13 Jun 2027 08:11:17.631   13 Jun 2027 08:11:23.629             5.998          2367.906
       404   13 Jun 2027 08:12:35.342   13 Jun 2027 08:12:39.826             4.484          2241.031
       405   13 Jun 2027 08:13:43.480   13 Jun 2027 08:13:45.758             2.278          1053.250
       406   13 Jun 2027 08:14:30.481   13 Jun 2027 08:14:33.850             3.369          1214.469
       407   13 Jun 2027 08:15:12.652   13 Jun 2027 08:15:16.395             3.743           927.438
       408   13 Jun 2027 08:16:36.552   13 Jun 2027 08:16:38.136             1.584           684.063
       409   13 Jun 2027 08:18:04.230   13 Jun 2027 08:18:10.954             6.724          2080.719
       410   13 Jun 2027 08:18:28.137   13 Jun 2027 08:18:29.625             1.488           422.250
       411   13 Jun 2027 08:18:33.648   13 Jun 2027 08:18:37.591             3.943            43.000
       412   13 Jun 2027 08:19:48.841   13 Jun 2027 08:19:51.453             2.612          1065.969
       413   13 Jun 2027 09:48:48.688   13 Jun 2027 09:49:00.019            11.331          4574.469
       414   13 Jun 2027 09:52:34.091   13 Jun 2027 09:52:40.617             6.526          3006.656
       415   13 Jun 2027 09:53:58.441   13 Jun 2027 09:54:04.046             5.605           340.125
       416   13 Jun 2027 09:55:09.422   13 Jun 2027 09:55:11.321             1.899           924.000
       417   13 Jun 2027 11:25:44.936   13 Jun 2027 11:25:58.294            13.358          5865.219
       418   13 Jun 2027 11:28:46.611   13 Jun 2027 11:28:53.250             6.639          1967.563
       419   13 Jun 2027 11:29:00.574   13 Jun 2027 11:29:02.192             1.618           228.875
       420   13 Jun 2027 11:30:10.093   13 Jun 2027 11:30:14.669             4.576          2019.687
       421   13 Jun 2027 11:31:00.497   13 Jun 2027 11:31:04.714             4.217          1334.000
