uniorb/output/strategy_4/Camera/Camera_KinoSat_110804.txt

KinoSat_110804
-------------------------
    Access    *     Start Time (UTCG)     *     Stop Time (UTCG)  *   Duration (s) *   Data (Mbytes)
         1   01 Jun 2027 03:43:43.998   01 Jun 2027 03:44:44.677            60.679         30339.500
         2   01 Jun 2027 03:45:25.473   01 Jun 2027 03:45:56.590            31.117         15558.500
         3   01 Jun 2027 03:47:11.439   01 Jun 2027 03:47:22.828            11.389          5694.500
         4   01 Jun 2027 03:47:58.178   01 Jun 2027 03:47:58.744             0.566           283.000
         5   01 Jun 2027 03:48:11.890   01 Jun 2027 03:48:20.640             8.750          4375.000
         6   01 Jun 2027 05:18:47.573   01 Jun 2027 05:20:05.896            78.323         39161.500
         7   01 Jun 2027 05:20:37.832   01 Jun 2027 05:21:09.431            31.599         15799.500
         8   01 Jun 2027 05:24:12.269   01 Jun 2027 05:24:30.062            17.793          8896.500
         9   01 Jun 2027 05:24:39.625   01 Jun 2027 05:24:57.087            17.462          8731.000
        10   01 Jun 2027 05:25:24.651   01 Jun 2027 05:25:30.991             6.340          3170.000
        11   01 Jun 2027 06:55:45.682   01 Jun 2027 06:57:25.154            99.472         49736.000
        12   01 Jun 2027 06:57:57.071   01 Jun 2027 06:58:21.032            23.961         11980.500
        13   01 Jun 2027 08:32:43.825   01 Jun 2027 08:35:03.357           139.532         69766.000
        14   01 Jun 2027 08:36:07.910   01 Jun 2027 08:36:12.703             4.793          2396.500
        15   01 Jun 2027 08:36:20.207   01 Jun 2027 08:36:32.280            12.073          6036.500
        16   01 Jun 2027 08:38:06.864   01 Jun 2027 08:38:12.098             5.234          2617.000
        17   01 Jun 2027 10:10:38.762   01 Jun 2027 10:13:20.168           161.406         80703.000
        18   01 Jun 2027 10:14:07.825   01 Jun 2027 10:14:14.561             6.736          3368.000
        19   01 Jun 2027 11:43:57.889   01 Jun 2027 11:45:49.290           111.401         55700.500
        20   01 Jun 2027 11:46:23.470   01 Jun 2027 11:46:23.470             0.000             0.000
        21   01 Jun 2027 11:47:02.310   01 Jun 2027 11:47:12.296             9.986          4993.000
        22   01 Jun 2027 11:51:33.689   01 Jun 2027 11:51:37.572             3.883          1941.500
        23   02 Jun 2027 03:55:08.320   02 Jun 2027 03:55:38.014            29.694         14847.000
        24   02 Jun 2027 03:59:15.369   02 Jun 2027 03:59:26.092            10.723          5361.500
        25   02 Jun 2027 05:30:12.499   02 Jun 2027 05:33:07.688           175.189         87594.500
        26   02 Jun 2027 05:33:52.595   02 Jun 2027 05:33:52.595             0.000             0.000
        27   02 Jun 2027 05:35:06.687   02 Jun 2027 05:35:10.807             4.120          2060.000
        28   02 Jun 2027 05:36:18.050   02 Jun 2027 05:36:22.258             4.208          2104.000
        29   02 Jun 2027 07:07:48.388   02 Jun 2027 07:11:13.688           205.300        102650.000
        30   02 Jun 2027 07:12:51.284   02 Jun 2027 07:13:03.206            11.922          5961.000
        31   02 Jun 2027 07:14:12.253   02 Jun 2027 07:14:47.415            35.162         17581.000
        32   02 Jun 2027 08:44:33.390   02 Jun 2027 08:47:45.673           192.283         96141.500
        33   02 Jun 2027 08:48:20.196   02 Jun 2027 08:48:30.934            10.738          5369.000
        34   02 Jun 2027 08:48:47.197   02 Jun 2027 08:49:25.544            38.347         19173.500
        35   02 Jun 2027 08:50:54.220   02 Jun 2027 08:51:12.534            18.314          8027.063
        36   02 Jun 2027 10:22:38.131   02 Jun 2027 10:23:08.271            30.140         14528.344
        37   02 Jun 2027 10:25:49.574   02 Jun 2027 10:25:51.058             1.484            40.219
        38   02 Jun 2027 10:26:16.770   02 Jun 2027 10:26:18.313             1.543           340.906
        39   02 Jun 2027 11:56:24.214   02 Jun 2027 11:56:31.891             7.677           582.781
        40   03 Jun 2027 04:06:50.267   03 Jun 2027 04:07:20.053            29.786         14893.000
        41   03 Jun 2027 04:07:25.335   03 Jun 2027 04:07:43.254            17.919          8959.500
        42   03 Jun 2027 04:08:11.170   03 Jun 2027 04:08:11.170             0.000             0.000
        43   03 Jun 2027 04:11:06.657   03 Jun 2027 04:11:10.334             3.677          1838.500
        44   03 Jun 2027 04:11:14.108   03 Jun 2027 04:11:27.644            13.536          6768.000
        45   03 Jun 2027 05:41:43.006   03 Jun 2027 05:42:45.889            62.883         31441.500
        46   03 Jun 2027 05:43:59.271   03 Jun 2027 05:45:02.357            63.086         31543.000
        47   03 Jun 2027 05:45:37.198   03 Jun 2027 05:45:57.754            20.556         10278.000
        48   03 Jun 2027 05:47:47.319   03 Jun 2027 05:47:53.888             6.569          3284.500
        49   03 Jun 2027 05:49:32.915   03 Jun 2027 05:49:43.990            11.075          5537.500
        50   03 Jun 2027 05:50:40.328   03 Jun 2027 05:50:56.473            16.145          8072.500
        51   03 Jun 2027 07:19:48.265   03 Jun 2027 07:21:37.808           109.543         53691.312
        52   03 Jun 2027 07:22:10.491   03 Jun 2027 07:22:18.315             7.824           720.813
        53   03 Jun 2027 07:23:15.018   03 Jun 2027 07:23:20.983             5.965          1475.563
        54   03 Jun 2027 07:23:48.321   03 Jun 2027 07:23:50.344             2.023           823.406
        55   03 Jun 2027 07:24:48.447   03 Jun 2027 07:24:52.689             4.242          1612.250
        56   03 Jun 2027 07:25:20.401   03 Jun 2027 07:25:24.658             4.257           793.438
        57   03 Jun 2027 08:56:41.594   03 Jun 2027 08:56:50.571             8.977          4429.844
        58   03 Jun 2027 08:59:00.401   03 Jun 2027 08:59:01.676             1.275           175.156
        59   03 Jun 2027 09:01:02.020   03 Jun 2027 09:01:04.710             2.690           392.406
        60   03 Jun 2027 09:01:31.370   03 Jun 2027 09:01:35.344             3.974           615.031
        61   03 Jun 2027 09:02:09.409   03 Jun 2027 09:02:11.797             2.388           814.812
        62   03 Jun 2027 09:02:47.866   03 Jun 2027 09:02:49.126             1.260           288.375
        63   03 Jun 2027 10:33:51.237   03 Jun 2027 10:34:04.587            13.350          6497.250
        64   03 Jun 2027 10:35:22.981   03 Jun 2027 10:35:27.398             4.417           714.250
        65   03 Jun 2027 10:37:10.725   03 Jun 2027 10:37:22.497            11.772          1415.156
        66   03 Jun 2027 10:38:18.879   03 Jun 2027 10:38:21.176             2.297           447.750
        67   03 Jun 2027 10:38:44.226   03 Jun 2027 10:38:44.598             0.372           156.500
        68   04 Jun 2027 04:21:09.381   04 Jun 2027 04:22:06.747            57.366         28683.000
        69   04 Jun 2027 04:22:17.534   04 Jun 2027 04:22:43.622            26.088         13044.000
        70   04 Jun 2027 05:54:42.687   04 Jun 2027 05:57:13.275           150.588         75294.000
        71   04 Jun 2027 06:00:59.536   04 Jun 2027 06:01:31.864            32.328         16164.000
        72   04 Jun 2027 06:01:53.448   04 Jun 2027 06:02:19.624            26.176         13088.000
        73   04 Jun 2027 06:02:55.685   04 Jun 2027 06:03:04.636             8.951          4475.500
        74   04 Jun 2027 06:03:15.145   04 Jun 2027 06:03:16.382             1.237           618.500
        75   04 Jun 2027 07:32:10.844   04 Jun 2027 07:32:36.329            25.485         12288.219
        76   04 Jun 2027 07:34:06.840   04 Jun 2027 07:34:07.471             0.631           302.531
        77   04 Jun 2027 07:36:39.361   04 Jun 2027 07:36:39.992             0.631           206.281
        78   04 Jun 2027 07:37:52.581   04 Jun 2027 07:37:53.865             1.284           150.094
        79   04 Jun 2027 07:38:12.269   04 Jun 2027 07:38:17.858             5.589           431.750
        80   04 Jun 2027 07:38:48.050   04 Jun 2027 07:38:50.477             2.427           622.031
        81   04 Jun 2027 09:09:09.814   04 Jun 2027 09:09:23.336            13.522          5618.438
        82   04 Jun 2027 09:11:00.510   04 Jun 2027 09:11:04.872             4.362           107.563
        83   04 Jun 2027 09:12:28.294   04 Jun 2027 09:12:30.513             2.219          1094.688
        84   04 Jun 2027 09:13:27.077   04 Jun 2027 09:13:29.500             2.423          1129.875
        85   04 Jun 2027 09:13:45.421   04 Jun 2027 09:13:46.547             1.126            23.844
        86   04 Jun 2027 10:46:03.843   04 Jun 2027 10:46:18.749            14.906          6232.500
        87   04 Jun 2027 10:48:26.216   04 Jun 2027 10:48:29.678             3.462           144.469
        88   04 Jun 2027 10:49:54.995   04 Jun 2027 10:49:57.326             2.331           176.062
        89   04 Jun 2027 10:50:24.471   04 Jun 2027 10:50:30.349             5.878           165.844
        90   05 Jun 2027 04:33:14.602   05 Jun 2027 04:35:12.195           117.593         58796.500
        91   05 Jun 2027 04:36:02.419   05 Jun 2027 04:36:37.583            35.164         17582.000
        92   05 Jun 2027 06:05:24.627   05 Jun 2027 06:05:33.990             9.363          4681.500
        93   05 Jun 2027 06:07:21.604   05 Jun 2027 06:09:27.326           125.722         62861.000
        94   05 Jun 2027 06:09:52.212   05 Jun 2027 06:10:01.158             8.946          3184.968
        95   05 Jun 2027 06:12:34.479   05 Jun 2027 06:12:42.435             7.956          2930.844
        96   05 Jun 2027 06:13:06.448   05 Jun 2027 06:13:06.448             0.000             0.000
        97   05 Jun 2027 06:13:13.110   05 Jun 2027 06:13:19.392             6.282           958.594
        98   05 Jun 2027 06:14:05.808   05 Jun 2027 06:14:09.488             3.680          1420.656
        99   05 Jun 2027 06:14:22.719   05 Jun 2027 06:14:24.841             2.122            95.031
       100   05 Jun 2027 06:15:06.777   05 Jun 2027 06:15:06.777             0.000             0.000
       101   05 Jun 2027 06:15:10.616   05 Jun 2027 06:15:10.625             0.009             4.500
       102   05 Jun 2027 07:44:19.907   05 Jun 2027 07:44:22.525             2.618           947.687
       103   05 Jun 2027 07:49:59.331   05 Jun 2027 07:50:01.420             2.089           187.469
       104   05 Jun 2027 07:50:38.566   05 Jun 2027 07:50:45.049             6.483          1013.312
       105   05 Jun 2027 09:21:38.913   05 Jun 2027 09:21:55.640            16.727          5254.750
       106   05 Jun 2027 09:26:17.435   05 Jun 2027 09:26:21.141             3.706           743.500
       107   05 Jun 2027 10:58:05.090   05 Jun 2027 10:58:18.933            13.843          6644.656
       108   05 Jun 2027 11:02:25.121   05 Jun 2027 11:02:26.968             1.847           217.250
       109   06 Jun 2027 03:08:59.822   06 Jun 2027 03:09:12.353            12.531          6265.500
       110   06 Jun 2027 03:11:29.897   06 Jun 2027 03:11:48.589            18.692          9346.000
       111   06 Jun 2027 04:45:24.096   06 Jun 2027 04:48:40.425           196.329         98164.500
       112   06 Jun 2027 06:20:34.913   06 Jun 2027 06:21:58.085            83.172         40977.531
       113   06 Jun 2027 06:22:37.091   06 Jun 2027 06:22:40.673             3.582          1143.469
       114   06 Jun 2027 06:23:21.893   06 Jun 2027 06:23:23.306             1.413           154.813
       115   06 Jun 2027 06:23:51.908   06 Jun 2027 06:23:55.086             3.178           888.313
       116   06 Jun 2027 06:25:10.049   06 Jun 2027 06:25:15.335             5.286          2253.719
       117   06 Jun 2027 06:26:21.884   06 Jun 2027 06:26:27.033             5.149          1825.312
       118   06 Jun 2027 06:26:37.296   06 Jun 2027 06:26:38.666             1.370           277.375
       119   06 Jun 2027 06:27:04.534   06 Jun 2027 06:27:08.944             4.410           677.156
       120   06 Jun 2027 07:56:53.785   06 Jun 2027 07:56:59.787             6.002          1063.438
       121   06 Jun 2027 08:01:49.446   06 Jun 2027 08:01:51.648             2.202            97.281
       122   06 Jun 2027 08:02:17.513   06 Jun 2027 08:02:19.095             1.582           329.344
       123   06 Jun 2027 09:34:17.054   06 Jun 2027 09:34:28.160            11.106          5391.687
       124   06 Jun 2027 09:38:12.816   06 Jun 2027 09:38:16.451             3.635            70.938
       125   06 Jun 2027 09:38:22.173   06 Jun 2027 09:38:22.925             0.752            34.062
       126   06 Jun 2027 11:10:28.004   06 Jun 2027 11:10:39.180            11.176          5452.875
       127   06 Jun 2027 11:14:37.468   06 Jun 2027 11:14:39.866             2.398           222.094
       128   07 Jun 2027 03:20:56.827   07 Jun 2027 03:21:14.640            17.813          8906.500
       129   07 Jun 2027 03:21:24.382   07 Jun 2027 03:21:29.348             4.966          2483.000
       130   07 Jun 2027 03:23:15.704   07 Jun 2027 03:23:15.704             0.000             0.000
       131   07 Jun 2027 04:57:24.373   07 Jun 2027 05:00:46.973           202.600        101300.000
       132   07 Jun 2027 06:32:37.267   07 Jun 2027 06:33:58.149            80.882         39823.844
       133   07 Jun 2027 06:35:03.529   07 Jun 2027 06:35:07.540             4.011          1667.969
       134   07 Jun 2027 06:35:26.647   07 Jun 2027 06:35:28.372             1.725            73.906
       135   07 Jun 2027 06:35:51.135   07 Jun 2027 06:35:53.986             2.851           669.531
       136   07 Jun 2027 06:37:26.522   07 Jun 2027 06:37:32.958             6.436           511.687
       137   07 Jun 2027 06:38:20.724   07 Jun 2027 06:38:20.724             0.000             0.000
       138   07 Jun 2027 06:38:39.198   07 Jun 2027 06:38:42.073             2.875           635.938
       139   07 Jun 2027 08:08:32.570   07 Jun 2027 08:08:35.365             2.795           867.281
       140   07 Jun 2027 08:10:15.575   07 Jun 2027 08:10:19.602             4.027           942.594
       141   07 Jun 2027 09:46:32.073   07 Jun 2027 09:46:42.864            10.791          5327.000
       142   07 Jun 2027 09:50:19.803   07 Jun 2027 09:50:23.771             3.968           702.875
       143   07 Jun 2027 09:50:48.561   07 Jun 2027 09:50:51.430             2.869           722.000
       144   07 Jun 2027 11:22:23.223   07 Jun 2027 11:22:34.162            10.939          5293.531
       145   08 Jun 2027 03:33:23.020   08 Jun 2027 03:33:27.621             4.601          2300.500
       146   08 Jun 2027 03:34:21.483   08 Jun 2027 03:34:26.446             4.963          2481.500
       147   08 Jun 2027 03:35:54.506   08 Jun 2027 03:35:58.440             3.934          1967.000
       148   08 Jun 2027 05:09:08.458   08 Jun 2027 05:11:05.874           117.416         58708.000
       149   08 Jun 2027 05:11:09.923   08 Jun 2027 05:12:24.736            74.813         37406.500
       150   08 Jun 2027 05:13:17.804   08 Jun 2027 05:13:29.858            12.054          6027.000
       151   08 Jun 2027 06:43:52.346   08 Jun 2027 06:45:18.791            86.445         42757.032
       152   08 Jun 2027 06:45:40.328   08 Jun 2027 06:45:41.991             1.663           539.469
       153   08 Jun 2027 06:46:22.674   08 Jun 2027 06:46:27.080             4.406           391.094
       154   08 Jun 2027 06:47:06.888   08 Jun 2027 06:47:08.696             1.808           492.094
       155   08 Jun 2027 06:47:26.467   08 Jun 2027 06:47:29.918             3.451           554.375
       156   08 Jun 2027 06:48:35.893   08 Jun 2027 06:48:41.908             6.015          2061.719
       157   08 Jun 2027 06:49:29.478   08 Jun 2027 06:49:33.179             3.701           618.625
       158   08 Jun 2027 06:50:11.485   08 Jun 2027 06:50:14.755             3.270           345.313
       159   08 Jun 2027 08:20:41.955   08 Jun 2027 08:20:46.940             4.985          2424.844
       160   08 Jun 2027 08:26:07.546   08 Jun 2027 08:26:12.895             5.349           579.063
       161   08 Jun 2027 09:58:54.172   08 Jun 2027 09:59:06.693            12.521          6102.094
       162   08 Jun 2027 10:00:45.330   08 Jun 2027 10:00:47.082             1.752           695.062
       163   08 Jun 2027 10:01:07.528   08 Jun 2027 10:01:11.329             3.801           625.781
       164   08 Jun 2027 10:02:06.627   08 Jun 2027 10:02:11.636             5.009           118.875
       165   08 Jun 2027 10:02:28.249   08 Jun 2027 10:02:29.482             1.233           465.656
       166   08 Jun 2027 10:02:38.143   08 Jun 2027 10:02:38.282             0.139            23.812
       167   08 Jun 2027 11:32:11.970   08 Jun 2027 11:32:25.396            13.426          6310.281
       168   09 Jun 2027 03:43:58.272   09 Jun 2027 03:44:00.960             2.688          1344.000
       169   09 Jun 2027 03:44:12.783   09 Jun 2027 03:44:17.030             4.247          2123.500
       170   09 Jun 2027 03:45:51.804   09 Jun 2027 03:46:21.485            29.681         14840.500
       171   09 Jun 2027 05:19:01.712   09 Jun 2027 05:19:48.649            46.937         23468.500
       172   09 Jun 2027 05:20:52.376   09 Jun 2027 05:21:44.331            51.955         25977.500
       173   09 Jun 2027 05:22:28.557   09 Jun 2027 05:23:29.458            60.901         30450.500
       174   09 Jun 2027 05:24:05.675   09 Jun 2027 05:24:10.145             4.470          2235.000
       175   09 Jun 2027 05:25:17.111   09 Jun 2027 05:25:34.179            17.068          8534.000
       176   09 Jun 2027 06:56:00.406   09 Jun 2027 06:57:54.364           113.958         56060.937
       177   09 Jun 2027 06:58:42.551   09 Jun 2027 06:58:42.756             0.205            51.750
       178   09 Jun 2027 06:59:02.350   09 Jun 2027 06:59:06.403             4.053           576.250
       179   09 Jun 2027 06:59:33.259   09 Jun 2027 06:59:33.259             0.000             0.000
       180   09 Jun 2027 06:59:56.997   09 Jun 2027 06:59:59.005             2.008           893.781
       181   09 Jun 2027 07:00:46.409   09 Jun 2027 07:00:53.415             7.006           549.156
       182   09 Jun 2027 07:01:32.298   09 Jun 2027 07:01:32.298             0.000             0.000
       183   09 Jun 2027 07:02:06.384   09 Jun 2027 07:02:11.242             4.858          1807.125
       184   09 Jun 2027 07:02:30.992   09 Jun 2027 07:02:33.973             2.981           457.750
       185   09 Jun 2027 08:32:58.467   09 Jun 2027 08:33:04.366             5.899          2008.187
       186   09 Jun 2027 08:36:42.517   09 Jun 2027 08:36:45.129             2.612          1278.219
       187   09 Jun 2027 08:38:21.986   09 Jun 2027 08:38:28.088             6.102           250.312
       188   09 Jun 2027 08:38:42.980   09 Jun 2027 08:38:43.703             0.723           264.531
       189   09 Jun 2027 10:10:53.877   09 Jun 2027 10:11:09.280            15.403          7023.750
       190   09 Jun 2027 10:12:08.408   09 Jun 2027 10:12:13.008             4.600          1704.031
       191   09 Jun 2027 10:12:25.152   09 Jun 2027 10:12:28.781             3.629           286.438
       192   09 Jun 2027 10:12:44.610   09 Jun 2027 10:12:50.243             5.633           494.656
       193   09 Jun 2027 10:14:15.448   09 Jun 2027 10:14:18.443             2.995           841.813
       194   09 Jun 2027 10:14:30.525   09 Jun 2027 10:14:31.727             1.202            49.875
       195   09 Jun 2027 10:14:33.197   09 Jun 2027 10:14:35.289             2.092            45.937
       196   09 Jun 2027 10:14:44.721   09 Jun 2027 10:14:45.987             1.266           255.813
       197   09 Jun 2027 11:44:13.657   09 Jun 2027 11:44:23.629             9.972          4595.750
       198   10 Jun 2027 03:55:22.822   10 Jun 2027 03:55:35.170            12.348          6174.000
       199   10 Jun 2027 03:57:41.590   10 Jun 2027 03:57:47.656             6.066          3033.000
       200   10 Jun 2027 03:59:34.605   10 Jun 2027 03:59:40.367             5.762          2881.000
       201   10 Jun 2027 05:30:26.402   10 Jun 2027 05:33:14.209           167.807         83903.500
       202   10 Jun 2027 05:34:08.465   10 Jun 2027 05:34:13.352             4.887          2443.500
       203   10 Jun 2027 05:35:33.640   10 Jun 2027 05:35:36.978             3.338          1669.000
       204   10 Jun 2027 05:35:44.094   10 Jun 2027 05:35:49.717             5.623          2811.500
       205   10 Jun 2027 05:37:47.618   10 Jun 2027 05:37:54.164             6.546          3273.000
       206   10 Jun 2027 07:08:02.360   10 Jun 2027 07:10:04.397           122.037         60692.844
       207   10 Jun 2027 07:10:32.844   10 Jun 2027 07:10:35.311             2.467           315.406
       208   10 Jun 2027 07:11:30.043   10 Jun 2027 07:11:34.984             4.941          1130.812
       209   10 Jun 2027 07:12:03.807   10 Jun 2027 07:12:05.533             1.726           849.469
       210   10 Jun 2027 07:12:30.908   10 Jun 2027 07:12:31.911             1.003           305.281
       211   10 Jun 2027 07:13:31.307   10 Jun 2027 07:13:34.969             3.662          1198.687
       212   10 Jun 2027 07:14:03.605   10 Jun 2027 07:14:06.800             3.195           894.875
       213   10 Jun 2027 07:15:02.064   10 Jun 2027 07:15:04.958             2.894          1349.031
       214   10 Jun 2027 08:44:48.168   10 Jun 2027 08:44:57.156             8.988          4065.719
       215   10 Jun 2027 08:45:49.943   10 Jun 2027 08:45:51.507             1.564           278.594
       216   10 Jun 2027 08:47:58.661   10 Jun 2027 08:48:02.904             4.243          1289.375
       217   10 Jun 2027 08:48:35.419   10 Jun 2027 08:48:39.494             4.075           496.531
       218   10 Jun 2027 08:49:02.439   10 Jun 2027 08:49:07.099             4.660           538.000
       219   10 Jun 2027 08:49:53.105   10 Jun 2027 08:49:56.702             3.597           382.719
       220   10 Jun 2027 08:50:22.201   10 Jun 2027 08:50:22.411             0.210            75.594
       221   10 Jun 2027 08:51:08.954   10 Jun 2027 08:51:11.159             2.205           612.531
       222   10 Jun 2027 10:22:53.119   10 Jun 2027 10:23:11.664            18.545          6043.594
       223   10 Jun 2027 10:23:32.830   10 Jun 2027 10:23:37.135             4.305           428.188
       224   10 Jun 2027 10:26:06.826   10 Jun 2027 10:26:12.870             6.044           150.531
       225   10 Jun 2027 10:26:32.254   10 Jun 2027 10:26:36.108             3.854           280.562
       226   10 Jun 2027 11:56:40.078   10 Jun 2027 11:56:43.886             3.808           586.906
       227   11 Jun 2027 04:07:05.108   11 Jun 2027 04:07:36.804            31.696         15848.000
       228   11 Jun 2027 04:08:26.021   11 Jun 2027 04:08:37.984            11.963          5981.500
       229   11 Jun 2027 05:41:57.474   11 Jun 2027 05:43:00.188            62.714         31357.000
       230   11 Jun 2027 05:44:13.678   11 Jun 2027 05:45:47.617            93.939         46969.500
       231   11 Jun 2027 05:47:27.543   11 Jun 2027 05:47:30.189             2.646          1323.000
       232   11 Jun 2027 05:48:23.750   11 Jun 2027 05:48:28.812             5.062          2531.000
       233   11 Jun 2027 05:49:22.617   11 Jun 2027 05:49:22.617             0.000             0.000
       234   11 Jun 2027 05:50:03.413   11 Jun 2027 05:50:13.291             9.878          4939.000
       235   11 Jun 2027 05:51:01.830   11 Jun 2027 05:51:11.746             9.916          4958.000
       236   11 Jun 2027 07:20:02.939   11 Jun 2027 07:22:00.029           117.090         56970.938
       237   11 Jun 2027 07:22:27.042   11 Jun 2027 07:22:33.095             6.053           736.250
       238   11 Jun 2027 07:23:39.978   11 Jun 2027 07:23:45.142             5.164          1796.563
       239   11 Jun 2027 07:25:03.755   11 Jun 2027 07:25:08.654             4.899          1855.750
       240   11 Jun 2027 07:25:37.446   11 Jun 2027 07:25:39.954             2.508           815.656
       241   11 Jun 2027 08:56:56.853   11 Jun 2027 08:57:11.868            15.015          7279.813
       242   11 Jun 2027 08:58:58.764   11 Jun 2027 08:59:04.222             5.458          2224.844
       243   11 Jun 2027 09:00:33.936   11 Jun 2027 09:00:35.451             1.515           418.313
       244   11 Jun 2027 09:01:10.571   11 Jun 2027 09:01:11.963             1.392           175.344
       245   11 Jun 2027 09:01:27.005   11 Jun 2027 09:01:28.727             1.722           327.219
       246   11 Jun 2027 09:02:15.426   11 Jun 2027 09:02:15.681             0.255            65.594
       247   11 Jun 2027 10:34:06.106   11 Jun 2027 10:34:20.646            14.540          5558.219
       248   11 Jun 2027 10:35:42.473   11 Jun 2027 10:35:45.467             2.994           677.406
       249   11 Jun 2027 10:37:24.694   11 Jun 2027 10:37:27.895             3.201          1385.406
       250   11 Jun 2027 10:37:37.711   11 Jun 2027 10:37:44.951             7.240           306.750
       251   11 Jun 2027 10:38:33.381   11 Jun 2027 10:38:35.152             1.771            96.344
       252   11 Jun 2027 10:38:54.384   11 Jun 2027 10:38:58.930             4.546           572.500
       253   12 Jun 2027 04:21:24.305   12 Jun 2027 04:22:13.301            48.996         24498.000
       254   12 Jun 2027 04:23:32.406   12 Jun 2027 04:23:32.406             0.000             0.000
       255   12 Jun 2027 04:23:59.399   12 Jun 2027 04:24:00.003             0.604           302.000
       256   12 Jun 2027 04:24:02.214   12 Jun 2027 04:24:29.585            27.371         13685.500
       257   12 Jun 2027 05:54:57.574   12 Jun 2027 05:57:19.024           141.450         70725.000
       258   12 Jun 2027 05:57:27.121   12 Jun 2027 05:57:30.819             3.698          1849.000
       259   12 Jun 2027 05:57:44.852   12 Jun 2027 05:57:46.862             2.010          1005.000
       260   12 Jun 2027 05:58:16.828   12 Jun 2027 05:58:18.204             1.376           688.000
       261   12 Jun 2027 05:58:40.672   12 Jun 2027 05:58:45.619             4.947          2473.500
       262   12 Jun 2027 05:59:26.960   12 Jun 2027 05:59:35.704             8.744          4372.000
       263   12 Jun 2027 06:00:16.164   12 Jun 2027 06:00:23.196             7.032          3516.000
       264   12 Jun 2027 06:01:42.417   12 Jun 2027 06:02:11.923            29.506         14753.000
       265   12 Jun 2027 06:03:20.730   12 Jun 2027 06:03:31.193            10.463          5231.500
       266   12 Jun 2027 07:32:27.919   12 Jun 2027 07:33:11.100            43.181         20119.906
       267   12 Jun 2027 07:33:36.884   12 Jun 2027 07:33:39.905             3.021           502.844
       268   12 Jun 2027 07:34:23.551   12 Jun 2027 07:34:25.196             1.645           272.375
       269   12 Jun 2027 07:38:13.036   12 Jun 2027 07:38:13.725             0.689           117.250
       270   12 Jun 2027 07:38:27.084   12 Jun 2027 07:38:28.170             1.086           417.469
       271   12 Jun 2027 07:39:03.708   12 Jun 2027 07:39:10.707             6.999           944.406
       272   12 Jun 2027 09:09:24.696   12 Jun 2027 09:09:38.741            14.045          6957.313
       273   12 Jun 2027 09:13:06.388   12 Jun 2027 09:13:07.912             1.524           638.406
       274   12 Jun 2027 09:13:59.986   12 Jun 2027 09:14:00.813             0.827            21.406
       275   12 Jun 2027 10:46:18.727   12 Jun 2027 10:46:35.757            17.030          7978.031
       276   12 Jun 2027 10:48:42.711   12 Jun 2027 10:48:45.454             2.743           194.594
       277   12 Jun 2027 10:50:10.764   12 Jun 2027 10:50:12.464             1.700           141.094
       278   12 Jun 2027 10:50:39.931   12 Jun 2027 10:50:45.081             5.150           111.219
       279   13 Jun 2027 04:33:29.356   13 Jun 2027 04:35:28.659           119.303         59651.500
       280   13 Jun 2027 04:36:33.241   13 Jun 2027 04:36:52.275            19.034          9517.000
       281   13 Jun 2027 06:05:38.764   13 Jun 2027 06:05:48.754             9.990          4995.000
       282   13 Jun 2027 06:07:36.426   13 Jun 2027 06:10:04.106           147.680         72965.281
       283   13 Jun 2027 06:11:34.301   13 Jun 2027 06:11:35.741             1.440           720.000
       284   13 Jun 2027 06:11:38.472   13 Jun 2027 06:11:43.962             5.490          2048.938
       285   13 Jun 2027 06:13:02.948   13 Jun 2027 06:13:02.948             0.000             0.000
       286   13 Jun 2027 06:13:24.925   13 Jun 2027 06:13:37.299            12.374          2960.156
       287   13 Jun 2027 06:14:21.163   13 Jun 2027 06:14:23.240             2.077          1038.500
       288   13 Jun 2027 06:14:55.946   13 Jun 2027 06:15:01.519             5.573          1349.375
       289   13 Jun 2027 06:15:25.344   13 Jun 2027 06:15:25.477             0.133            66.500
       290   13 Jun 2027 07:44:35.120   13 Jun 2027 07:44:36.231             1.111            32.594
       291   13 Jun 2027 07:50:14.227   13 Jun 2027 07:50:14.954             0.727           197.969
       292   13 Jun 2027 07:50:53.000   13 Jun 2027 07:50:56.737             3.737           946.281
       293   13 Jun 2027 09:21:56.182   13 Jun 2027 09:22:09.810            13.628          5384.969
       294   13 Jun 2027 09:26:32.973   13 Jun 2027 09:26:37.226             4.253           697.562
       295   13 Jun 2027 10:58:20.414   13 Jun 2027 10:58:33.768            13.354          6630.500
       296   13 Jun 2027 11:00:31.117   13 Jun 2027 11:00:33.182             2.065           533.812
       297   13 Jun 2027 11:02:14.621   13 Jun 2027 11:02:18.934             4.313          1764.281
       298   13 Jun 2027 11:02:42.388   13 Jun 2027 11:02:44.250             1.862           275.406
