uniorb/output/strategy_4/Camera/Camera_KinoSat_111610.txt

KinoSat_111610
-------------------------
    Access    *     Start Time (UTCG)     *     Stop Time (UTCG)  *   Duration (s) *   Data (Mbytes)
         1   01 Jun 2027 04:03:31.289   01 Jun 2027 04:05:45.563           134.274         67137.000
         2   01 Jun 2027 04:06:12.655   01 Jun 2027 04:06:38.900            26.245         13122.500
         3   01 Jun 2027 04:07:49.107   01 Jun 2027 04:07:52.285             3.178          1589.000
         4   01 Jun 2027 04:08:23.080   01 Jun 2027 04:08:24.765             1.685           842.500
         5   01 Jun 2027 04:10:28.513   01 Jun 2027 04:11:10.145            41.632         20816.000
         6   01 Jun 2027 05:29:36.785   01 Jun 2027 05:30:07.253            30.468         15234.000
         7   01 Jun 2027 05:40:34.272   01 Jun 2027 05:41:45.792            71.520         35760.000
         8   01 Jun 2027 05:42:08.944   01 Jun 2027 05:42:10.189             1.245           622.500
         9   01 Jun 2027 07:03:53.483   01 Jun 2027 07:05:18.145            84.662         42331.000
        10   01 Jun 2027 07:06:01.618   01 Jun 2027 07:06:16.657            15.039          7519.500
        11   01 Jun 2027 07:06:27.467   01 Jun 2027 07:06:34.804             7.337          3668.500
        12   01 Jun 2027 08:40:16.055   01 Jun 2027 08:41:50.861            94.806         47403.000
        13   01 Jun 2027 08:43:03.548   01 Jun 2027 08:43:31.105            27.557         13778.500
        14   01 Jun 2027 10:15:01.393   01 Jun 2027 10:17:37.753           156.360         78180.000
        15   01 Jun 2027 10:18:16.805   01 Jun 2027 10:18:33.207            16.402          8201.000
        16   01 Jun 2027 10:20:04.779   01 Jun 2027 10:20:26.081            21.302         10651.000
        17   01 Jun 2027 10:20:59.696   01 Jun 2027 10:21:03.701             4.005          2002.500
        18   01 Jun 2027 10:22:29.395   01 Jun 2027 10:22:34.018             4.623          2311.500
        19   01 Jun 2027 11:51:50.840   01 Jun 2027 11:53:36.975           106.135         53067.500
        20   01 Jun 2027 11:56:31.594   01 Jun 2027 11:56:39.263             7.669          3834.500
        21   01 Jun 2027 11:57:15.617   01 Jun 2027 11:57:29.808            14.191          7095.500
        22   01 Jun 2027 11:57:52.376   01 Jun 2027 11:57:58.384             6.008          3004.000
        23   02 Jun 2027 04:15:54.666   02 Jun 2027 04:17:22.085            87.419         43709.500
        24   02 Jun 2027 04:18:52.735   02 Jun 2027 04:19:04.089            11.354          5677.000
        25   02 Jun 2027 04:19:32.379   02 Jun 2027 04:19:52.779            20.400         10200.000
        26   02 Jun 2027 04:20:14.123   02 Jun 2027 04:20:34.056            19.933          9966.500
        27   02 Jun 2027 04:21:47.895   02 Jun 2027 04:21:47.895             0.000             0.000
        28   02 Jun 2027 04:22:44.116   02 Jun 2027 04:22:59.603            15.487          7743.500
        29   02 Jun 2027 05:40:55.561   02 Jun 2027 05:41:59.483            63.922         31961.000
        30   02 Jun 2027 05:52:35.638   02 Jun 2027 05:53:56.384            80.746         40373.000
        31   02 Jun 2027 07:14:51.668   02 Jun 2027 07:16:07.496            75.828         37914.000
        32   02 Jun 2027 07:16:48.722   02 Jun 2027 07:18:03.627            74.905         37452.500
        33   02 Jun 2027 08:50:03.850   02 Jun 2027 08:51:28.866            85.016         42508.000
        34   02 Jun 2027 08:52:00.073   02 Jun 2027 08:53:23.539            83.466         41733.000
        35   02 Jun 2027 08:54:01.110   02 Jun 2027 08:54:44.865            43.755         21877.500
        36   02 Jun 2027 10:27:08.556   02 Jun 2027 10:28:03.468            54.912         25107.314
        37   02 Jun 2027 10:29:14.014   02 Jun 2027 10:29:20.742             6.728           873.594
        38   02 Jun 2027 10:32:48.370   02 Jun 2027 10:32:57.927             9.557          4424.531
        39   02 Jun 2027 10:33:50.613   02 Jun 2027 10:33:54.870             4.257          1159.844
        40   03 Jun 2027 04:28:13.067   03 Jun 2027 04:30:28.798           135.731         67865.500
        41   03 Jun 2027 04:30:45.745   03 Jun 2027 04:30:52.656             6.911          3455.500
        42   03 Jun 2027 04:33:07.168   03 Jun 2027 04:33:16.370             9.202          4601.000
        43   03 Jun 2027 04:33:46.339   03 Jun 2027 04:33:58.158            11.819          5909.500
        44   03 Jun 2027 04:34:48.442   03 Jun 2027 04:34:54.442             6.000          3000.000
        45   03 Jun 2027 04:34:57.738   03 Jun 2027 04:35:09.142            11.404          5702.000
        46   03 Jun 2027 05:52:17.822   03 Jun 2027 05:53:00.635            42.813         21406.500
        47   03 Jun 2027 05:54:12.697   03 Jun 2027 05:54:34.188            21.491         10745.500
        48   03 Jun 2027 06:04:32.753   03 Jun 2027 06:05:12.419            39.666         19833.000
        49   03 Jun 2027 07:26:33.496   03 Jun 2027 07:27:13.250            39.754         17779.343
        50   03 Jun 2027 07:28:43.114   03 Jun 2027 07:28:47.460             4.346          2112.000
        51   03 Jun 2027 07:29:06.243   03 Jun 2027 07:29:09.139             2.896           224.594
        52   03 Jun 2027 07:30:07.633   03 Jun 2027 07:30:07.633             0.000             0.000
        53   03 Jun 2027 07:30:16.407   03 Jun 2027 07:30:22.479             6.072          1849.625
        54   03 Jun 2027 07:31:04.519   03 Jun 2027 07:31:07.423             2.904           758.219
        55   03 Jun 2027 07:31:08.570   03 Jun 2027 07:31:09.021             0.451            28.531
        56   03 Jun 2027 09:01:31.436   03 Jun 2027 09:01:38.129             6.693          2779.781
        57   03 Jun 2027 09:02:11.797   03 Jun 2027 09:02:14.930             3.133           408.938
        58   03 Jun 2027 09:03:01.794   03 Jun 2027 09:03:03.515             1.721           126.469
        59   03 Jun 2027 09:03:25.248   03 Jun 2027 09:03:26.960             1.712           636.937
        60   03 Jun 2027 09:05:47.004   03 Jun 2027 09:05:58.971            11.967          3349.438
        61   03 Jun 2027 09:07:42.074   03 Jun 2027 09:07:47.364             5.290          1312.719
        62   03 Jun 2027 09:09:43.319   03 Jun 2027 09:09:50.873             7.554          2715.344
        63   03 Jun 2027 10:39:10.835   03 Jun 2027 10:39:19.760             8.925          4100.563
        64   03 Jun 2027 10:40:37.562   03 Jun 2027 10:40:42.961             5.399           965.500
        65   03 Jun 2027 10:42:17.276   03 Jun 2027 10:42:17.276             0.000             0.000
        66   03 Jun 2027 10:42:58.022   03 Jun 2027 10:43:07.208             9.186          3711.094
        67   03 Jun 2027 10:44:46.025   03 Jun 2027 10:44:53.739             7.714          2957.656
        68   03 Jun 2027 10:45:40.889   03 Jun 2027 10:45:43.524             2.635          1132.688
        69   03 Jun 2027 10:45:59.770   03 Jun 2027 10:46:01.909             2.139            87.156
        70   04 Jun 2027 03:01:29.821   04 Jun 2027 03:01:31.281             1.460           730.000
        71   04 Jun 2027 03:01:56.986   04 Jun 2027 03:02:13.189            16.203          8101.500
        72   04 Jun 2027 03:02:39.267   04 Jun 2027 03:03:10.915            31.648         15824.000
        73   04 Jun 2027 03:03:51.481   04 Jun 2027 03:03:58.277             6.796          3398.000
        74   04 Jun 2027 03:07:19.963   04 Jun 2027 03:07:26.952             6.989          3494.500
        75   04 Jun 2027 04:40:18.072   04 Jun 2027 04:43:10.374           172.302         86151.000
        76   04 Jun 2027 04:44:09.487   04 Jun 2027 04:45:19.120            69.633         34257.594
        77   04 Jun 2027 04:45:57.372   04 Jun 2027 04:46:00.496             3.124          1195.375
        78   04 Jun 2027 06:04:25.065   04 Jun 2027 06:04:55.605            30.540         15238.656
        79   04 Jun 2027 07:38:13.086   04 Jun 2027 07:38:27.153            14.067          6671.313
        80   04 Jun 2027 07:39:43.053   04 Jun 2027 07:39:48.286             5.233          1754.375
        81   04 Jun 2027 07:40:16.979   04 Jun 2027 07:40:17.319             0.340           154.937
        82   04 Jun 2027 07:40:47.636   04 Jun 2027 07:40:52.393             4.757           392.219
        83   04 Jun 2027 07:41:15.777   04 Jun 2027 07:41:17.326             1.549           542.281
        84   04 Jun 2027 07:42:00.966   04 Jun 2027 07:42:03.270             2.304           900.656
        85   04 Jun 2027 07:43:29.355   04 Jun 2027 07:43:35.295             5.940          2364.094
        86   04 Jun 2027 09:13:05.375   04 Jun 2027 09:13:13.473             8.098          3271.187
        87   04 Jun 2027 09:16:44.477   04 Jun 2027 09:16:45.184             0.707           353.500
        88   04 Jun 2027 09:17:08.848   04 Jun 2027 09:17:12.413             3.565          1213.625
        89   04 Jun 2027 09:17:37.065   04 Jun 2027 09:17:39.256             2.191           387.125
        90   04 Jun 2027 09:19:04.673   04 Jun 2027 09:19:10.181             5.508          2469.594
        91   04 Jun 2027 09:20:30.694   04 Jun 2027 09:20:35.661             4.967           702.562
        92   04 Jun 2027 09:21:05.069   04 Jun 2027 09:21:09.201             4.132           694.531
        93   04 Jun 2027 09:22:05.455   04 Jun 2027 09:22:10.697             5.242          1612.563
        94   04 Jun 2027 10:51:13.347   04 Jun 2027 10:51:24.217            10.870          5316.594
        95   04 Jun 2027 10:52:18.303   04 Jun 2027 10:52:23.078             4.775           915.469
        96   04 Jun 2027 10:52:25.544   04 Jun 2027 10:52:26.103             0.559            77.063
        97   04 Jun 2027 10:54:04.291   04 Jun 2027 10:54:10.034             5.743          2060.250
        98   04 Jun 2027 10:55:25.561   04 Jun 2027 10:55:27.196             1.635           593.469
        99   04 Jun 2027 10:55:33.226   04 Jun 2027 10:55:35.624             2.398           183.250
       100   04 Jun 2027 10:56:08.939   04 Jun 2027 10:56:11.157             2.218           830.656
       101   04 Jun 2027 10:56:46.192   04 Jun 2027 10:56:54.145             7.953           981.781
       102   04 Jun 2027 10:57:42.648   04 Jun 2027 10:57:44.142             1.494           673.906
       103   04 Jun 2027 10:57:44.501   04 Jun 2027 10:57:45.843             1.342             4.594
       104   04 Jun 2027 10:58:17.439   04 Jun 2027 10:58:21.022             3.583           433.594
       105   04 Jun 2027 10:58:37.199   04 Jun 2027 10:58:39.581             2.382           505.531
       106   05 Jun 2027 03:14:29.337   05 Jun 2027 03:15:24.180            54.843         27421.500
       107   05 Jun 2027 03:15:32.825   05 Jun 2027 03:16:09.770            36.945         18472.500
       108   05 Jun 2027 03:16:21.005   05 Jun 2027 03:16:37.554            16.549          8274.500
       109   05 Jun 2027 03:17:03.806   05 Jun 2027 03:17:08.765             4.959          2479.500
       110   05 Jun 2027 03:19:34.477   05 Jun 2027 03:19:45.859            11.382          5691.000
       111   05 Jun 2027 04:52:54.854   05 Jun 2027 04:55:46.135           171.281         85285.687
       112   05 Jun 2027 04:56:39.701   05 Jun 2027 04:56:45.213             5.512          1561.531
       113   05 Jun 2027 06:16:20.448   05 Jun 2027 06:16:38.485            18.037          6948.969
       114   05 Jun 2027 06:17:31.738   05 Jun 2027 06:17:31.738             0.000             0.000
       115   05 Jun 2027 06:18:06.588   05 Jun 2027 06:18:13.028             6.440          2360.438
       116   05 Jun 2027 07:52:35.379   05 Jun 2027 07:52:49.027            13.648          6626.906
       117   05 Jun 2027 07:53:05.882   05 Jun 2027 07:53:09.025             3.143           232.313
       118   05 Jun 2027 07:53:32.471   05 Jun 2027 07:53:34.050             1.579           732.687
       119   05 Jun 2027 07:54:21.926   05 Jun 2027 07:54:29.208             7.282          1496.125
       120   05 Jun 2027 07:54:37.948   05 Jun 2027 07:54:38.354             0.406            92.063
       121   05 Jun 2027 07:55:13.693   05 Jun 2027 07:55:23.744            10.051           451.125
       122   05 Jun 2027 09:26:07.908   05 Jun 2027 09:26:14.530             6.622          2723.656
       123   05 Jun 2027 09:28:34.028   05 Jun 2027 09:28:36.610             2.582          1117.781
       124   05 Jun 2027 09:28:42.627   05 Jun 2027 09:28:45.367             2.740           104.719
       125   05 Jun 2027 09:29:24.551   05 Jun 2027 09:29:24.551             0.000             0.000
       126   05 Jun 2027 09:29:29.874   05 Jun 2027 09:29:35.187             5.313           835.813
       127   05 Jun 2027 09:31:03.836   05 Jun 2027 09:31:10.190             6.354          2301.844
       128   05 Jun 2027 09:33:06.504   05 Jun 2027 09:33:11.809             5.305          2093.750
       129   05 Jun 2027 09:33:13.965   05 Jun 2027 09:33:14.423             0.458            43.813
       130   05 Jun 2027 09:34:20.199   05 Jun 2027 09:34:25.749             5.550          2055.500
       131   05 Jun 2027 11:03:40.491   05 Jun 2027 11:03:49.682             9.191          4251.719
       132   05 Jun 2027 11:05:39.963   05 Jun 2027 11:05:43.156             3.193          1528.000
       133   05 Jun 2027 11:07:34.721   05 Jun 2027 11:07:41.590             6.869          3395.312
       134   05 Jun 2027 11:08:01.627   05 Jun 2027 11:08:05.475             3.848           503.156
       135   05 Jun 2027 11:08:43.338   05 Jun 2027 11:08:46.249             2.911          1105.562
       136   05 Jun 2027 11:09:36.874   05 Jun 2027 11:09:42.899             6.025          1242.750
       137   05 Jun 2027 11:09:48.715   05 Jun 2027 11:09:51.768             3.053           133.625
       138   06 Jun 2027 03:26:30.534   06 Jun 2027 03:26:58.629            28.095         14047.500
       139   06 Jun 2027 03:27:01.206   06 Jun 2027 03:28:02.102            60.896         30448.000
       140   06 Jun 2027 03:28:23.933   06 Jun 2027 03:30:10.173           106.240         53120.000
       141   06 Jun 2027 05:04:33.408   06 Jun 2027 05:06:25.222           111.814         55550.844
       142   06 Jun 2027 05:07:07.940   06 Jun 2027 05:07:09.685             1.745           572.625
       143   06 Jun 2027 05:07:36.454   06 Jun 2027 05:07:41.565             5.111           759.187
       144   06 Jun 2027 05:08:02.053   06 Jun 2027 05:08:03.738             1.685           640.250
       145   06 Jun 2027 05:08:46.112   06 Jun 2027 05:08:51.692             5.580           325.750
       146   06 Jun 2027 06:28:12.473   06 Jun 2027 06:28:25.036            12.563          5792.938
       147   06 Jun 2027 06:30:09.762   06 Jun 2027 06:30:09.762             0.000             0.000
       148   06 Jun 2027 06:30:24.186   06 Jun 2027 06:30:31.420             7.234          3178.250
       149   06 Jun 2027 08:04:39.668   06 Jun 2027 08:04:47.726             8.058          3863.906
       150   06 Jun 2027 08:05:25.750   06 Jun 2027 08:05:27.158             1.408           497.687
       151   06 Jun 2027 08:06:32.381   06 Jun 2027 08:06:36.243             3.862          1765.750
       152   06 Jun 2027 09:36:54.505   06 Jun 2027 09:36:57.383             2.878          1439.000
       153   06 Jun 2027 09:38:47.212   06 Jun 2027 09:38:50.586             3.374          1511.812
       154   06 Jun 2027 09:40:33.504   06 Jun 2027 09:40:35.611             2.107            39.750
       155   06 Jun 2027 09:41:57.360   06 Jun 2027 09:42:00.839             3.479          1380.844
       156   06 Jun 2027 09:43:45.106   06 Jun 2027 09:43:48.859             3.753          1341.156
       157   06 Jun 2027 09:44:47.832   06 Jun 2027 09:44:51.759             3.927          1701.906
       158   06 Jun 2027 09:45:10.662   06 Jun 2027 09:45:12.804             2.142           590.719
       159   06 Jun 2027 09:46:01.628   06 Jun 2027 09:46:06.874             5.246           831.281
       160   06 Jun 2027 11:15:45.690   06 Jun 2027 11:15:59.876            14.186          6264.031
       161   06 Jun 2027 11:17:26.402   06 Jun 2027 11:17:29.029             2.627           372.219
       162   06 Jun 2027 11:17:47.868   06 Jun 2027 11:17:50.884             3.016           319.688
       163   06 Jun 2027 11:18:05.685   06 Jun 2027 11:18:08.263             2.578           462.531
       164   06 Jun 2027 11:18:57.711   06 Jun 2027 11:19:04.328             6.617           934.219
       165   06 Jun 2027 11:20:26.887   06 Jun 2027 11:20:30.860             3.973          1868.750
       166   06 Jun 2027 11:20:39.702   06 Jun 2027 11:20:42.152             2.450           223.469
       167   06 Jun 2027 11:20:46.317   06 Jun 2027 11:20:47.854             1.537           130.156
       168   06 Jun 2027 11:21:36.230   06 Jun 2027 11:21:43.764             7.534           591.000
       169   06 Jun 2027 11:21:46.850   06 Jun 2027 11:21:48.331             1.481            96.437
       170   06 Jun 2027 11:22:06.066   06 Jun 2027 11:22:08.566             2.500           486.313
       171   07 Jun 2027 03:38:38.531   07 Jun 2027 03:39:39.007            60.476         30238.000
       172   07 Jun 2027 03:39:47.590   07 Jun 2027 03:42:01.729           134.139         67069.500
       173   07 Jun 2027 03:42:08.876   07 Jun 2027 03:42:09.662             0.786           393.000
       174   07 Jun 2027 03:42:36.833   07 Jun 2027 03:43:15.011            38.178         19089.000
       175   07 Jun 2027 05:17:00.852   07 Jun 2027 05:17:24.584            23.732         11866.000
       176   07 Jun 2027 05:17:52.717   07 Jun 2027 05:18:55.041            62.324         29916.406
       177   07 Jun 2027 05:19:27.661   07 Jun 2027 05:19:33.513             5.852           812.313
       178   07 Jun 2027 05:20:28.130   07 Jun 2027 05:20:31.072             2.942          1458.031
       179   07 Jun 2027 06:40:20.720   07 Jun 2027 06:40:28.742             8.022          3922.344
       180   07 Jun 2027 06:42:20.769   07 Jun 2027 06:42:27.865             7.096          3446.313
       181   07 Jun 2027 08:16:50.118   07 Jun 2027 08:16:57.523             7.405          3528.781
       182   07 Jun 2027 08:17:37.580   07 Jun 2027 08:17:41.501             3.921          1012.187
       183   07 Jun 2027 08:18:45.166   07 Jun 2027 08:18:52.305             7.139          1670.656
       184   07 Jun 2027 08:19:34.486   07 Jun 2027 08:19:36.485             1.999           519.000
       185   07 Jun 2027 09:52:01.206   07 Jun 2027 09:52:10.027             8.821          4304.125
       186   07 Jun 2027 09:53:14.861   07 Jun 2027 09:53:14.861             0.000             0.000
       187   07 Jun 2027 09:53:16.166   07 Jun 2027 09:53:16.442             0.276            49.625
       188   07 Jun 2027 09:55:40.830   07 Jun 2027 09:55:44.772             3.942          1927.531
       189   07 Jun 2027 09:56:24.890   07 Jun 2027 09:56:27.822             2.932           721.219
       190   07 Jun 2027 09:57:10.513   07 Jun 2027 09:57:14.679             4.166           907.687
       191   07 Jun 2027 09:58:22.180   07 Jun 2027 09:58:23.673             1.493           681.500
       192   07 Jun 2027 11:28:20.768   07 Jun 2027 11:28:30.982            10.214          4426.750
       193   07 Jun 2027 11:30:16.414   07 Jun 2027 11:30:16.770             0.356            99.687
       194   07 Jun 2027 11:31:00.235   07 Jun 2027 11:31:08.859             8.624          1201.375
       195   07 Jun 2027 11:32:10.185   07 Jun 2027 11:32:18.294             8.109          1168.125
       196   07 Jun 2027 11:33:04.151   07 Jun 2027 11:33:06.192             2.041           815.000
       197   07 Jun 2027 11:33:29.446   07 Jun 2027 11:33:30.397             0.951           160.844
       198   07 Jun 2027 11:33:55.596   07 Jun 2027 11:33:57.844             2.248           770.031
       199   07 Jun 2027 11:34:11.924   07 Jun 2027 11:34:22.517            10.593           440.000
       200   08 Jun 2027 03:50:43.280   08 Jun 2027 03:50:59.783            16.503          8251.500
       201   08 Jun 2027 03:51:45.901   08 Jun 2027 03:54:38.556           172.655         86327.500
       202   08 Jun 2027 03:54:55.768   08 Jun 2027 03:55:26.205            30.437         15218.500
       203   08 Jun 2027 03:55:44.793   08 Jun 2027 03:55:57.966            13.173          6586.500
       204   08 Jun 2027 03:58:58.841   08 Jun 2027 03:59:01.622             2.781          1390.500
       205   08 Jun 2027 05:28:54.705   08 Jun 2027 05:29:32.209            37.504         18752.000
       206   08 Jun 2027 05:30:02.328   08 Jun 2027 05:30:39.739            37.411         18485.968
       207   08 Jun 2027 05:31:44.355   08 Jun 2027 05:31:47.460             3.105          1502.594
       208   08 Jun 2027 06:53:03.567   08 Jun 2027 06:53:16.364            12.797          5007.219
       209   08 Jun 2027 06:53:35.195   08 Jun 2027 06:53:35.195             0.000             0.000
       210   08 Jun 2027 06:53:43.902   08 Jun 2027 06:53:47.067             3.165           853.625
       211   08 Jun 2027 06:54:57.842   08 Jun 2027 06:55:04.327             6.485          2211.719
       212   08 Jun 2027 06:55:28.695   08 Jun 2027 06:55:28.695             0.000             0.000
       213   08 Jun 2027 08:28:47.018   08 Jun 2027 08:28:54.246             7.228          1767.406
       214   08 Jun 2027 08:30:26.865   08 Jun 2027 08:30:32.625             5.760          2764.375
       215   08 Jun 2027 08:31:27.448   08 Jun 2027 08:31:31.365             3.917          1673.781
       216   08 Jun 2027 10:03:45.252   08 Jun 2027 10:03:50.848             5.596          2417.875
       217   08 Jun 2027 10:05:16.163   08 Jun 2027 10:05:22.832             6.669          2073.156
       218   08 Jun 2027 10:06:03.076   08 Jun 2027 10:06:06.183             3.107           631.250
       219   08 Jun 2027 10:06:53.214   08 Jun 2027 10:06:55.364             2.150          1033.688
       220   08 Jun 2027 10:09:08.046   08 Jun 2027 10:09:16.615             8.569          4133.469
       221   08 Jun 2027 10:10:18.442   08 Jun 2027 10:10:22.112             3.670          1814.094
       222   08 Jun 2027 10:10:41.347   08 Jun 2027 10:10:43.731             2.384           601.094
       223   08 Jun 2027 11:39:56.509   08 Jun 2027 11:40:07.459            10.950          4774.063
       224   08 Jun 2027 11:42:01.758   08 Jun 2027 11:42:06.917             5.159          1545.938
       225   08 Jun 2027 11:42:28.007   08 Jun 2027 11:42:30.644             2.637           659.062
       226   08 Jun 2027 11:43:14.593   08 Jun 2027 11:43:16.819             2.226          1113.000
       227   08 Jun 2027 11:43:42.014   08 Jun 2027 11:43:43.924             1.910           817.281
       228   08 Jun 2027 11:44:04.284   08 Jun 2027 11:44:05.625             1.341           625.937
       229   08 Jun 2027 11:44:11.348   08 Jun 2027 11:44:12.473             1.125            48.000
       230   08 Jun 2027 11:44:52.441   08 Jun 2027 11:44:54.764             2.323           459.281
       231   08 Jun 2027 11:45:20.842   08 Jun 2027 11:45:25.934             5.092           393.313
       232   09 Jun 2027 04:03:48.673   09 Jun 2027 04:07:05.551           196.878         98439.000
       233   09 Jun 2027 04:07:31.000   09 Jun 2027 04:07:43.100            12.100          6050.000
       234   09 Jun 2027 04:08:54.573   09 Jun 2027 04:09:26.127            31.554         15777.000
       235   09 Jun 2027 05:29:50.816   09 Jun 2027 05:29:52.724             1.908           954.000
       236   09 Jun 2027 05:30:09.995   09 Jun 2027 05:30:25.094            15.099          7549.500
       237   09 Jun 2027 05:40:50.926   09 Jun 2027 05:42:23.216            92.290         42640.469
       238   09 Jun 2027 05:43:16.005   09 Jun 2027 05:43:20.081             4.076           857.250
       239   09 Jun 2027 05:43:57.272   09 Jun 2027 05:44:00.789             3.517           766.531
       240   09 Jun 2027 07:04:09.178   09 Jun 2027 07:04:21.983            12.805          3326.219
       241   09 Jun 2027 07:05:34.711   09 Jun 2027 07:05:41.756             7.045          1785.781
       242   09 Jun 2027 07:06:57.820   09 Jun 2027 07:07:09.895            12.075          2299.062
       243   09 Jun 2027 08:39:23.225   09 Jun 2027 08:39:28.311             5.086          2082.750
       244   09 Jun 2027 08:40:32.170   09 Jun 2027 08:40:35.011             2.841          1003.312
       245   09 Jun 2027 08:42:56.781   09 Jun 2027 08:43:05.799             9.018          3995.781
       246   09 Jun 2027 08:43:17.451   09 Jun 2027 08:43:18.146             0.695           279.969
       247   09 Jun 2027 08:43:25.140   09 Jun 2027 08:43:30.792             5.652           218.562
       248   09 Jun 2027 10:15:18.451   09 Jun 2027 10:15:30.941            12.490          5952.750
       249   09 Jun 2027 10:15:51.787   09 Jun 2027 10:15:51.787             0.000             0.000
       250   09 Jun 2027 10:17:17.026   09 Jun 2027 10:17:26.283             9.257          3315.156
       251   09 Jun 2027 10:18:13.913   09 Jun 2027 10:18:16.345             2.432           816.000
       252   09 Jun 2027 10:18:50.490   09 Jun 2027 10:18:50.490             0.000             0.000
       253   09 Jun 2027 10:19:02.179   09 Jun 2027 10:19:08.291             6.112           817.188
       254   09 Jun 2027 10:20:21.016   09 Jun 2027 10:20:22.032             1.016           165.875
       255   09 Jun 2027 10:21:28.168   09 Jun 2027 10:21:37.198             9.030          1301.219
       256   09 Jun 2027 10:22:17.908   09 Jun 2027 10:22:19.499             1.591           332.063
       257   09 Jun 2027 11:52:11.049   09 Jun 2027 11:52:25.756            14.707          7000.125
       258   09 Jun 2027 11:53:53.407   09 Jun 2027 11:53:58.511             5.104          1859.219
       259   09 Jun 2027 11:55:52.833   09 Jun 2027 11:55:57.217             4.384          2127.219
       260   09 Jun 2027 11:56:29.380   09 Jun 2027 11:56:31.133             1.753           857.281
       261   09 Jun 2027 11:57:19.205   09 Jun 2027 11:57:22.413             3.208          1263.562
       262   10 Jun 2027 04:16:12.847   10 Jun 2027 04:17:16.170            63.323         31661.500
       263   10 Jun 2027 04:18:36.877   10 Jun 2027 04:19:46.975            70.098         35049.000
       264   10 Jun 2027 04:21:05.738   10 Jun 2027 04:21:47.365            41.627         20813.500
       265   10 Jun 2027 04:22:03.960   10 Jun 2027 04:22:14.500            10.540          5270.000
       266   10 Jun 2027 05:41:11.523   10 Jun 2027 05:41:43.926            32.403         16201.500
       267   10 Jun 2027 05:52:52.951   10 Jun 2027 05:54:12.588            79.637         39818.500
       268   10 Jun 2027 07:15:07.446   10 Jun 2027 07:15:28.317            20.871         10220.343
       269   10 Jun 2027 07:15:52.596   10 Jun 2027 07:15:55.652             3.056           649.469
       270   10 Jun 2027 07:16:19.730   10 Jun 2027 07:16:22.087             2.357           690.781
       271   10 Jun 2027 07:17:34.491   10 Jun 2027 07:17:37.923             3.432          1635.875
       272   10 Jun 2027 07:18:21.584   10 Jun 2027 07:18:21.584             0.000             0.000
       273   10 Jun 2027 07:18:42.430   10 Jun 2027 07:18:51.226             8.796          1752.531
       274   10 Jun 2027 07:19:23.132   10 Jun 2027 07:19:26.328             3.196           810.406
       275   10 Jun 2027 08:50:17.534   10 Jun 2027 08:50:26.741             9.207          3329.781
       276   10 Jun 2027 08:50:57.341   10 Jun 2027 08:50:59.491             2.150           645.750
       277   10 Jun 2027 08:52:35.346   10 Jun 2027 08:52:44.121             8.775          2957.063
       278   10 Jun 2027 08:53:21.730   10 Jun 2027 08:53:26.071             4.341           452.000
       279   10 Jun 2027 08:54:15.697   10 Jun 2027 08:54:19.391             3.694          1067.969
       280   10 Jun 2027 08:56:03.399   10 Jun 2027 08:56:07.206             3.807          1347.438
       281   10 Jun 2027 08:56:22.437   10 Jun 2027 08:56:24.438             2.001           426.969
       282   10 Jun 2027 10:27:25.738   10 Jun 2027 10:27:38.431            12.693          3126.063
       283   10 Jun 2027 10:28:07.473   10 Jun 2027 10:28:09.331             1.858           139.000
       284   10 Jun 2027 10:28:43.236   10 Jun 2027 10:28:44.762             1.526           309.406
       285   10 Jun 2027 10:29:30.475   10 Jun 2027 10:29:35.823             5.348           864.406
       286   10 Jun 2027 10:30:49.939   10 Jun 2027 10:30:52.273             2.334           207.563
       287   10 Jun 2027 10:32:20.838   10 Jun 2027 10:32:27.236             6.398          2676.500
       288   10 Jun 2027 10:32:47.835   10 Jun 2027 10:32:49.423             1.588           638.656
       289   10 Jun 2027 10:33:56.007   10 Jun 2027 10:34:00.498             4.491          1566.656
       290   10 Jun 2027 10:34:40.389   10 Jun 2027 10:34:48.768             8.379          1082.156
       291   11 Jun 2027 04:28:31.311   11 Jun 2027 04:30:52.937           141.626         70813.000
       292   11 Jun 2027 04:31:32.484   11 Jun 2027 04:31:56.505            24.021         12010.500
       293   11 Jun 2027 04:32:20.717   11 Jun 2027 04:32:22.144             1.427           713.500
       294   11 Jun 2027 04:33:21.734   11 Jun 2027 04:33:36.870            15.136          7568.000
       295   11 Jun 2027 04:35:15.456   11 Jun 2027 04:35:29.827            14.371          7185.500
       296   11 Jun 2027 05:52:36.855   11 Jun 2027 05:53:13.162            36.307         18153.500
       297   11 Jun 2027 05:54:28.019   11 Jun 2027 05:54:51.921            23.902         11951.000
       298   11 Jun 2027 06:04:49.904   11 Jun 2027 06:05:28.377            38.473         19236.500
       299   11 Jun 2027 07:26:52.446   11 Jun 2027 07:27:09.265            16.819          8409.500
       300   11 Jun 2027 07:27:53.317   11 Jun 2027 07:27:59.196             5.879          2348.906
       301   11 Jun 2027 07:28:04.041   11 Jun 2027 07:28:04.486             0.445           151.406
       302   11 Jun 2027 07:29:17.312   11 Jun 2027 07:29:20.991             3.679          1314.406
       303   11 Jun 2027 07:30:55.875   11 Jun 2027 07:31:06.826            10.951          2904.656
       304   11 Jun 2027 07:31:23.855   11 Jun 2027 07:31:24.244             0.389            72.375
       305   11 Jun 2027 07:31:58.393   11 Jun 2027 07:32:03.939             5.546          1013.812
       306   11 Jun 2027 09:01:44.909   11 Jun 2027 09:01:54.471             9.562          3393.969
       307   11 Jun 2027 09:04:14.773   11 Jun 2027 09:04:19.339             4.566          1498.813
       308   11 Jun 2027 09:05:24.463   11 Jun 2027 09:05:29.568             5.105           620.844
       309   11 Jun 2027 09:06:01.429   11 Jun 2027 09:06:06.382             4.953           952.781
       310   11 Jun 2027 09:08:08.170   11 Jun 2027 09:08:12.193             4.023          1442.625
       311   11 Jun 2027 09:08:40.558   11 Jun 2027 09:08:40.558             0.000             0.000
       312   11 Jun 2027 09:09:12.560   11 Jun 2027 09:09:15.499             2.939          1212.406
       313   11 Jun 2027 09:09:59.922   11 Jun 2027 09:10:02.960             3.038          1162.656
       314   11 Jun 2027 10:39:27.519   11 Jun 2027 10:39:37.777            10.258          4819.687
       315   11 Jun 2027 10:41:13.563   11 Jun 2027 10:41:14.818             1.255           259.250
       316   11 Jun 2027 10:43:17.865   11 Jun 2027 10:43:26.762             8.897          3773.563
       317   11 Jun 2027 10:45:34.566   11 Jun 2027 10:45:42.459             7.893          3831.469
       318   11 Jun 2027 10:45:55.941   11 Jun 2027 10:45:57.647             1.706           382.469
       319   11 Jun 2027 10:46:11.877   11 Jun 2027 10:46:16.271             4.394           425.188
       320   11 Jun 2027 10:46:53.683   11 Jun 2027 10:46:54.640             0.957           478.500
       321   12 Jun 2027 03:02:14.817   12 Jun 2027 03:02:39.984            25.167         12583.500
       322   12 Jun 2027 03:02:42.378   12 Jun 2027 03:02:53.082            10.704          5352.000
       323   12 Jun 2027 03:03:00.694   12 Jun 2027 03:03:07.772             7.078          3539.000
       324   12 Jun 2027 03:04:03.668   12 Jun 2027 03:04:06.790             3.122          1561.000
       325   12 Jun 2027 03:06:16.266   12 Jun 2027 03:06:18.946             2.680          1340.000
       326   12 Jun 2027 03:07:33.836   12 Jun 2027 03:07:43.834             9.998          4999.000
       327   12 Jun 2027 04:40:37.246   12 Jun 2027 04:42:52.390           135.144         67572.000
       328   12 Jun 2027 04:43:25.059   12 Jun 2027 04:44:27.659            62.600         31300.000
       329   12 Jun 2027 04:44:45.188   12 Jun 2027 04:45:35.167            49.979         24986.875
       330   12 Jun 2027 04:46:14.550   12 Jun 2027 04:46:21.145             6.595          1230.719
       331   12 Jun 2027 06:04:41.770   12 Jun 2027 06:05:12.304            30.534         15267.000
       332   12 Jun 2027 07:38:28.170   12 Jun 2027 07:38:44.518            16.348          7019.407
       333   12 Jun 2027 07:40:00.587   12 Jun 2027 07:40:04.830             4.243          1815.625
       334   12 Jun 2027 07:40:31.970   12 Jun 2027 07:40:35.014             3.044           296.281
       335   12 Jun 2027 07:41:20.732   12 Jun 2027 07:41:23.783             3.051           524.469
       336   12 Jun 2027 07:42:00.534   12 Jun 2027 07:42:02.969             2.435          1126.906
       337   12 Jun 2027 07:42:32.030   12 Jun 2027 07:42:34.433             2.403           505.250
       338   12 Jun 2027 07:43:08.147   12 Jun 2027 07:43:09.579             1.432           451.125
       339   12 Jun 2027 07:43:44.617   12 Jun 2027 07:43:46.543             1.926           500.687
       340   12 Jun 2027 09:14:28.565   12 Jun 2027 09:14:36.435             7.870          3338.594
       341   12 Jun 2027 09:16:36.256   12 Jun 2027 09:16:38.359             2.103          1022.844
       342   12 Jun 2027 09:17:26.988   12 Jun 2027 09:17:33.537             6.549           819.688
       343   12 Jun 2027 09:17:51.847   12 Jun 2027 09:17:53.312             1.465           289.687
       344   12 Jun 2027 09:19:09.825   12 Jun 2027 09:19:14.687             4.862          2316.500
       345   12 Jun 2027 09:20:25.806   12 Jun 2027 09:20:31.893             6.087          2000.625
       346   12 Jun 2027 09:21:35.986   12 Jun 2027 09:21:40.108             4.122          1605.031
       347   12 Jun 2027 09:22:43.937   12 Jun 2027 09:22:48.100             4.163          1154.938
       348   12 Jun 2027 10:51:31.137   12 Jun 2027 10:51:44.679            13.542          6002.687
       349   12 Jun 2027 10:52:35.201   12 Jun 2027 10:52:35.201             0.000             0.000
       350   12 Jun 2027 10:53:16.130   12 Jun 2027 10:53:22.764             6.634          2020.219
       351   12 Jun 2027 10:53:53.050   12 Jun 2027 10:53:57.928             4.878           265.156
       352   12 Jun 2027 10:54:42.789   12 Jun 2027 10:54:44.417             1.628           711.688
       353   12 Jun 2027 10:55:42.277   12 Jun 2027 10:55:44.021             1.744           625.312
       354   12 Jun 2027 10:56:18.858   12 Jun 2027 10:56:21.678             2.820          1088.656
       355   12 Jun 2027 10:57:00.727   12 Jun 2027 10:57:03.428             2.701          1220.281
       356   12 Jun 2027 10:57:57.882   12 Jun 2027 10:58:00.675             2.793           674.813
       357   12 Jun 2027 10:58:23.884   12 Jun 2027 10:58:26.596             2.712           703.125
       358   12 Jun 2027 10:58:36.782   12 Jun 2027 10:58:37.924             1.142           118.594
       359   13 Jun 2027 03:14:47.609   13 Jun 2027 03:15:39.277            51.668         25834.000
       360   13 Jun 2027 03:15:49.322   13 Jun 2027 03:16:24.591            35.269         17634.500
       361   13 Jun 2027 03:16:31.225   13 Jun 2027 03:16:31.325             0.100            50.000
       362   13 Jun 2027 03:16:31.903   13 Jun 2027 03:16:54.144            22.241         11120.500
       363   13 Jun 2027 03:17:24.037   13 Jun 2027 03:17:50.458            26.421         13210.500
       364   13 Jun 2027 03:17:54.192   13 Jun 2027 03:17:58.294             4.102          2051.000
       365   13 Jun 2027 03:18:26.994   13 Jun 2027 03:18:38.773            11.779          5889.500
       366   13 Jun 2027 03:19:35.415   13 Jun 2027 03:19:35.699             0.284           142.000
       367   13 Jun 2027 04:53:11.628   13 Jun 2027 04:55:37.853           146.225         72384.500
       368   13 Jun 2027 04:56:03.914   13 Jun 2027 04:56:05.006             1.092           173.375
       369   13 Jun 2027 06:16:36.719   13 Jun 2027 06:16:50.074            13.355          5913.313
       370   13 Jun 2027 06:18:22.937   13 Jun 2027 06:18:28.655             5.718          2403.500
       371   13 Jun 2027 07:52:55.753   13 Jun 2027 07:53:09.804            14.051          6547.344
       372   13 Jun 2027 07:53:24.128   13 Jun 2027 07:53:25.656             1.528           281.062
       373   13 Jun 2027 07:53:48.989   13 Jun 2027 07:53:48.989             0.000             0.000
       374   13 Jun 2027 07:54:11.383   13 Jun 2027 07:54:15.481             4.098          1428.969
       375   13 Jun 2027 07:55:46.852   13 Jun 2027 07:55:52.575             5.723          2075.187
       376   13 Jun 2027 09:26:25.553   13 Jun 2027 09:26:32.973             7.420          2548.344
       377   13 Jun 2027 09:28:52.526   13 Jun 2027 09:28:55.453             2.927          1115.500
       378   13 Jun 2027 09:29:29.261   13 Jun 2027 09:29:34.066             4.805          1056.500
       379   13 Jun 2027 09:31:00.076   13 Jun 2027 09:31:07.058             6.982          2427.500
       380   13 Jun 2027 09:32:58.144   13 Jun 2027 09:33:07.700             9.556          3346.937
       381   13 Jun 2027 09:33:25.585   13 Jun 2027 09:33:25.585             0.000             0.000
       382   13 Jun 2027 09:33:29.012   13 Jun 2027 09:33:29.236             0.224           112.000
       383   13 Jun 2027 09:33:40.691   13 Jun 2027 09:33:48.163             7.472           393.438
       384   13 Jun 2027 09:34:56.795   13 Jun 2027 09:34:58.075             1.280           640.000
       385   13 Jun 2027 11:03:57.347   13 Jun 2027 11:04:08.908            11.561          5723.594
       386   13 Jun 2027 11:05:56.989   13 Jun 2027 11:06:00.642             3.653          1207.781
       387   13 Jun 2027 11:07:39.554   13 Jun 2027 11:07:46.127             6.573          2725.594
       388   13 Jun 2027 11:08:16.997   13 Jun 2027 11:08:21.385             4.388           492.313
       389   13 Jun 2027 11:08:25.634   13 Jun 2027 11:08:26.492             0.858           130.562
       390   13 Jun 2027 11:08:26.528   13 Jun 2027 11:08:30.567             4.039             0.312
       391   13 Jun 2027 11:08:53.753   13 Jun 2027 11:08:54.755             1.002           244.156
       392   13 Jun 2027 11:09:12.951   13 Jun 2027 11:09:19.549             6.598           435.500
       393   13 Jun 2027 11:10:10.995   13 Jun 2027 11:10:14.990             3.995          1429.406
       394   13 Jun 2027 11:10:25.008   13 Jun 2027 11:10:25.875             0.867           107.375
       395   13 Jun 2027 11:10:37.051   13 Jun 2027 11:10:42.093             5.042           167.656
