uniorb/output/strategy_4/Camera/Camera_KinoSat_110507.txt

KinoSat_110507
-------------------------
    Access    *     Start Time (UTCG)     *     Stop Time (UTCG)  *   Duration (s) *   Data (Mbytes)
         1   01 Jun 2027 03:29:05.811   01 Jun 2027 03:30:15.487            69.676         34838.000
         2   01 Jun 2027 03:30:18.438   01 Jun 2027 03:30:23.975             5.537          2768.500
         3   01 Jun 2027 03:31:13.624   01 Jun 2027 03:31:20.347             6.723          3361.500
         4   01 Jun 2027 03:32:13.255   01 Jun 2027 03:32:33.684            20.429         10214.500
         5   01 Jun 2027 05:03:49.681   01 Jun 2027 05:06:30.088           160.407         80203.500
         6   01 Jun 2027 05:07:43.445   01 Jun 2027 05:08:03.676            20.231         10115.500
         7   01 Jun 2027 05:09:18.170   01 Jun 2027 05:09:30.696            12.526          6263.000
         8   01 Jun 2027 05:09:47.412   01 Jun 2027 05:09:50.519             3.107          1553.500
         9   01 Jun 2027 05:10:00.899   01 Jun 2027 05:10:29.353            28.454         14227.000
        10   01 Jun 2027 05:10:43.198   01 Jun 2027 05:10:48.180             4.982          2491.000
        11   01 Jun 2027 06:40:37.641   01 Jun 2027 06:42:56.064           138.423         69211.500
        12   01 Jun 2027 06:44:23.696   01 Jun 2027 06:44:45.557            21.861         10930.500
        13   01 Jun 2027 06:45:10.952   01 Jun 2027 06:45:16.003             5.051          2525.500
        14   01 Jun 2027 06:45:45.287   01 Jun 2027 06:45:55.331            10.044          5022.000
        15   01 Jun 2027 06:46:54.789   01 Jun 2027 06:46:58.639             3.850          1925.000
        16   01 Jun 2027 08:18:52.707   01 Jun 2027 08:21:11.992           139.285         69642.500
        17   01 Jun 2027 08:22:18.710   01 Jun 2027 08:22:35.530            16.820          8410.000
        18   01 Jun 2027 09:52:09.924   01 Jun 2027 09:53:42.314            92.390         46195.000
        19   01 Jun 2027 09:53:47.320   01 Jun 2027 09:54:39.193            51.873         25936.500
        20   01 Jun 2027 09:54:48.542   01 Jun 2027 09:55:02.208            13.666          6833.000
        21   01 Jun 2027 09:55:31.496   01 Jun 2027 09:55:49.012            17.516          8758.000
        22   01 Jun 2027 09:55:59.739   01 Jun 2027 09:56:04.452             4.713          2356.500
        23   01 Jun 2027 09:56:41.384   01 Jun 2027 09:56:47.881             6.497          3248.500
        24   01 Jun 2027 09:57:21.199   01 Jun 2027 09:57:34.429            13.230          6615.000
        25   01 Jun 2027 09:58:13.936   01 Jun 2027 09:58:22.354             8.418          4209.000
        26   01 Jun 2027 09:59:11.580   01 Jun 2027 09:59:29.328            17.748          8874.000
        27   02 Jun 2027 03:39:00.171   02 Jun 2027 03:40:17.969            77.798         38899.000
        28   02 Jun 2027 03:40:50.158   02 Jun 2027 03:45:43.129           292.971        146485.500
        29   02 Jun 2027 05:15:57.865   02 Jun 2027 05:19:06.742           188.877         94438.500
        30   02 Jun 2027 05:19:55.608   02 Jun 2027 05:20:13.649            18.041          9020.500
        31   02 Jun 2027 05:21:45.737   02 Jun 2027 05:21:49.032             3.295          1647.500
        32   02 Jun 2027 05:22:07.311   02 Jun 2027 05:22:56.568            49.257         24628.500
        33   02 Jun 2027 06:52:56.194   02 Jun 2027 06:58:48.873           352.679        176339.500
        34   02 Jun 2027 08:30:50.805   02 Jun 2027 08:34:50.188           239.383        119691.500
        35   02 Jun 2027 10:04:09.784   02 Jun 2027 10:10:25.986           376.202        188101.000
        36   02 Jun 2027 10:10:29.572   02 Jun 2027 10:11:57.206            87.634         43817.000
        37   03 Jun 2027 03:50:25.173   03 Jun 2027 03:58:02.607           457.434        228717.000
        38   03 Jun 2027 03:59:00.069   03 Jun 2027 03:59:02.801             2.732          1366.000
        39   03 Jun 2027 05:28:01.400   03 Jun 2027 05:35:25.568           444.168        222084.000
        40   03 Jun 2027 07:04:45.561   03 Jun 2027 07:10:48.941           363.380        181690.000
        41   03 Jun 2027 08:42:51.852   03 Jun 2027 08:46:59.333           247.481        123740.500
        42   03 Jun 2027 10:16:35.559   03 Jun 2027 10:22:28.495           352.936        176468.000
        43   04 Jun 2027 04:01:55.737   04 Jun 2027 04:10:10.398           494.661        247330.500
        44   04 Jun 2027 04:10:44.551   04 Jun 2027 04:11:29.024            44.473         22236.500
        45   04 Jun 2027 05:40:00.187   04 Jun 2027 05:47:27.100           446.913        223456.500
        46   04 Jun 2027 07:16:55.115   04 Jun 2027 07:22:01.781           306.666        153333.000
        47   04 Jun 2027 07:22:12.892   04 Jun 2027 07:23:21.478            68.586         34293.000
        48   04 Jun 2027 08:54:03.328   04 Jun 2027 08:58:57.560           294.232        147116.000
        49   04 Jun 2027 10:28:50.312   04 Jun 2027 10:30:02.445            72.133         36066.500
        50   04 Jun 2027 10:30:50.972   04 Jun 2027 10:34:07.531           196.559         98279.500
        51   05 Jun 2027 04:14:54.780   05 Jun 2027 04:23:28.427           513.647        256823.500
        52   05 Jun 2027 05:52:22.263   05 Jun 2027 05:59:12.088           409.825        204912.500
        53   05 Jun 2027 07:30:34.390   05 Jun 2027 07:33:51.781           197.391         98695.500
        54   05 Jun 2027 07:33:57.705   05 Jun 2027 07:35:13.522            75.817         37908.500
        55   05 Jun 2027 09:06:18.282   05 Jun 2027 09:10:52.543           274.261        137130.500
        56   05 Jun 2027 10:43:25.306   05 Jun 2027 10:45:54.399           149.093         74546.500
        57   06 Jun 2027 04:25:37.373   06 Jun 2027 04:25:46.097             8.724          4362.000
        58   06 Jun 2027 04:27:33.665   06 Jun 2027 04:34:21.506           407.841        203920.500
        59   06 Jun 2027 04:34:24.595   06 Jun 2027 04:35:22.657            58.062         29031.000
        60   06 Jun 2027 06:04:31.648   06 Jun 2027 06:11:16.586           404.938        202469.000
        61   06 Jun 2027 07:41:49.260   06 Jun 2027 07:45:57.289           248.029        124014.500
        62   06 Jun 2027 07:45:59.505   06 Jun 2027 07:46:38.388            38.883         19441.500
        63   06 Jun 2027 09:18:22.556   06 Jun 2027 09:23:23.539           300.983        150491.500
        64   06 Jun 2027 10:56:46.232   06 Jun 2027 10:57:16.298            30.066         15033.000
        65   07 Jun 2027 03:05:35.960   07 Jun 2027 03:09:14.655           218.695        109347.500
        66   07 Jun 2027 04:40:46.600   07 Jun 2027 04:47:24.766           398.166        199083.000
        67   07 Jun 2027 06:17:05.671   07 Jun 2027 06:23:22.577           376.906        188453.000
        68   07 Jun 2027 07:54:41.688   07 Jun 2027 07:59:01.289           259.601        129800.500
        69   07 Jun 2027 09:30:53.373   07 Jun 2027 09:34:54.001           240.628        120314.000
        70   08 Jun 2027 03:17:36.769   08 Jun 2027 03:21:05.924           209.155        104577.500
        71   08 Jun 2027 04:52:49.574   08 Jun 2027 04:59:30.329           400.755        200377.500
        72   08 Jun 2027 06:28:44.726   08 Jun 2027 06:35:03.830           379.104        189552.000
        73   08 Jun 2027 08:06:46.317   08 Jun 2027 08:11:07.970           261.653        130826.500
        74   08 Jun 2027 09:42:40.399   08 Jun 2027 09:46:48.400           248.001        124000.500
        75   08 Jun 2027 09:46:54.159   08 Jun 2027 09:47:45.489            51.330         25665.000
        76   09 Jun 2027 03:29:20.411   09 Jun 2027 03:33:41.580           261.169        130584.500
        77   09 Jun 2027 05:04:04.300   09 Jun 2027 05:11:37.356           453.056        226528.000
        78   09 Jun 2027 06:40:52.626   09 Jun 2027 06:47:13.315           380.689        190344.500
        79   09 Jun 2027 08:19:22.027   09 Jun 2027 08:23:02.286           220.259        110129.500
        80   09 Jun 2027 09:52:24.300   09 Jun 2027 09:53:56.836            92.536         46268.000
        81   09 Jun 2027 09:54:00.665   09 Jun 2027 09:58:45.264           284.599        142299.500
        82   09 Jun 2027 09:59:21.638   09 Jun 2027 10:00:07.917            46.279         23139.500
        83   10 Jun 2027 03:39:14.342   10 Jun 2027 03:40:32.678            78.336         39168.000
        84   10 Jun 2027 03:41:04.581   10 Jun 2027 03:45:57.842           293.261        146630.500
        85   10 Jun 2027 05:16:12.457   10 Jun 2027 05:23:36.506           444.049        222024.500
        86   10 Jun 2027 06:53:10.597   10 Jun 2027 06:59:03.668           353.071        176535.500
        87   10 Jun 2027 08:31:29.975   10 Jun 2027 08:35:04.830           214.855        107427.500
        88   10 Jun 2027 10:04:24.624   10 Jun 2027 10:10:40.957           376.333        188166.500
        89   10 Jun 2027 10:10:43.869   10 Jun 2027 10:12:11.715            87.846         43923.000
        90   11 Jun 2027 03:50:39.324   11 Jun 2027 03:58:17.447           458.123        229061.500
        91   11 Jun 2027 03:59:16.021   11 Jun 2027 03:59:17.472             1.451           725.500
        92   11 Jun 2027 05:28:15.200   11 Jun 2027 05:35:40.203           445.003        222501.500
        93   11 Jun 2027 07:05:00.139   11 Jun 2027 07:11:03.079           362.940        181470.000
        94   11 Jun 2027 08:43:07.500   11 Jun 2027 08:47:13.921           246.421        123210.500
        95   11 Jun 2027 10:16:50.855   11 Jun 2027 10:22:42.927           352.072        176036.000
        96   11 Jun 2027 10:23:36.507   11 Jun 2027 10:23:37.969             1.462           731.000
        97   12 Jun 2027 04:02:09.793   12 Jun 2027 04:10:25.104           495.311        247655.500
        98   12 Jun 2027 04:11:00.581   12 Jun 2027 04:11:43.640            43.059         21529.500
        99   12 Jun 2027 05:40:14.965   12 Jun 2027 05:47:41.650           446.685        223342.500
       100   12 Jun 2027 07:17:09.864   12 Jun 2027 07:22:16.123           306.259        153129.500
       101   12 Jun 2027 07:22:27.391   12 Jun 2027 07:23:35.874            68.483         34241.500
       102   12 Jun 2027 08:54:17.948   12 Jun 2027 08:59:12.172           294.224        147112.000
       103   12 Jun 2027 10:29:05.373   12 Jun 2027 10:30:17.042            71.669         35834.500
       104   12 Jun 2027 10:31:06.133   12 Jun 2027 10:34:21.975           195.842         97921.000
       105   13 Jun 2027 04:15:09.374   13 Jun 2027 04:23:43.030           513.656        256828.000
       106   13 Jun 2027 05:52:37.447   13 Jun 2027 05:59:26.756           409.309        204654.500
       107   13 Jun 2027 07:30:51.195   13 Jun 2027 07:34:06.436           195.241         97620.500
       108   13 Jun 2027 07:34:12.036   13 Jun 2027 07:35:28.167            76.131         38065.500
       109   13 Jun 2027 09:06:33.168   13 Jun 2027 09:11:06.997           273.829        136914.500
       110   13 Jun 2027 10:43:40.088   13 Jun 2027 10:46:08.850           148.762         74381.000
