uniorb/output/strategy_4/Camera/Camera_KinoSat_110303.txt

KinoSat_110303
-------------------------
    Access    *     Start Time (UTCG)     *     Stop Time (UTCG)  *   Duration (s) *   Data (Mbytes)
         1   01 Jun 2027 04:15:33.279   01 Jun 2027 04:17:48.430           135.151         67575.500
         2   01 Jun 2027 04:20:03.572   01 Jun 2027 04:20:18.386            14.814          7407.000
         3   01 Jun 2027 04:21:35.416   01 Jun 2027 04:22:20.287            44.871         22435.500
         4   01 Jun 2027 04:22:27.516   01 Jun 2027 04:22:37.954            10.438          5219.000
         5   01 Jun 2027 05:52:21.050   01 Jun 2027 05:56:03.864           222.814        111407.000
         6   01 Jun 2027 05:56:38.359   01 Jun 2027 05:56:49.776            11.417          5708.500
         7   01 Jun 2027 05:57:49.865   01 Jun 2027 05:57:54.489             4.624          2312.000
         8   01 Jun 2027 05:58:38.593   01 Jun 2027 05:58:50.997            12.404          6202.000
         9   01 Jun 2027 07:30:24.780   01 Jun 2027 07:33:21.775           176.995         88497.500
        10   01 Jun 2027 09:04:15.256   01 Jun 2027 09:07:34.060           198.804         99402.000
        11   01 Jun 2027 09:07:50.785   01 Jun 2027 09:07:55.255             4.470          2235.000
        12   01 Jun 2027 09:09:21.379   01 Jun 2027 09:09:41.228            19.849          9924.500
        13   01 Jun 2027 09:10:09.623   01 Jun 2027 09:10:42.997            33.374         16687.000
        14   02 Jun 2027 04:27:36.207   02 Jun 2027 04:34:56.323           440.116        220058.000
        15   02 Jun 2027 06:04:30.630   02 Jun 2027 06:09:33.572           302.942        151471.000
        16   02 Jun 2027 06:10:05.851   02 Jun 2027 06:10:26.260            20.409         10204.500
        17   02 Jun 2027 07:41:36.974   02 Jun 2027 07:46:30.275           293.301        146650.500
        18   02 Jun 2027 09:18:19.238   02 Jun 2027 09:21:37.993           198.755         99377.500
        19   03 Jun 2027 03:01:07.930   03 Jun 2027 03:11:01.854           593.924        296962.000
        20   03 Jun 2027 04:40:01.928   03 Jun 2027 04:46:46.839           404.911        202455.500
        21   03 Jun 2027 06:16:58.056   03 Jun 2027 06:21:21.431           263.375        131687.500
        22   03 Jun 2027 06:21:29.794   03 Jun 2027 06:22:44.926            75.132         37566.000
        23   03 Jun 2027 07:53:48.464   03 Jun 2027 07:58:21.042           272.578        136289.000
        24   03 Jun 2027 09:31:25.581   03 Jun 2027 09:33:08.508           102.927         51463.500
        25   04 Jun 2027 03:15:20.771   04 Jun 2027 03:21:56.004           395.233        197616.500
        26   04 Jun 2027 03:22:10.297   04 Jun 2027 03:22:57.097            46.800         23400.000
        27   04 Jun 2027 04:52:08.781   04 Jun 2027 04:58:51.512           402.731        201365.500
        28   04 Jun 2027 06:30:08.025   04 Jun 2027 06:34:17.165           249.140        124570.000
        29   04 Jun 2027 08:05:50.965   04 Jun 2027 08:10:38.768           287.803        143901.500
        30   05 Jun 2027 03:28:21.834   05 Jun 2027 03:34:58.768           396.934        198467.000
        31   05 Jun 2027 05:04:44.418   05 Jun 2027 05:10:57.380           372.962        186481.000
        32   05 Jun 2027 06:42:02.320   05 Jun 2027 06:46:37.574           275.254        137627.000
        33   05 Jun 2027 08:18:14.387   05 Jun 2027 08:22:57.790           283.403        141701.500
        34   06 Jun 2027 03:40:03.615   06 Jun 2027 03:47:06.037           422.422        211211.000
        35   06 Jun 2027 05:16:16.237   06 Jun 2027 05:22:43.910           387.673        193836.500
        36   06 Jun 2027 06:54:29.101   06 Jun 2027 06:58:27.822           238.721        119360.500
        37   06 Jun 2027 08:30:08.931   06 Jun 2027 08:34:20.645           251.714        125857.000
        38   06 Jun 2027 08:35:01.427   06 Jun 2027 08:35:24.951            23.524         11762.000
        39   07 Jun 2027 03:51:36.942   07 Jun 2027 03:59:10.926           453.984        226992.000
        40   07 Jun 2027 05:28:38.231   07 Jun 2027 05:34:45.929           367.698        183849.000
        41   07 Jun 2027 07:06:38.327   07 Jun 2027 07:10:35.346           237.019        118509.500
        42   07 Jun 2027 08:39:51.780   07 Jun 2027 08:46:01.969           370.189        185094.500
        43   07 Jun 2027 08:46:03.435   07 Jun 2027 08:46:47.148            43.713         21856.500
        44   07 Jun 2027 08:47:02.926   07 Jun 2027 08:47:16.375            13.449          6724.500
        45   08 Jun 2027 04:03:46.275   08 Jun 2027 04:11:11.949           445.674        222837.000
        46   08 Jun 2027 05:40:42.834   08 Jun 2027 05:46:51.879           369.045        184522.500
        47   08 Jun 2027 07:18:54.257   08 Jun 2027 07:22:37.603           223.346        111673.000
        48   08 Jun 2027 08:52:10.689   08 Jun 2027 08:59:17.000           426.311        213155.500
        49   09 Jun 2027 04:15:48.211   09 Jun 2027 04:23:13.682           445.471        222735.500
        50   09 Jun 2027 05:52:35.809   09 Jun 2027 05:58:29.017           353.208        176604.000
        51   09 Jun 2027 05:59:09.356   09 Jun 2027 05:59:18.286             8.930          4465.000
        52   09 Jun 2027 07:30:39.622   09 Jun 2027 07:34:47.205           247.583        123791.500
        53   09 Jun 2027 09:04:29.736   09 Jun 2027 09:11:10.433           400.697        200348.500
        54   10 Jun 2027 04:27:51.071   10 Jun 2027 04:35:10.895           439.824        219912.000
        55   10 Jun 2027 06:04:45.451   10 Jun 2027 06:09:48.190           302.739        151369.500
        56   10 Jun 2027 06:10:19.333   10 Jun 2027 06:11:05.712            46.379         23189.500
        57   10 Jun 2027 07:41:53.701   10 Jun 2027 07:46:44.954           291.253        145626.500
        58   10 Jun 2027 09:16:53.466   10 Jun 2027 09:17:36.526            43.060         21530.000
        59   10 Jun 2027 09:18:43.693   10 Jun 2027 09:21:52.456           188.763         94381.500
        60   11 Jun 2027 03:01:22.740   11 Jun 2027 03:11:16.551           593.811        296905.500
        61   11 Jun 2027 04:40:16.957   11 Jun 2027 04:47:01.515           404.558        202279.000
        62   11 Jun 2027 06:17:12.723   11 Jun 2027 06:21:36.165           263.442        131721.000
        63   11 Jun 2027 06:21:41.773   11 Jun 2027 06:22:59.518            77.745         38872.500
        64   11 Jun 2027 07:54:03.172   11 Jun 2027 07:58:35.792           272.620        136310.000
        65   11 Jun 2027 09:32:13.163   11 Jun 2027 09:33:23.607            70.444         35222.000
        66   12 Jun 2027 03:15:44.910   12 Jun 2027 03:22:10.692           385.782        192891.000
        67   12 Jun 2027 03:22:25.182   12 Jun 2027 03:23:11.906            46.724         23362.000
        68   12 Jun 2027 04:52:24.731   12 Jun 2027 04:59:06.335           401.604        200802.000
        69   12 Jun 2027 06:30:13.883   12 Jun 2027 06:34:33.344           259.461        129730.500
        70   12 Jun 2027 08:06:05.654   12 Jun 2027 08:10:53.219           287.565        143782.500
        71   13 Jun 2027 03:28:36.454   13 Jun 2027 03:35:13.542           397.088        198544.000
        72   13 Jun 2027 05:04:59.385   13 Jun 2027 05:11:12.040           372.655        186327.500
        73   13 Jun 2027 06:42:13.966   13 Jun 2027 06:46:52.380           278.414        139207.000
        74   13 Jun 2027 08:18:29.625   13 Jun 2027 08:23:12.978           283.353        141676.500
