uniorb/output/strategy_4/Camera/Camera_KinoSat_111710.txt

KinoSat_111710
-------------------------
    Access    *     Start Time (UTCG)     *     Stop Time (UTCG)  *   Duration (s) *   Data (Mbytes)
         1   01 Jun 2027 03:58:44.183   01 Jun 2027 03:59:45.480            61.297         30648.500
         2   01 Jun 2027 03:59:51.106   01 Jun 2027 04:00:20.508            29.402         14701.000
         3   01 Jun 2027 04:00:26.507   01 Jun 2027 04:01:16.044            49.537         24768.500
         4   01 Jun 2027 04:01:29.639   01 Jun 2027 04:01:34.439             4.800          2400.000
         5   01 Jun 2027 04:01:44.472   01 Jun 2027 04:01:46.449             1.977           988.500
         6   01 Jun 2027 04:02:21.125   01 Jun 2027 04:02:29.136             8.011          4005.500
         7   01 Jun 2027 05:37:46.109   01 Jun 2027 05:39:53.221           127.112         63556.000
         8   01 Jun 2027 07:00:18.465   01 Jun 2027 07:01:50.051            91.586         45793.000
         9   01 Jun 2027 08:36:43.871   01 Jun 2027 08:37:09.923            26.052         13026.000
        10   01 Jun 2027 08:37:38.887   01 Jun 2027 08:39:28.050           109.163         54581.500
        11   01 Jun 2027 10:11:52.169   01 Jun 2027 10:13:03.402            71.233         35616.500
        12   01 Jun 2027 10:13:51.714   01 Jun 2027 10:14:59.693            67.979         33989.500
        13   01 Jun 2027 10:15:36.553   01 Jun 2027 10:15:36.553             0.000             0.000
        14   01 Jun 2027 10:17:38.243   01 Jun 2027 10:17:54.240            15.997          7998.500
        15   01 Jun 2027 10:18:16.805   01 Jun 2027 10:18:39.757            22.952         11476.000
        16   01 Jun 2027 11:48:13.408   01 Jun 2027 11:48:52.714            39.306         19653.000
        17   01 Jun 2027 11:50:01.306   01 Jun 2027 11:50:10.816             9.510          4755.000
        18   01 Jun 2027 11:50:57.713   01 Jun 2027 11:52:06.236            68.523         34261.500
        19   01 Jun 2027 11:53:17.289   01 Jun 2027 11:53:36.328            19.039          9519.500
        20   02 Jun 2027 04:10:41.753   02 Jun 2027 04:11:30.234            48.481         24240.500
        21   02 Jun 2027 04:11:48.311   02 Jun 2027 04:12:57.590            69.279         34639.500
        22   02 Jun 2027 04:13:38.885   02 Jun 2027 04:13:44.915             6.030          3015.000
        23   02 Jun 2027 04:14:08.098   02 Jun 2027 04:14:28.561            20.463         10231.500
        24   02 Jun 2027 04:16:16.251   02 Jun 2027 04:16:19.456             3.205          1602.500
        25   02 Jun 2027 04:16:28.567   02 Jun 2027 04:16:49.299            20.732         10366.000
        26   02 Jun 2027 05:48:55.758   02 Jun 2027 05:49:57.548            61.790         30895.000
        27   02 Jun 2027 05:50:03.563   02 Jun 2027 05:52:41.065           157.502         78751.000
        28   02 Jun 2027 07:12:16.879   02 Jun 2027 07:13:36.747            79.868         39934.000
        29   02 Jun 2027 07:14:58.383   02 Jun 2027 07:14:58.383             0.000             0.000
        30   02 Jun 2027 08:48:53.917   02 Jun 2027 08:51:27.051           153.134         76567.000
        31   02 Jun 2027 10:24:03.853   02 Jun 2027 10:25:28.269            84.416         42208.000
        32   02 Jun 2027 10:25:45.480   02 Jun 2027 10:25:49.574             4.094          1540.187
        33   02 Jun 2027 10:26:56.550   02 Jun 2027 10:27:00.574             4.024          1683.750
        34   02 Jun 2027 10:30:26.785   02 Jun 2027 10:30:39.754            12.969          6136.406
        35   03 Jun 2027 04:23:47.237   03 Jun 2027 04:25:17.010            89.773         44886.500
        36   03 Jun 2027 04:25:55.494   03 Jun 2027 04:26:02.156             6.662          3331.000
        37   03 Jun 2027 04:27:59.394   03 Jun 2027 04:29:01.335            61.941         30970.500
        38   03 Jun 2027 04:30:37.821   03 Jun 2027 04:30:45.745             7.924          3962.000
        39   03 Jun 2027 05:50:08.865   03 Jun 2027 05:50:15.681             6.816          3408.000
        40   03 Jun 2027 06:00:53.190   03 Jun 2027 06:01:35.282            42.092         21046.000
        41   03 Jun 2027 06:01:40.899   03 Jun 2027 06:03:26.000           105.101         51204.875
        42   03 Jun 2027 06:04:20.328   03 Jun 2027 06:04:25.059             4.731          1556.719
        43   03 Jun 2027 07:24:53.208   03 Jun 2027 07:25:05.452            12.244          4833.219
        44   03 Jun 2027 07:25:24.658   03 Jun 2027 07:25:25.144             0.486           133.031
        45   03 Jun 2027 07:26:53.583   03 Jun 2027 07:26:58.393             4.810          2386.750
        46   03 Jun 2027 09:00:37.962   03 Jun 2027 09:00:44.457             6.495          2603.437
        47   03 Jun 2027 09:02:40.733   03 Jun 2027 09:02:47.866             7.133          3278.781
        48   03 Jun 2027 09:03:04.866   03 Jun 2027 09:03:09.327             4.461           229.625
        49   03 Jun 2027 09:03:25.248   03 Jun 2027 09:03:25.248             0.000             0.000
        50   03 Jun 2027 10:35:29.988   03 Jun 2027 10:35:41.070            11.082          4174.906
        51   03 Jun 2027 10:37:57.231   03 Jun 2027 10:38:04.551             7.320          3589.844
        52   03 Jun 2027 10:38:39.926   03 Jun 2027 10:38:44.226             4.300           729.500
        53   03 Jun 2027 10:40:59.267   03 Jun 2027 10:41:07.973             8.706          3974.906
        54   03 Jun 2027 10:42:02.121   03 Jun 2027 10:42:03.439             1.318           539.719
        55   04 Jun 2027 03:00:00.000   04 Jun 2027 03:00:14.175            14.175          7087.500
        56   04 Jun 2027 03:00:30.916   04 Jun 2027 03:00:41.410            10.494          5247.000
        57   04 Jun 2027 03:02:13.189   04 Jun 2027 03:02:37.183            23.994         11997.000
        58   04 Jun 2027 03:03:10.915   04 Jun 2027 03:03:12.566             1.651           825.500
        59   04 Jun 2027 04:36:07.860   04 Jun 2027 04:38:19.887           132.027         66013.500
        60   04 Jun 2027 04:38:52.830   04 Jun 2027 04:38:52.830             0.000             0.000
        61   04 Jun 2027 04:39:37.102   04 Jun 2027 04:40:05.574            28.472         14236.000
        62   04 Jun 2027 04:40:38.291   04 Jun 2027 04:41:04.621            26.330         13165.000
        63   04 Jun 2027 04:42:08.712   04 Jun 2027 04:42:19.663            10.951          5475.500
        64   04 Jun 2027 04:43:25.762   04 Jun 2027 04:43:32.212             6.450          3225.000
        65   04 Jun 2027 06:01:26.103   04 Jun 2027 06:02:15.907            49.804         24902.000
        66   04 Jun 2027 06:12:51.681   04 Jun 2027 06:13:32.714            41.033         16694.750
        67   04 Jun 2027 07:35:31.107   04 Jun 2027 07:35:43.141            12.034          5978.063
        68   04 Jun 2027 07:35:52.153   04 Jun 2027 07:35:52.875             0.722           170.781
        69   04 Jun 2027 07:37:37.242   04 Jun 2027 07:37:43.162             5.920          2360.312
        70   04 Jun 2027 07:38:58.017   04 Jun 2027 07:39:04.596             6.579          2172.250
        71   04 Jun 2027 07:39:45.568   04 Jun 2027 07:39:48.286             2.718           788.375
        72   04 Jun 2027 09:10:52.228   04 Jun 2027 09:11:00.510             8.282          2833.375
        73   04 Jun 2027 09:13:10.606   04 Jun 2027 09:13:15.936             5.330          1969.563
        74   04 Jun 2027 09:13:59.223   04 Jun 2027 09:14:03.108             3.885           147.031
        75   04 Jun 2027 09:15:27.901   04 Jun 2027 09:15:32.022             4.121           245.656
        76   04 Jun 2027 09:16:17.993   04 Jun 2027 09:16:20.835             2.842          1026.594
        77   04 Jun 2027 10:47:20.039   04 Jun 2027 10:47:27.446             7.407          3231.188
        78   04 Jun 2027 10:50:30.847   04 Jun 2027 10:50:43.315            12.468          5348.344
        79   04 Jun 2027 10:51:49.008   04 Jun 2027 10:51:54.672             5.664          1971.875
        80   04 Jun 2027 10:51:57.283   04 Jun 2027 10:51:57.862             0.579            12.625
        81   04 Jun 2027 10:52:11.099   04 Jun 2027 10:52:12.780             1.681           413.656
        82   04 Jun 2027 10:52:58.363   04 Jun 2027 10:52:58.363             0.000             0.000
        83   04 Jun 2027 10:54:04.291   04 Jun 2027 10:54:12.953             8.662          3312.125
        84   05 Jun 2027 03:09:17.990   05 Jun 2027 03:10:26.016            68.026         34013.000
        85   05 Jun 2027 03:11:15.906   05 Jun 2027 03:11:19.402             3.496          1748.000
        86   05 Jun 2027 03:11:56.490   05 Jun 2027 03:12:01.323             4.833          2416.500
        87   05 Jun 2027 03:13:01.703   05 Jun 2027 03:13:25.758            24.055         12027.500
        88   05 Jun 2027 03:14:02.270   05 Jun 2027 03:14:16.900            14.630          7315.000
        89   05 Jun 2027 03:14:33.973   05 Jun 2027 03:14:37.406             3.433          1716.500
        90   05 Jun 2027 04:48:22.661   05 Jun 2027 04:49:49.808            87.147         43573.500
        91   05 Jun 2027 04:50:39.653   05 Jun 2027 04:52:21.028           101.375         50065.032
        92   05 Jun 2027 04:53:23.580   05 Jun 2027 04:53:25.539             1.959           505.656
        93   05 Jun 2027 04:53:34.718   05 Jun 2027 04:53:36.424             1.706           186.281
        94   05 Jun 2027 04:54:18.574   05 Jun 2027 04:54:20.432             1.858           247.344
        95   05 Jun 2027 04:55:11.391   05 Jun 2027 04:55:15.554             4.163          1166.688
        96   05 Jun 2027 06:12:39.722   05 Jun 2027 06:12:55.693            15.971          7569.594
        97   05 Jun 2027 06:14:24.841   05 Jun 2027 06:14:29.952             5.111          2449.781
        98   05 Jun 2027 06:24:51.015   05 Jun 2027 06:24:55.110             4.095          1696.594
        99   05 Jun 2027 07:47:07.601   05 Jun 2027 07:47:19.437            11.836          5547.906
       100   05 Jun 2027 07:47:59.164   05 Jun 2027 07:48:01.731             2.567           956.062
       101   05 Jun 2027 07:50:14.162   05 Jun 2027 07:50:21.183             7.021          2766.875
       102   05 Jun 2027 09:22:01.345   05 Jun 2027 09:22:09.225             7.880          3867.375
       103   05 Jun 2027 09:23:39.268   05 Jun 2027 09:23:43.375             4.107          1040.406
       104   05 Jun 2027 09:25:16.235   05 Jun 2027 09:25:21.466             5.231           245.125
       105   05 Jun 2027 09:25:52.691   05 Jun 2027 09:25:53.643             0.952           341.000
       106   05 Jun 2027 09:27:42.260   05 Jun 2027 09:27:43.869             1.609           673.812
       107   05 Jun 2027 09:28:34.028   05 Jun 2027 09:28:36.610             2.582          1117.781
       108   05 Jun 2027 09:29:11.151   05 Jun 2027 09:29:16.254             5.103           996.094
       109   05 Jun 2027 10:59:34.795   05 Jun 2027 10:59:46.989            12.194          4797.375
       110   05 Jun 2027 11:02:35.934   05 Jun 2027 11:02:37.540             1.606           124.594
       111   05 Jun 2027 11:02:54.019   05 Jun 2027 11:02:58.302             4.283           514.969
       112   05 Jun 2027 11:03:49.682   05 Jun 2027 11:03:54.394             4.712          1581.281
       113   05 Jun 2027 11:04:51.067   05 Jun 2027 11:04:53.110             2.043           901.125
       114   05 Jun 2027 11:05:32.823   05 Jun 2027 11:05:32.823             0.000             0.000
       115   05 Jun 2027 11:05:40.664   05 Jun 2027 11:05:45.240             4.576          1376.594
       116   05 Jun 2027 11:06:04.258   05 Jun 2027 11:06:06.994             2.736           479.719
       117   05 Jun 2027 11:06:46.574   05 Jun 2027 11:06:54.397             7.823           910.094
       118   06 Jun 2027 03:21:45.119   06 Jun 2027 03:22:02.545            17.426          8713.000
       119   06 Jun 2027 03:22:10.791   06 Jun 2027 03:22:39.971            29.180         14590.000
       120   06 Jun 2027 03:23:05.685   06 Jun 2027 03:23:39.082            33.397         16698.500
       121   06 Jun 2027 03:23:41.293   06 Jun 2027 03:23:59.361            18.068          9034.000
       122   06 Jun 2027 03:24:43.884   06 Jun 2027 03:25:53.731            69.847         34923.500
       123   06 Jun 2027 03:27:07.275   06 Jun 2027 03:27:32.618            25.343         12671.500
       124   06 Jun 2027 05:00:27.888   06 Jun 2027 05:02:15.597           107.709         53854.500
       125   06 Jun 2027 05:03:09.167   06 Jun 2027 05:03:17.265             8.098          4047.750
       126   06 Jun 2027 05:05:01.417   06 Jun 2027 05:05:05.405             3.988          1434.156
       127   06 Jun 2027 05:06:49.616   06 Jun 2027 05:06:51.674             2.058           866.375
       128   06 Jun 2027 05:07:12.160   06 Jun 2027 05:07:14.359             2.199           131.875
       129   06 Jun 2027 06:24:44.731   06 Jun 2027 06:24:58.125            13.394          5130.656
       130   06 Jun 2027 06:25:15.335   06 Jun 2027 06:25:15.335             0.000             0.000
       131   06 Jun 2027 06:25:49.026   06 Jun 2027 06:25:52.386             3.360          1237.406
       132   06 Jun 2027 06:26:37.296   06 Jun 2027 06:26:38.666             1.370           277.375
       133   06 Jun 2027 06:37:07.119   06 Jun 2027 06:37:14.535             7.416          3654.750
       134   06 Jun 2027 07:58:37.191   06 Jun 2027 07:58:46.412             9.221          4419.438
       135   06 Jun 2027 07:59:31.743   06 Jun 2027 07:59:35.609             3.866           478.719
       136   06 Jun 2027 08:00:48.407   06 Jun 2027 08:00:50.735             2.328           764.844
       137   06 Jun 2027 08:02:19.095   06 Jun 2027 08:02:24.486             5.391          2223.062
       138   06 Jun 2027 08:03:45.142   06 Jun 2027 08:03:49.553             4.411          2205.500
       139   06 Jun 2027 08:03:58.291   06 Jun 2027 08:04:12.046            13.755           588.062
       140   06 Jun 2027 09:33:32.098   06 Jun 2027 09:33:40.794             8.696          3566.844
       141   06 Jun 2027 09:35:32.522   06 Jun 2027 09:35:37.019             4.497          2187.063
       142   06 Jun 2027 09:35:45.647   06 Jun 2027 09:35:47.558             1.911           236.219
       143   06 Jun 2027 09:37:13.635   06 Jun 2027 09:37:18.602             4.967          2415.469
       144   06 Jun 2027 09:39:20.823   06 Jun 2027 09:39:40.732            19.909          2735.281
       145   06 Jun 2027 09:40:33.504   06 Jun 2027 09:40:35.611             2.107            39.750
       146   06 Jun 2027 09:40:44.771   06 Jun 2027 09:40:45.394             0.623           286.250
       147   06 Jun 2027 09:41:13.173   06 Jun 2027 09:41:17.437             4.264           619.969
       148   06 Jun 2027 09:41:24.639   06 Jun 2027 09:41:32.352             7.713            25.688
       149   06 Jun 2027 09:42:08.415   06 Jun 2027 09:42:13.937             5.522           840.969
       150   06 Jun 2027 11:11:29.009   06 Jun 2027 11:11:40.424            11.415          5412.750
       151   06 Jun 2027 11:15:55.741   06 Jun 2027 11:16:12.479            16.738          7978.656
       152   06 Jun 2027 11:16:20.314   06 Jun 2027 11:16:21.788             1.474           199.719
       153   06 Jun 2027 11:16:21.855   06 Jun 2027 11:16:29.555             7.700             2.094
       154   06 Jun 2027 11:16:50.921   06 Jun 2027 11:16:53.842             2.921           596.313
       155   06 Jun 2027 11:17:18.741   06 Jun 2027 11:17:24.130             5.389           778.094
       156   06 Jun 2027 11:17:44.993   06 Jun 2027 11:17:47.558             2.565           580.969
       157   06 Jun 2027 11:18:27.816   06 Jun 2027 11:18:30.547             2.731          1248.375
       158   07 Jun 2027 03:34:21.323   07 Jun 2027 03:34:33.248            11.925          5962.500
       159   07 Jun 2027 03:34:44.275   07 Jun 2027 03:35:45.078            60.803         30401.500
       160   07 Jun 2027 03:35:52.276   07 Jun 2027 03:36:27.858            35.582         17791.000
       161   07 Jun 2027 03:36:29.966   07 Jun 2027 03:38:00.171            90.205         45102.500
       162   07 Jun 2027 03:39:17.423   07 Jun 2027 03:39:25.232             7.809          3904.500
       163   07 Jun 2027 05:12:51.774   07 Jun 2027 05:14:23.210            91.436         45445.594
       164   07 Jun 2027 05:14:56.324   07 Jun 2027 05:14:58.478             2.154          1031.969
       165   07 Jun 2027 05:16:20.354   07 Jun 2027 05:16:22.700             2.346           724.906
       166   07 Jun 2027 05:17:15.904   07 Jun 2027 05:17:16.799             0.895           188.562
       167   07 Jun 2027 06:36:41.240   07 Jun 2027 06:36:55.080            13.840          6168.438
       168   07 Jun 2027 06:37:50.497   07 Jun 2027 06:37:52.421             1.924           962.000
       169   07 Jun 2027 06:38:42.073   07 Jun 2027 06:38:46.794             4.721          2033.250
       170   07 Jun 2027 08:12:40.376   07 Jun 2027 08:12:50.607            10.231          5115.500
       171   07 Jun 2027 08:13:05.082   07 Jun 2027 08:13:08.771             3.689          1335.594
       172   07 Jun 2027 08:13:27.836   07 Jun 2027 08:13:30.519             2.683           397.250
       173   07 Jun 2027 08:14:26.127   07 Jun 2027 08:14:34.166             8.039          1639.375
       174   07 Jun 2027 08:15:26.769   07 Jun 2027 08:15:31.168             4.399          1064.438
       175   07 Jun 2027 09:46:26.270   07 Jun 2027 09:46:36.549            10.279          3049.094
       176   07 Jun 2027 09:48:07.066   07 Jun 2027 09:48:10.349             3.283          1050.406
       177   07 Jun 2027 09:48:39.133   07 Jun 2027 09:48:40.349             1.216           217.625
       178   07 Jun 2027 09:49:00.458   07 Jun 2027 09:49:01.750             1.292           537.375
       179   07 Jun 2027 09:51:20.310   07 Jun 2027 09:51:26.410             6.100          2621.813
       180   07 Jun 2027 09:53:14.578   07 Jun 2027 09:53:20.851             6.273          1620.094
       181   07 Jun 2027 09:53:41.143   07 Jun 2027 09:53:42.433             1.290           221.563
       182   07 Jun 2027 11:23:49.394   07 Jun 2027 11:24:04.052            14.658          6314.094
       183   07 Jun 2027 11:25:10.062   07 Jun 2027 11:25:10.977             0.915           162.875
       184   07 Jun 2027 11:28:29.302   07 Jun 2027 11:28:40.206            10.904          4341.187
       185   07 Jun 2027 11:28:49.712   07 Jun 2027 11:28:50.758             1.046           297.063
       186   07 Jun 2027 11:30:13.224   07 Jun 2027 11:30:16.296             3.072          1262.562
       187   07 Jun 2027 11:30:21.791   07 Jun 2027 11:30:23.327             1.536           168.031
       188   07 Jun 2027 11:30:24.984   07 Jun 2027 11:30:25.277             0.293            51.781
       189   07 Jun 2027 11:30:32.840   07 Jun 2027 11:30:35.151             2.311            98.750
       190   08 Jun 2027 03:46:53.790   08 Jun 2027 03:47:20.011            26.221         13110.500
       191   08 Jun 2027 03:47:27.656   08 Jun 2027 03:49:19.968           112.312         56156.000
       192   08 Jun 2027 03:50:18.958   08 Jun 2027 03:50:50.109            31.151         15575.500
       193   08 Jun 2027 03:51:16.992   08 Jun 2027 03:51:42.941            25.949         12974.500
       194   08 Jun 2027 03:52:10.915   08 Jun 2027 03:52:14.567             3.652          1826.000
       195   08 Jun 2027 03:52:23.833   08 Jun 2027 03:52:30.522             6.689          3344.500
       196   08 Jun 2027 03:52:30.937   08 Jun 2027 03:52:33.853             2.916          1458.000
       197   08 Jun 2027 05:25:10.517   08 Jun 2027 05:25:31.328            20.811         10405.500
       198   08 Jun 2027 05:25:55.820   08 Jun 2027 05:27:25.364            89.544         43691.688
       199   08 Jun 2027 05:28:04.876   08 Jun 2027 05:28:07.869             2.993          1021.531
       200   08 Jun 2027 05:29:06.808   08 Jun 2027 05:29:12.285             5.477          1134.063
       201   08 Jun 2027 05:29:27.901   08 Jun 2027 05:29:29.835             1.934           360.219
       202   08 Jun 2027 06:48:32.771   08 Jun 2027 06:48:44.105            11.334          5243.281
       203   08 Jun 2027 06:49:51.797   08 Jun 2027 06:50:00.435             8.638          1705.344
       204   08 Jun 2027 06:50:34.445   08 Jun 2027 06:50:36.003             1.558           615.313
       205   08 Jun 2027 06:51:02.933   08 Jun 2027 06:51:04.689             1.756           841.563
       206   08 Jun 2027 08:24:54.968   08 Jun 2027 08:25:12.883            17.915          7389.531
       207   08 Jun 2027 08:25:30.703   08 Jun 2027 08:25:31.836             1.133           256.938
       208   08 Jun 2027 08:26:35.349   08 Jun 2027 08:26:40.248             4.899          1593.062
       209   08 Jun 2027 08:26:48.916   08 Jun 2027 08:26:50.325             1.409           225.844
       210   08 Jun 2027 08:27:31.042   08 Jun 2027 08:27:34.589             3.547          1272.406
       211   08 Jun 2027 09:58:58.995   08 Jun 2027 09:59:04.523             5.528          2368.500
       212   08 Jun 2027 10:00:40.712   08 Jun 2027 10:00:45.330             4.618          2088.437
       213   08 Jun 2027 10:01:01.289   08 Jun 2027 10:01:02.267             0.978           223.937
       214   08 Jun 2027 10:02:02.120   08 Jun 2027 10:02:03.292             1.172           485.500
       215   08 Jun 2027 10:02:54.651   08 Jun 2027 10:02:56.526             1.875           561.063
       216   08 Jun 2027 10:03:21.096   08 Jun 2027 10:03:24.600             3.504           767.813
       217   08 Jun 2027 10:05:16.163   08 Jun 2027 10:05:18.187             2.024          1012.000
       218   08 Jun 2027 10:05:31.840   08 Jun 2027 10:05:35.516             3.676          1487.813
       219   08 Jun 2027 10:06:03.076   08 Jun 2027 10:06:06.183             3.107           631.250
       220   08 Jun 2027 10:06:53.214   08 Jun 2027 10:06:55.364             2.150          1033.688
       221   08 Jun 2027 11:36:03.564   08 Jun 2027 11:36:13.705            10.141          4974.969
       222   08 Jun 2027 11:37:38.532   08 Jun 2027 11:37:41.632             3.100           882.563
       223   08 Jun 2027 11:38:09.674   08 Jun 2027 11:38:10.744             1.070            16.656
       224   08 Jun 2027 11:40:03.173   08 Jun 2027 11:40:09.206             6.033          2364.969
       225   08 Jun 2027 11:40:56.705   08 Jun 2027 11:41:00.729             4.024          1078.438
       226   08 Jun 2027 11:41:47.030   08 Jun 2027 11:41:50.309             3.279          1427.906
       227   08 Jun 2027 11:42:09.095   08 Jun 2027 11:42:10.771             1.676           454.219
       228   08 Jun 2027 11:42:38.019   08 Jun 2027 11:42:41.325             3.306           851.500
       229   09 Jun 2027 03:58:59.903   09 Jun 2027 04:00:01.489            61.586         30793.000
       230   09 Jun 2027 04:00:07.862   09 Jun 2027 04:00:33.995            26.133         13066.500
       231   09 Jun 2027 04:01:03.982   09 Jun 2027 04:02:19.928            75.946         37973.000
       232   09 Jun 2027 04:02:55.363   09 Jun 2027 04:03:28.214            32.851         16425.500
       233   09 Jun 2027 04:03:44.725   09 Jun 2027 04:03:46.995             2.270          1135.000
       234   09 Jun 2027 04:04:11.820   09 Jun 2027 04:04:37.753            25.933         12966.500
       235   09 Jun 2027 05:38:04.597   09 Jun 2027 05:39:43.172            98.575         48595.937
       236   09 Jun 2027 07:00:36.589   09 Jun 2027 07:00:46.409             9.820          4637.844
       237   09 Jun 2027 07:02:31.628   09 Jun 2027 07:02:38.713             7.085          3256.406
       238   09 Jun 2027 08:37:05.799   09 Jun 2027 08:37:10.808             5.009          2450.219
       239   09 Jun 2027 08:37:58.365   09 Jun 2027 08:38:06.317             7.952          1276.531
       240   09 Jun 2027 08:38:46.846   09 Jun 2027 08:38:49.508             2.662          1254.156
       241   09 Jun 2027 08:39:33.163   09 Jun 2027 08:39:42.733             9.570           960.344
       242   09 Jun 2027 10:12:10.772   09 Jun 2027 10:12:15.701             4.929          2291.781
       243   09 Jun 2027 10:13:19.832   09 Jun 2027 10:13:22.741             2.909          1070.875
       244   09 Jun 2027 10:14:10.532   09 Jun 2027 10:14:14.127             3.595          1493.469
       245   09 Jun 2027 10:15:30.941   09 Jun 2027 10:15:34.155             3.214           438.844
       246   09 Jun 2027 10:17:17.026   09 Jun 2027 10:17:23.127             6.101          2663.719
       247   09 Jun 2027 10:18:34.481   09 Jun 2027 10:18:43.091             8.610          2062.625
       248   09 Jun 2027 11:48:32.780   09 Jun 2027 11:48:42.359             9.579          4431.875
       249   09 Jun 2027 11:50:28.667   09 Jun 2027 11:50:29.559             0.892           291.250
       250   09 Jun 2027 11:51:48.568   09 Jun 2027 11:51:53.256             4.688          1037.688
       251   09 Jun 2027 11:52:10.877   09 Jun 2027 11:52:11.049             0.172            68.406
       252   09 Jun 2027 11:52:24.280   09 Jun 2027 11:52:25.756             1.476            44.188
       253   09 Jun 2027 11:52:54.607   09 Jun 2027 11:52:56.334             1.727           537.125
       254   09 Jun 2027 11:53:56.177   09 Jun 2027 11:53:58.511             2.334          1051.312
       255   09 Jun 2027 11:54:30.506   09 Jun 2027 11:54:36.969             6.463           960.437
       256   09 Jun 2027 11:54:44.762   09 Jun 2027 11:54:47.295             2.533           242.063
       257   10 Jun 2027 04:10:59.657   10 Jun 2027 04:11:44.025            44.368         22184.000
       258   10 Jun 2027 04:12:05.462   10 Jun 2027 04:14:19.786           134.324         67162.000
       259   10 Jun 2027 04:16:12.936   10 Jun 2027 04:16:15.858             2.922          1461.000
       260   10 Jun 2027 04:16:27.467   10 Jun 2027 04:16:36.769             9.302          4651.000
       261   10 Jun 2027 05:49:12.511   10 Jun 2027 05:51:18.413           125.902         61190.469
       262   10 Jun 2027 05:51:59.670   10 Jun 2027 05:52:03.267             3.597          1245.219
       263   10 Jun 2027 07:12:33.036   10 Jun 2027 07:12:45.047            12.011          5854.438
       264   10 Jun 2027 07:13:25.678   10 Jun 2027 07:13:27.663             1.985           595.219
       265   10 Jun 2027 07:15:14.037   10 Jun 2027 07:15:16.484             2.447          1223.500
       266   10 Jun 2027 07:15:40.866   10 Jun 2027 07:15:46.420             5.554          2634.312
       267   10 Jun 2027 08:49:10.839   10 Jun 2027 08:49:16.725             5.886          2146.969
       268   10 Jun 2027 08:50:35.236   10 Jun 2027 08:50:36.677             1.441           400.781
       269   10 Jun 2027 08:50:57.341   10 Jun 2027 08:50:59.491             2.150           645.750
       270   10 Jun 2027 08:52:35.346   10 Jun 2027 08:52:37.528             2.182          1091.000
       271   10 Jun 2027 10:24:21.199   10 Jun 2027 10:24:32.493            11.294          4216.125
       272   10 Jun 2027 10:25:47.930   10 Jun 2027 10:25:52.661             4.731          2311.594
       273   10 Jun 2027 10:26:21.758   10 Jun 2027 10:26:23.276             1.518           500.125
       274   10 Jun 2027 10:29:17.375   10 Jun 2027 10:29:26.064             8.689          3866.344
       275   10 Jun 2027 10:29:58.315   10 Jun 2027 10:30:00.905             2.590           575.844
       276   10 Jun 2027 10:30:45.036   10 Jun 2027 10:30:49.939             4.903           833.219
       277   11 Jun 2027 04:24:04.780   11 Jun 2027 04:26:11.443           126.663         63331.500
       278   11 Jun 2027 04:28:14.242   11 Jun 2027 04:29:05.807            51.565         25782.500
       279   11 Jun 2027 04:30:39.978   11 Jun 2027 04:30:44.204             4.226          2113.000
       280   11 Jun 2027 04:30:52.937   11 Jun 2027 04:31:02.011             9.074          4537.000
       281   11 Jun 2027 04:31:37.049   11 Jun 2027 04:31:54.280            17.231          8615.500
       282   11 Jun 2027 05:50:23.134   11 Jun 2027 05:50:36.223            13.089          6544.500
       283   11 Jun 2027 06:01:10.341   11 Jun 2027 06:01:52.107            41.766         20883.000
       284   11 Jun 2027 06:01:57.197   11 Jun 2027 06:02:48.792            51.595         25797.500
       285   11 Jun 2027 06:03:15.070   11 Jun 2027 06:03:26.880            11.810          5905.000
       286   11 Jun 2027 06:04:10.715   11 Jun 2027 06:04:15.305             4.590          1522.843
       287   11 Jun 2027 07:25:09.226   11 Jun 2027 07:25:20.187            10.961          5026.219
       288   11 Jun 2027 07:26:03.209   11 Jun 2027 07:26:05.273             2.064           805.094
       289   11 Jun 2027 07:27:09.265   11 Jun 2027 07:27:13.742             4.477          1282.156
       290   11 Jun 2027 07:27:34.974   11 Jun 2027 07:27:36.345             1.371           646.812
       291   11 Jun 2027 09:01:11.963   11 Jun 2027 09:01:11.963             0.000             0.000
       292   11 Jun 2027 09:03:00.656   11 Jun 2027 09:03:17.075            16.419          8209.500
       293   11 Jun 2027 09:03:25.128   11 Jun 2027 09:03:26.288             1.160           513.781
       294   11 Jun 2027 10:35:45.467   11 Jun 2027 10:36:00.695            15.228          7185.875
       295   11 Jun 2027 10:38:17.248   11 Jun 2027 10:38:28.199            10.951          3729.469
       296   11 Jun 2027 10:39:00.964   11 Jun 2027 10:39:00.964             0.000             0.000
       297   11 Jun 2027 10:39:09.045   11 Jun 2027 10:39:16.595             7.550          1033.969
       298   11 Jun 2027 10:40:23.235   11 Jun 2027 10:40:25.352             2.117           186.938
       299   11 Jun 2027 10:40:54.150   11 Jun 2027 10:40:56.499             2.349           899.937
       300   11 Jun 2027 10:42:00.343   11 Jun 2027 10:42:05.207             4.864          1995.125
       301   11 Jun 2027 10:42:29.234   11 Jun 2027 10:42:33.563             4.329           583.188
       302   12 Jun 2027 03:00:00.000   12 Jun 2027 03:00:15.850            15.850          7925.000
       303   12 Jun 2027 03:01:11.635   12 Jun 2027 03:01:22.416            10.781          5390.500
       304   12 Jun 2027 03:02:06.901   12 Jun 2027 03:02:25.094            18.193          9096.500
       305   12 Jun 2027 03:02:51.979   12 Jun 2027 03:03:00.694             8.715          4357.500
       306   12 Jun 2027 03:03:34.794   12 Jun 2027 03:03:34.794             0.000             0.000
       307   12 Jun 2027 03:03:53.831   12 Jun 2027 03:03:53.993             0.162            81.000
       308   12 Jun 2027 04:36:25.544   12 Jun 2027 04:38:23.914           118.370         59185.000
       309   12 Jun 2027 04:40:17.651   12 Jun 2027 04:41:19.037            61.386         30693.000
       310   12 Jun 2027 04:42:09.398   12 Jun 2027 04:42:17.956             8.558          4279.000
       311   12 Jun 2027 04:42:33.880   12 Jun 2027 04:42:46.791            12.911          6455.500
       312   12 Jun 2027 06:01:39.460   12 Jun 2027 06:02:30.131            50.671         25335.500
       313   12 Jun 2027 06:02:33.722   12 Jun 2027 06:02:55.575            21.853         10926.500
       314   12 Jun 2027 06:13:09.299   12 Jun 2027 06:13:29.840            20.541          8802.062
       315   12 Jun 2027 07:35:48.118   12 Jun 2027 07:36:01.312            13.194          6009.031
       316   12 Jun 2027 07:37:23.683   12 Jun 2027 07:37:28.420             4.737          1560.969
       317   12 Jun 2027 07:39:13.957   12 Jun 2027 07:39:23.661             9.704          2945.344
       318   12 Jun 2027 07:40:22.489   12 Jun 2027 07:40:26.820             4.331          1389.125
       319   12 Jun 2027 09:11:05.129   12 Jun 2027 09:11:10.236             5.107          2553.500
       320   12 Jun 2027 09:11:47.294   12 Jun 2027 09:11:53.516             6.222          1419.156
       321   12 Jun 2027 09:13:27.347   12 Jun 2027 09:13:33.200             5.853          1927.938
       322   12 Jun 2027 09:15:37.543   12 Jun 2027 09:15:46.195             8.652          2668.469
       323   12 Jun 2027 09:16:03.525   12 Jun 2027 09:16:06.655             3.130           541.562
       324   12 Jun 2027 10:47:54.599   12 Jun 2027 10:48:03.992             9.393          3554.063
       325   12 Jun 2027 10:50:51.277   12 Jun 2027 10:51:02.719            11.442          5056.031
       326   12 Jun 2027 10:52:11.483   12 Jun 2027 10:52:17.070             5.587          2148.875
       327   12 Jun 2027 10:52:40.689   12 Jun 2027 10:52:44.587             3.898           587.875
       328   12 Jun 2027 10:53:06.904   12 Jun 2027 10:53:08.378             1.474           586.906
       329   12 Jun 2027 10:53:10.003   12 Jun 2027 10:53:11.608             1.605            50.781
       330   12 Jun 2027 10:54:20.251   12 Jun 2027 10:54:25.374             5.123          2003.781
       331   12 Jun 2027 10:55:06.821   12 Jun 2027 10:55:07.971             1.150           575.000
       332   13 Jun 2027 03:09:35.972   13 Jun 2027 03:10:42.693            66.721         33360.500
       333   13 Jun 2027 03:11:04.499   13 Jun 2027 03:11:08.658             4.159          2079.500
       334   13 Jun 2027 03:11:10.736   13 Jun 2027 03:11:35.205            24.469         12234.500
       335   13 Jun 2027 03:12:12.642   13 Jun 2027 03:12:16.462             3.820          1910.000
       336   13 Jun 2027 03:13:07.858   13 Jun 2027 03:13:40.510            32.652         16326.000
       337   13 Jun 2027 03:14:16.791   13 Jun 2027 03:14:29.264            12.473          6236.500
       338   13 Jun 2027 03:15:01.961   13 Jun 2027 03:15:13.856            11.895          5947.500
       339   13 Jun 2027 04:48:41.371   13 Jun 2027 04:51:14.517           153.146         75808.563
       340   13 Jun 2027 04:52:28.657   13 Jun 2027 04:52:34.370             5.713          2214.563
       341   13 Jun 2027 04:53:38.739   13 Jun 2027 04:53:41.076             2.337           443.469
       342   13 Jun 2027 04:53:51.434   13 Jun 2027 04:53:52.438             1.004           258.438
       343   13 Jun 2027 04:54:35.603   13 Jun 2027 04:54:38.278             2.675           304.250
       344   13 Jun 2027 04:55:24.991   13 Jun 2027 04:55:29.428             4.437          1003.062
       345   13 Jun 2027 06:12:55.820   13 Jun 2027 06:13:02.948             7.128          3564.000
       346   13 Jun 2027 06:13:24.925   13 Jun 2027 06:13:28.418             3.493          1746.500
       347   13 Jun 2027 06:14:41.979   13 Jun 2027 06:14:47.457             5.478          2353.531
       348   13 Jun 2027 06:25:08.450   13 Jun 2027 06:25:15.924             7.474          2689.844
       349   13 Jun 2027 07:47:24.085   13 Jun 2027 07:47:38.382            14.297          5903.031
       350   13 Jun 2027 07:48:15.662   13 Jun 2027 07:48:30.014            14.352           909.531
       351   13 Jun 2027 07:49:53.551   13 Jun 2027 07:49:58.223             4.672          1541.781
       352   13 Jun 2027 07:50:09.883   13 Jun 2027 07:50:12.480             2.597           191.781
       353   13 Jun 2027 07:50:53.065   13 Jun 2027 07:50:56.737             3.672           644.437
       354   13 Jun 2027 07:51:40.962   13 Jun 2027 07:51:42.789             1.827           874.375
       355   13 Jun 2027 07:52:17.752   13 Jun 2027 07:52:20.251             2.499          1092.594
       356   13 Jun 2027 09:22:16.684   13 Jun 2027 09:22:25.466             8.782          3307.656
       357   13 Jun 2027 09:23:56.766   13 Jun 2027 09:23:58.648             1.882           939.688
       358   13 Jun 2027 09:25:38.189   13 Jun 2027 09:25:42.320             4.131           410.375
       359   13 Jun 2027 09:26:10.550   13 Jun 2027 09:26:11.488             0.938           431.188
       360   13 Jun 2027 09:27:53.226   13 Jun 2027 09:27:54.510             1.284           470.906
       361   13 Jun 2027 09:30:21.593   13 Jun 2027 09:30:31.930            10.337          2917.000
       362   13 Jun 2027 11:02:54.135   13 Jun 2027 11:03:14.018            19.883          9455.437
       363   13 Jun 2027 11:03:30.844   13 Jun 2027 11:03:30.844             0.000             0.000
       364   13 Jun 2027 11:05:14.289   13 Jun 2027 11:05:22.325             8.036          3758.469
       365   13 Jun 2027 11:06:01.513   13 Jun 2027 11:06:03.758             2.245           385.875
       366   13 Jun 2027 11:06:21.226   13 Jun 2027 11:06:22.671             1.445           526.031
