uniorb/output/strategy_4/Camera/Camera_KinoSat_110703.txt

KinoSat_110703
-------------------------
    Access    *     Start Time (UTCG)     *     Stop Time (UTCG)  *   Duration (s) *   Data (Mbytes)
         1   01 Jun 2027 03:58:53.809   01 Jun 2027 04:00:26.507            92.698         46349.000
         2   01 Jun 2027 04:00:48.752   01 Jun 2027 04:01:05.015            16.263          8131.500
         3   01 Jun 2027 04:02:21.362   01 Jun 2027 04:02:27.943             6.581          3290.500
         4   01 Jun 2027 05:31:10.876   01 Jun 2027 05:31:30.243            19.367          9683.500
         5   01 Jun 2027 05:32:57.859   01 Jun 2027 05:34:44.484           106.625         53312.500
         6   01 Jun 2027 05:35:37.692   01 Jun 2027 05:35:56.655            18.963          9481.500
         7   01 Jun 2027 05:39:36.777   01 Jun 2027 05:39:40.690             3.913          1956.500
         8   01 Jun 2027 05:40:07.460   01 Jun 2027 05:40:23.503            16.043          8021.500
         9   01 Jun 2027 05:40:53.399   01 Jun 2027 05:40:56.015             2.616          1308.000
        10   01 Jun 2027 07:10:02.246   01 Jun 2027 07:12:22.200           139.954         69977.000
        11   01 Jun 2027 07:12:47.818   01 Jun 2027 07:12:56.290             8.472          4236.000
        12   01 Jun 2027 07:14:21.725   01 Jun 2027 07:14:24.515             2.790          1395.000
        13   01 Jun 2027 07:15:04.808   01 Jun 2027 07:15:14.136             9.328          4664.000
        14   01 Jun 2027 08:46:58.597   01 Jun 2027 08:49:59.408           180.811         90405.500
        15   01 Jun 2027 08:50:21.608   01 Jun 2027 08:50:30.352             8.744          4372.000
        16   01 Jun 2027 08:51:05.537   01 Jun 2027 08:51:15.512             9.975          4987.500
        17   01 Jun 2027 08:51:47.986   01 Jun 2027 08:51:49.945             1.959           979.500
        18   01 Jun 2027 10:23:45.176   01 Jun 2027 10:25:59.849           134.673         67336.500
        19   02 Jun 2027 04:11:04.313   02 Jun 2027 04:11:23.765            19.452          9726.000
        20   02 Jun 2027 04:11:29.579   02 Jun 2027 04:11:49.503            19.924          9962.000
        21   02 Jun 2027 05:46:09.177   02 Jun 2027 05:48:56.459           167.282         83641.000
        22   02 Jun 2027 05:49:31.327   02 Jun 2027 05:50:02.458            31.131         15565.500
        23   02 Jun 2027 05:52:47.694   02 Jun 2027 05:52:57.083             9.389          4694.500
        24   02 Jun 2027 07:22:30.761   02 Jun 2027 07:26:07.655           216.894        108447.000
        25   02 Jun 2027 09:00:01.515   02 Jun 2027 09:03:31.403           209.888        104944.000
        26   02 Jun 2027 09:03:58.360   02 Jun 2027 09:04:12.930            14.570          6530.376
        27   02 Jun 2027 10:36:06.074   02 Jun 2027 10:36:27.103            21.029         10447.406
        28   02 Jun 2027 10:38:00.539   02 Jun 2027 10:38:01.820             1.281           559.219
        29   02 Jun 2027 10:38:40.224   02 Jun 2027 10:38:40.867             0.643           277.344
        30   03 Jun 2027 04:23:09.075   03 Jun 2027 04:23:59.170            50.095         25047.500
        31   03 Jun 2027 04:24:14.564   03 Jun 2027 04:24:53.647            39.083         19541.500
        32   03 Jun 2027 04:26:14.266   03 Jun 2027 04:26:32.210            17.944          8972.000
        33   03 Jun 2027 05:58:19.217   03 Jun 2027 06:01:13.134           173.917         86958.500
        34   03 Jun 2027 06:02:30.447   03 Jun 2027 06:02:34.485             4.038          2019.000
        35   03 Jun 2027 06:03:53.868   03 Jun 2027 06:04:27.611            33.743         16871.500
        36   03 Jun 2027 06:04:40.105   03 Jun 2027 06:04:45.943             5.838          2710.469
        37   03 Jun 2027 07:34:35.320   03 Jun 2027 07:34:43.960             8.640          1297.500
        38   03 Jun 2027 07:35:49.748   03 Jun 2027 07:35:52.739             2.991           497.562
        39   03 Jun 2027 07:36:43.357   03 Jun 2027 07:36:49.808             6.451           580.406
        40   03 Jun 2027 07:37:54.224   03 Jun 2027 07:37:58.671             4.447          1806.312
        41   03 Jun 2027 07:39:02.480   03 Jun 2027 07:39:08.691             6.211          1994.031
        42   03 Jun 2027 07:40:32.542   03 Jun 2027 07:40:39.311             6.769           612.594
        43   03 Jun 2027 09:12:07.024   03 Jun 2027 09:12:19.788            12.764          6217.281
        44   03 Jun 2027 09:14:20.592   03 Jun 2027 09:14:21.888             1.296           449.344
        45   03 Jun 2027 09:15:28.075   03 Jun 2027 09:15:30.977             2.902           821.313
        46   03 Jun 2027 10:48:08.259   03 Jun 2027 10:48:20.499            12.240          5342.500
        47   03 Jun 2027 10:49:38.739   03 Jun 2027 10:49:41.046             2.307           212.531
        48   03 Jun 2027 10:50:16.005   03 Jun 2027 10:50:19.610             3.605           818.812
        49   04 Jun 2027 03:00:00.000   04 Jun 2027 03:00:08.152             8.152          4076.000
        50   04 Jun 2027 03:01:09.888   04 Jun 2027 03:01:09.888             0.000             0.000
        51   04 Jun 2027 04:34:52.615   04 Jun 2027 04:37:11.133           138.518         69259.000
        52   04 Jun 2027 04:38:20.296   04 Jun 2027 04:39:06.496            46.200         23100.000
        53   04 Jun 2027 06:09:44.037   04 Jun 2027 06:11:20.244            96.207         48103.500
        54   04 Jun 2027 06:11:50.314   04 Jun 2027 06:11:57.329             7.015          2308.407
        55   04 Jun 2027 06:12:40.857   04 Jun 2027 06:12:42.469             1.612           740.344
        56   04 Jun 2027 06:13:04.956   04 Jun 2027 06:13:09.513             4.557           702.719
        57   04 Jun 2027 06:14:17.858   04 Jun 2027 06:14:17.858             0.000             0.000
        58   04 Jun 2027 06:14:32.491   04 Jun 2027 06:14:42.198             9.707          2593.063
        59   04 Jun 2027 06:15:33.037   04 Jun 2027 06:15:36.644             3.607          1588.719
        60   04 Jun 2027 06:16:29.285   04 Jun 2027 06:16:30.007             0.722           327.281
        61   04 Jun 2027 07:46:19.556   04 Jun 2027 07:46:25.150             5.594          1164.750
        62   04 Jun 2027 07:48:48.150   04 Jun 2027 07:48:49.614             1.464           572.125
        63   04 Jun 2027 07:50:05.218   04 Jun 2027 07:50:10.054             4.836          2239.406
        64   04 Jun 2027 07:50:52.205   04 Jun 2027 07:50:56.319             4.114          1054.719
        65   04 Jun 2027 07:51:29.094   04 Jun 2027 07:51:31.971             2.877          1024.219
        66   04 Jun 2027 07:52:20.755   04 Jun 2027 07:52:30.348             9.593           370.500
        67   04 Jun 2027 09:24:37.144   04 Jun 2027 09:24:48.097            10.953          4946.906
        68   04 Jun 2027 09:25:34.134   04 Jun 2027 09:25:39.762             5.628           900.906
        69   04 Jun 2027 09:26:10.393   04 Jun 2027 09:26:11.640             1.247           447.531
        70   04 Jun 2027 09:27:13.335   04 Jun 2027 09:27:19.319             5.984          1638.625
        71   04 Jun 2027 09:28:16.134   04 Jun 2027 09:28:20.362             4.228           503.156
        72   04 Jun 2027 10:58:37.022   04 Jun 2027 10:58:50.894            13.872          4754.187
        73   05 Jun 2027 03:09:45.769   05 Jun 2027 03:10:01.401            15.632          7816.000
        74   05 Jun 2027 03:14:20.578   05 Jun 2027 03:14:25.526             4.948          2474.000
        75   05 Jun 2027 04:45:06.294   05 Jun 2027 04:46:04.376            58.082         29041.000
        76   05 Jun 2027 04:46:37.701   05 Jun 2027 04:48:48.256           130.555         65277.500
        77   05 Jun 2027 04:49:40.361   05 Jun 2027 04:50:01.981            21.620         10810.000
        78   05 Jun 2027 06:21:35.534   05 Jun 2027 06:22:56.431            80.897         40232.562
        79   05 Jun 2027 06:23:53.238   05 Jun 2027 06:23:58.881             5.643          1752.969
        80   05 Jun 2027 06:24:21.957   05 Jun 2027 06:24:25.255             3.298           527.688
        81   05 Jun 2027 06:25:32.117   05 Jun 2027 06:25:35.790             3.673          1798.219
        82   05 Jun 2027 06:26:09.694   05 Jun 2027 06:26:12.326             2.632           698.469
        83   05 Jun 2027 06:26:45.079   05 Jun 2027 06:26:53.921             8.842           330.844
        84   05 Jun 2027 06:27:52.955   05 Jun 2027 06:27:56.106             3.151          1183.656
        85   05 Jun 2027 06:28:16.386   05 Jun 2027 06:28:16.700             0.314           134.938
        86   05 Jun 2027 07:58:40.654   05 Jun 2027 07:58:42.780             2.126           383.125
        87   05 Jun 2027 07:59:47.535   05 Jun 2027 07:59:49.176             1.641           682.906
        88   05 Jun 2027 08:00:53.931   05 Jun 2027 08:00:58.658             4.727          2006.312
        89   05 Jun 2027 08:02:21.473   05 Jun 2027 08:02:25.630             4.157          1893.688
        90   05 Jun 2027 08:03:01.264   05 Jun 2027 08:03:04.258             2.994          1027.438
        91   05 Jun 2027 08:03:55.521   05 Jun 2027 08:04:02.744             7.223          1479.281
        92   05 Jun 2027 08:04:32.640   05 Jun 2027 08:04:35.738             3.098           528.781
        93   05 Jun 2027 09:36:34.798   05 Jun 2027 09:36:45.788            10.990          5413.687
        94   05 Jun 2027 09:38:20.461   05 Jun 2027 09:38:23.331             2.870          1256.000
        95   05 Jun 2027 09:39:23.186   05 Jun 2027 09:39:24.973             1.787           161.750
        96   05 Jun 2027 09:40:14.349   05 Jun 2027 09:40:16.111             1.762           145.219
        97   05 Jun 2027 11:09:42.899   05 Jun 2027 11:09:53.440            10.541          4786.563
        98   06 Jun 2027 03:21:21.628   06 Jun 2027 03:21:28.090             6.462          3231.000
        99   06 Jun 2027 03:23:17.123   06 Jun 2027 03:23:26.623             9.500          4750.000
       100   06 Jun 2027 03:24:08.322   06 Jun 2027 03:24:11.206             2.884          1442.000
       101   06 Jun 2027 04:56:15.621   06 Jun 2027 04:58:18.165           122.544         61272.000
       102   06 Jun 2027 04:58:24.620   06 Jun 2027 04:59:28.237            63.617         31808.500
       103   06 Jun 2027 04:59:57.964   06 Jun 2027 05:00:40.975            43.011         21505.500
       104   06 Jun 2027 05:04:24.904   06 Jun 2027 05:04:24.904             0.000             0.000
       105   06 Jun 2027 06:33:49.104   06 Jun 2027 06:34:55.558            66.454         31924.812
       106   06 Jun 2027 06:36:49.258   06 Jun 2027 06:36:55.532             6.274          1737.938
       107   06 Jun 2027 06:37:16.289   06 Jun 2027 06:37:23.400             7.111           648.656
       108   06 Jun 2027 06:38:37.805   06 Jun 2027 06:38:37.805             0.000             0.000
       109   06 Jun 2027 06:38:47.827   06 Jun 2027 06:38:49.314             1.487           462.000
       110   06 Jun 2027 06:39:21.045   06 Jun 2027 06:39:31.621            10.576           749.312
       111   06 Jun 2027 06:39:57.446   06 Jun 2027 06:39:58.879             1.433           455.469
       112   06 Jun 2027 08:10:31.566   06 Jun 2027 08:10:36.956             5.390          1476.719
       113   06 Jun 2027 08:12:52.508   06 Jun 2027 08:12:55.450             2.942           985.969
       114   06 Jun 2027 08:14:25.074   06 Jun 2027 08:14:31.636             6.562          1983.062
       115   06 Jun 2027 08:14:38.864   06 Jun 2027 08:14:40.671             1.807            31.031
       116   06 Jun 2027 08:15:15.090   06 Jun 2027 08:15:18.000             2.910           904.500
       117   06 Jun 2027 08:16:02.585   06 Jun 2027 08:16:05.024             2.439           566.031
       118   06 Jun 2027 09:48:34.684   06 Jun 2027 09:48:46.600            11.916          5876.312
       119   06 Jun 2027 09:49:45.813   06 Jun 2027 09:49:49.434             3.621           827.719
       120   06 Jun 2027 09:52:11.382   06 Jun 2027 09:52:12.724             1.342           582.406
       121   06 Jun 2027 09:52:41.946   06 Jun 2027 09:52:44.170             2.224           289.937
       122   06 Jun 2027 11:22:11.806   06 Jun 2027 11:22:14.666             2.860          1279.406
       123   07 Jun 2027 03:32:50.957   07 Jun 2027 03:33:09.273            18.316          9158.000
       124   07 Jun 2027 03:33:19.266   07 Jun 2027 03:33:28.718             9.452          4726.000
       125   07 Jun 2027 05:07:46.223   07 Jun 2027 05:11:20.078           213.855        106927.500
       126   07 Jun 2027 05:12:53.331   07 Jun 2027 05:13:05.442            12.111          6055.500
       127   07 Jun 2027 05:16:40.546   07 Jun 2027 05:16:56.020            15.474          7737.000
       128   07 Jun 2027 06:45:43.024   07 Jun 2027 06:46:42.551            59.527         28230.969
       129   07 Jun 2027 06:47:03.188   07 Jun 2027 06:47:10.696             7.508           590.656
       130   07 Jun 2027 06:48:22.603   07 Jun 2027 06:48:27.402             4.799          1107.562
       131   07 Jun 2027 06:48:58.847   07 Jun 2027 06:49:02.021             3.174           905.281
       132   07 Jun 2027 06:50:02.366   07 Jun 2027 06:50:06.933             4.567          1336.656
       133   07 Jun 2027 06:50:40.865   07 Jun 2027 06:50:41.048             0.183            91.500
       134   07 Jun 2027 06:50:50.417   07 Jun 2027 06:50:53.412             2.995           517.438
       135   07 Jun 2027 06:51:29.191   07 Jun 2027 06:51:30.195             1.004           333.906
       136   07 Jun 2027 08:22:35.609   07 Jun 2027 08:22:48.224            12.615          5180.562
       137   07 Jun 2027 08:25:06.476   07 Jun 2027 08:25:20.087            13.611          1639.375
       138   07 Jun 2027 08:25:50.431   07 Jun 2027 08:25:57.763             7.332           427.687
       139   07 Jun 2027 08:26:28.802   07 Jun 2027 08:26:34.338             5.536           792.781
       140   07 Jun 2027 08:27:03.706   07 Jun 2027 08:27:06.572             2.866            45.563
       141   07 Jun 2027 08:27:32.475   07 Jun 2027 08:27:33.376             0.901           310.531
       142   07 Jun 2027 08:28:18.503   07 Jun 2027 08:28:23.095             4.592           674.844
       143   07 Jun 2027 08:28:32.823   07 Jun 2027 08:28:34.690             1.867           219.125
       144   07 Jun 2027 10:00:21.125   07 Jun 2027 10:00:28.786             7.661          3793.531
       145   07 Jun 2027 10:01:05.091   07 Jun 2027 10:01:07.321             2.230           535.094
       146   07 Jun 2027 10:02:16.932   07 Jun 2027 10:02:19.744             2.812           815.969
       147   07 Jun 2027 10:03:39.436   07 Jun 2027 10:03:43.977             4.541           753.250
       148   07 Jun 2027 10:03:52.324   07 Jun 2027 10:03:53.278             0.954           125.531
       149   07 Jun 2027 11:36:20.647   07 Jun 2027 11:36:24.560             3.913          1643.594
       150   08 Jun 2027 03:46:54.319   08 Jun 2027 03:47:01.923             7.604          3802.000
       151   08 Jun 2027 03:49:19.520   08 Jun 2027 03:49:25.284             5.764          2882.000
       152   08 Jun 2027 03:50:12.019   08 Jun 2027 03:50:21.684             9.665          4832.500
       153   08 Jun 2027 05:20:40.069   08 Jun 2027 05:24:11.105           211.036        105518.000
       154   08 Jun 2027 05:27:54.121   08 Jun 2027 05:28:21.947            27.826         13913.000
       155   08 Jun 2027 05:28:50.290   08 Jun 2027 05:29:13.277            22.987         11493.500
       156   08 Jun 2027 06:58:03.448   08 Jun 2027 06:58:34.151            30.703         15123.781
       157   08 Jun 2027 06:59:41.590   08 Jun 2027 06:59:42.850             1.260           539.750
       158   08 Jun 2027 07:00:47.526   08 Jun 2027 07:00:49.072             1.546           773.000
       159   08 Jun 2027 07:01:23.481   08 Jun 2027 07:01:29.790             6.309          1510.719
       160   08 Jun 2027 07:02:10.894   08 Jun 2027 07:02:11.126             0.232           116.000
       161   08 Jun 2027 07:02:27.083   08 Jun 2027 07:02:35.610             8.527          1498.656
       162   08 Jun 2027 07:03:40.030   08 Jun 2027 07:03:47.089             7.059          2013.125
       163   08 Jun 2027 07:04:07.507   08 Jun 2027 07:04:08.405             0.898            82.031
       164   08 Jun 2027 08:35:07.674   08 Jun 2027 08:35:12.606             4.932          2392.156
       165   08 Jun 2027 08:37:48.117   08 Jun 2027 08:37:50.729             2.612           848.719
       166   08 Jun 2027 08:38:27.671   08 Jun 2027 08:38:30.698             3.027          1154.438
       167   08 Jun 2027 08:38:37.883   08 Jun 2027 08:38:38.620             0.737           224.531
       168   08 Jun 2027 08:40:14.018   08 Jun 2027 08:40:16.916             2.898          1352.594
       169   08 Jun 2027 10:11:52.100   08 Jun 2027 10:12:06.287            14.187          6975.375
       170   08 Jun 2027 10:15:58.731   08 Jun 2027 10:16:02.457             3.726           388.469
       171   08 Jun 2027 10:16:23.144   08 Jun 2027 10:16:26.014             2.870           489.906
       172   08 Jun 2027 11:47:08.085   08 Jun 2027 11:47:12.715             4.630           723.594
       173   09 Jun 2027 03:59:08.559   09 Jun 2027 03:59:40.234            31.675         15837.500
       174   09 Jun 2027 05:31:25.328   09 Jun 2027 05:31:43.694            18.366          9183.000
       175   09 Jun 2027 05:33:12.545   09 Jun 2027 05:36:13.584           181.039         90519.500
       176   09 Jun 2027 05:40:25.048   09 Jun 2027 05:40:39.297            14.249          7124.500
       177   09 Jun 2027 05:41:08.032   09 Jun 2027 05:41:10.630             2.598          1299.000
       178   09 Jun 2027 07:10:17.079   09 Jun 2027 07:11:32.069            74.990         36840.156
       179   09 Jun 2027 07:13:02.304   09 Jun 2027 07:13:04.028             1.724           672.281
       180   09 Jun 2027 07:13:57.459   09 Jun 2027 07:13:59.023             1.564           780.531
       181   09 Jun 2027 07:14:31.256   09 Jun 2027 07:14:32.994             1.738           240.875
       182   09 Jun 2027 08:47:13.141   09 Jun 2027 08:47:22.429             9.288          4455.344
       183   09 Jun 2027 08:49:27.644   09 Jun 2027 08:49:32.361             4.717           258.625
       184   09 Jun 2027 08:50:20.841   09 Jun 2027 08:50:24.890             4.049          1515.000
       185   09 Jun 2027 10:23:59.718   09 Jun 2027 10:24:13.949            14.231          6685.313
       186   09 Jun 2027 10:26:08.785   09 Jun 2027 10:26:09.086             0.301            49.313
       187   10 Jun 2027 04:11:19.076   10 Jun 2027 04:11:39.924            20.848         10424.000
       188   10 Jun 2027 04:12:47.559   10 Jun 2027 04:13:11.879            24.320         12160.000
       189   10 Jun 2027 05:46:23.989   10 Jun 2027 05:47:56.586            92.597         46298.500
       190   10 Jun 2027 05:48:54.847   10 Jun 2027 05:49:31.290            36.443         18221.500
       191   10 Jun 2027 05:52:27.382   10 Jun 2027 05:53:11.777            44.395         22197.500
       192   10 Jun 2027 07:22:45.847   10 Jun 2027 07:24:37.013           111.166         53891.281
       193   10 Jun 2027 07:25:29.834   10 Jun 2027 07:25:33.137             3.303          1278.344
       194   10 Jun 2027 07:26:33.327   10 Jun 2027 07:26:35.075             1.748           694.437
       195   10 Jun 2027 07:28:21.155   10 Jun 2027 07:28:29.573             8.418           445.750
       196   10 Jun 2027 09:00:16.237   10 Jun 2027 09:00:28.204            11.967          4923.344
       197   10 Jun 2027 09:01:52.611   10 Jun 2027 09:01:54.193             1.582           784.031
       198   10 Jun 2027 09:02:33.444   10 Jun 2027 09:02:36.036             2.592           700.781
       199   10 Jun 2027 10:36:20.885   10 Jun 2027 10:36:33.411            12.526          5408.688
       200   10 Jun 2027 10:38:07.627   10 Jun 2027 10:38:08.726             1.099           148.438
       201   10 Jun 2027 10:39:58.288   10 Jun 2027 10:40:02.098             3.810             5.437
       202   11 Jun 2027 04:23:23.683   11 Jun 2027 04:24:48.204            84.521         42260.500
       203   11 Jun 2027 04:26:25.413   11 Jun 2027 04:26:48.898            23.485         11742.500
       204   11 Jun 2027 05:58:34.026   11 Jun 2027 06:01:10.673           156.647         78323.500
       205   11 Jun 2027 06:01:54.085   11 Jun 2027 06:02:33.299            39.214         19064.969
       206   11 Jun 2027 07:34:48.901   11 Jun 2027 07:34:58.542             9.641          4495.781
       207   11 Jun 2027 07:37:00.231   11 Jun 2027 07:37:04.693             4.462           618.562
       208   11 Jun 2027 07:38:09.076   11 Jun 2027 07:38:14.857             5.781          1826.906
       209   11 Jun 2027 07:39:17.114   11 Jun 2027 07:39:24.043             6.929          1936.844
       210   11 Jun 2027 07:40:23.024   11 Jun 2027 07:40:24.721             1.697            36.813
       211   11 Jun 2027 09:12:21.769   11 Jun 2027 09:12:35.299            13.530          6558.813
       212   11 Jun 2027 09:13:43.675   11 Jun 2027 09:13:52.294             8.619           695.125
       213   11 Jun 2027 09:14:35.438   11 Jun 2027 09:14:37.929             2.491           427.844
       214   11 Jun 2027 09:15:19.189   11 Jun 2027 09:15:20.317             1.128           503.125
       215   11 Jun 2027 10:48:23.084   11 Jun 2027 10:48:33.453            10.369          4970.656
       216   11 Jun 2027 10:49:49.385   11 Jun 2027 10:49:50.473             1.088           102.656
       217   11 Jun 2027 10:50:16.176   11 Jun 2027 10:50:20.613             4.437           683.031
       218   11 Jun 2027 10:53:17.621   11 Jun 2027 10:53:19.243             1.622           111.469
       219   12 Jun 2027 03:00:00.000   12 Jun 2027 03:00:22.819            22.819         11409.500
       220   12 Jun 2027 04:35:07.322   12 Jun 2027 04:37:09.078           121.756         60878.000
       221   12 Jun 2027 04:38:35.176   12 Jun 2027 04:38:47.699            12.523          6261.500
       222   12 Jun 2027 04:38:51.599   12 Jun 2027 04:38:56.041             4.442          2221.000
       223   12 Jun 2027 06:09:58.492   12 Jun 2027 06:12:19.516           141.024         70496.625
       224   12 Jun 2027 06:14:33.467   12 Jun 2027 06:14:41.946             8.479          3766.406
       225   12 Jun 2027 06:14:58.966   12 Jun 2027 06:15:05.305             6.339           267.250
       226   12 Jun 2027 06:15:41.911   12 Jun 2027 06:15:44.722             2.811           276.969
       227   12 Jun 2027 06:16:34.256   12 Jun 2027 06:16:39.501             5.245          1418.156
       228   12 Jun 2027 07:46:34.195   12 Jun 2027 07:46:40.736             6.541          1810.969
       229   12 Jun 2027 07:47:51.066   12 Jun 2027 07:47:54.565             3.499           233.219
       230   12 Jun 2027 07:48:34.309   12 Jun 2027 07:48:36.821             2.512          1242.000
       231   12 Jun 2027 07:49:08.407   12 Jun 2027 07:49:13.147             4.740           828.500
       232   12 Jun 2027 07:49:47.726   12 Jun 2027 07:49:48.236             0.510           255.000
       233   12 Jun 2027 07:50:37.088   12 Jun 2027 07:50:43.100             6.012          1694.938
       234   12 Jun 2027 07:51:25.365   12 Jun 2027 07:51:27.105             1.740           576.781
       235   12 Jun 2027 07:52:03.457   12 Jun 2027 07:52:08.658             5.201           961.656
       236   12 Jun 2027 07:52:35.806   12 Jun 2027 07:52:46.035            10.229           382.719
       237   12 Jun 2027 09:24:51.811   12 Jun 2027 09:25:01.032             9.221          4490.375
       238   12 Jun 2027 09:25:17.200   12 Jun 2027 09:25:18.567             1.367           298.531
       239   12 Jun 2027 09:26:12.533   12 Jun 2027 09:26:16.169             3.636          1363.437
       240   12 Jun 2027 09:27:30.603   12 Jun 2027 09:27:36.158             5.555          1714.719
       241   12 Jun 2027 10:58:12.571   12 Jun 2027 10:58:20.831             8.260          4130.000
       242   12 Jun 2027 11:00:11.688   12 Jun 2027 11:00:15.557             3.869          1623.438
       243   13 Jun 2027 03:10:00.457   13 Jun 2027 03:10:16.001            15.544          7772.000
       244   13 Jun 2027 03:14:15.716   13 Jun 2027 03:14:18.930             3.214          1607.000
       245   13 Jun 2027 04:45:20.216   13 Jun 2027 04:46:19.355            59.139         29569.500
       246   13 Jun 2027 04:46:52.292   13 Jun 2027 04:49:08.725           136.433         68216.500
       247   13 Jun 2027 04:50:16.799   13 Jun 2027 04:50:25.289             8.490          4245.000
       248   13 Jun 2027 04:50:40.908   13 Jun 2027 04:50:47.806             6.898          3449.000
       249   13 Jun 2027 06:21:50.708   13 Jun 2027 06:23:06.597            75.889         37929.406
       250   13 Jun 2027 06:24:08.843   13 Jun 2027 06:24:13.367             4.524          1706.156
       251   13 Jun 2027 06:24:37.467   13 Jun 2027 06:24:39.160             1.693           530.438
       252   13 Jun 2027 06:25:25.073   13 Jun 2027 06:25:27.468             2.395           499.125
       253   13 Jun 2027 06:26:49.654   13 Jun 2027 06:26:53.194             3.540          1770.000
       254   13 Jun 2027 06:27:30.810   13 Jun 2027 06:27:40.026             9.216          1973.812
       255   13 Jun 2027 06:28:09.360   13 Jun 2027 06:28:11.778             2.418           859.219
       256   13 Jun 2027 06:28:30.847   13 Jun 2027 06:28:33.183             2.336           115.375
       257   13 Jun 2027 07:58:55.252   13 Jun 2027 07:58:57.646             2.394           375.031
       258   13 Jun 2027 08:00:02.107   13 Jun 2027 08:00:04.835             2.728           670.750
       259   13 Jun 2027 08:01:08.762   13 Jun 2027 08:01:13.588             4.826          1954.031
       260   13 Jun 2027 08:02:34.956   13 Jun 2027 08:02:40.527             5.571          2500.313
       261   13 Jun 2027 08:03:15.635   13 Jun 2027 08:03:18.798             3.163          1013.000
       262   13 Jun 2027 08:03:49.693   13 Jun 2027 08:03:54.036             4.343           828.906
       263   13 Jun 2027 08:04:44.632   13 Jun 2027 08:04:45.807             1.175           587.500
       264   13 Jun 2027 08:04:47.795   13 Jun 2027 08:04:49.104             1.309           144.188
       265   13 Jun 2027 09:36:49.495   13 Jun 2027 09:37:02.453            12.958          6159.812
       266   13 Jun 2027 09:38:11.958   13 Jun 2027 09:38:14.206             2.248           481.906
       267   13 Jun 2027 09:39:40.356   13 Jun 2027 09:39:44.417             4.061           226.219
       268   13 Jun 2027 09:40:24.725   13 Jun 2027 09:40:28.796             4.071           471.437
       269   13 Jun 2027 09:40:36.421   13 Jun 2027 09:40:38.094             1.673           233.625
       270   13 Jun 2027 11:09:58.204   13 Jun 2027 11:10:08.293            10.089          4569.625
