uniorb/output/strategy_4/Camera/Camera_KinoSat_111909.txt

KinoSat_111909
-------------------------
    Access    *     Start Time (UTCG)     *     Stop Time (UTCG)  *   Duration (s) *   Data (Mbytes)
         1   01 Jun 2027 03:59:02.365   01 Jun 2027 04:01:29.639           147.274         73637.000
         2   01 Jun 2027 04:03:33.883   01 Jun 2027 04:03:36.504             2.621          1310.500
         3   01 Jun 2027 05:38:06.749   01 Jun 2027 05:40:04.540           117.791         58895.500
         4   01 Jun 2027 05:41:45.792   01 Jun 2027 05:41:56.550            10.758          5379.000
         5   01 Jun 2027 05:42:10.189   01 Jun 2027 05:42:31.989            21.800         10900.000
         6   01 Jun 2027 07:02:56.562   01 Jun 2027 07:04:19.687            83.125         41562.500
         7   01 Jun 2027 07:14:36.360   01 Jun 2027 07:15:17.028            40.668         20334.000
         8   01 Jun 2027 08:36:55.645   01 Jun 2027 08:38:01.656            66.011         33005.500
         9   01 Jun 2027 08:38:52.540   01 Jun 2027 08:39:28.050            35.510         17755.000
        10   01 Jun 2027 10:11:53.204   01 Jun 2027 10:12:43.867            50.663         25331.500
        11   01 Jun 2027 10:14:14.178   01 Jun 2027 10:14:19.654             5.476          2738.000
        12   01 Jun 2027 11:55:23.936   01 Jun 2027 11:55:30.886             6.950          3475.000
        13   01 Jun 2027 11:55:35.712   01 Jun 2027 11:56:39.675            63.963         31981.500
        14   02 Jun 2027 04:11:24.426   02 Jun 2027 04:12:25.548            61.122         30561.000
        15   02 Jun 2027 04:12:31.079   02 Jun 2027 04:12:33.430             2.351          1175.500
        16   02 Jun 2027 04:15:05.181   02 Jun 2027 04:16:12.790            67.609         33804.500
        17   02 Jun 2027 05:50:10.323   02 Jun 2027 05:53:19.953           189.630         94815.000
        18   02 Jun 2027 05:54:51.939   02 Jun 2027 05:56:23.531            91.592         45796.000
        19   02 Jun 2027 07:14:29.865   02 Jun 2027 07:15:40.056            70.191         35095.500
        20   02 Jun 2027 07:26:49.594   02 Jun 2027 07:27:11.449            21.855         10927.500
        21   02 Jun 2027 08:48:28.866   02 Jun 2027 08:49:48.842            79.976         39988.000
        22   02 Jun 2027 08:50:37.533   02 Jun 2027 08:52:19.812           102.279         51139.500
        23   02 Jun 2027 10:23:21.331   02 Jun 2027 10:24:56.086            94.755         46014.999
        24   02 Jun 2027 10:25:45.480   02 Jun 2027 10:25:46.636             1.156           537.844
        25   02 Jun 2027 10:31:58.445   02 Jun 2027 10:32:19.204            20.759          9434.219
        26   03 Jun 2027 04:24:05.767   03 Jun 2027 04:24:19.202            13.435          6717.500
        27   03 Jun 2027 04:24:28.946   03 Jun 2027 04:25:30.028            61.082         30541.000
        28   03 Jun 2027 04:25:47.647   03 Jun 2027 04:25:55.272             7.625          3812.500
        29   03 Jun 2027 04:26:15.400   03 Jun 2027 04:26:17.302             1.902           951.000
        30   03 Jun 2027 04:27:39.880   03 Jun 2027 04:27:52.033            12.153          6076.500
        31   03 Jun 2027 06:02:36.668   03 Jun 2027 06:06:27.757           231.089        115244.031
        32   03 Jun 2027 06:07:01.221   03 Jun 2027 06:07:04.986             3.765           753.625
        33   03 Jun 2027 07:26:26.242   03 Jun 2027 07:26:47.812            21.570          7448.219
        34   03 Jun 2027 07:28:43.114   03 Jun 2027 07:28:43.530             0.416           208.000
        35   03 Jun 2027 09:02:26.959   03 Jun 2027 09:02:49.126            22.167         11021.250
        36   03 Jun 2027 09:03:04.866   03 Jun 2027 09:03:09.327             4.461           229.625
        37   03 Jun 2027 09:03:25.248   03 Jun 2027 09:03:25.248             0.000             0.000
        38   03 Jun 2027 09:03:59.822   03 Jun 2027 09:04:03.777             3.955          1534.719
        39   03 Jun 2027 09:04:48.232   03 Jun 2027 09:04:51.027             2.795          1350.219
        40   03 Jun 2027 09:05:16.251   03 Jun 2027 09:05:18.691             2.440           310.969
        41   03 Jun 2027 10:36:14.574   03 Jun 2027 10:36:22.040             7.466          2992.469
        42   03 Jun 2027 10:38:16.582   03 Jun 2027 10:38:17.920             1.338           604.719
        43   03 Jun 2027 10:38:39.926   03 Jun 2027 10:38:44.226             4.300           470.125
        44   03 Jun 2027 10:40:59.267   03 Jun 2027 10:41:07.973             8.706          3974.906
        45   03 Jun 2027 10:42:02.121   03 Jun 2027 10:42:03.439             1.318           539.719
        46   03 Jun 2027 10:42:58.022   03 Jun 2027 10:43:07.208             9.186          1273.313
        47   03 Jun 2027 10:43:11.148   03 Jun 2027 10:43:11.380             0.232           116.000
        48   04 Jun 2027 03:00:00.000   04 Jun 2027 03:00:16.947            16.947          8473.500
        49   04 Jun 2027 03:00:44.340   04 Jun 2027 03:00:46.481             2.141          1070.500
        50   04 Jun 2027 03:01:05.816   04 Jun 2027 03:01:07.505             1.689           844.500
        51   04 Jun 2027 03:01:14.848   04 Jun 2027 03:01:28.099            13.251          6625.500
        52   04 Jun 2027 03:03:29.389   04 Jun 2027 03:03:48.663            19.274          9637.000
        53   04 Jun 2027 03:03:51.481   04 Jun 2027 03:03:58.277             6.796          3398.000
        54   04 Jun 2027 04:36:43.508   04 Jun 2027 04:37:20.530            37.022         18511.000
        55   04 Jun 2027 04:37:20.599   04 Jun 2027 04:38:54.874            94.275         47137.500
        56   04 Jun 2027 04:39:11.287   04 Jun 2027 04:39:15.930             4.643          2321.500
        57   04 Jun 2027 04:39:29.416   04 Jun 2027 04:39:31.761             2.345          1172.500
        58   04 Jun 2027 04:40:02.429   04 Jun 2027 04:40:02.809             0.380           190.000
        59   04 Jun 2027 04:40:25.050   04 Jun 2027 04:40:37.536            12.486          6243.000
        60   04 Jun 2027 04:40:54.070   04 Jun 2027 04:41:04.621            10.551          5275.500
        61   04 Jun 2027 04:41:28.013   04 Jun 2027 04:41:56.894            28.881         14440.500
        62   04 Jun 2027 04:42:30.074   04 Jun 2027 04:42:34.620             4.546          2273.000
        63   04 Jun 2027 06:14:56.471   04 Jun 2027 06:16:31.463            94.992         47233.813
        64   04 Jun 2027 06:18:57.956   04 Jun 2027 06:18:58.774             0.818           328.719
        65   04 Jun 2027 06:19:26.690   04 Jun 2027 06:19:28.111             1.421           523.250
        66   04 Jun 2027 07:38:19.507   04 Jun 2027 07:38:31.114            11.607          4802.656
        67   04 Jun 2027 07:39:43.053   04 Jun 2027 07:39:48.286             5.233          1754.375
        68   04 Jun 2027 07:40:17.064   04 Jun 2027 07:40:21.619             4.555           352.781
        69   04 Jun 2027 09:14:40.538   04 Jun 2027 09:15:01.478            20.940          9631.438
        70   04 Jun 2027 09:15:45.142   04 Jun 2027 09:15:46.677             1.535           538.781
        71   04 Jun 2027 09:17:24.677   04 Jun 2027 09:17:33.251             8.574          2678.969
        72   04 Jun 2027 10:48:40.865   04 Jun 2027 10:48:52.249            11.384          4357.156
        73   04 Jun 2027 10:50:45.908   04 Jun 2027 10:50:48.510             2.602           383.875
        74   04 Jun 2027 10:52:18.303   04 Jun 2027 10:52:18.303             0.000             0.000
        75   04 Jun 2027 10:54:04.291   04 Jun 2027 10:54:12.953             8.662          4227.594
        76   04 Jun 2027 10:55:06.570   04 Jun 2027 10:55:09.491             2.921           508.375
        77   04 Jun 2027 10:56:00.424   04 Jun 2027 10:56:03.406             2.982          1131.969
        78   04 Jun 2027 10:56:11.157   04 Jun 2027 10:56:11.999             0.842            69.312
        79   05 Jun 2027 03:10:33.166   05 Jun 2027 03:10:47.069            13.903          6951.500
        80   05 Jun 2027 03:11:57.799   05 Jun 2027 03:12:43.817            46.018         23009.000
        81   05 Jun 2027 03:13:49.656   05 Jun 2027 03:14:23.813            34.157         17078.500
        82   05 Jun 2027 03:14:39.340   05 Jun 2027 03:14:39.340             0.000             0.000
        83   05 Jun 2027 03:15:01.840   05 Jun 2027 03:15:04.876             3.036          1518.000
        84   05 Jun 2027 03:16:09.770   05 Jun 2027 03:16:37.554            27.784         13892.000
        85   05 Jun 2027 03:17:44.570   05 Jun 2027 03:17:44.797             0.227           113.500
        86   05 Jun 2027 04:48:47.616   05 Jun 2027 04:49:48.673            61.057         30528.500
        87   05 Jun 2027 04:49:54.332   05 Jun 2027 04:50:27.400            33.068         16534.000
        88   05 Jun 2027 04:51:34.584   05 Jun 2027 04:53:13.945            99.361         49680.500
        89   05 Jun 2027 04:53:27.310   05 Jun 2027 04:53:36.641             9.331          4665.500
        90   05 Jun 2027 06:27:49.030   05 Jun 2027 06:28:09.478            20.448          9646.813
        91   05 Jun 2027 06:30:47.213   05 Jun 2027 06:30:49.540             2.327           641.219
        92   05 Jun 2027 06:30:54.727   05 Jun 2027 06:30:57.632             2.905            79.125
        93   05 Jun 2027 07:50:13.384   05 Jun 2027 07:50:32.736            19.352          5469.219
        94   05 Jun 2027 07:51:44.239   05 Jun 2027 07:51:53.873             9.634          2081.125
        95   05 Jun 2027 07:52:05.444   05 Jun 2027 07:52:10.407             4.963           143.188
        96   05 Jun 2027 09:26:46.342   05 Jun 2027 09:26:51.859             5.517          2613.125
        97   05 Jun 2027 09:27:42.260   05 Jun 2027 09:27:43.869             1.609           673.812
        98   05 Jun 2027 09:28:34.028   05 Jun 2027 09:28:36.610             2.582          1117.781
        99   05 Jun 2027 09:28:42.627   05 Jun 2027 09:28:45.367             2.740           104.719
       100   05 Jun 2027 09:29:50.177   05 Jun 2027 09:29:53.156             2.979          1219.562
       101   05 Jun 2027 11:02:37.540   05 Jun 2027 11:02:59.081            21.541         10572.312
       102   05 Jun 2027 11:04:56.613   05 Jun 2027 11:04:56.613             0.000             0.000
       103   05 Jun 2027 11:05:40.664   05 Jun 2027 11:05:46.071             5.407          2703.500
       104   05 Jun 2027 11:07:34.721   05 Jun 2027 11:07:39.268             4.547          2273.500
       105   05 Jun 2027 11:07:42.300   05 Jun 2027 11:07:50.201             7.901          3129.219
       106   05 Jun 2027 11:08:32.443   05 Jun 2027 11:08:35.418             2.975          1181.562
       107   06 Jun 2027 03:22:31.361   06 Jun 2027 03:23:08.545            37.184         18592.000
       108   06 Jun 2027 03:23:26.623   06 Jun 2027 03:25:53.731           147.108         73554.000
       109   06 Jun 2027 03:26:20.883   06 Jun 2027 03:26:35.696            14.813          7406.500
       110   06 Jun 2027 03:27:44.447   06 Jun 2027 03:28:02.102            17.655          8827.500
       111   06 Jun 2027 03:28:23.933   06 Jun 2027 03:28:36.853            12.920          6460.000
       112   06 Jun 2027 05:00:44.489   06 Jun 2027 05:01:37.769            53.280         26640.000
       113   06 Jun 2027 05:01:51.194   06 Jun 2027 05:02:39.925            48.731         24046.469
       114   06 Jun 2027 05:02:48.964   06 Jun 2027 05:02:53.947             4.983            45.844
       115   06 Jun 2027 05:04:15.524   06 Jun 2027 05:04:24.016             8.492          2073.656
       116   06 Jun 2027 05:06:11.772   06 Jun 2027 05:06:19.491             7.719          2198.594
       117   06 Jun 2027 06:38:59.437   06 Jun 2027 06:39:11.241            11.804          4581.313
       118   06 Jun 2027 06:42:35.605   06 Jun 2027 06:42:36.998             1.393           395.969
       119   06 Jun 2027 08:02:21.418   06 Jun 2027 08:02:33.304            11.886          4460.719
       120   06 Jun 2027 08:03:09.552   06 Jun 2027 08:03:10.593             1.041           443.531
       121   06 Jun 2027 08:03:27.020   06 Jun 2027 08:03:27.675             0.655            29.687
       122   06 Jun 2027 08:04:49.291   06 Jun 2027 08:04:54.072             4.781          2004.656
       123   06 Jun 2027 08:05:09.824   06 Jun 2027 08:05:09.920             0.096            18.000
       124   06 Jun 2027 08:05:14.460   06 Jun 2027 08:05:14.460             0.000             0.000
       125   06 Jun 2027 09:38:57.034   06 Jun 2027 09:39:02.373             5.339          2594.281
       126   06 Jun 2027 09:40:33.504   06 Jun 2027 09:40:35.611             2.107            39.750
       127   06 Jun 2027 09:41:13.173   06 Jun 2027 09:41:17.437             4.264           619.969
       128   06 Jun 2027 09:41:23.817   06 Jun 2027 09:41:24.622             0.805           182.375
       129   06 Jun 2027 09:41:57.921   06 Jun 2027 09:41:57.981             0.060            17.531
       130   06 Jun 2027 11:14:07.253   06 Jun 2027 11:14:16.254             9.001          4153.812
       131   06 Jun 2027 11:15:55.741   06 Jun 2027 11:16:02.338             6.597          2799.531
       132   06 Jun 2027 11:20:29.943   06 Jun 2027 11:20:42.957            13.014          6507.000
       133   07 Jun 2027 03:34:32.506   07 Jun 2027 03:38:00.621           208.115        104057.500
       134   07 Jun 2027 03:38:22.451   07 Jun 2027 03:38:49.990            27.539         13769.500
       135   07 Jun 2027 03:39:59.603   07 Jun 2027 03:40:02.766             3.163          1581.500
       136   07 Jun 2027 05:13:50.151   07 Jun 2027 05:15:14.355            84.204         41618.500
       137   07 Jun 2027 05:17:09.870   07 Jun 2027 05:17:15.354             5.484          1547.375
       138   07 Jun 2027 05:17:36.193   07 Jun 2027 05:17:37.597             1.404           634.031
       139   07 Jun 2027 05:20:17.496   07 Jun 2027 05:20:27.132             9.636          4524.344
       140   07 Jun 2027 05:20:39.378   07 Jun 2027 05:20:41.112             1.734           351.500
       141   07 Jun 2027 06:50:56.292   07 Jun 2027 06:51:08.140            11.848          4943.063
       142   07 Jun 2027 06:54:23.120   07 Jun 2027 06:54:23.504             0.384           112.844
       143   07 Jun 2027 08:14:55.288   07 Jun 2027 08:15:18.594            23.306          7117.563
       144   07 Jun 2027 08:15:58.113   07 Jun 2027 08:16:08.350            10.237           979.500
       145   07 Jun 2027 08:17:37.580   07 Jun 2027 08:17:37.580             0.000             0.000
       146   07 Jun 2027 09:50:43.844   07 Jun 2027 09:50:51.430             7.586          2667.000
       147   07 Jun 2027 09:53:14.578   07 Jun 2027 09:53:20.851             6.273          1620.094
       148   07 Jun 2027 11:25:36.439   07 Jun 2027 11:25:43.625             7.186          2157.656
       149   07 Jun 2027 11:27:46.057   07 Jun 2027 11:27:55.530             9.473          2989.781
       150   07 Jun 2027 11:31:16.794   07 Jun 2027 11:31:28.929            12.135          5234.125
       151   07 Jun 2027 11:32:10.185   07 Jun 2027 11:32:18.294             8.109          1168.125
       152   07 Jun 2027 11:32:48.006   07 Jun 2027 11:32:52.105             4.099           797.719
       153   08 Jun 2027 03:47:13.302   08 Jun 2027 03:50:28.239           194.937         97468.500
       154   08 Jun 2027 03:50:45.273   08 Jun 2027 03:50:50.109             4.836          2418.000
       155   08 Jun 2027 03:52:12.584   08 Jun 2027 03:52:14.567             1.983           991.500
       156   08 Jun 2027 03:52:23.833   08 Jun 2027 03:52:30.522             6.689          3344.500
       157   08 Jun 2027 03:52:47.872   08 Jun 2027 03:53:01.191            13.319          6659.500
       158   08 Jun 2027 03:53:08.855   08 Jun 2027 03:53:09.036             0.181            90.500
       159   08 Jun 2027 05:25:59.024   08 Jun 2027 05:28:00.807           121.783         59697.813
       160   08 Jun 2027 05:29:37.314   08 Jun 2027 05:29:43.928             6.614          2795.156
       161   08 Jun 2027 05:32:13.491   08 Jun 2027 05:32:24.820            11.329          4592.219
       162   08 Jun 2027 06:51:33.709   08 Jun 2027 06:51:44.946            11.237          5110.844
       163   08 Jun 2027 06:51:56.717   08 Jun 2027 06:52:04.386             7.669           179.719
       164   08 Jun 2027 07:02:54.660   08 Jun 2027 07:03:00.922             6.262          2547.062
       165   08 Jun 2027 07:04:08.586   08 Jun 2027 07:04:09.206             0.620           263.625
       166   08 Jun 2027 07:04:29.541   08 Jun 2027 07:04:32.298             2.757           414.219
       167   08 Jun 2027 08:25:30.527   08 Jun 2027 08:25:44.304            13.777          5012.375
       168   08 Jun 2027 08:25:57.572   08 Jun 2027 08:26:01.524             3.952           412.531
       169   08 Jun 2027 08:26:47.073   08 Jun 2027 08:26:48.916             1.843           597.156
       170   08 Jun 2027 08:26:50.325   08 Jun 2027 08:26:51.278             0.953            44.031
       171   08 Jun 2027 08:28:00.416   08 Jun 2027 08:28:05.512             5.096           917.938
       172   08 Jun 2027 08:29:39.128   08 Jun 2027 08:29:44.328             5.200          1272.594
       173   08 Jun 2027 10:01:00.511   08 Jun 2027 10:01:07.528             7.017          2114.406
       174   08 Jun 2027 10:04:09.822   08 Jun 2027 10:04:14.716             4.894          1586.406
       175   08 Jun 2027 10:05:42.876   08 Jun 2027 10:05:45.584             2.708           834.781
       176   08 Jun 2027 10:06:20.136   08 Jun 2027 10:06:21.493             1.357           533.125
       177   08 Jun 2027 11:37:21.531   08 Jun 2027 11:37:38.532            17.001          4213.500
       178   08 Jun 2027 11:40:18.579   08 Jun 2027 11:40:32.514            13.935          4721.844
       179   08 Jun 2027 11:42:00.784   08 Jun 2027 11:42:06.917             6.133          2393.594
       180   08 Jun 2027 11:43:14.593   08 Jun 2027 11:43:16.819             2.226          1113.000
       181   08 Jun 2027 11:43:42.014   08 Jun 2027 11:43:43.924             1.910           817.281
       182   08 Jun 2027 11:44:04.284   08 Jun 2027 11:44:05.625             1.341           625.937
       183   08 Jun 2027 11:44:11.348   08 Jun 2027 11:44:12.473             1.125            48.000
       184   08 Jun 2027 11:44:53.047   08 Jun 2027 11:44:53.169             0.122            61.000
       185   09 Jun 2027 03:59:21.028   09 Jun 2027 04:00:56.025            94.997         47498.500
       186   09 Jun 2027 04:00:56.402   09 Jun 2027 04:02:19.928            83.526         41763.000
       187   09 Jun 2027 04:04:11.820   09 Jun 2027 04:04:35.186            23.366         11683.000
       188   09 Jun 2027 05:38:24.945   09 Jun 2027 05:38:48.561            23.616         11808.000
       189   09 Jun 2027 05:40:18.801   09 Jun 2027 05:41:06.390            47.589         23794.500
       190   09 Jun 2027 05:43:41.556   09 Jun 2027 05:45:20.518            98.962         46216.499
       191   09 Jun 2027 07:03:14.097   09 Jun 2027 07:03:28.571            14.474          7237.000
       192   09 Jun 2027 07:04:01.569   09 Jun 2027 07:04:09.178             7.609          1753.969
       193   09 Jun 2027 07:14:54.088   09 Jun 2027 07:15:01.186             7.098          2788.219
       194   09 Jun 2027 08:37:12.254   09 Jun 2027 08:37:38.258            26.004         10716.781
       195   09 Jun 2027 08:38:06.713   09 Jun 2027 08:38:07.427             0.714           260.875
       196   09 Jun 2027 08:39:45.408   09 Jun 2027 08:39:53.687             8.279          2060.812
       197   09 Jun 2027 08:41:08.979   09 Jun 2027 08:41:13.359             4.380          1990.938
       198   09 Jun 2027 08:42:04.388   09 Jun 2027 08:42:07.523             3.135          1424.375
       199   09 Jun 2027 10:12:07.425   09 Jun 2027 10:12:13.008             5.583          2175.531
       200   09 Jun 2027 10:13:22.741   09 Jun 2027 10:13:34.314            11.573            90.906
       201   09 Jun 2027 10:15:16.898   09 Jun 2027 10:15:24.018             7.120          2073.937
       202   09 Jun 2027 10:17:17.026   09 Jun 2027 10:17:23.127             6.101          2663.719
       203   09 Jun 2027 10:18:13.913   09 Jun 2027 10:18:16.345             2.432           816.000
       204   09 Jun 2027 10:18:50.490   09 Jun 2027 10:18:50.490             0.000             0.000
       205   09 Jun 2027 10:19:02.179   09 Jun 2027 10:19:08.291             6.112           817.188
       206   09 Jun 2027 11:55:45.722   09 Jun 2027 11:56:18.083            32.361         15808.500
       207   09 Jun 2027 11:56:45.992   09 Jun 2027 11:56:50.999             5.007           519.125
       208   10 Jun 2027 04:11:48.257   10 Jun 2027 04:12:05.997            17.740          8870.000
       209   10 Jun 2027 04:12:13.803   10 Jun 2027 04:12:43.465            29.662         14831.000
       210   10 Jun 2027 04:12:48.351   10 Jun 2027 04:13:42.511            54.160         27080.000
       211   10 Jun 2027 04:13:44.646   10 Jun 2027 04:14:19.786            35.140         17570.000
       212   10 Jun 2027 04:16:12.936   10 Jun 2027 04:16:15.847             2.911          1455.500
       213   10 Jun 2027 04:16:36.769   10 Jun 2027 04:16:39.351             2.582          1291.000
       214   10 Jun 2027 05:50:30.004   10 Jun 2027 05:52:39.017           129.013         64506.500
       215   10 Jun 2027 05:55:06.452   10 Jun 2027 05:56:15.798            69.346         34601.500
       216   10 Jun 2027 07:14:47.910   10 Jun 2027 07:15:04.958            17.048          8133.188
       217   10 Jun 2027 07:15:52.596   10 Jun 2027 07:15:55.652             3.056          1204.969
       218   10 Jun 2027 07:16:19.730   10 Jun 2027 07:16:22.087             2.357           690.781
       219   10 Jun 2027 07:16:44.893   10 Jun 2027 07:16:45.675             0.782           192.000
       220   10 Jun 2027 07:27:09.856   10 Jun 2027 07:27:19.412             9.556          3193.656
       221   10 Jun 2027 08:48:44.425   10 Jun 2027 08:49:07.099            22.674          9652.875
       222   10 Jun 2027 08:50:52.594   10 Jun 2027 08:50:57.341             4.747           400.781
       223   10 Jun 2027 08:51:34.990   10 Jun 2027 08:51:43.206             8.216          1176.531
       224   10 Jun 2027 08:52:35.346   10 Jun 2027 08:52:35.346             0.000             0.000
       225   10 Jun 2027 10:23:37.490   10 Jun 2027 10:23:57.504            20.014          6011.750
       226   10 Jun 2027 10:25:47.930   10 Jun 2027 10:25:52.661             4.731          2311.594
       227   10 Jun 2027 10:26:21.758   10 Jun 2027 10:26:23.276             1.518           500.125
       228   10 Jun 2027 10:29:17.375   10 Jun 2027 10:29:26.064             8.689          3866.344
       229   10 Jun 2027 10:30:55.190   10 Jun 2027 10:30:57.250             2.060           371.656
       230   10 Jun 2027 10:31:11.441   10 Jun 2027 10:31:12.379             0.938           398.219
       231   10 Jun 2027 10:32:03.022   10 Jun 2027 10:32:07.373             4.351          1322.188
       232   10 Jun 2027 10:32:23.871   10 Jun 2027 10:32:25.072             1.201           193.656
       233   10 Jun 2027 10:32:27.614   10 Jun 2027 10:32:27.818             0.204            11.813
       234   11 Jun 2027 04:24:24.345   11 Jun 2027 04:24:36.733            12.388          6194.000
       235   11 Jun 2027 04:24:47.317   11 Jun 2027 04:24:54.393             7.076          3538.000
       236   11 Jun 2027 04:25:35.750   11 Jun 2027 04:25:47.748            11.998          5999.000
       237   11 Jun 2027 04:25:55.890   11 Jun 2027 04:26:24.010            28.120         14060.000
       238   11 Jun 2027 04:26:33.184   11 Jun 2027 04:26:54.254            21.070         10535.000
       239   11 Jun 2027 04:27:54.865   11 Jun 2027 04:29:08.436            73.571         36785.500
       240   11 Jun 2027 06:02:55.321   11 Jun 2027 06:05:36.318           160.997         80498.500
       241   11 Jun 2027 06:06:17.966   11 Jun 2027 06:06:38.335            20.369          9785.812
       242   11 Jun 2027 06:07:18.227   11 Jun 2027 06:07:21.195             2.968           581.563
       243   11 Jun 2027 07:26:43.796   11 Jun 2027 07:27:02.661            18.865          7435.250
       244   11 Jun 2027 07:28:04.041   11 Jun 2027 07:28:04.041             0.000             0.000
       245   11 Jun 2027 09:02:43.577   11 Jun 2027 09:03:15.742            32.165         11236.781
       246   11 Jun 2027 09:03:19.844   11 Jun 2027 09:03:22.191             2.347           128.188
       247   11 Jun 2027 09:05:42.254   11 Jun 2027 09:05:51.092             8.838          4285.188
       248   11 Jun 2027 10:36:31.263   11 Jun 2027 10:36:38.564             7.301          2518.031
       249   11 Jun 2027 10:38:35.958   11 Jun 2027 10:38:37.188             1.230           584.688
       250   11 Jun 2027 10:39:00.964   11 Jun 2027 10:39:02.790             1.826           743.000
       251   11 Jun 2027 10:41:17.111   11 Jun 2027 10:41:25.284             8.173          4002.062
       252   11 Jun 2027 10:43:17.865   11 Jun 2027 10:43:17.865             0.000             0.000
       253   11 Jun 2027 10:43:31.959   11 Jun 2027 10:43:35.696             3.737          1824.875
       254   11 Jun 2027 10:43:46.304   11 Jun 2027 10:43:47.600             1.296             7.000
       255   11 Jun 2027 10:44:25.079   11 Jun 2027 10:44:29.929             4.850           893.281
       256   11 Jun 2027 10:44:55.223   11 Jun 2027 10:44:57.952             2.729           633.375
       257   12 Jun 2027 03:00:17.564   12 Jun 2027 03:00:32.318            14.754          7377.000
       258   12 Jun 2027 03:00:45.961   12 Jun 2027 03:00:57.536            11.575          5787.500
       259   12 Jun 2027 03:01:11.217   12 Jun 2027 03:01:21.696            10.479          5239.500
       260   12 Jun 2027 03:02:23.758   12 Jun 2027 03:02:28.362             4.604          2302.000
       261   12 Jun 2027 03:02:53.609   12 Jun 2027 03:03:03.941            10.332          5166.000
       262   12 Jun 2027 03:03:34.794   12 Jun 2027 03:03:44.215             9.421          4710.500
       263   12 Jun 2027 03:03:50.175   12 Jun 2027 03:04:03.668            13.493          6746.500
       264   12 Jun 2027 04:36:57.419   12 Jun 2027 04:37:24.088            26.669         13334.500
       265   12 Jun 2027 04:37:35.114   12 Jun 2027 04:38:32.310            57.196         28598.000
       266   12 Jun 2027 04:39:25.584   12 Jun 2027 04:40:08.929            43.345         21672.500
       267   12 Jun 2027 04:41:06.196   12 Jun 2027 04:41:19.037            12.841          6420.500
       268   12 Jun 2027 04:41:49.306   12 Jun 2027 04:42:09.398            20.092         10046.000
       269   12 Jun 2027 04:42:17.956   12 Jun 2027 04:42:23.613             5.657          2828.500
       270   12 Jun 2027 06:15:14.018   12 Jun 2027 06:17:12.501           118.483         56660.031
       271   12 Jun 2027 07:38:36.083   12 Jun 2027 07:38:45.288             9.205          4510.250
       272   12 Jun 2027 07:40:00.587   12 Jun 2027 07:40:04.830             4.243          1815.625
       273   12 Jun 2027 09:14:57.511   12 Jun 2027 09:15:23.772            26.261         10128.188
       274   12 Jun 2027 09:15:46.195   12 Jun 2027 09:15:48.689             2.494           270.375
       275   12 Jun 2027 09:16:36.256   12 Jun 2027 09:16:38.359             2.103          1022.844
       276   12 Jun 2027 09:17:00.758   12 Jun 2027 09:17:01.036             0.278            47.531
       277   12 Jun 2027 09:18:03.633   12 Jun 2027 09:18:03.633             0.000             0.000
       278   12 Jun 2027 10:47:16.372   12 Jun 2027 10:47:23.694             7.322          3587.437
       279   12 Jun 2027 10:49:02.917   12 Jun 2027 10:49:04.667             1.750           813.938
       280   12 Jun 2027 10:52:11.483   12 Jun 2027 10:52:17.070             5.587          2506.437
       281   12 Jun 2027 10:54:20.251   12 Jun 2027 10:54:28.549             8.298          3282.812
       282   12 Jun 2027 10:55:22.267   12 Jun 2027 10:55:25.278             3.011           451.688
       283   12 Jun 2027 10:56:46.141   12 Jun 2027 10:56:53.479             7.338          1995.750
       284   13 Jun 2027 03:10:50.599   13 Jun 2027 03:11:06.820            16.221          8110.500
       285   13 Jun 2027 03:12:12.787   13 Jun 2027 03:13:40.510            87.723         43861.500
       286   13 Jun 2027 03:14:16.791   13 Jun 2027 03:14:29.264            12.473          6236.500
       287   13 Jun 2027 03:15:01.961   13 Jun 2027 03:15:13.856            11.895          5947.500
       288   13 Jun 2027 04:49:03.659   13 Jun 2027 04:50:05.342            61.683         30841.500
       289   13 Jun 2027 04:50:11.430   13 Jun 2027 04:51:41.963            90.533         45266.500
       290   13 Jun 2027 04:51:46.347   13 Jun 2027 04:52:30.494            44.147         22073.500
       291   13 Jun 2027 04:53:32.439   13 Jun 2027 04:53:41.076             8.637          3752.812
       292   13 Jun 2027 04:53:45.206   13 Jun 2027 04:53:45.863             0.657            31.750
       293   13 Jun 2027 06:28:07.090   13 Jun 2027 06:28:30.847            23.757         11441.375
       294   13 Jun 2027 06:29:54.410   13 Jun 2027 06:29:58.726             4.316          1546.594
       295   13 Jun 2027 06:30:31.647   13 Jun 2027 06:30:33.793             2.146           855.375
       296   13 Jun 2027 06:31:09.045   13 Jun 2027 06:31:12.980             3.935           906.469
       297   13 Jun 2027 07:50:39.140   13 Jun 2027 07:50:50.917            11.777          5213.656
       298   13 Jun 2027 07:52:01.748   13 Jun 2027 07:52:08.392             6.644          2146.344
       299   13 Jun 2027 07:52:20.251   13 Jun 2027 07:52:26.356             6.105            78.094
       300   13 Jun 2027 09:27:04.580   13 Jun 2027 09:27:16.669            12.089          2889.313
       301   13 Jun 2027 09:27:53.226   13 Jun 2027 09:27:54.510             1.284           470.906
       302   13 Jun 2027 09:28:52.526   13 Jun 2027 09:28:55.453             2.927          1115.500
       303   13 Jun 2027 09:29:01.600   13 Jun 2027 09:29:01.600             0.000             0.000
       304   13 Jun 2027 09:29:29.261   13 Jun 2027 09:29:34.066             4.805          1056.500
       305   13 Jun 2027 11:02:12.998   13 Jun 2027 11:02:24.604            11.606          5774.437
       306   13 Jun 2027 11:03:30.844   13 Jun 2027 11:03:30.844             0.000             0.000
       307   13 Jun 2027 11:05:14.289   13 Jun 2027 11:05:23.458             9.169          4379.812
       308   13 Jun 2027 11:07:39.554   13 Jun 2027 11:07:46.972             7.418          3449.656
       309   13 Jun 2027 11:08:46.963   13 Jun 2027 11:08:46.963             0.000             0.000
       310   13 Jun 2027 11:08:54.755   13 Jun 2027 11:08:57.775             3.020          1235.000
