uniorb/output/strategy_4/Camera/Camera_KinoSat_111207.txt

KinoSat_111207
-------------------------
    Access    *     Start Time (UTCG)     *     Stop Time (UTCG)  *   Duration (s) *   Data (Mbytes)
         1   01 Jun 2027 03:12:25.441   01 Jun 2027 03:13:55.010            89.569         44784.500
         2   01 Jun 2027 03:14:10.127   01 Jun 2027 03:14:18.940             8.813          4406.500
         3   01 Jun 2027 03:15:20.513   01 Jun 2027 03:15:21.896             1.383           691.500
         4   01 Jun 2027 03:15:46.826   01 Jun 2027 03:15:56.727             9.901          4950.500
         5   01 Jun 2027 04:36:09.591   01 Jun 2027 04:37:01.722            52.131         26065.500
         6   01 Jun 2027 04:37:57.811   01 Jun 2027 04:37:58.174             0.363           181.500
         7   01 Jun 2027 06:12:20.867   01 Jun 2027 06:14:16.271           115.404         57702.000
         8   01 Jun 2027 06:15:39.793   01 Jun 2027 06:15:51.937            12.144          6072.000
         9   01 Jun 2027 07:45:54.313   01 Jun 2027 07:47:50.914           116.601         58300.500
        10   01 Jun 2027 07:48:16.008   01 Jun 2027 07:48:24.004             7.996          3998.000
        11   01 Jun 2027 07:51:52.422   01 Jun 2027 07:51:58.036             5.614          2807.000
        12   01 Jun 2027 07:53:24.212   01 Jun 2027 07:53:24.944             0.732           366.000
        13   01 Jun 2027 07:53:27.420   01 Jun 2027 07:53:45.997            18.577          9288.500
        14   01 Jun 2027 07:54:27.233   01 Jun 2027 07:54:28.262             1.029           514.500
        15   01 Jun 2027 09:23:21.693   01 Jun 2027 09:25:34.290           132.597         66298.500
        16   01 Jun 2027 09:27:11.965   01 Jun 2027 09:27:52.892            40.927         20463.500
        17   01 Jun 2027 09:28:38.941   01 Jun 2027 09:29:22.961            44.020         22010.000
        18   01 Jun 2027 11:00:21.542   01 Jun 2027 11:02:28.892           127.350         63675.000
        19   01 Jun 2027 11:02:50.122   01 Jun 2027 11:03:28.736            38.614         19307.000
        20   02 Jun 2027 03:24:20.637   02 Jun 2027 03:26:13.077           112.440         56220.000
        21   02 Jun 2027 03:26:16.900   02 Jun 2027 03:26:24.554             7.654          3827.000
        22   02 Jun 2027 03:26:54.756   02 Jun 2027 03:27:06.213            11.457          5728.500
        23   02 Jun 2027 03:28:35.753   02 Jun 2027 03:28:35.753             0.000             0.000
        24   02 Jun 2027 04:47:59.643   02 Jun 2027 04:49:04.346            64.703         32351.500
        25   02 Jun 2027 06:24:26.542   02 Jun 2027 06:28:01.284           214.742        107371.000
        26   02 Jun 2027 07:56:36.723   02 Jun 2027 07:56:45.735             9.012          4506.000
        27   02 Jun 2027 07:58:33.336   02 Jun 2027 08:01:51.499           198.163         99081.500
        28   02 Jun 2027 08:02:47.427   02 Jun 2027 08:03:11.961            24.534         12267.000
        29   02 Jun 2027 08:05:15.450   02 Jun 2027 08:05:17.325             1.875           937.500
        30   02 Jun 2027 08:06:22.885   02 Jun 2027 08:06:23.054             0.169            84.500
        31   02 Jun 2027 09:35:31.349   02 Jun 2027 09:36:16.112            44.763         21571.811
        32   02 Jun 2027 09:38:42.527   02 Jun 2027 09:38:46.203             3.676           638.531
        33   02 Jun 2027 09:39:02.540   02 Jun 2027 09:39:04.079             1.539           137.438
        34   02 Jun 2027 09:39:38.365   02 Jun 2027 09:39:43.696             5.331           779.063
        35   02 Jun 2027 09:40:03.288   02 Jun 2027 09:40:07.394             4.106           182.031
        36   02 Jun 2027 09:40:38.349   02 Jun 2027 09:40:43.774             5.425           942.438
        37   02 Jun 2027 09:41:36.729   02 Jun 2027 09:41:39.921             3.192          1535.063
        38   02 Jun 2027 09:42:12.719   02 Jun 2027 09:42:15.931             3.212           956.031
        39   02 Jun 2027 11:12:48.596   02 Jun 2027 11:13:06.857            18.261          7433.031
        40   02 Jun 2027 11:13:35.156   02 Jun 2027 11:13:39.077             3.921            68.250
        41   02 Jun 2027 11:15:21.138   02 Jun 2027 11:15:23.447             2.309           804.094
        42   02 Jun 2027 11:15:47.719   02 Jun 2027 11:15:50.052             2.333           648.125
        43   02 Jun 2027 11:16:01.996   02 Jun 2027 11:16:03.153             1.157           322.187
        44   02 Jun 2027 11:16:12.284   02 Jun 2027 11:16:13.013             0.729           231.562
        45   02 Jun 2027 11:16:14.138   02 Jun 2027 11:16:22.187             8.049            35.156
        46   02 Jun 2027 11:16:42.653   02 Jun 2027 11:16:45.056             2.403           631.344
        47   02 Jun 2027 11:17:06.586   02 Jun 2027 11:17:08.025             1.439           603.344
        48   03 Jun 2027 03:37:34.012   03 Jun 2027 03:40:35.988           181.976         90988.000
        49   03 Jun 2027 05:00:07.588   03 Jun 2027 05:00:39.808            32.220         16110.000
        50   03 Jun 2027 05:02:59.107   03 Jun 2027 05:03:09.049             9.942          4971.000
        51   03 Jun 2027 06:36:35.702   03 Jun 2027 06:38:05.466            89.764         41986.563
        52   03 Jun 2027 06:38:31.343   03 Jun 2027 06:38:33.444             2.101           641.406
        53   03 Jun 2027 06:38:39.140   03 Jun 2027 06:38:39.140             0.000             0.000
        54   03 Jun 2027 06:39:13.548   03 Jun 2027 06:39:18.206             4.658          1253.250
        55   03 Jun 2027 08:11:46.432   03 Jun 2027 08:11:51.962             5.530          2357.813
        56   03 Jun 2027 08:12:56.271   03 Jun 2027 08:12:59.451             3.180          1307.844
        57   03 Jun 2027 08:14:01.240   03 Jun 2027 08:14:05.649             4.409          1308.813
        58   03 Jun 2027 08:15:19.560   03 Jun 2027 08:15:23.574             4.014          1086.344
        59   03 Jun 2027 08:17:01.854   03 Jun 2027 08:17:08.317             6.463          2261.313
        60   03 Jun 2027 08:17:51.777   03 Jun 2027 08:17:54.294             2.517           830.625
        61   03 Jun 2027 08:18:21.496   03 Jun 2027 08:18:23.498             2.002           849.813
        62   03 Jun 2027 09:48:05.514   03 Jun 2027 09:48:25.653            20.139          5507.438
        63   03 Jun 2027 09:51:30.286   03 Jun 2027 09:51:33.917             3.631          1061.562
        64   03 Jun 2027 09:52:23.091   03 Jun 2027 09:52:27.961             4.870          1099.688
        65   03 Jun 2027 09:53:26.072   03 Jun 2027 09:53:30.496             4.424          1367.000
        66   03 Jun 2027 11:25:29.082   03 Jun 2027 11:25:46.029            16.947          5314.656
        67   03 Jun 2027 11:27:34.118   03 Jun 2027 11:27:39.833             5.715          1069.406
        68   03 Jun 2027 11:28:12.988   03 Jun 2027 11:28:14.097             1.109           315.594
        69   03 Jun 2027 11:28:41.481   03 Jun 2027 11:28:43.257             1.776           331.500
        70   03 Jun 2027 11:29:29.850   03 Jun 2027 11:29:32.130             2.280          1038.406
        71   03 Jun 2027 11:29:58.802   03 Jun 2027 11:30:00.765             1.963           430.094
        72   04 Jun 2027 03:48:41.313   04 Jun 2027 03:49:19.274            37.961         18980.500
        73   04 Jun 2027 03:49:48.202   04 Jun 2027 03:52:14.438           146.236         73118.000
        74   04 Jun 2027 05:12:08.947   04 Jun 2027 05:12:40.620            31.673         15836.500
        75   04 Jun 2027 05:13:19.123   04 Jun 2027 05:13:26.432             7.309          3654.500
        76   04 Jun 2027 06:48:36.815   04 Jun 2027 06:49:59.645            82.830         39678.875
        77   04 Jun 2027 06:50:38.339   04 Jun 2027 06:50:38.339             0.000             0.000
        78   04 Jun 2027 06:50:51.972   04 Jun 2027 06:50:54.144             2.172          1086.000
        79   04 Jun 2027 06:51:12.052   04 Jun 2027 06:51:14.393             2.341           991.938
        80   04 Jun 2027 06:51:42.937   04 Jun 2027 06:51:44.686             1.749           828.844
        81   04 Jun 2027 08:23:49.433   04 Jun 2027 08:23:56.547             7.114          3150.875
        82   04 Jun 2027 08:25:20.366   04 Jun 2027 08:25:26.455             6.089          2311.406
        83   04 Jun 2027 08:26:13.861   04 Jun 2027 08:26:15.560             1.699           593.469
        84   04 Jun 2027 08:26:43.402   04 Jun 2027 08:26:44.037             0.635            73.875
        85   04 Jun 2027 08:27:15.372   04 Jun 2027 08:27:16.621             1.249           189.031
        86   04 Jun 2027 08:27:51.701   04 Jun 2027 08:27:56.752             5.051           920.906
        87   04 Jun 2027 08:27:59.206   04 Jun 2027 08:28:04.553             5.347            76.687
        88   04 Jun 2027 08:28:47.141   04 Jun 2027 08:28:50.380             3.239          1075.969
        89   04 Jun 2027 08:29:06.628   04 Jun 2027 08:29:07.745             1.117           156.344
        90   04 Jun 2027 08:29:25.469   04 Jun 2027 08:29:30.109             4.640           345.062
        91   04 Jun 2027 08:30:27.475   04 Jun 2027 08:30:29.175             1.700           850.000
        92   04 Jun 2027 09:59:44.600   04 Jun 2027 09:59:53.885             9.285          4225.500
        93   04 Jun 2027 10:02:27.497   04 Jun 2027 10:02:30.326             2.829           990.281
        94   04 Jun 2027 10:02:49.787   04 Jun 2027 10:02:52.822             3.035            98.687
        95   04 Jun 2027 10:02:57.336   04 Jun 2027 10:02:58.470             1.134            49.469
        96   04 Jun 2027 10:03:26.862   04 Jun 2027 10:03:28.555             1.693           697.844
        97   04 Jun 2027 10:04:09.277   04 Jun 2027 10:04:15.870             6.593          1157.750
        98   04 Jun 2027 10:04:47.138   04 Jun 2027 10:04:50.309             3.171           965.594
        99   04 Jun 2027 10:05:09.579   04 Jun 2027 10:05:10.727             1.148           287.781
       100   04 Jun 2027 11:37:43.354   04 Jun 2027 11:37:55.386            12.032          5272.469
       101   04 Jun 2027 11:40:03.392   04 Jun 2027 11:40:07.984             4.592           163.438
       102   04 Jun 2027 11:41:04.923   04 Jun 2027 11:41:07.527             2.604           806.938
       103   04 Jun 2027 11:41:39.791   04 Jun 2027 11:41:45.062             5.271           953.188
       104   05 Jun 2027 03:49:42.228   05 Jun 2027 03:49:57.362            15.134          7567.000
       105   05 Jun 2027 04:00:38.601   05 Jun 2027 04:03:20.785           162.184         81092.000
       106   05 Jun 2027 05:24:35.369   05 Jun 2027 05:25:07.185            31.816         15908.000
       107   05 Jun 2027 05:26:36.333   05 Jun 2027 05:27:04.875            28.542         14271.000
       108   05 Jun 2027 07:00:20.500   05 Jun 2027 07:01:44.403            83.903         41119.782
       109   05 Jun 2027 07:02:22.841   05 Jun 2027 07:02:28.184             5.343          1201.187
       110   05 Jun 2027 07:03:09.699   05 Jun 2027 07:03:09.699             0.000             0.000
       111   05 Jun 2027 07:03:37.532   05 Jun 2027 07:03:42.150             4.618          1951.281
       112   05 Jun 2027 07:04:28.623   05 Jun 2027 07:04:35.212             6.589          1296.406
       113   05 Jun 2027 08:35:04.404   05 Jun 2027 08:35:09.937             5.533          1858.344
       114   05 Jun 2027 08:37:20.921   05 Jun 2027 08:37:30.644             9.723          2366.187
       115   05 Jun 2027 08:38:22.452   05 Jun 2027 08:38:27.595             5.143           959.719
       116   05 Jun 2027 08:38:35.863   05 Jun 2027 08:38:35.863             0.000             0.000
       117   05 Jun 2027 08:38:53.628   05 Jun 2027 08:38:55.947             2.319           753.375
       118   05 Jun 2027 08:39:56.456   05 Jun 2027 08:40:00.170             3.714          1002.969
       119   05 Jun 2027 08:40:48.885   05 Jun 2027 08:40:49.650             0.765           304.312
       120   05 Jun 2027 08:41:09.707   05 Jun 2027 08:41:10.272             0.565           280.344
       121   05 Jun 2027 08:41:55.039   05 Jun 2027 08:41:58.456             3.417           450.500
       122   05 Jun 2027 10:11:53.701   05 Jun 2027 10:12:04.709            11.008          5212.281
       123   05 Jun 2027 10:13:59.928   05 Jun 2027 10:14:01.120             1.192           394.875
       124   05 Jun 2027 10:14:24.313   05 Jun 2027 10:14:25.585             1.272            48.125
       125   05 Jun 2027 10:15:01.289   05 Jun 2027 10:15:06.123             4.834          1115.750
       126   05 Jun 2027 10:15:31.971   05 Jun 2027 10:15:33.725             1.754           335.250
       127   05 Jun 2027 10:16:07.041   05 Jun 2027 10:16:09.122             2.081           879.063
       128   05 Jun 2027 10:16:23.294   05 Jun 2027 10:16:24.535             1.241           442.875
       129   05 Jun 2027 10:16:30.785   05 Jun 2027 10:16:32.323             1.538           195.313
       130   05 Jun 2027 10:17:48.582   05 Jun 2027 10:17:57.129             8.547          2230.312
       131   05 Jun 2027 11:50:06.544   05 Jun 2027 11:50:19.739            13.195          6491.500
       132   05 Jun 2027 11:52:03.393   05 Jun 2027 11:52:05.806             2.413            96.500
       133   05 Jun 2027 11:52:24.544   05 Jun 2027 11:52:26.754             2.210           322.938
       134   05 Jun 2027 11:52:45.949   05 Jun 2027 11:52:50.657             4.708           512.250
       135   05 Jun 2027 11:53:48.444   05 Jun 2027 11:53:51.117             2.673          1014.281
       136   06 Jun 2027 04:00:59.161   06 Jun 2027 04:01:30.250            31.089         15544.500
       137   06 Jun 2027 04:12:38.988   06 Jun 2027 04:14:04.844            85.856         42928.000
       138   06 Jun 2027 05:35:10.700   06 Jun 2027 05:36:11.617            60.917         30458.500
       139   06 Jun 2027 05:36:52.451   06 Jun 2027 05:37:13.222            20.771         10385.500
       140   06 Jun 2027 05:39:07.621   06 Jun 2027 05:39:15.295             7.674          3837.000
       141   06 Jun 2027 07:10:13.933   06 Jun 2027 07:11:32.910            78.977         39488.500
       142   06 Jun 2027 07:12:04.683   06 Jun 2027 07:12:42.793            38.110         18816.969
       143   06 Jun 2027 07:13:17.594   06 Jun 2027 07:13:17.594             0.000             0.000
       144   06 Jun 2027 07:13:26.440   06 Jun 2027 07:13:30.865             4.425           858.781
       145   06 Jun 2027 07:14:26.523   06 Jun 2027 07:14:26.523             0.000             0.000
       146   06 Jun 2027 07:15:07.694   06 Jun 2027 07:15:18.915            11.221          2578.000
       147   06 Jun 2027 07:15:44.586   06 Jun 2027 07:15:47.455             2.869           676.000
       148   06 Jun 2027 07:16:39.259   06 Jun 2027 07:16:43.308             4.049          1575.563
       149   06 Jun 2027 08:47:12.576   06 Jun 2027 08:47:16.034             3.458          1416.000
       150   06 Jun 2027 08:49:33.202   06 Jun 2027 08:49:36.756             3.554          1195.000
       151   06 Jun 2027 08:50:28.887   06 Jun 2027 08:50:28.887             0.000             0.000
       152   06 Jun 2027 08:50:48.426   06 Jun 2027 08:50:51.057             2.631           688.781
       153   06 Jun 2027 08:51:08.165   06 Jun 2027 08:51:13.522             5.357           205.531
       154   06 Jun 2027 08:52:03.871   06 Jun 2027 08:52:07.217             3.346          1177.094
       155   06 Jun 2027 08:52:59.051   06 Jun 2027 08:53:02.188             3.137          1474.219
       156   06 Jun 2027 08:53:44.007   06 Jun 2027 08:53:46.369             2.362           980.250
       157   06 Jun 2027 08:54:30.825   06 Jun 2027 08:54:35.151             4.326          1199.875
       158   06 Jun 2027 10:24:10.675   06 Jun 2027 10:24:25.074            14.399          6236.031
       159   06 Jun 2027 10:27:08.290   06 Jun 2027 10:27:12.411             4.121           584.937
       160   06 Jun 2027 10:27:54.804   06 Jun 2027 10:27:58.551             3.747            91.250
       161   06 Jun 2027 10:28:31.524   06 Jun 2027 10:28:34.919             3.395          1006.625
       162   06 Jun 2027 10:28:55.794   06 Jun 2027 10:29:02.312             6.518           457.250
       163   07 Jun 2027 04:12:20.138   07 Jun 2027 04:12:31.542            11.404          5702.000
       164   07 Jun 2027 04:13:37.371   07 Jun 2027 04:13:49.868            12.497          6248.500
       165   07 Jun 2027 04:24:36.531   07 Jun 2027 04:25:32.069            55.538         27769.000
       166   07 Jun 2027 05:46:35.120   07 Jun 2027 05:47:55.437            80.317         40158.500
       167   07 Jun 2027 05:49:25.047   07 Jun 2027 05:49:32.846             7.799          3899.500
       168   07 Jun 2027 05:51:04.109   07 Jun 2027 05:51:25.818            21.709         10854.500
       169   07 Jun 2027 07:21:38.568   07 Jun 2027 07:23:48.913           130.345         64895.562
       170   07 Jun 2027 07:24:05.095   07 Jun 2027 07:24:05.167             0.072            36.000
       171   07 Jun 2027 07:24:40.987   07 Jun 2027 07:24:44.125             3.138          1356.781
       172   07 Jun 2027 07:25:28.925   07 Jun 2027 07:25:31.698             2.773           804.656
       173   07 Jun 2027 07:25:54.898   07 Jun 2027 07:25:54.898             0.000             0.000
       174   07 Jun 2027 07:27:06.291   07 Jun 2027 07:27:20.733            14.442          2956.031
       175   07 Jun 2027 07:28:17.503   07 Jun 2027 07:28:20.876             3.373          1605.719
       176   07 Jun 2027 07:28:23.501   07 Jun 2027 07:28:26.469             2.968            70.844
       177   07 Jun 2027 07:29:08.186   07 Jun 2027 07:29:12.349             4.163          1092.781
       178   07 Jun 2027 08:59:14.631   07 Jun 2027 08:59:22.690             8.059          3794.031
       179   07 Jun 2027 09:00:10.227   07 Jun 2027 09:00:12.717             2.490          1059.031
       180   07 Jun 2027 09:02:35.252   07 Jun 2027 09:02:41.993             6.741           934.000
       181   07 Jun 2027 09:02:55.216   07 Jun 2027 09:02:56.267             1.051           264.469
       182   07 Jun 2027 09:03:27.699   07 Jun 2027 09:03:33.326             5.627           527.500
       183   07 Jun 2027 09:03:40.301   07 Jun 2027 09:03:44.444             4.143           217.969
       184   07 Jun 2027 09:04:12.716   07 Jun 2027 09:04:14.043             1.327           663.500
       185   07 Jun 2027 09:05:15.383   07 Jun 2027 09:05:20.993             5.610          2136.875
       186   07 Jun 2027 09:06:08.075   07 Jun 2027 09:06:11.873             3.798           469.812
       187   07 Jun 2027 09:06:27.674   07 Jun 2027 09:06:29.040             1.366           297.000
       188   07 Jun 2027 09:06:40.587   07 Jun 2027 09:06:40.665             0.078            39.000
       189   07 Jun 2027 10:36:00.443   07 Jun 2027 10:36:12.342            11.899          5288.781
       190   07 Jun 2027 10:36:19.291   07 Jun 2027 10:36:21.961             2.670            98.687
       191   07 Jun 2027 10:37:15.757   07 Jun 2027 10:37:17.714             1.957            95.375
       192   07 Jun 2027 10:37:30.103   07 Jun 2027 10:37:37.693             7.590           313.156
       193   07 Jun 2027 10:38:46.034   07 Jun 2027 10:38:50.438             4.404          2076.219
       194   07 Jun 2027 10:39:38.414   07 Jun 2027 10:39:42.041             3.627          1354.562
       195   07 Jun 2027 10:40:14.951   07 Jun 2027 10:40:17.247             2.296           229.063
       196   07 Jun 2027 10:40:45.856   07 Jun 2027 10:40:49.749             3.893           894.031
       197   07 Jun 2027 10:41:52.598   07 Jun 2027 10:41:56.812             4.214          1964.031
       198   07 Jun 2027 10:42:21.497   07 Jun 2027 10:42:25.423             3.926           553.688
       199   08 Jun 2027 03:00:16.576   08 Jun 2027 03:00:38.685            22.109         11054.500
       200   08 Jun 2027 03:01:14.961   08 Jun 2027 03:01:38.757            23.796         11898.000
       201   08 Jun 2027 03:02:53.383   08 Jun 2027 03:02:53.383             0.000             0.000
       202   08 Jun 2027 03:03:46.210   08 Jun 2027 03:03:51.746             5.536          2768.000
       203   08 Jun 2027 03:04:06.303   08 Jun 2027 03:04:11.549             5.246          2623.000
       204   08 Jun 2027 04:24:27.962   08 Jun 2027 04:25:14.541            46.579         23289.500
       205   08 Jun 2027 04:36:59.901   08 Jun 2027 04:37:03.648             3.747          1873.500
       206   08 Jun 2027 05:58:17.476   08 Jun 2027 06:00:21.387           123.911         61955.500
       207   08 Jun 2027 06:00:57.594   08 Jun 2027 06:01:16.217            18.623          9311.500
       208   08 Jun 2027 06:01:46.366   08 Jun 2027 06:02:04.191            17.825          8912.500
       209   08 Jun 2027 06:03:12.684   08 Jun 2027 06:03:55.598            42.914         21457.000
       210   08 Jun 2027 07:33:09.721   08 Jun 2027 07:33:38.059            28.338         12699.781
       211   08 Jun 2027 07:33:43.545   08 Jun 2027 07:33:48.211             4.666           171.437
       212   08 Jun 2027 07:34:15.196   08 Jun 2027 07:34:17.362             2.166           287.875
       213   08 Jun 2027 07:35:37.151   08 Jun 2027 07:35:39.317             2.166            88.938
       214   08 Jun 2027 07:37:45.663   08 Jun 2027 07:37:50.282             4.619          1715.344
       215   08 Jun 2027 07:39:05.988   08 Jun 2027 07:39:12.069             6.081          2159.250
       216   08 Jun 2027 07:40:14.131   08 Jun 2027 07:40:18.605             4.474          1404.406
       217   08 Jun 2027 07:40:25.996   08 Jun 2027 07:40:29.051             3.055           151.312
       218   08 Jun 2027 07:40:55.793   08 Jun 2027 07:41:01.137             5.344           388.656
       219   08 Jun 2027 07:41:23.996   08 Jun 2027 07:41:25.393             1.397           511.313
       220   08 Jun 2027 07:42:08.417   08 Jun 2027 07:42:11.204             2.787           850.844
       221   08 Jun 2027 07:42:38.201   08 Jun 2027 07:42:40.332             2.131           349.531
       222   08 Jun 2027 07:42:41.604   08 Jun 2027 07:42:44.135             2.531            39.750
       223   08 Jun 2027 09:11:15.293   08 Jun 2027 09:11:32.503            17.210          5540.531
       224   08 Jun 2027 09:15:28.822   08 Jun 2027 09:15:29.985             1.163           395.500
       225   08 Jun 2027 09:16:02.554   08 Jun 2027 09:16:06.849             4.295           885.719
       226   08 Jun 2027 09:16:48.774   08 Jun 2027 09:16:49.460             0.686           277.937
       227   08 Jun 2027 09:16:54.348   08 Jun 2027 09:16:55.224             0.876            22.875
       228   08 Jun 2027 09:17:46.105   08 Jun 2027 09:17:50.109             4.004           766.625
       229   08 Jun 2027 09:18:09.443   08 Jun 2027 09:18:11.351             1.908            68.344
       230   08 Jun 2027 09:18:27.905   08 Jun 2027 09:18:29.594             1.689           453.469
       231   08 Jun 2027 10:48:09.304   08 Jun 2027 10:48:19.923            10.619          4993.562
       232   08 Jun 2027 10:48:41.661   08 Jun 2027 10:48:42.668             1.007           471.156
       233   08 Jun 2027 10:51:32.022   08 Jun 2027 10:51:41.716             9.694          2000.969
       234   08 Jun 2027 10:52:05.101   08 Jun 2027 10:52:06.014             0.913           397.438
       235   08 Jun 2027 10:52:09.754   08 Jun 2027 10:52:11.083             1.329           116.875
       236   08 Jun 2027 10:52:53.689   08 Jun 2027 10:52:58.140             4.451           927.062
       237   08 Jun 2027 10:53:02.639   08 Jun 2027 10:53:03.412             0.773           140.594
       238   08 Jun 2027 10:53:44.549   08 Jun 2027 10:53:50.582             6.033           262.469
       239   08 Jun 2027 10:54:11.539   08 Jun 2027 10:54:14.337             2.798           528.344
       240   08 Jun 2027 10:54:21.393   08 Jun 2027 10:54:34.006            12.613           220.500
       241   09 Jun 2027 03:12:37.440   09 Jun 2027 03:14:12.306            94.866         47433.000
       242   09 Jun 2027 03:15:12.972   09 Jun 2027 03:15:24.300            11.328          5664.000
       243   09 Jun 2027 03:15:50.847   09 Jun 2027 03:16:00.623             9.776          4888.000
       244   09 Jun 2027 03:16:13.008   09 Jun 2027 03:16:23.663            10.655          5327.500
       245   09 Jun 2027 04:36:24.189   09 Jun 2027 04:36:45.918            21.729         10864.500
       246   09 Jun 2027 04:37:03.438   09 Jun 2027 04:37:17.260            13.822          6911.000
       247   09 Jun 2027 06:12:36.767   09 Jun 2027 06:15:14.945           158.178         79089.000
       248   09 Jun 2027 06:15:17.981   09 Jun 2027 06:15:24.291             6.310           928.031
       249   09 Jun 2027 07:46:10.071   09 Jun 2027 07:46:23.886            13.815          3199.469
       250   09 Jun 2027 07:48:32.763   09 Jun 2027 07:48:35.054             2.291           792.187
       251   09 Jun 2027 07:48:46.603   09 Jun 2027 07:48:47.708             1.105           184.781
       252   09 Jun 2027 07:49:45.153   09 Jun 2027 07:49:49.124             3.971          1437.281
       253   09 Jun 2027 07:50:01.419   09 Jun 2027 07:50:04.611             3.192           188.188
       254   09 Jun 2027 07:50:45.357   09 Jun 2027 07:50:47.968             2.611           689.281
       255   09 Jun 2027 07:51:32.122   09 Jun 2027 07:51:34.678             2.556           846.562
       256   09 Jun 2027 07:52:09.308   09 Jun 2027 07:52:12.850             3.542          1082.187
       257   09 Jun 2027 07:53:06.791   09 Jun 2027 07:53:11.175             4.384          1685.656
       258   09 Jun 2027 07:53:17.342   09 Jun 2027 07:53:20.013             2.671            72.969
       259   09 Jun 2027 07:53:25.605   09 Jun 2027 07:53:26.545             0.940           123.500
       260   09 Jun 2027 07:54:02.057   09 Jun 2027 07:54:07.769             5.712           856.344
       261   09 Jun 2027 09:23:40.758   09 Jun 2027 09:24:03.699            22.941          6588.469
       262   09 Jun 2027 09:26:55.330   09 Jun 2027 09:26:59.227             3.897           627.562
       263   09 Jun 2027 09:27:27.444   09 Jun 2027 09:27:29.429             1.985           759.375
       264   09 Jun 2027 09:28:47.250   09 Jun 2027 09:28:47.367             0.117            19.562
       265   09 Jun 2027 09:29:49.774   09 Jun 2027 09:29:57.003             7.229          1750.156
       266   09 Jun 2027 09:30:22.872   09 Jun 2027 09:30:25.538             2.666           719.250
       267   09 Jun 2027 11:00:37.240   09 Jun 2027 11:00:58.359            21.119          5257.094
       268   09 Jun 2027 11:03:57.687   09 Jun 2027 11:04:00.229             2.542           206.187
       269   09 Jun 2027 11:04:15.807   09 Jun 2027 11:04:17.880             2.073           302.688
       270   09 Jun 2027 11:04:40.169   09 Jun 2027 11:04:48.620             8.451           284.156
       271   09 Jun 2027 11:05:20.020   09 Jun 2027 11:05:22.797             2.777           720.250
       272   09 Jun 2027 11:06:06.767   09 Jun 2027 11:06:11.615             4.848           571.656
       273   09 Jun 2027 11:06:25.874   09 Jun 2027 11:06:28.814             2.940           445.594
       274   10 Jun 2027 03:24:36.055   10 Jun 2027 03:27:47.669           191.614         95807.000
       275   10 Jun 2027 03:28:35.185   10 Jun 2027 03:28:40.854             5.669          2834.500
       276   10 Jun 2027 03:28:57.087   10 Jun 2027 03:29:16.873            19.786          9893.000
       277   10 Jun 2027 04:48:15.045   10 Jun 2027 04:48:18.615             3.570          1785.000
       278   10 Jun 2027 04:49:40.755   10 Jun 2027 04:50:00.228            19.473          9736.500
       279   10 Jun 2027 06:24:41.955   10 Jun 2027 06:26:15.936            93.981         45365.437
       280   10 Jun 2027 06:26:36.385   10 Jun 2027 06:26:37.384             0.999           209.219
       281   10 Jun 2027 06:26:58.324   10 Jun 2027 06:26:58.324             0.000             0.000
       282   10 Jun 2027 06:27:10.759   10 Jun 2027 06:27:11.881             1.122           561.000
       283   10 Jun 2027 06:27:16.975   10 Jun 2027 06:27:18.177             1.202           439.875
       284   10 Jun 2027 06:27:45.874   10 Jun 2027 06:27:48.680             2.806           572.875
       285   10 Jun 2027 07:56:50.746   10 Jun 2027 07:56:58.970             8.224          1804.156
       286   10 Jun 2027 08:00:39.267   10 Jun 2027 08:00:41.702             2.435           204.313
       287   10 Jun 2027 08:00:51.326   10 Jun 2027 08:00:52.097             0.771           273.750
       288   10 Jun 2027 08:03:03.291   10 Jun 2027 08:03:10.985             7.694          1709.438
       289   10 Jun 2027 08:03:34.903   10 Jun 2027 08:03:36.179             1.276           535.875
       290   10 Jun 2027 08:03:56.884   10 Jun 2027 08:03:56.884             0.000             0.000
       291   10 Jun 2027 08:04:06.822   10 Jun 2027 08:04:19.431            12.609           957.594
       292   10 Jun 2027 08:04:56.598   10 Jun 2027 08:04:56.932             0.334             5.781
       293   10 Jun 2027 08:05:29.810   10 Jun 2027 08:05:34.174             4.364          1027.438
       294   10 Jun 2027 08:06:03.695   10 Jun 2027 08:06:07.319             3.624           922.531
       295   10 Jun 2027 08:06:34.621   10 Jun 2027 08:06:38.360             3.739           562.250
       296   10 Jun 2027 09:35:47.907   10 Jun 2027 09:36:01.893            13.986          5840.250
       297   10 Jun 2027 09:40:15.180   10 Jun 2027 09:40:21.944             6.764          1816.031
       298   10 Jun 2027 09:40:53.169   10 Jun 2027 09:40:58.448             5.279           963.219
       299   10 Jun 2027 09:41:59.290   10 Jun 2027 09:42:06.347             7.057           349.344
       300   10 Jun 2027 11:13:09.610   10 Jun 2027 11:13:22.215            12.605          5676.875
       301   10 Jun 2027 11:13:52.295   10 Jun 2027 11:13:52.851             0.556           199.562
       302   10 Jun 2027 11:15:13.253   10 Jun 2027 11:15:17.204             3.951          1215.031
       303   10 Jun 2027 11:16:02.926   10 Jun 2027 11:16:05.309             2.383           670.656
       304   10 Jun 2027 11:16:17.000   10 Jun 2027 11:16:21.801             4.801           279.250
       305   10 Jun 2027 11:16:28.341   10 Jun 2027 11:16:29.437             1.096           167.938
       306   10 Jun 2027 11:16:30.696   10 Jun 2027 11:16:35.261             4.565            39.344
       307   10 Jun 2027 11:16:59.185   10 Jun 2027 11:17:02.627             3.442           561.313
       308   10 Jun 2027 11:17:22.395   10 Jun 2027 11:17:25.181             2.786           597.219
       309   10 Jun 2027 11:17:51.596   10 Jun 2027 11:17:53.968             2.372           485.594
       310   11 Jun 2027 03:37:49.566   11 Jun 2027 03:40:53.601           184.035         92017.500
       311   11 Jun 2027 05:00:23.379   11 Jun 2027 05:00:54.788            31.409         15704.500
       312   11 Jun 2027 05:01:22.365   11 Jun 2027 05:01:22.365             0.000             0.000
       313   11 Jun 2027 05:03:15.244   11 Jun 2027 05:03:26.372            11.128          5564.000
       314   11 Jun 2027 06:36:51.785   11 Jun 2027 06:38:10.629            78.844         39063.656
       315   11 Jun 2027 06:38:47.052   11 Jun 2027 06:38:50.120             3.068           630.406
       316   11 Jun 2027 06:38:56.561   11 Jun 2027 06:38:57.826             1.265           183.062
       317   11 Jun 2027 06:39:18.750   11 Jun 2027 06:39:20.014             1.264           468.344
       318   11 Jun 2027 06:39:51.102   11 Jun 2027 06:39:58.437             7.335           919.781
       319   11 Jun 2027 08:12:03.013   11 Jun 2027 08:12:13.781            10.768          3158.156
       320   11 Jun 2027 08:13:13.346   11 Jun 2027 08:13:16.168             2.822          1371.438
       321   11 Jun 2027 08:13:36.308   11 Jun 2027 08:13:38.082             1.774           398.188
       322   11 Jun 2027 08:15:33.971   11 Jun 2027 08:15:37.487             3.516          1042.437
       323   11 Jun 2027 08:16:06.735   11 Jun 2027 08:16:17.843            11.108           914.000
       324   11 Jun 2027 08:16:37.086   11 Jun 2027 08:16:41.082             3.996           384.438
       325   11 Jun 2027 08:17:04.645   11 Jun 2027 08:17:05.838             1.193           148.813
       326   11 Jun 2027 08:17:42.692   11 Jun 2027 08:17:45.426             2.734           828.375
       327   11 Jun 2027 08:18:05.686   11 Jun 2027 08:18:05.992             0.306           153.000
       328   11 Jun 2027 08:18:25.188   11 Jun 2027 08:18:32.385             7.197          1014.375
       329   11 Jun 2027 09:48:21.582   11 Jun 2027 09:48:32.788            11.206          5316.500
       330   11 Jun 2027 09:51:11.508   11 Jun 2027 09:51:12.587             1.079           136.750
       331   11 Jun 2027 09:51:34.390   11 Jun 2027 09:51:37.070             2.680           573.375
       332   11 Jun 2027 09:52:20.596   11 Jun 2027 09:52:26.941             6.345          1122.187
       333   11 Jun 2027 09:52:59.230   11 Jun 2027 09:53:00.905             1.675           659.594
       334   11 Jun 2027 09:53:48.764   11 Jun 2027 09:53:49.726             0.962           210.344
       335   11 Jun 2027 09:54:10.423   11 Jun 2027 09:54:12.559             2.136            86.937
       336   11 Jun 2027 09:54:29.899   11 Jun 2027 09:54:32.647             2.748           242.687
       337   11 Jun 2027 11:25:44.490   11 Jun 2027 11:26:01.628            17.138          6266.313
       338   11 Jun 2027 11:27:37.374   11 Jun 2027 11:27:41.259             3.885           194.969
       339   11 Jun 2027 11:28:49.530   11 Jun 2027 11:28:54.483             4.953          1821.000
       340   11 Jun 2027 11:29:40.315   11 Jun 2027 11:29:46.873             6.558          1324.094
       341   11 Jun 2027 11:30:02.139   11 Jun 2027 11:30:07.046             4.907           413.156
       342   12 Jun 2027 03:48:57.549   12 Jun 2027 03:49:34.890            37.341         18670.500
       343   12 Jun 2027 03:50:03.540   12 Jun 2027 03:52:29.466           145.926         72963.000
       344   12 Jun 2027 05:12:24.279   12 Jun 2027 05:12:48.941            24.662         12331.000
       345   12 Jun 2027 05:14:01.115   12 Jun 2027 05:14:16.963            15.848          7924.000
       346   12 Jun 2027 05:15:18.161   12 Jun 2027 05:15:18.161             0.000             0.000
       347   12 Jun 2027 06:48:51.390   12 Jun 2027 06:50:18.514            87.124         42865.156
       348   12 Jun 2027 06:50:52.933   12 Jun 2027 06:50:58.962             6.029          1042.219
       349   12 Jun 2027 06:51:20.219   12 Jun 2027 06:51:21.289             1.070           388.906
       350   12 Jun 2027 06:52:02.923   12 Jun 2027 06:52:11.845             8.922          1093.875
       351   12 Jun 2027 08:24:04.443   12 Jun 2027 08:24:11.230             6.787          2208.688
       352   12 Jun 2027 08:24:23.649   12 Jun 2027 08:24:24.688             1.039           232.844
       353   12 Jun 2027 08:26:12.040   12 Jun 2027 08:26:15.385             3.345          1086.031
       354   12 Jun 2027 08:26:50.088   12 Jun 2027 08:26:55.544             5.456           587.188
       355   12 Jun 2027 08:26:57.232   12 Jun 2027 08:26:59.300             2.068            13.781
       356   12 Jun 2027 08:28:14.266   12 Jun 2027 08:28:20.393             6.127          1423.281
       357   12 Jun 2027 08:28:25.357   12 Jun 2027 08:28:26.735             1.378           155.125
       358   12 Jun 2027 08:29:02.400   12 Jun 2027 08:29:06.425             4.025          1114.531
       359   12 Jun 2027 08:29:24.845   12 Jun 2027 08:29:28.319             3.474           209.125
       360   12 Jun 2027 08:29:40.580   12 Jun 2027 08:29:47.423             6.843           370.344
       361   12 Jun 2027 08:30:43.401   12 Jun 2027 08:30:45.575             2.174          1087.000
       362   12 Jun 2027 10:00:00.262   12 Jun 2027 10:00:12.510            12.248          5162.781
       363   12 Jun 2027 10:02:45.891   12 Jun 2027 10:02:50.039             4.148            68.469
       364   12 Jun 2027 10:03:03.886   12 Jun 2027 10:03:05.752             1.866           276.656
       365   12 Jun 2027 10:03:25.595   12 Jun 2027 10:03:27.075             1.480           620.094
       366   12 Jun 2027 10:03:47.477   12 Jun 2027 10:03:49.697             2.220           594.906
       367   12 Jun 2027 10:04:22.231   12 Jun 2027 10:04:25.485             3.254           222.000
       368   12 Jun 2027 10:04:49.213   12 Jun 2027 10:04:52.636             3.423           741.500
       369   12 Jun 2027 10:06:02.150   12 Jun 2027 10:06:09.644             7.494          2020.250
       370   12 Jun 2027 11:37:58.663   12 Jun 2027 11:38:09.561            10.898          5323.656
       371   12 Jun 2027 11:40:30.262   12 Jun 2027 11:40:34.999             4.737          2031.781
       372   12 Jun 2027 11:41:05.904   12 Jun 2027 11:41:08.361             2.457           915.906
       373   12 Jun 2027 11:41:54.746   12 Jun 2027 11:41:59.755             5.009          1410.562
       374   12 Jun 2027 11:42:14.932   12 Jun 2027 11:42:17.594             2.662           474.281
       375   12 Jun 2027 11:42:17.899   12 Jun 2027 11:42:19.534             1.635             9.531
       376   13 Jun 2027 03:49:56.303   13 Jun 2027 03:50:26.249            29.946         14973.000
       377   13 Jun 2027 04:00:54.140   13 Jun 2027 04:03:35.475           161.335         80667.500
       378   13 Jun 2027 05:24:50.428   13 Jun 2027 05:25:22.364            31.936         15968.000
       379   13 Jun 2027 05:25:33.393   13 Jun 2027 05:25:41.884             8.491          4245.500
       380   13 Jun 2027 07:00:36.211   13 Jun 2027 07:02:12.149            95.938         47499.000
       381   13 Jun 2027 07:02:24.843   13 Jun 2027 07:02:27.344             2.501           321.625
       382   13 Jun 2027 07:03:21.329   13 Jun 2027 07:03:24.311             2.982          1346.469
       383   13 Jun 2027 07:03:29.422   13 Jun 2027 07:03:31.283             1.861           121.937
       384   13 Jun 2027 07:03:37.433   13 Jun 2027 07:03:43.333             5.900           164.563
       385   13 Jun 2027 07:04:46.509   13 Jun 2027 07:04:51.141             4.632          1714.781
       386   13 Jun 2027 07:04:55.621   13 Jun 2027 07:04:57.452             1.831           140.000
       387   13 Jun 2027 08:35:20.160   13 Jun 2027 08:35:24.382             4.222          2075.406
       388   13 Jun 2027 08:35:57.747   13 Jun 2027 08:35:59.490             1.743           260.469
       389   13 Jun 2027 08:37:37.805   13 Jun 2027 08:37:45.870             8.065          2348.687
       390   13 Jun 2027 08:38:39.451   13 Jun 2027 08:38:39.451             0.000             0.000
       391   13 Jun 2027 08:38:47.148   13 Jun 2027 08:38:51.133             3.985          1185.719
       392   13 Jun 2027 08:39:11.242   13 Jun 2027 08:39:14.745             3.503           615.750
       393   13 Jun 2027 08:40:14.083   13 Jun 2027 08:40:16.436             2.353          1003.813
       394   13 Jun 2027 08:41:04.120   13 Jun 2027 08:41:06.691             2.571           325.375
       395   13 Jun 2027 08:41:27.906   13 Jun 2027 08:41:29.157             1.251           334.000
       396   13 Jun 2027 08:42:10.234   13 Jun 2027 08:42:13.061             2.827           449.844
       397   13 Jun 2027 08:42:13.635   13 Jun 2027 08:42:13.945             0.310            17.937
       398   13 Jun 2027 10:12:09.884   13 Jun 2027 10:12:23.607            13.723          6667.594
       399   13 Jun 2027 10:15:52.043   13 Jun 2027 10:15:55.153             3.110           458.563
       400   13 Jun 2027 10:16:21.939   13 Jun 2027 10:16:24.149             2.210           837.062
       401   13 Jun 2027 10:16:39.931   13 Jun 2027 10:16:41.599             1.668           314.312
       402   13 Jun 2027 10:17:36.624   13 Jun 2027 10:17:40.300             3.676           895.219
       403   13 Jun 2027 11:50:21.313   13 Jun 2027 11:50:33.477            12.164          6052.031
       404   13 Jun 2027 11:50:54.538   13 Jun 2027 11:50:55.372             0.834            91.219
       405   13 Jun 2027 11:52:18.356   13 Jun 2027 11:52:21.010             2.654            38.469
       406   13 Jun 2027 11:52:42.459   13 Jun 2027 11:52:45.021             2.562           384.375
       407   13 Jun 2027 11:53:03.263   13 Jun 2027 11:53:07.207             3.944           561.937
       408   13 Jun 2027 11:54:03.906   13 Jun 2027 11:54:09.156             5.250          1090.000
