uniorb/output/strategy_4/Camera/Camera_KinoSat_111908.txt

KinoSat_111908
-------------------------
    Access    *     Start Time (UTCG)     *     Stop Time (UTCG)  *   Duration (s) *   Data (Mbytes)
         1   01 Jun 2027 04:08:54.222   01 Jun 2027 04:10:02.285            68.063         34031.500
         2   01 Jun 2027 04:10:05.237   01 Jun 2027 04:11:03.912            58.675         29337.500
         3   01 Jun 2027 04:11:05.081   01 Jun 2027 04:11:13.908             8.827          4413.500
         4   01 Jun 2027 04:11:49.777   01 Jun 2027 04:11:50.063             0.286           143.000
         5   01 Jun 2027 04:11:53.549   01 Jun 2027 04:12:01.657             8.108          4054.000
         6   01 Jun 2027 04:12:17.293   01 Jun 2027 04:12:37.150            19.857          9928.500
         7   01 Jun 2027 04:14:36.799   01 Jun 2027 04:14:37.540             0.741           370.500
         8   01 Jun 2027 04:14:50.966   01 Jun 2027 04:14:51.979             1.013           506.500
         9   01 Jun 2027 05:47:41.463   01 Jun 2027 05:49:22.554           101.091         50545.500
        10   01 Jun 2027 05:49:56.336   01 Jun 2027 05:50:03.881             7.545          3772.500
        11   01 Jun 2027 05:50:43.853   01 Jun 2027 05:50:53.210             9.357          4678.500
        12   01 Jun 2027 05:51:26.831   01 Jun 2027 05:51:29.643             2.812          1406.000
        13   01 Jun 2027 05:51:46.143   01 Jun 2027 05:52:08.355            22.212         11106.000
        14   01 Jun 2027 05:54:39.370   01 Jun 2027 05:54:45.673             6.303          3151.500
        15   01 Jun 2027 07:12:01.796   01 Jun 2027 07:13:58.880           117.084         58542.000
        16   01 Jun 2027 07:24:16.118   01 Jun 2027 07:24:47.459            31.341         15670.500
        17   01 Jun 2027 08:46:12.137   01 Jun 2027 08:47:32.695            80.558         40279.000
        18   01 Jun 2027 08:48:14.972   01 Jun 2027 08:49:01.574            46.602         23301.000
        19   01 Jun 2027 08:50:57.544   01 Jun 2027 08:51:39.188            41.644         20822.000
        20   01 Jun 2027 10:21:00.162   01 Jun 2027 10:21:54.994            54.832         27416.000
        21   01 Jun 2027 10:22:57.023   01 Jun 2027 10:23:09.762            12.739          6369.500
        22   01 Jun 2027 10:23:34.345   01 Jun 2027 10:24:10.499            36.154         18077.000
        23   01 Jun 2027 10:25:12.480   01 Jun 2027 10:25:51.112            38.632         19316.000
        24   01 Jun 2027 10:28:03.485   01 Jun 2027 10:28:05.681             2.196          1098.000
        25   02 Jun 2027 04:21:37.982   02 Jun 2027 04:23:15.992            98.010         49005.000
        26   02 Jun 2027 04:23:42.139   02 Jun 2027 04:23:51.791             9.652          4826.000
        27   02 Jun 2027 04:24:36.043   02 Jun 2027 04:24:52.335            16.292          8146.000
        28   02 Jun 2027 04:25:03.570   02 Jun 2027 04:25:08.416             4.846          2423.000
        29   02 Jun 2027 04:25:52.860   02 Jun 2027 04:25:52.860             0.000             0.000
        30   02 Jun 2027 04:26:46.851   02 Jun 2027 04:26:53.751             6.900          3450.000
        31   02 Jun 2027 04:27:00.882   02 Jun 2027 04:27:05.208             4.326          2163.000
        32   02 Jun 2027 06:00:04.187   02 Jun 2027 06:02:55.834           171.647         85823.500
        33   02 Jun 2027 06:03:56.196   02 Jun 2027 06:05:08.109            71.913         35956.500
        34   02 Jun 2027 07:24:01.607   02 Jun 2027 07:24:50.868            49.261         24630.500
        35   02 Jun 2027 07:25:45.291   02 Jun 2027 07:26:07.432            22.141         11070.500
        36   02 Jun 2027 08:59:58.570   02 Jun 2027 09:02:55.461           176.891         88445.500
        37   02 Jun 2027 10:33:49.048   02 Jun 2027 10:35:34.969           105.921         52675.844
        38   02 Jun 2027 10:36:11.609   02 Jun 2027 10:36:12.824             1.215           298.750
        39   03 Jun 2027 03:00:00.000   03 Jun 2027 03:00:18.443            18.443          9221.500
        40   03 Jun 2027 03:00:35.610   03 Jun 2027 03:00:36.664             1.054           527.000
        41   03 Jun 2027 03:00:46.375   03 Jun 2027 03:01:02.149            15.774          7887.000
        42   03 Jun 2027 04:34:23.609   03 Jun 2027 04:34:52.111            28.502         14251.000
        43   03 Jun 2027 04:35:00.886   03 Jun 2027 04:35:50.778            49.892         24946.000
        44   03 Jun 2027 04:35:52.951   03 Jun 2027 04:36:36.340            43.389         21694.500
        45   03 Jun 2027 04:36:48.022   03 Jun 2027 04:36:54.226             6.204          3102.000
        46   03 Jun 2027 04:38:41.212   03 Jun 2027 04:39:37.615            56.403         28201.500
        47   03 Jun 2027 06:12:32.603   03 Jun 2027 06:14:42.281           129.678         64434.875
        48   03 Jun 2027 07:35:56.243   03 Jun 2027 07:36:14.301            18.058          7149.469
        49   03 Jun 2027 07:37:17.033   03 Jun 2027 07:37:20.616             3.583          1692.719
        50   03 Jun 2027 07:37:41.365   03 Jun 2027 07:37:42.462             1.097           542.688
        51   03 Jun 2027 09:12:20.408   03 Jun 2027 09:12:39.910            19.502          9574.219
        52   03 Jun 2027 09:13:09.153   03 Jun 2027 09:13:10.376             1.223           394.500
        53   03 Jun 2027 09:14:53.865   03 Jun 2027 09:14:58.848             4.983          2491.500
        54   03 Jun 2027 10:46:01.909   03 Jun 2027 10:46:08.418             6.509          3132.031
        55   03 Jun 2027 10:48:21.614   03 Jun 2027 10:48:21.614             0.000             0.000
        56   03 Jun 2027 10:49:07.270   03 Jun 2027 10:49:11.791             4.521          1977.344
        57   03 Jun 2027 10:50:32.831   03 Jun 2027 10:50:32.831             0.000             0.000
        58   03 Jun 2027 10:51:41.628   03 Jun 2027 10:51:58.902            17.274          3998.719
        59   03 Jun 2027 10:53:23.784   03 Jun 2027 10:53:25.969             2.185           973.500
        60   03 Jun 2027 10:53:44.088   03 Jun 2027 10:53:45.517             1.429           162.406
        61   03 Jun 2027 10:54:00.179   03 Jun 2027 10:54:06.000             5.821           458.187
        62   04 Jun 2027 03:08:07.767   04 Jun 2027 03:08:18.827            11.060          5530.000
        63   04 Jun 2027 03:09:38.688   04 Jun 2027 03:10:54.605            75.917         37958.500
        64   04 Jun 2027 03:11:50.536   04 Jun 2027 03:11:54.052             3.516          1758.000
        65   04 Jun 2027 03:12:16.017   04 Jun 2027 03:12:27.613            11.596          5798.000
        66   04 Jun 2027 03:13:34.692   04 Jun 2027 03:13:44.310             9.618          4809.000
        67   04 Jun 2027 03:13:57.750   04 Jun 2027 03:14:09.736            11.986          5993.000
        68   04 Jun 2027 03:15:30.161   04 Jun 2027 03:15:34.548             4.387          2193.500
        69   04 Jun 2027 04:46:09.675   04 Jun 2027 04:46:12.007             2.332          1166.000
        70   04 Jun 2027 04:46:37.480   04 Jun 2027 04:47:24.605            47.125         23562.500
        71   04 Jun 2027 04:47:27.621   04 Jun 2027 04:48:11.353            43.732         21866.000
        72   04 Jun 2027 04:49:20.609   04 Jun 2027 04:49:29.877             9.268          4634.000
        73   04 Jun 2027 04:49:30.820   04 Jun 2027 04:50:46.714            75.894         37947.000
        74   04 Jun 2027 04:50:57.004   04 Jun 2027 04:51:15.760            18.756          8931.093
        75   04 Jun 2027 06:24:49.416   04 Jun 2027 06:25:10.649            21.233          9768.156
        76   04 Jun 2027 06:28:26.459   04 Jun 2027 06:28:27.878             1.419           370.031
        77   04 Jun 2027 06:28:28.294   04 Jun 2027 06:28:29.268             0.974            13.000
        78   04 Jun 2027 07:47:43.765   04 Jun 2027 07:47:56.870            13.105          6160.281
        79   04 Jun 2027 07:49:18.270   04 Jun 2027 07:49:26.144             7.874          2001.937
        80   04 Jun 2027 07:49:42.572   04 Jun 2027 07:49:46.744             4.172           206.094
        81   04 Jun 2027 09:24:22.379   04 Jun 2027 09:24:34.693            12.314          3574.906
        82   04 Jun 2027 09:25:25.969   04 Jun 2027 09:25:29.325             3.356           972.188
        83   04 Jun 2027 09:26:04.200   04 Jun 2027 09:26:06.956             2.756           887.125
        84   04 Jun 2027 09:26:58.835   04 Jun 2027 09:27:02.451             3.616          1607.906
        85   04 Jun 2027 10:59:22.516   04 Jun 2027 10:59:30.223             7.707          3479.187
        86   04 Jun 2027 11:00:35.532   04 Jun 2027 11:00:37.269             1.737           680.406
        87   04 Jun 2027 11:02:54.097   04 Jun 2027 11:02:55.929             1.832           713.375
        88   04 Jun 2027 11:05:22.129   04 Jun 2027 11:05:22.129             0.000             0.000
        89   04 Jun 2027 11:05:33.029   04 Jun 2027 11:05:42.943             9.914          4010.094
        90   04 Jun 2027 11:06:08.122   04 Jun 2027 11:06:08.791             0.669           109.906
        91   05 Jun 2027 03:20:09.114   05 Jun 2027 03:20:58.405            49.291         24645.500
        92   05 Jun 2027 03:21:07.226   05 Jun 2027 03:22:45.070            97.844         48922.000
        93   05 Jun 2027 03:23:17.916   05 Jun 2027 03:23:47.450            29.534         14767.000
        94   05 Jun 2027 03:27:18.430   05 Jun 2027 03:27:21.350             2.920          1460.000
        95   05 Jun 2027 04:58:17.294   05 Jun 2027 04:59:18.938            61.644         30822.000
        96   05 Jun 2027 04:59:25.736   05 Jun 2027 05:00:51.527            85.791         41102.719
        97   05 Jun 2027 05:02:38.071   05 Jun 2027 05:02:43.276             5.205          2602.500
        98   05 Jun 2027 06:36:35.168   05 Jun 2027 06:36:53.226            18.058          7627.500
        99   05 Jun 2027 06:39:59.806   05 Jun 2027 06:40:01.554             1.748            49.125
       100   05 Jun 2027 06:40:19.941   05 Jun 2027 06:40:24.063             4.122           574.594
       101   05 Jun 2027 07:59:58.399   05 Jun 2027 08:00:11.790            13.391          5075.875
       102   05 Jun 2027 08:00:35.113   05 Jun 2027 08:00:39.410             4.297           153.969
       103   05 Jun 2027 08:00:59.760   05 Jun 2027 08:01:01.140             1.380           393.687
       104   05 Jun 2027 08:02:41.669   05 Jun 2027 08:02:49.532             7.863          2576.062
       105   05 Jun 2027 09:36:30.184   05 Jun 2027 09:36:40.884            10.700          3545.750
       106   05 Jun 2027 09:38:08.203   05 Jun 2027 09:38:10.909             2.706           251.875
       107   05 Jun 2027 09:39:14.606   05 Jun 2027 09:39:18.010             3.404          1602.344
       108   05 Jun 2027 11:11:40.470   05 Jun 2027 11:11:51.842            11.372          4619.094
       109   05 Jun 2027 11:13:19.803   05 Jun 2027 11:13:32.225            12.422          2397.344
       110   05 Jun 2027 11:15:04.097   05 Jun 2027 11:15:08.944             4.847          1210.031
       111   05 Jun 2027 11:16:05.493   05 Jun 2027 11:16:08.605             3.112          1269.656
       112   05 Jun 2027 11:17:20.421   05 Jun 2027 11:17:25.127             4.706          1985.156
       113   05 Jun 2027 11:17:43.655   05 Jun 2027 11:17:44.164             0.509           241.500
       114   05 Jun 2027 11:18:00.613   05 Jun 2027 11:18:01.969             1.356           447.000
       115   05 Jun 2027 11:18:15.050   05 Jun 2027 11:18:16.542             1.492           408.781
       116   06 Jun 2027 03:32:06.420   06 Jun 2027 03:35:13.639           187.219         93609.500
       117   06 Jun 2027 03:35:42.179   06 Jun 2027 03:36:27.872            45.693         22846.500
       118   06 Jun 2027 03:38:16.036   06 Jun 2027 03:38:23.513             7.477          3738.500
       119   06 Jun 2027 03:38:40.007   06 Jun 2027 03:38:40.917             0.910           455.000
       120   06 Jun 2027 05:11:24.033   06 Jun 2027 05:12:59.041            95.008         47024.938
       121   06 Jun 2027 05:14:01.654   06 Jun 2027 05:14:02.339             0.685           319.562
       122   06 Jun 2027 05:17:55.663   06 Jun 2027 05:18:07.579            11.916          5958.000
       123   06 Jun 2027 05:18:15.330   06 Jun 2027 05:18:20.836             5.506          1481.781
       124   06 Jun 2027 06:48:32.066   06 Jun 2027 06:48:41.567             9.501          4392.656
       125   06 Jun 2027 06:48:52.787   06 Jun 2027 06:48:54.960             2.173           289.312
       126   06 Jun 2027 06:49:31.232   06 Jun 2027 06:49:33.831             2.599          1112.094
       127   06 Jun 2027 06:50:26.073   06 Jun 2027 06:50:28.408             2.335           257.000
       128   06 Jun 2027 08:12:28.520   06 Jun 2027 08:12:52.508            23.988          7703.687
       129   06 Jun 2027 08:13:06.643   06 Jun 2027 08:13:08.348             1.705           132.719
       130   06 Jun 2027 08:14:40.671   06 Jun 2027 08:14:46.069             5.398          2525.156
       131   06 Jun 2027 09:48:23.223   06 Jun 2027 09:48:28.931             5.708          2681.156
       132   06 Jun 2027 09:50:39.919   06 Jun 2027 09:50:45.404             5.485          1270.031
       133   06 Jun 2027 09:50:48.746   06 Jun 2027 09:50:49.512             0.766           104.437
       134   06 Jun 2027 11:23:18.799   06 Jun 2027 11:23:25.397             6.598          2115.687
       135   06 Jun 2027 11:25:14.045   06 Jun 2027 11:25:22.911             8.866          2676.750
       136   06 Jun 2027 11:29:58.072   06 Jun 2027 11:30:12.591            14.519          7045.719
       137   07 Jun 2027 03:44:47.568   07 Jun 2027 03:46:26.709            99.141         49570.500
       138   07 Jun 2027 03:48:04.321   07 Jun 2027 03:48:25.216            20.895         10447.500
       139   07 Jun 2027 03:48:53.841   07 Jun 2027 03:49:08.691            14.850          7425.000
       140   07 Jun 2027 05:23:28.129   07 Jun 2027 05:25:52.353           144.224         72112.000
       141   07 Jun 2027 05:27:11.053   07 Jun 2027 05:27:18.248             7.195          3597.500
       142   07 Jun 2027 05:29:38.672   07 Jun 2027 05:30:27.266            48.594         23940.906
       143   07 Jun 2027 06:49:17.674   07 Jun 2027 06:49:28.007            10.333          5139.437
       144   07 Jun 2027 06:49:51.612   07 Jun 2027 06:49:51.612             0.000             0.000
       145   07 Jun 2027 07:00:28.504   07 Jun 2027 07:00:36.884             8.380          3146.906
       146   07 Jun 2027 07:03:08.515   07 Jun 2027 07:03:13.128             4.613          1986.781
       147   07 Jun 2027 08:23:05.815   07 Jun 2027 08:23:20.435            14.620          5927.469
       148   07 Jun 2027 08:24:18.419   07 Jun 2027 08:24:24.202             5.783           761.125
       149   07 Jun 2027 08:25:04.823   07 Jun 2027 08:25:20.087            15.264          1269.406
       150   07 Jun 2027 08:26:34.338   07 Jun 2027 08:26:40.161             5.823          2320.344
       151   07 Jun 2027 08:26:49.284   07 Jun 2027 08:26:50.687             1.403           154.500
       152   07 Jun 2027 09:58:40.960   07 Jun 2027 09:58:47.379             6.419          1438.969
       153   07 Jun 2027 10:02:50.133   07 Jun 2027 10:02:54.698             4.565          1967.375
       154   07 Jun 2027 10:03:26.698   07 Jun 2027 10:03:27.897             1.199           481.938
       155   07 Jun 2027 10:04:30.962   07 Jun 2027 10:04:30.962             0.000             0.000
       156   07 Jun 2027 10:04:35.459   07 Jun 2027 10:04:39.066             3.607          1375.656
       157   07 Jun 2027 11:34:52.518   07 Jun 2027 11:35:03.594            11.076          2226.500
       158   07 Jun 2027 11:37:45.570   07 Jun 2027 11:37:54.607             9.037          4320.125
       159   07 Jun 2027 11:39:18.628   07 Jun 2027 11:39:22.367             3.739          1840.687
       160   07 Jun 2027 11:40:10.271   07 Jun 2027 11:40:13.423             3.152          1004.406
       161   07 Jun 2027 11:40:38.907   07 Jun 2027 11:40:41.090             2.183            92.750
       162   07 Jun 2027 11:41:14.130   07 Jun 2027 11:41:21.760             7.630           563.312
       163   07 Jun 2027 11:41:29.005   07 Jun 2027 11:41:32.315             3.310           169.063
       164   07 Jun 2027 11:41:45.366   07 Jun 2027 11:41:46.331             0.965            21.250
       165   07 Jun 2027 11:42:26.294   07 Jun 2027 11:42:29.844             3.550          1068.937
       166   08 Jun 2027 03:56:53.491   08 Jun 2027 03:59:34.071           160.580         80290.000
       167   08 Jun 2027 04:01:23.658   08 Jun 2027 04:01:25.862             2.204          1102.000
       168   08 Jun 2027 04:01:46.189   08 Jun 2027 04:02:13.693            27.504         13752.000
       169   08 Jun 2027 05:35:57.820   08 Jun 2027 05:37:53.478           115.658         57829.000
       170   08 Jun 2027 05:38:20.282   08 Jun 2027 05:38:52.575            32.293         15920.000
       171   08 Jun 2027 05:41:22.705   08 Jun 2027 05:41:30.059             7.354          3677.000
       172   08 Jun 2027 05:41:54.835   08 Jun 2027 05:41:58.001             3.166          1089.687
       173   08 Jun 2027 07:00:49.224   08 Jun 2027 07:01:02.142            12.918          6459.000
       174   08 Jun 2027 07:01:33.605   08 Jun 2027 07:01:36.766             3.161          1138.625
       175   08 Jun 2027 07:12:32.164   08 Jun 2027 07:12:37.948             5.784          2808.594
       176   08 Jun 2027 08:34:46.140   08 Jun 2027 08:35:07.674            21.534          9694.969
       177   08 Jun 2027 08:35:28.380   08 Jun 2027 08:35:30.907             2.527           155.125
       178   08 Jun 2027 08:37:19.800   08 Jun 2027 08:37:28.317             8.517          3241.469
       179   08 Jun 2027 08:38:43.572   08 Jun 2027 08:38:51.854             8.282          2038.813
       180   08 Jun 2027 08:39:39.478   08 Jun 2027 08:39:42.426             2.948          1471.687
       181   08 Jun 2027 10:09:47.514   08 Jun 2027 10:09:54.607             7.093          2751.625
       182   08 Jun 2027 10:10:45.550   08 Jun 2027 10:10:51.309             5.759           740.094
       183   08 Jun 2027 10:12:36.651   08 Jun 2027 10:12:42.391             5.740          1684.375
       184   08 Jun 2027 10:13:30.399   08 Jun 2027 10:13:33.458             3.059          1209.719
       185   08 Jun 2027 10:15:41.370   08 Jun 2027 10:15:42.594             1.224           612.000
       186   08 Jun 2027 10:16:06.681   08 Jun 2027 10:16:11.646             4.965          1711.781
       187   08 Jun 2027 11:47:12.715   08 Jun 2027 11:47:27.262            14.547          4331.094
       188   08 Jun 2027 11:50:18.712   08 Jun 2027 11:50:22.155             3.443          1721.500
       189   08 Jun 2027 11:53:29.985   08 Jun 2027 11:53:42.472            12.487          5932.312
       190   08 Jun 2027 11:53:46.619   08 Jun 2027 11:53:47.388             0.769           129.594
       191   08 Jun 2027 11:54:30.710   08 Jun 2027 11:54:31.127             0.417           208.500
       192   09 Jun 2027 04:09:13.675   09 Jun 2027 04:09:26.302            12.627          6313.500
       193   09 Jun 2027 04:10:49.248   09 Jun 2027 04:12:20.606            91.358         45679.000
       194   09 Jun 2027 04:13:07.399   09 Jun 2027 04:13:20.331            12.932          6466.000
       195   09 Jun 2027 04:14:10.705   09 Jun 2027 04:14:20.277             9.572          4786.000
       196   09 Jun 2027 05:48:00.202   09 Jun 2027 05:49:36.936            96.734         48367.000
       197   09 Jun 2027 05:50:08.116   09 Jun 2027 05:51:20.291            72.175         36087.500
       198   09 Jun 2027 05:52:48.285   09 Jun 2027 05:53:30.654            42.369         20355.438
       199   09 Jun 2027 07:12:20.771   09 Jun 2027 07:12:33.219            12.448          6224.000
       200   09 Jun 2027 07:14:20.157   09 Jun 2027 07:14:31.256            11.099          4229.875
       201   09 Jun 2027 07:24:37.507   09 Jun 2027 07:24:44.315             6.808          3390.062
       202   09 Jun 2027 08:46:28.128   09 Jun 2027 08:46:49.131            21.003         10209.969
       203   09 Jun 2027 08:48:31.822   09 Jun 2027 08:48:31.822             0.000             0.000
       204   09 Jun 2027 08:49:18.886   09 Jun 2027 08:49:24.894             6.008          2730.781
       205   09 Jun 2027 08:50:42.033   09 Jun 2027 08:50:46.946             4.913          2033.500
       206   09 Jun 2027 08:51:29.300   09 Jun 2027 08:51:29.300             0.000             0.000
       207   09 Jun 2027 08:51:36.304   09 Jun 2027 08:51:39.136             2.832          1280.094
       208   09 Jun 2027 10:21:16.352   09 Jun 2027 10:21:22.604             6.252          2907.312
       209   09 Jun 2027 10:23:29.914   09 Jun 2027 10:23:32.896             2.982           415.656
       210   09 Jun 2027 10:24:48.688   09 Jun 2027 10:24:52.993             4.305          1728.531
       211   09 Jun 2027 10:26:51.556   09 Jun 2027 10:26:58.825             7.269          3303.031
       212   09 Jun 2027 10:28:25.139   09 Jun 2027 10:28:28.677             3.538           276.438
       213   09 Jun 2027 10:28:38.637   09 Jun 2027 10:28:41.546             2.909           257.313
       214   09 Jun 2027 10:29:54.267   09 Jun 2027 10:29:57.765             3.498           785.625
       215   09 Jun 2027 10:30:01.676   09 Jun 2027 10:30:04.117             2.441            21.344
       216   10 Jun 2027 04:21:56.523   10 Jun 2027 04:22:12.194            15.671          7835.500
       217   10 Jun 2027 04:22:20.595   10 Jun 2027 04:22:29.836             9.241          4620.500
       218   10 Jun 2027 04:23:06.296   10 Jun 2027 04:23:33.027            26.731         13365.500
       219   10 Jun 2027 04:24:00.876   10 Jun 2027 04:24:33.600            32.724         16362.000
       220   10 Jun 2027 04:25:46.547   10 Jun 2027 04:25:51.434             4.887          2443.500
       221   10 Jun 2027 04:26:07.327   10 Jun 2027 04:26:45.966            38.639         19319.500
       222   10 Jun 2027 06:00:24.808   10 Jun 2027 06:03:10.566           165.758         82879.000
       223   10 Jun 2027 06:04:10.463   10 Jun 2027 06:04:27.384            16.921          8460.500
       224   10 Jun 2027 06:04:53.059   10 Jun 2027 06:05:11.383            18.324          7419.500
       225   10 Jun 2027 07:24:19.163   10 Jun 2027 07:24:41.044            21.881         10140.219
       226   10 Jun 2027 07:25:19.813   10 Jun 2027 07:25:19.813             0.000             0.000
       227   10 Jun 2027 07:25:33.137   10 Jun 2027 07:25:38.034             4.897          1510.375
       228   10 Jun 2027 07:26:01.112   10 Jun 2027 07:26:02.486             1.374           254.437
       229   10 Jun 2027 07:26:05.527   10 Jun 2027 07:26:10.851             5.324            95.031
       230   10 Jun 2027 09:00:16.278   10 Jun 2027 09:00:41.100            24.822         11527.656
       231   10 Jun 2027 09:00:49.247   10 Jun 2027 09:00:50.653             1.406           247.313
       232   10 Jun 2027 09:01:17.195   10 Jun 2027 09:01:17.195             0.000             0.000
       233   10 Jun 2027 09:01:54.193   10 Jun 2027 09:01:54.979             0.786           393.000
       234   10 Jun 2027 09:02:39.579   10 Jun 2027 09:02:48.865             9.286          2986.375
       235   10 Jun 2027 09:03:10.230   10 Jun 2027 09:03:10.230             0.000             0.000
       236   10 Jun 2027 09:03:35.517   10 Jun 2027 09:03:38.648             3.131          1168.812
       237   10 Jun 2027 10:34:04.983   10 Jun 2027 10:34:12.023             7.040          3119.375
       238   10 Jun 2027 10:36:06.938   10 Jun 2027 10:36:09.549             2.611           684.406
       239   10 Jun 2027 10:36:24.693   10 Jun 2027 10:36:28.727             4.034            56.062
       240   10 Jun 2027 10:38:51.432   10 Jun 2027 10:39:00.181             8.749          3970.031
       241   10 Jun 2027 10:40:47.054   10 Jun 2027 10:40:52.031             4.977          1154.125
       242   10 Jun 2027 10:40:58.175   10 Jun 2027 10:40:59.315             1.140           192.000
       243   10 Jun 2027 10:42:00.960   10 Jun 2027 10:42:03.799             2.839            49.500
       244   10 Jun 2027 10:42:21.933   10 Jun 2027 10:42:27.392             5.459           441.687
       245   11 Jun 2027 03:01:16.979   11 Jun 2027 03:01:57.279            40.300         20150.000
       246   11 Jun 2027 03:03:21.929   11 Jun 2027 03:03:26.605             4.676          2338.000
       247   11 Jun 2027 04:34:40.900   11 Jun 2027 04:35:00.109            19.209          9604.500
       248   11 Jun 2027 04:35:14.263   11 Jun 2027 04:36:08.973            54.710         27355.000
       249   11 Jun 2027 04:36:10.453   11 Jun 2027 04:36:51.197            40.744         20372.000
       250   11 Jun 2027 04:37:04.033   11 Jun 2027 04:37:12.983             8.950          4475.000
       251   11 Jun 2027 04:37:57.166   11 Jun 2027 04:38:14.345            17.179          8589.500
       252   11 Jun 2027 04:38:14.968   11 Jun 2027 04:38:40.675            25.707         12853.500
       253   11 Jun 2027 04:38:53.626   11 Jun 2027 04:38:56.051             2.425          1212.500
       254   11 Jun 2027 04:40:36.945   11 Jun 2027 04:40:42.653             5.708          2854.000
       255   11 Jun 2027 06:12:48.570   11 Jun 2027 06:14:43.383           114.813         57364.469
       256   11 Jun 2027 06:16:49.058   11 Jun 2027 06:16:50.184             1.126           332.000
       257   11 Jun 2027 06:17:03.969   11 Jun 2027 06:17:06.559             2.590           430.781
       258   11 Jun 2027 07:36:12.284   11 Jun 2027 07:36:29.787            17.503          6814.906
       259   11 Jun 2027 07:37:58.958   11 Jun 2027 07:38:05.564             6.606          2515.375
       260   11 Jun 2027 07:38:21.713   11 Jun 2027 07:38:22.904             1.191           414.969
       261   11 Jun 2027 09:12:34.708   11 Jun 2027 09:13:00.074            25.366          8354.375
       262   11 Jun 2027 09:13:27.446   11 Jun 2027 09:13:28.321             0.875           396.094
       263   11 Jun 2027 09:13:41.393   11 Jun 2027 09:13:43.675             2.282            36.313
       264   11 Jun 2027 09:14:41.543   11 Jun 2027 09:14:45.601             4.058          1062.031
       265   11 Jun 2027 09:15:37.192   11 Jun 2027 09:15:40.884             3.692          1140.812
       266   11 Jun 2027 10:46:26.504   11 Jun 2027 10:46:39.906            13.402          3193.719
       267   11 Jun 2027 10:48:38.462   11 Jun 2027 10:48:38.462             0.000             0.000
       268   11 Jun 2027 10:49:29.335   11 Jun 2027 10:49:45.613            16.278          2228.437
       269   11 Jun 2027 10:50:50.612   11 Jun 2027 10:50:50.612             0.000             0.000
       270   11 Jun 2027 10:51:57.669   11 Jun 2027 10:52:16.323            18.654          3964.750
       271   11 Jun 2027 10:53:17.119   11 Jun 2027 10:53:19.243             2.124           496.250
       272   11 Jun 2027 10:54:00.350   11 Jun 2027 10:54:03.012             2.662           544.844
       273   12 Jun 2027 03:08:26.245   12 Jun 2027 03:08:46.597            20.352         10176.000
       274   12 Jun 2027 03:09:53.657   12 Jun 2027 03:10:47.641            53.984         26992.000
       275   12 Jun 2027 03:11:21.914   12 Jun 2027 03:11:26.748             4.834          2417.000
       276   12 Jun 2027 03:11:53.304   12 Jun 2027 03:11:55.889             2.585          1292.500
       277   12 Jun 2027 03:12:08.454   12 Jun 2027 03:12:14.563             6.109          3054.500
       278   12 Jun 2027 03:12:29.900   12 Jun 2027 03:12:30.990             1.090           545.000
       279   12 Jun 2027 03:13:49.717   12 Jun 2027 03:14:08.786            19.069          9534.500
       280   12 Jun 2027 03:15:25.989   12 Jun 2027 03:15:36.282            10.293          5146.500
       281   12 Jun 2027 04:46:45.804   12 Jun 2027 04:47:40.807            55.003         27501.500
       282   12 Jun 2027 04:47:46.601   12 Jun 2027 04:48:24.995            38.394         19197.000
       283   12 Jun 2027 04:49:18.149   12 Jun 2027 04:49:34.391            16.242          8121.000
       284   12 Jun 2027 04:49:40.929   12 Jun 2027 04:51:01.444            80.515         40257.500
       285   12 Jun 2027 06:25:07.927   12 Jun 2027 06:26:00.768            52.841         26308.001
       286   12 Jun 2027 06:27:28.394   12 Jun 2027 06:27:32.161             3.767          1252.000
       287   12 Jun 2027 06:28:04.130   12 Jun 2027 06:28:05.827             1.697           658.781
       288   12 Jun 2027 06:28:41.634   12 Jun 2027 06:28:43.365             1.731           423.094
       289   12 Jun 2027 06:28:44.775   12 Jun 2027 06:28:45.595             0.820            44.063
       290   12 Jun 2027 07:48:01.072   12 Jun 2027 07:48:13.285            12.213          5928.219
       291   12 Jun 2027 07:49:35.786   12 Jun 2027 07:49:45.524             9.738          2066.188
       292   12 Jun 2027 07:49:57.403   12 Jun 2027 07:49:57.808             0.405           143.063
       293   12 Jun 2027 09:24:38.289   12 Jun 2027 09:24:48.956            10.667          3290.187
       294   12 Jun 2027 09:25:48.213   12 Jun 2027 09:25:49.229             1.016           116.656
       295   12 Jun 2027 09:26:23.172   12 Jun 2027 09:26:23.229             0.057             4.594
       296   12 Jun 2027 09:26:44.319   12 Jun 2027 09:26:47.586             3.267           659.063
       297   12 Jun 2027 09:27:41.410   12 Jun 2027 09:27:44.557             3.147          1199.781
       298   12 Jun 2027 10:59:44.542   12 Jun 2027 10:59:50.803             6.261          3085.344
       299   12 Jun 2027 11:00:43.597   12 Jun 2027 11:00:49.666             6.069           412.281
       300   12 Jun 2027 11:02:48.966   12 Jun 2027 11:02:57.411             8.445          3519.344
       301   12 Jun 2027 11:03:40.285   12 Jun 2027 11:03:42.471             2.186           976.938
       302   12 Jun 2027 11:04:45.353   12 Jun 2027 11:04:45.827             0.474           172.031
       303   12 Jun 2027 11:06:20.763   12 Jun 2027 11:06:25.793             5.030          2029.531
       304   13 Jun 2027 03:20:26.763   13 Jun 2027 03:21:13.022            46.259         23129.500
       305   13 Jun 2027 03:21:22.321   13 Jun 2027 03:22:59.479            97.158         48579.000
       306   13 Jun 2027 03:23:35.575   13 Jun 2027 03:23:42.945             7.370          3685.000
       307   13 Jun 2027 03:23:47.435   13 Jun 2027 03:24:06.648            19.213          9606.500
       308   13 Jun 2027 04:58:35.263   13 Jun 2027 04:59:35.017            59.754         29877.000
       309   13 Jun 2027 04:59:42.700   13 Jun 2027 05:01:12.329            89.629         44670.563
       310   13 Jun 2027 05:02:51.788   13 Jun 2027 05:02:56.123             4.335          1938.812
       311   13 Jun 2027 05:03:27.863   13 Jun 2027 05:03:29.647             1.784           836.844
       312   13 Jun 2027 06:36:52.272   13 Jun 2027 06:37:02.044             9.772          4606.688
       313   13 Jun 2027 06:40:12.861   13 Jun 2027 06:40:12.943             0.082             1.125
       314   13 Jun 2027 06:40:36.615   13 Jun 2027 06:40:40.320             3.705           626.531
       315   13 Jun 2027 08:00:15.216   13 Jun 2027 08:00:28.646            13.430          4935.906
       316   13 Jun 2027 08:00:52.738   13 Jun 2027 08:00:55.077             2.339           208.781
       317   13 Jun 2027 08:01:42.390   13 Jun 2027 08:01:45.800             3.410          1214.375
       318   13 Jun 2027 08:03:00.647   13 Jun 2027 08:03:05.541             4.894          2209.562
       319   13 Jun 2027 09:36:48.540   13 Jun 2027 09:36:55.984             7.444          3511.219
       320   13 Jun 2027 09:38:15.264   13 Jun 2027 09:38:18.967             3.703           749.125
       321   13 Jun 2027 09:38:24.281   13 Jun 2027 09:38:25.995             1.714           166.063
       322   13 Jun 2027 09:39:05.069   13 Jun 2027 09:39:11.375             6.306           719.906
       323   13 Jun 2027 09:39:48.268   13 Jun 2027 09:39:50.121             1.853           431.375
       324   13 Jun 2027 11:11:58.640   13 Jun 2027 11:12:02.996             4.356          2155.156
       325   13 Jun 2027 11:13:07.181   13 Jun 2027 11:13:07.181             0.000             0.000
       326   13 Jun 2027 11:13:41.225   13 Jun 2027 11:13:48.021             6.796          2555.406
       327   13 Jun 2027 11:15:21.290   13 Jun 2027 11:15:25.438             4.148          1230.437
       328   13 Jun 2027 11:16:21.704   13 Jun 2027 11:16:26.124             4.420          1301.406
       329   13 Jun 2027 11:17:36.487   13 Jun 2027 11:17:41.147             4.660          2033.656
       330   13 Jun 2027 11:18:01.119   13 Jun 2027 11:18:04.825             3.706           294.688
       331   13 Jun 2027 11:18:31.456   13 Jun 2027 11:18:33.318             1.862           482.344
