uniorb/output/strategy_4/Camera/Camera_KinoSat_110104.txt

KinoSat_110104
-------------------------
    Access    *     Start Time (UTCG)     *     Stop Time (UTCG)  *   Duration (s) *   Data (Mbytes)
         1   01 Jun 2027 04:16:35.135   01 Jun 2027 04:18:48.844           133.709         66854.500
         2   01 Jun 2027 04:19:18.513   01 Jun 2027 04:19:21.035             2.522          1261.000
         3   01 Jun 2027 04:19:51.911   01 Jun 2027 04:20:15.365            23.454         11727.000
         4   01 Jun 2027 04:20:41.539   01 Jun 2027 04:20:44.897             3.358          1679.000
         5   01 Jun 2027 04:21:00.543   01 Jun 2027 04:21:07.622             7.079          3539.500
         6   01 Jun 2027 04:21:43.728   01 Jun 2027 04:21:58.761            15.033          7516.500
         7   01 Jun 2027 05:54:31.435   01 Jun 2027 05:58:30.297           238.862        119431.000
         8   01 Jun 2027 07:27:53.014   01 Jun 2027 07:30:30.049           157.035         78517.500
         9   01 Jun 2027 07:31:06.625   01 Jun 2027 07:31:25.452            18.827          9413.500
        10   01 Jun 2027 07:31:42.162   01 Jun 2027 07:31:57.091            14.929          7464.500
        11   01 Jun 2027 07:32:35.499   01 Jun 2027 07:32:46.441            10.942          5471.000
        12   01 Jun 2027 07:34:14.224   01 Jun 2027 07:34:34.633            20.409         10204.500
        13   01 Jun 2027 07:34:44.993   01 Jun 2027 07:34:49.424             4.431          2215.500
        14   02 Jun 2027 04:28:25.945   02 Jun 2027 04:34:22.378           356.433        178216.500
        15   02 Jun 2027 04:34:41.426   02 Jun 2027 04:35:09.108            27.682         13841.000
        16   02 Jun 2027 06:06:28.534   02 Jun 2027 06:10:38.822           250.288        125144.000
        17   02 Jun 2027 07:40:32.614   02 Jun 2027 07:45:40.072           307.458        153729.000
        18   02 Jun 2027 07:46:49.343   02 Jun 2027 07:47:04.374            15.031          7515.500
        19   03 Jun 2027 03:03:41.155   03 Jun 2027 03:11:06.450           445.295        222647.500
        20   03 Jun 2027 04:40:36.189   03 Jun 2027 04:45:40.974           304.785        152392.500
        21   03 Jun 2027 04:46:18.881   03 Jun 2027 04:46:59.897            41.016         20508.000
        22   03 Jun 2027 06:17:43.680   03 Jun 2027 06:22:37.283           293.603        146801.500
        23   03 Jun 2027 07:52:55.304   03 Jun 2027 07:53:38.359            43.055         21527.500
        24   03 Jun 2027 07:55:12.978   03 Jun 2027 07:57:46.421           153.443         76721.500
        25   04 Jun 2027 03:16:08.202   04 Jun 2027 03:22:52.965           404.763        202381.500
        26   04 Jun 2027 04:53:02.773   04 Jun 2027 04:57:31.907           269.134        134567.000
        27   04 Jun 2027 04:57:36.538   04 Jun 2027 04:58:53.308            76.770         38385.000
        28   04 Jun 2027 06:29:57.649   04 Jun 2027 06:34:30.553           272.904        136452.000
        29   04 Jun 2027 08:07:06.537   04 Jun 2027 08:09:33.203           146.666         73333.000
        30   05 Jun 2027 03:28:12.748   05 Jun 2027 03:34:57.277           404.529        202264.500
        31   05 Jun 2027 05:05:44.830   05 Jun 2027 05:10:20.245           275.415        137707.500
        32   05 Jun 2027 06:42:02.702   05 Jun 2027 06:46:47.867           285.165        142582.500
        33   05 Jun 2027 08:20:38.467   05 Jun 2027 08:20:47.197             8.730          4365.000
        34   06 Jun 2027 03:40:47.384   06 Jun 2027 03:47:03.624           376.240        188120.000
        35   06 Jun 2027 05:18:09.782   06 Jun 2027 05:22:42.962           273.180        136590.000
        36   06 Jun 2027 06:54:31.724   06 Jun 2027 06:58:57.105           265.381        132690.500
        37   07 Jun 2027 03:52:24.026   07 Jun 2027 03:58:46.279           382.253        191126.500
        38   07 Jun 2027 05:30:22.974   07 Jun 2027 05:34:47.029           264.055        132027.500
        39   07 Jun 2027 07:06:23.466   07 Jun 2027 07:10:28.402           244.936        122468.000
        40   07 Jun 2027 07:11:01.218   07 Jun 2027 07:11:29.165            27.947         13973.500
        41   08 Jun 2027 04:04:34.976   08 Jun 2027 04:10:53.621           378.645        189322.500
        42   08 Jun 2027 05:42:45.108   08 Jun 2027 05:46:42.426           237.318        118659.000
        43   08 Jun 2027 07:16:21.088   08 Jun 2027 07:17:47.329            86.241         43120.500
        44   08 Jun 2027 07:18:09.561   08 Jun 2027 07:22:28.507           258.946        129473.000
        45   08 Jun 2027 07:23:05.554   08 Jun 2027 07:23:51.433            45.879         22939.500
        46   09 Jun 2027 04:16:50.073   09 Jun 2027 04:22:58.678           368.605        184302.500
        47   09 Jun 2027 05:54:46.068   09 Jun 2027 05:58:45.212           239.144        119572.000
        48   09 Jun 2027 07:28:08.242   09 Jun 2027 07:35:49.812           461.570        230785.000
        49   10 Jun 2027 04:28:41.173   10 Jun 2027 04:34:37.240           356.067        178033.500
        50   10 Jun 2027 04:34:48.850   10 Jun 2027 04:35:24.279            35.429         17714.500
        51   10 Jun 2027 06:06:43.336   10 Jun 2027 06:10:53.865           250.529        125264.500
        52   10 Jun 2027 07:40:47.630   10 Jun 2027 07:47:19.069           391.439        195719.500
        53   11 Jun 2027 03:03:56.416   11 Jun 2027 03:11:18.629           442.213        221106.500
        54   11 Jun 2027 04:40:51.659   11 Jun 2027 04:45:55.819           304.160        152080.000
        55   11 Jun 2027 04:46:09.286   11 Jun 2027 04:47:14.547            65.261         32630.500
        56   11 Jun 2027 06:17:59.804   11 Jun 2027 06:22:52.156           292.352        146176.000
        57   11 Jun 2027 07:53:10.077   11 Jun 2027 07:53:50.982            40.905         20452.500
        58   11 Jun 2027 07:55:27.180   11 Jun 2027 07:58:01.160           153.980         76990.000
        59   12 Jun 2027 03:16:23.237   12 Jun 2027 03:23:08.103           404.866        202433.000
        60   12 Jun 2027 04:53:17.893   12 Jun 2027 04:57:46.661           268.768        134384.000
        61   12 Jun 2027 04:57:53.301   12 Jun 2027 04:59:08.009            74.708         37354.000
        62   12 Jun 2027 06:30:10.418   12 Jun 2027 06:34:45.224           274.806        137403.000
        63   12 Jun 2027 08:07:41.419   12 Jun 2027 08:09:47.994           126.575         63287.500
        64   13 Jun 2027 03:28:28.164   13 Jun 2027 03:35:12.286           404.122        202061.000
        65   13 Jun 2027 05:06:01.633   13 Jun 2027 05:10:35.594           273.961        136980.500
        66   13 Jun 2027 06:42:18.575   13 Jun 2027 06:47:02.276           283.701        141850.500
