uniorb/output/strategy_4/Camera/Camera_KinoSat_110708.txt

KinoSat_110708
-------------------------
    Access    *     Start Time (UTCG)     *     Stop Time (UTCG)  *   Duration (s) *   Data (Mbytes)
         1   01 Jun 2027 03:09:38.426   01 Jun 2027 03:10:29.692            51.266         25633.000
         2   01 Jun 2027 03:11:34.269   01 Jun 2027 03:11:34.269             0.000             0.000
         3   01 Jun 2027 03:12:13.872   01 Jun 2027 03:12:20.037             6.165          3082.500
         4   01 Jun 2027 03:12:47.740   01 Jun 2027 03:13:02.893            15.153          7576.500
         5   01 Jun 2027 03:13:27.124   01 Jun 2027 03:13:34.003             6.879          3439.500
         6   01 Jun 2027 03:14:13.261   01 Jun 2027 03:14:18.102             4.841          2420.500
         7   01 Jun 2027 04:44:59.319   01 Jun 2027 04:45:56.893            57.574         28787.000
         8   01 Jun 2027 04:46:30.400   01 Jun 2027 04:46:52.521            22.121         11060.500
         9   01 Jun 2027 04:47:00.269   01 Jun 2027 04:47:15.917            15.648          7824.000
        10   01 Jun 2027 04:48:41.811   01 Jun 2027 04:48:42.422             0.611           305.500
        11   01 Jun 2027 04:49:54.573   01 Jun 2027 04:50:07.172            12.599          6299.500
        12   01 Jun 2027 04:50:29.232   01 Jun 2027 04:50:35.350             6.118          3059.000
        13   01 Jun 2027 04:50:44.825   01 Jun 2027 04:50:51.728             6.903          3451.500
        14   01 Jun 2027 06:21:27.982   01 Jun 2027 06:22:54.263            86.281         43140.500
        15   01 Jun 2027 06:23:31.559   01 Jun 2027 06:23:45.434            13.875          6937.500
        16   01 Jun 2027 06:23:57.053   01 Jun 2027 06:23:57.362             0.309           154.500
        17   01 Jun 2027 06:24:14.210   01 Jun 2027 06:24:33.069            18.859          9429.500
        18   01 Jun 2027 06:24:43.372   01 Jun 2027 06:24:57.590            14.218          7109.000
        19   01 Jun 2027 06:28:58.284   01 Jun 2027 06:28:58.826             0.542           271.000
        20   01 Jun 2027 07:58:33.390   01 Jun 2027 08:00:25.705           112.315         56157.500
        21   01 Jun 2027 08:01:13.545   01 Jun 2027 08:02:12.513            58.968         29484.000
        22   01 Jun 2027 08:03:00.690   01 Jun 2027 08:03:03.361             2.671          1335.500
        23   01 Jun 2027 08:04:05.412   01 Jun 2027 08:04:08.412             3.000          1500.000
        24   01 Jun 2027 08:04:25.087   01 Jun 2027 08:04:39.690            14.603          7301.500
        25   01 Jun 2027 09:36:27.452   01 Jun 2027 09:39:10.458           163.006         81503.000
        26   01 Jun 2027 09:40:02.184   01 Jun 2027 09:40:07.054             4.870          2435.000
        27   01 Jun 2027 09:40:14.892   01 Jun 2027 09:40:27.034            12.142          6071.000
        28   01 Jun 2027 11:09:35.256   01 Jun 2027 11:12:03.800           148.544         74272.000
        29   01 Jun 2027 11:13:45.646   01 Jun 2027 11:13:56.441            10.795          5397.500
        30   01 Jun 2027 11:14:15.745   01 Jun 2027 11:14:20.199             4.454          2227.000
        31   01 Jun 2027 11:15:30.107   01 Jun 2027 11:15:31.192             1.085           542.500
        32   01 Jun 2027 11:17:12.389   01 Jun 2027 11:17:19.720             7.331          3665.500
        33   02 Jun 2027 03:21:14.327   02 Jun 2027 03:22:12.481            58.154         29077.000
        34   02 Jun 2027 04:56:08.364   02 Jun 2027 04:58:10.769           122.405         61202.500
        35   02 Jun 2027 04:58:17.238   02 Jun 2027 04:58:40.536            23.298         11649.000
        36   02 Jun 2027 05:01:22.920   02 Jun 2027 05:01:40.600            17.680          8840.000
        37   02 Jun 2027 06:33:41.802   02 Jun 2027 06:35:46.313           124.511         62255.500
        38   02 Jun 2027 06:36:41.785   02 Jun 2027 06:37:57.348            75.563         37781.500
        39   02 Jun 2027 06:38:10.320   02 Jun 2027 06:38:17.616             7.296          3648.000
        40   02 Jun 2027 06:40:06.282   02 Jun 2027 06:41:02.224            55.942         27971.000
        41   02 Jun 2027 08:10:24.275   02 Jun 2027 08:13:14.290           170.015         85007.500
        42   02 Jun 2027 08:14:17.622   02 Jun 2027 08:14:55.557            37.935         17752.314
        43   02 Jun 2027 08:15:37.514   02 Jun 2027 08:15:43.435             5.921          1123.813
        44   02 Jun 2027 08:16:44.417   02 Jun 2027 08:16:54.815            10.398          1556.844
        45   02 Jun 2027 09:48:27.348   02 Jun 2027 09:48:51.567            24.219         10789.031
        46   02 Jun 2027 09:49:37.690   02 Jun 2027 09:49:39.352             1.662           798.219
        47   02 Jun 2027 09:51:44.319   02 Jun 2027 09:51:46.006             1.687            15.094
        48   02 Jun 2027 09:51:49.069   02 Jun 2027 09:51:49.747             0.678             8.937
        49   02 Jun 2027 09:52:24.907   02 Jun 2027 09:52:28.397             3.490           621.625
        50   02 Jun 2027 11:22:04.329   02 Jun 2027 11:22:07.202             2.873           509.719
        51   03 Jun 2027 03:32:43.802   03 Jun 2027 03:32:50.090             6.288          3144.000
        52   03 Jun 2027 03:33:54.690   03 Jun 2027 03:33:59.629             4.939          2469.500
        53   03 Jun 2027 03:37:04.938   03 Jun 2027 03:37:09.885             4.947          2473.500
        54   03 Jun 2027 03:38:34.365   03 Jun 2027 03:38:43.979             9.614          4807.000
        55   03 Jun 2027 05:07:39.006   03 Jun 2027 05:11:11.873           212.867        106433.500
        56   03 Jun 2027 05:11:32.170   03 Jun 2027 05:11:38.063             5.893          2946.500
        57   03 Jun 2027 05:12:35.840   03 Jun 2027 05:12:40.705             4.865          2432.500
        58   03 Jun 2027 05:15:14.427   03 Jun 2027 05:15:17.051             2.624          1312.000
        59   03 Jun 2027 06:45:35.753   03 Jun 2027 06:46:56.126            80.373         40054.905
        60   03 Jun 2027 06:48:15.297   03 Jun 2027 06:48:19.028             3.731          1131.875
        61   03 Jun 2027 06:48:38.306   03 Jun 2027 06:48:40.964             2.658           510.031
        62   03 Jun 2027 06:49:14.197   03 Jun 2027 06:49:15.560             1.363           681.500
        63   03 Jun 2027 06:50:23.190   03 Jun 2027 06:50:29.244             6.054          2188.813
        64   03 Jun 2027 06:50:33.032   03 Jun 2027 06:50:34.980             1.948            40.375
        65   03 Jun 2027 06:51:33.489   03 Jun 2027 06:51:41.856             8.367          1673.437
        66   03 Jun 2027 08:22:27.435   03 Jun 2027 08:22:33.335             5.900          1536.687
        67   03 Jun 2027 08:24:58.169   03 Jun 2027 08:25:11.377            13.208          1607.000
        68   03 Jun 2027 08:25:56.386   03 Jun 2027 08:25:59.183             2.797           421.750
        69   03 Jun 2027 08:26:20.745   03 Jun 2027 08:26:26.296             5.551           673.813
        70   03 Jun 2027 08:27:05.672   03 Jun 2027 08:27:07.746             2.074           283.906
        71   03 Jun 2027 08:27:39.347   03 Jun 2027 08:27:45.253             5.906           755.469
        72   03 Jun 2027 08:28:38.473   03 Jun 2027 08:28:43.471             4.998          1178.719
        73   03 Jun 2027 10:00:13.888   03 Jun 2027 10:00:24.396            10.508          5073.844
        74   03 Jun 2027 10:00:57.479   03 Jun 2027 10:00:59.286             1.807           604.094
        75   03 Jun 2027 10:02:09.540   03 Jun 2027 10:02:12.420             2.880           838.344
        76   03 Jun 2027 10:03:50.264   03 Jun 2027 10:03:51.652             1.388           604.781
        77   03 Jun 2027 11:36:13.375   03 Jun 2027 11:36:14.312             0.937           304.719
        78   04 Jun 2027 03:46:46.938   04 Jun 2027 03:46:53.484             6.546          3273.000
        79   04 Jun 2027 03:48:05.626   04 Jun 2027 03:48:07.158             1.532           766.000
        80   04 Jun 2027 03:49:28.790   04 Jun 2027 03:49:37.314             8.524          4262.000
        81   04 Jun 2027 05:20:33.029   04 Jun 2027 05:23:38.721           185.692         92846.000
        82   04 Jun 2027 05:27:46.780   04 Jun 2027 05:28:29.039            42.259         21129.500
        83   04 Jun 2027 05:29:04.956   04 Jun 2027 05:29:05.948             0.992           496.000
        84   04 Jun 2027 06:57:55.826   04 Jun 2027 06:59:08.913            73.087         35855.061
        85   04 Jun 2027 07:00:45.502   04 Jun 2027 07:00:51.264             5.762          1372.250
        86   04 Jun 2027 07:02:03.409   04 Jun 2027 07:02:08.479             5.070          1477.344
        87   04 Jun 2027 07:02:31.068   04 Jun 2027 07:02:34.961             3.893           377.469
        88   04 Jun 2027 07:03:27.528   04 Jun 2027 07:03:30.206             2.678           657.156
        89   04 Jun 2027 07:04:00.226   04 Jun 2027 07:04:01.002             0.776            83.438
        90   04 Jun 2027 08:35:00.411   04 Jun 2027 08:35:09.008             8.597          3788.875
        91   04 Jun 2027 08:37:40.745   04 Jun 2027 08:37:43.633             2.888           846.875
        92   04 Jun 2027 08:38:23.372   04 Jun 2027 08:38:25.571             2.199           381.312
        93   04 Jun 2027 08:38:53.857   04 Jun 2027 08:39:01.650             7.793           883.938
        94   04 Jun 2027 08:39:23.147   04 Jun 2027 08:39:24.189             1.042           311.500
        95   04 Jun 2027 08:40:30.447   04 Jun 2027 08:40:33.772             3.325           761.969
        96   04 Jun 2027 10:11:44.663   04 Jun 2027 10:12:00.325            15.662          6892.937
        97   04 Jun 2027 10:14:42.453   04 Jun 2027 10:14:43.738             1.285           174.562
        98   04 Jun 2027 10:15:27.922   04 Jun 2027 10:15:31.568             3.646            63.750
        99   04 Jun 2027 10:15:51.124   04 Jun 2027 10:15:53.639             2.515           416.406
       100   04 Jun 2027 11:47:00.530   04 Jun 2027 11:47:02.328             1.798           681.063
       101   04 Jun 2027 11:51:23.415   04 Jun 2027 11:51:26.712             3.297            96.125
       102   05 Jun 2027 03:59:01.182   05 Jun 2027 03:59:31.775            30.593         15296.500
       103   05 Jun 2027 05:31:18.104   05 Jun 2027 05:31:36.973            18.869          9434.500
       104   05 Jun 2027 05:33:05.197   05 Jun 2027 05:36:05.130           179.933         89966.500
       105   05 Jun 2027 05:39:24.266   05 Jun 2027 05:39:39.292            15.026          7513.000
       106   05 Jun 2027 05:41:00.714   05 Jun 2027 05:41:03.322             2.608          1304.000
       107   05 Jun 2027 07:10:09.661   05 Jun 2027 07:11:30.103            80.442         37997.625
       108   05 Jun 2027 07:12:29.569   05 Jun 2027 07:12:32.031             2.462           731.469
       109   05 Jun 2027 07:13:25.473   05 Jun 2027 07:13:29.491             4.018           956.781
       110   05 Jun 2027 07:13:50.083   05 Jun 2027 07:13:51.968             1.885           401.594
       111   05 Jun 2027 07:15:24.334   05 Jun 2027 07:15:30.188             5.854          2126.562
       112   05 Jun 2027 08:47:05.844   05 Jun 2027 08:47:22.809            16.965          4967.750
       113   05 Jun 2027 08:49:24.954   05 Jun 2027 08:49:27.806             2.852           172.781
       114   05 Jun 2027 08:50:15.978   05 Jun 2027 08:50:23.397             7.419          1419.969
       115   05 Jun 2027 10:23:52.446   05 Jun 2027 10:24:06.103            13.657          6663.531
       116   06 Jun 2027 04:11:11.698   06 Jun 2027 04:11:37.191            25.493         12746.500
       117   06 Jun 2027 04:11:56.775   06 Jun 2027 04:11:56.775             0.000             0.000
       118   06 Jun 2027 04:13:04.291   06 Jun 2027 04:13:06.396             2.105          1052.500
       119   06 Jun 2027 04:13:56.353   06 Jun 2027 04:14:10.967            14.614          7307.000
       120   06 Jun 2027 05:46:16.581   06 Jun 2027 05:47:49.235            92.654         46327.000
       121   06 Jun 2027 05:48:26.877   06 Jun 2027 05:48:46.811            19.934          9967.000
       122   06 Jun 2027 05:49:03.757   06 Jun 2027 05:49:23.791            20.034         10017.000
       123   06 Jun 2027 05:49:38.362   06 Jun 2027 05:50:38.080            59.718         29859.000
       124   06 Jun 2027 05:52:55.000   06 Jun 2027 05:53:04.431             9.431          4715.500
       125   06 Jun 2027 07:22:38.302   06 Jun 2027 07:23:58.126            79.824         39508.500
       126   06 Jun 2027 07:26:13.014   06 Jun 2027 07:26:17.820             4.806          1578.719
       127   06 Jun 2027 07:28:12.720   06 Jun 2027 07:28:20.978             8.258           409.188
       128   06 Jun 2027 09:00:08.876   06 Jun 2027 09:00:18.739             9.863          4725.000
       129   06 Jun 2027 09:01:20.040   06 Jun 2027 09:01:20.704             0.664           332.000
       130   06 Jun 2027 09:02:03.388   06 Jun 2027 09:02:06.696             3.308          1345.187
       131   06 Jun 2027 10:36:13.466   06 Jun 2027 10:36:26.059            12.593          5294.094
       132   06 Jun 2027 10:38:49.181   06 Jun 2027 10:38:52.132             2.951          1289.844
       133   06 Jun 2027 10:40:23.254   06 Jun 2027 10:40:27.396             4.142          1017.156
       134   07 Jun 2027 04:23:16.381   07 Jun 2027 04:24:22.611            66.230         33115.000
       135   07 Jun 2027 04:25:39.857   07 Jun 2027 04:25:48.451             8.594          4297.000
       136   07 Jun 2027 05:58:26.612   07 Jun 2027 06:02:15.192           228.580        114167.187
       137   07 Jun 2027 06:04:35.496   07 Jun 2027 06:04:35.496             0.000             0.000
       138   07 Jun 2027 06:04:46.575   07 Jun 2027 06:04:55.715             9.140          3970.500
       139   07 Jun 2027 07:34:42.250   07 Jun 2027 07:34:51.252             9.002          1309.219
       140   07 Jun 2027 07:36:43.639   07 Jun 2027 07:36:48.367             4.728           123.875
       141   07 Jun 2027 07:38:01.650   07 Jun 2027 07:38:06.904             5.254          1816.656
       142   07 Jun 2027 07:38:26.236   07 Jun 2027 07:38:26.236             0.000             0.000
       143   07 Jun 2027 07:39:09.797   07 Jun 2027 07:39:14.999             5.202          1965.406
       144   07 Jun 2027 07:40:14.632   07 Jun 2027 07:40:17.346             2.714             3.625
       145   07 Jun 2027 09:12:14.389   07 Jun 2027 09:12:24.986            10.597          4627.656
       146   07 Jun 2027 09:14:28.016   07 Jun 2027 09:14:30.150             2.134           438.688
       147   07 Jun 2027 09:15:43.106   07 Jun 2027 09:15:45.222             2.116          1019.125
       148   07 Jun 2027 10:48:15.673   07 Jun 2027 10:48:26.107            10.434          4972.250
       149   07 Jun 2027 10:49:40.663   07 Jun 2027 10:49:42.240             1.577            75.687
       150   07 Jun 2027 10:50:08.810   07 Jun 2027 10:50:10.304             1.494           696.250
       151   07 Jun 2027 10:51:49.238   07 Jun 2027 10:51:54.725             5.487          2044.844
       152   08 Jun 2027 03:00:00.000   08 Jun 2027 03:00:15.486            15.486          7743.000
       153   08 Jun 2027 04:34:59.956   08 Jun 2027 04:36:44.368           104.412         52206.000
       154   08 Jun 2027 04:37:50.298   08 Jun 2027 04:38:43.208            52.910         26455.000
       155   08 Jun 2027 04:38:48.408   08 Jun 2027 04:39:13.883            25.475         12737.500
       156   08 Jun 2027 06:11:29.686   08 Jun 2027 06:12:43.918            74.232         37116.000
       157   08 Jun 2027 06:13:06.170   08 Jun 2027 06:13:44.594            38.424         19075.562
       158   08 Jun 2027 06:14:12.111   08 Jun 2027 06:14:14.323             2.212           859.906
       159   08 Jun 2027 06:15:40.957   08 Jun 2027 06:15:45.923             4.966          2353.000
       160   08 Jun 2027 06:16:37.164   08 Jun 2027 06:16:37.849             0.685           332.156
       161   08 Jun 2027 07:46:26.876   08 Jun 2027 07:46:33.409             6.533          1295.969
       162   08 Jun 2027 07:48:37.143   08 Jun 2027 07:48:38.823             1.680           677.687
       163   08 Jun 2027 07:49:26.848   08 Jun 2027 07:49:36.374             9.526           986.344
       164   08 Jun 2027 07:50:28.055   08 Jun 2027 07:50:36.136             8.081          1500.562
       165   08 Jun 2027 07:51:17.907   08 Jun 2027 07:51:19.841             1.934           573.437
       166   08 Jun 2027 07:51:55.434   08 Jun 2027 07:52:01.243             5.809           936.437
       167   08 Jun 2027 09:24:44.481   08 Jun 2027 09:24:58.841            14.360          7170.406
       168   08 Jun 2027 09:25:42.286   08 Jun 2027 09:25:47.906             5.620           970.375
       169   08 Jun 2027 09:27:21.972   08 Jun 2027 09:27:27.805             5.833          1676.719
       170   08 Jun 2027 10:58:44.185   08 Jun 2027 10:58:58.116            13.931          5300.750
       171   08 Jun 2027 11:04:09.385   08 Jun 2027 11:04:16.156             6.771           706.188
       172   08 Jun 2027 11:05:24.545   08 Jun 2027 11:05:24.784             0.239            16.469
       173   09 Jun 2027 03:09:53.111   09 Jun 2027 03:10:08.703            15.592          7796.000
       174   09 Jun 2027 03:14:27.890   09 Jun 2027 03:14:32.951             5.061          2530.500
       175   09 Jun 2027 04:45:13.255   09 Jun 2027 04:46:11.859            58.604         29302.000
       176   09 Jun 2027 04:46:44.995   09 Jun 2027 04:48:59.958           134.963         67481.500
       177   09 Jun 2027 04:50:09.391   09 Jun 2027 04:50:09.391             0.000             0.000
       178   09 Jun 2027 04:50:46.025   09 Jun 2027 04:50:50.619             4.594          2297.000
       179   09 Jun 2027 06:21:43.093   09 Jun 2027 06:23:17.412            94.319         44082.969
       180   09 Jun 2027 06:24:29.716   09 Jun 2027 06:24:31.251             1.535           523.750
       181   09 Jun 2027 06:25:39.424   09 Jun 2027 06:25:43.323             3.899          1796.531
       182   09 Jun 2027 06:26:17.094   09 Jun 2027 06:26:19.487             2.393           694.875
       183   09 Jun 2027 06:26:53.459   09 Jun 2027 06:27:01.177             7.718           355.750
       184   09 Jun 2027 06:27:21.771   09 Jun 2027 06:27:22.143             0.372           180.781
       185   09 Jun 2027 06:27:33.887   09 Jun 2027 06:27:37.618             3.731           341.969
       186   09 Jun 2027 06:28:19.611   09 Jun 2027 06:28:21.649             2.038           576.969
       187   09 Jun 2027 07:58:47.939   09 Jun 2027 07:58:48.976             1.037           379.125
       188   09 Jun 2027 07:59:52.113   09 Jun 2027 07:59:54.433             2.320           600.313
       189   09 Jun 2027 08:01:01.347   09 Jun 2027 08:01:05.826             4.479          1980.156
       190   09 Jun 2027 08:02:27.475   09 Jun 2027 08:02:33.077             5.602          2551.531
       191   09 Jun 2027 08:03:08.451   09 Jun 2027 08:03:11.528             3.077          1020.250
       192   09 Jun 2027 08:03:37.935   09 Jun 2027 08:03:41.837             3.902           695.563
       193   09 Jun 2027 08:04:37.874   09 Jun 2027 08:04:38.370             0.496           248.000
       194   09 Jun 2027 08:04:40.203   09 Jun 2027 08:04:43.998             3.795           369.281
       195   09 Jun 2027 09:36:42.142   09 Jun 2027 09:36:56.577            14.435          6133.875
       196   09 Jun 2027 09:38:04.906   09 Jun 2027 09:38:06.262             1.356           515.688
       197   09 Jun 2027 09:39:25.564   09 Jun 2027 09:39:30.134             4.570          1802.938
       198   09 Jun 2027 09:40:17.213   09 Jun 2027 09:40:20.931             3.718           475.156
       199   09 Jun 2027 09:40:29.248   09 Jun 2027 09:40:30.985             1.737           237.531
       200   09 Jun 2027 11:09:50.533   09 Jun 2027 11:10:00.867            10.334          4534.969
       201   10 Jun 2027 03:21:28.930   10 Jun 2027 03:21:36.249             7.319          3659.500
       202   10 Jun 2027 03:23:24.341   10 Jun 2027 03:23:34.187             9.846          4923.000
       203   10 Jun 2027 03:24:18.534   10 Jun 2027 03:24:27.082             8.548          4274.000
       204   10 Jun 2027 04:56:22.820   10 Jun 2027 04:58:25.562           122.742         61371.000
       205   10 Jun 2027 04:58:32.021   10 Jun 2027 05:00:06.162            94.141         47070.500
       206   10 Jun 2027 05:02:24.223   10 Jun 2027 05:02:24.223             0.000             0.000
       207   10 Jun 2027 05:04:37.924   10 Jun 2027 05:04:52.388            14.464          7232.000
       208   10 Jun 2027 06:33:56.402   10 Jun 2027 06:34:56.419            60.017         29183.844
       209   10 Jun 2027 06:36:03.002   10 Jun 2027 06:36:07.271             4.269          1695.031
       210   10 Jun 2027 06:36:17.749   10 Jun 2027 06:36:17.749             0.000             0.000
       211   10 Jun 2027 06:36:40.113   10 Jun 2027 06:36:42.292             2.179          1026.312
       212   10 Jun 2027 06:36:52.812   10 Jun 2027 06:36:52.812             0.000             0.000
       213   10 Jun 2027 06:37:24.254   10 Jun 2027 06:37:27.052             2.798          1122.656
       214   10 Jun 2027 06:38:56.201   10 Jun 2027 06:39:02.615             6.414           290.062
       215   10 Jun 2027 06:39:29.085   10 Jun 2027 06:39:40.263            11.178           752.406
       216   10 Jun 2027 06:40:04.626   10 Jun 2027 06:40:06.274             1.648           442.156
       217   10 Jun 2027 08:10:38.883   10 Jun 2027 08:10:42.945             4.062          1489.406
       218   10 Jun 2027 08:13:28.348   10 Jun 2027 08:13:37.222             8.874           862.156
       219   10 Jun 2027 08:13:59.658   10 Jun 2027 08:14:02.411             2.753           695.875
       220   10 Jun 2027 08:14:15.305   10 Jun 2027 08:14:17.387             2.082            92.500
       221   10 Jun 2027 08:14:53.478   10 Jun 2027 08:14:55.392             1.914           863.469
       222   10 Jun 2027 08:15:51.435   10 Jun 2027 08:15:54.188             2.753          1088.375
       223   10 Jun 2027 08:16:59.055   10 Jun 2027 08:17:11.890            12.835          1515.187
       224   10 Jun 2027 09:48:42.016   10 Jun 2027 09:48:54.020            12.004          5889.125
       225   10 Jun 2027 09:49:53.932   10 Jun 2027 09:49:56.043             2.111           857.094
       226   10 Jun 2027 09:52:04.034   10 Jun 2027 09:52:04.629             0.595            22.906
       227   10 Jun 2027 09:52:20.432   10 Jun 2027 09:52:21.439             1.007            48.469
       228   10 Jun 2027 09:52:49.521   10 Jun 2027 09:52:51.506             1.985           290.937
       229   10 Jun 2027 11:22:19.281   10 Jun 2027 11:22:22.138             2.857          1239.781
       230   11 Jun 2027 03:32:58.178   11 Jun 2027 03:33:16.807            18.629          9314.500
       231   11 Jun 2027 03:33:26.719   11 Jun 2027 03:33:36.883            10.164          5082.000
       232   11 Jun 2027 05:07:53.477   11 Jun 2027 05:11:38.291           224.814        112407.000
       233   11 Jun 2027 05:12:04.138   11 Jun 2027 05:12:04.138             0.000             0.000
       234   11 Jun 2027 05:13:12.790   11 Jun 2027 05:13:16.835             4.045          2022.500
       235   11 Jun 2027 05:16:47.759   11 Jun 2027 05:16:48.357             0.598           299.000
       236   11 Jun 2027 05:16:48.586   11 Jun 2027 05:17:18.069            29.483         14741.500
       237   11 Jun 2027 06:45:50.313   11 Jun 2027 06:46:36.944            46.631         20914.719
       238   11 Jun 2027 06:48:29.902   11 Jun 2027 06:48:35.775             5.873          1083.031
       239   11 Jun 2027 06:48:54.349   11 Jun 2027 06:48:55.617             1.268           518.125
       240   11 Jun 2027 06:49:29.836   11 Jun 2027 06:49:31.595             1.759           691.344
       241   11 Jun 2027 06:50:38.304   11 Jun 2027 06:50:43.640             5.336          2084.656
       242   11 Jun 2027 06:50:58.783   11 Jun 2027 06:50:58.783             0.000             0.000
       243   11 Jun 2027 06:51:22.717   11 Jun 2027 06:51:25.458             2.741          1051.625
       244   11 Jun 2027 06:51:36.269   11 Jun 2027 06:51:37.462             1.193           301.937
       245   11 Jun 2027 08:22:43.905   11 Jun 2027 08:22:50.421             6.516          2041.031
       246   11 Jun 2027 08:25:14.779   11 Jun 2027 08:25:24.200             9.421          1671.687
       247   11 Jun 2027 08:25:42.275   11 Jun 2027 08:25:43.663             1.388           415.125
       248   11 Jun 2027 08:25:57.971   11 Jun 2027 08:26:05.863             7.892           389.094
       249   11 Jun 2027 08:26:36.433   11 Jun 2027 08:26:42.377             5.944           811.156
       250   11 Jun 2027 08:27:10.828   11 Jun 2027 08:27:13.941             3.113            32.250
       251   11 Jun 2027 08:27:54.702   11 Jun 2027 08:27:59.427             4.725           774.969
       252   11 Jun 2027 08:28:53.080   11 Jun 2027 08:28:58.134             5.054          1137.250
       253   11 Jun 2027 10:00:28.389   11 Jun 2027 10:00:38.155             9.766          4792.656
       254   11 Jun 2027 10:00:51.525   11 Jun 2027 10:00:52.727             1.202           153.031
       255   11 Jun 2027 10:01:58.927   11 Jun 2027 10:02:04.112             5.185          1444.469
       256   11 Jun 2027 10:03:47.956   11 Jun 2027 10:03:52.160             4.204           787.031
       257   11 Jun 2027 10:04:00.759   11 Jun 2027 10:04:01.105             0.346           152.250
       258   11 Jun 2027 11:34:42.298   11 Jun 2027 11:34:48.555             6.257          1643.437
       259   12 Jun 2027 03:47:01.699   12 Jun 2027 03:47:10.361             8.662          4331.000
       260   12 Jun 2027 03:48:20.273   12 Jun 2027 03:48:20.273             0.000             0.000
       261   12 Jun 2027 03:49:40.866   12 Jun 2027 03:49:43.619             2.753          1376.500
       262   12 Jun 2027 05:20:47.107   12 Jun 2027 05:24:18.658           211.551        105775.500
       263   12 Jun 2027 05:28:57.716   12 Jun 2027 05:29:20.601            22.885         11442.500
       264   12 Jun 2027 06:58:11.009   12 Jun 2027 06:59:23.158            72.149         34725.750
       265   12 Jun 2027 06:59:49.743   12 Jun 2027 06:59:51.946             2.203           536.750
       266   12 Jun 2027 07:01:01.386   12 Jun 2027 07:01:01.386             0.000             0.000
       267   12 Jun 2027 07:01:11.005   12 Jun 2027 07:01:18.086             7.081          1715.219
       268   12 Jun 2027 07:02:45.198   12 Jun 2027 07:02:50.798             5.600          1963.437
       269   12 Jun 2027 07:04:12.206   12 Jun 2027 07:04:15.598             3.392          1540.000
       270   12 Jun 2027 08:35:14.969   12 Jun 2027 08:35:26.239            11.270          3752.469
       271   12 Jun 2027 08:37:55.487   12 Jun 2027 08:37:58.664             3.177           850.531
       272   12 Jun 2027 08:38:38.317   12 Jun 2027 08:38:38.804             0.487           105.969
       273   12 Jun 2027 08:39:08.096   12 Jun 2027 08:39:15.636             7.540           880.313
       274   12 Jun 2027 08:39:38.323   12 Jun 2027 08:39:39.477             1.154           310.719
       275   12 Jun 2027 08:40:45.020   12 Jun 2027 08:40:46.498             1.478           720.438
       276   12 Jun 2027 10:11:59.553   12 Jun 2027 10:12:11.475            11.922          5873.469
       277   12 Jun 2027 10:16:06.335   12 Jun 2027 10:16:11.266             4.931           360.563
       278   12 Jun 2027 11:47:15.639   12 Jun 2027 11:47:21.756             6.117           766.000
       279   13 Jun 2027 03:59:15.956   13 Jun 2027 03:59:25.615             9.659          4829.500
       280   13 Jun 2027 04:00:56.927   13 Jun 2027 04:00:57.426             0.499           249.500
       281   13 Jun 2027 04:01:23.707   13 Jun 2027 04:01:28.955             5.248          2624.000
       282   13 Jun 2027 04:02:21.045   13 Jun 2027 04:02:43.283            22.238         11119.000
       283   13 Jun 2027 05:33:19.929   13 Jun 2027 05:36:22.038           182.109         91054.500
       284   13 Jun 2027 05:41:05.615   13 Jun 2027 05:41:17.927            12.312          6156.000
       285   13 Jun 2027 07:10:24.515   13 Jun 2027 07:12:05.513           100.998         48850.969
       286   13 Jun 2027 07:13:39.485   13 Jun 2027 07:13:41.369             1.884           929.187
       287   13 Jun 2027 07:14:04.835   13 Jun 2027 07:14:07.256             2.421           569.906
       288   13 Jun 2027 07:14:40.309   13 Jun 2027 07:14:41.872             1.563           296.844
       289   13 Jun 2027 07:16:53.237   13 Jun 2027 07:16:55.284             2.047           858.906
       290   13 Jun 2027 08:47:20.449   13 Jun 2027 08:47:31.763            11.314          4660.688
       291   13 Jun 2027 08:49:39.767   13 Jun 2027 08:49:46.121             6.354           122.094
       292   13 Jun 2027 10:24:07.006   13 Jun 2027 10:24:21.790            14.784          6794.969
       293   13 Jun 2027 10:26:35.116   13 Jun 2027 10:26:37.795             2.679           594.156
