uniorb/output/strategy_4/Camera/Camera_KinoSat_110505.txt

KinoSat_110505
-------------------------
    Access    *     Start Time (UTCG)     *     Stop Time (UTCG)  *   Duration (s) *   Data (Mbytes)
         1   01 Jun 2027 03:45:47.450   01 Jun 2027 03:47:39.106           111.656         55828.000
         2   01 Jun 2027 03:49:20.654   01 Jun 2027 03:49:48.915            28.261         14130.500
         3   01 Jun 2027 03:51:08.349   01 Jun 2027 03:51:24.088            15.739          7869.500
         4   01 Jun 2027 03:52:00.395   01 Jun 2027 03:52:00.395             0.000             0.000
         5   01 Jun 2027 03:53:44.295   01 Jun 2027 03:54:08.984            24.689         12344.500
         6   01 Jun 2027 05:23:15.721   01 Jun 2027 05:25:24.651           128.930         64465.000
         7   01 Jun 2027 05:25:32.118   01 Jun 2027 05:25:33.401             1.283           641.500
         8   01 Jun 2027 05:26:28.945   01 Jun 2027 05:26:52.894            23.949         11974.500
         9   01 Jun 2027 05:28:20.883   01 Jun 2027 05:28:37.598            16.715          8357.500
        10   01 Jun 2027 05:29:16.148   01 Jun 2027 05:29:25.874             9.726          4863.000
        11   01 Jun 2027 05:29:41.158   01 Jun 2027 05:29:44.935             3.777          1888.500
        12   01 Jun 2027 05:30:28.346   01 Jun 2027 05:30:33.813             5.467          2733.500
        13   01 Jun 2027 07:00:00.664   01 Jun 2027 07:02:46.881           166.217         83108.500
        14   01 Jun 2027 07:03:34.756   01 Jun 2027 07:03:34.982             0.226           113.000
        15   01 Jun 2027 07:03:41.125   01 Jun 2027 07:03:45.937             4.812          2406.000
        16   01 Jun 2027 07:04:11.886   01 Jun 2027 07:04:19.346             7.460          3730.000
        17   01 Jun 2027 07:04:37.219   01 Jun 2027 07:04:43.844             6.625          3312.500
        18   01 Jun 2027 07:04:44.148   01 Jun 2027 07:04:48.240             4.092          2046.000
        19   01 Jun 2027 07:05:18.531   01 Jun 2027 07:05:27.386             8.855          4427.500
        20   01 Jun 2027 07:06:17.479   01 Jun 2027 07:06:27.467             9.988          4994.000
        21   01 Jun 2027 08:37:58.910   01 Jun 2027 08:40:32.277           153.367         76683.500
        22   01 Jun 2027 08:41:24.094   01 Jun 2027 08:41:32.458             8.364          4182.000
        23   01 Jun 2027 08:41:52.612   01 Jun 2027 08:42:03.155            10.543          5271.500
        24   01 Jun 2027 10:11:36.726   01 Jun 2027 10:15:08.609           211.883        105941.500
        25   01 Jun 2027 10:16:52.659   01 Jun 2027 10:17:08.440            15.781          7890.500
        26   02 Jun 2027 03:57:15.330   02 Jun 2027 04:01:25.577           250.247        125123.500
        27   02 Jun 2027 04:01:35.043   02 Jun 2027 04:03:46.665           131.622         65811.000
        28   02 Jun 2027 04:03:53.312   02 Jun 2027 04:03:58.593             5.281          2640.500
        29   02 Jun 2027 04:05:38.425   02 Jun 2027 04:05:59.441            21.016         10508.000
        30   02 Jun 2027 04:06:07.113   02 Jun 2027 04:06:09.465             2.352          1176.000
        31   02 Jun 2027 05:35:08.717   02 Jun 2027 05:38:33.463           204.746        102373.000
        32   02 Jun 2027 05:39:24.501   02 Jun 2027 05:40:27.008            62.507         31253.500
        33   02 Jun 2027 05:41:38.105   02 Jun 2027 05:42:01.551            23.446         11723.000
        34   02 Jun 2027 07:11:52.603   02 Jun 2027 07:17:43.746           351.143        175571.500
        35   02 Jun 2027 08:50:00.713   02 Jun 2027 08:54:08.535           247.822        123911.000
        36   02 Jun 2027 10:26:00.790   02 Jun 2027 10:30:06.559           245.769        122884.500
        37   03 Jun 2027 04:10:07.341   03 Jun 2027 04:17:32.706           445.365        222682.500
        38   03 Jun 2027 04:17:44.539   03 Jun 2027 04:18:37.916            53.377         26688.500
        39   03 Jun 2027 05:47:16.121   03 Jun 2027 05:54:34.152           438.031        219015.500
        40   03 Jun 2027 07:25:26.048   03 Jun 2027 07:29:02.466           216.418        108209.000
        41   03 Jun 2027 07:29:12.178   03 Jun 2027 07:30:23.250            71.072         35536.000
        42   03 Jun 2027 09:01:26.428   03 Jun 2027 09:06:04.589           278.161        139080.500
        43   03 Jun 2027 10:36:35.059   03 Jun 2027 10:36:38.424             3.365          1682.500
        44   03 Jun 2027 10:38:47.282   03 Jun 2027 10:41:07.973           140.691         70345.500
        45   04 Jun 2027 04:22:30.706   04 Jun 2027 04:29:33.687           422.981        211490.500
        46   04 Jun 2027 04:29:35.621   04 Jun 2027 04:30:36.535            60.914         30457.000
        47   04 Jun 2027 05:59:41.531   04 Jun 2027 06:06:23.667           402.136        201068.000
        48   04 Jun 2027 07:36:41.732   04 Jun 2027 07:42:05.142           323.410        161705.000
        49   04 Jun 2027 09:13:29.500   04 Jun 2027 09:17:58.036           268.536        134268.000
        50   04 Jun 2027 10:51:56.732   04 Jun 2027 10:52:43.660            46.928         23464.000
        51   05 Jun 2027 03:00:38.474   05 Jun 2027 03:04:11.358           212.884        106442.000
        52   05 Jun 2027 04:35:47.319   05 Jun 2027 04:41:32.307           344.988        172494.000
        53   05 Jun 2027 04:41:33.175   05 Jun 2027 04:42:35.966            62.791         31395.500
        54   05 Jun 2027 06:12:07.309   05 Jun 2027 06:18:29.705           382.396        191198.000
        55   05 Jun 2027 07:49:53.332   05 Jun 2027 07:54:02.916           249.584        124792.000
        56   05 Jun 2027 09:25:50.935   05 Jun 2027 09:29:55.447           244.512        122256.000
        57   06 Jun 2027 03:12:48.852   06 Jun 2027 03:16:16.411           207.559        103779.500
        58   06 Jun 2027 04:47:58.971   06 Jun 2027 04:54:34.529           395.558        197779.000
        59   06 Jun 2027 06:24:19.835   06 Jun 2027 06:30:02.778           342.943        171471.500
        60   06 Jun 2027 06:30:04.730   06 Jun 2027 06:30:28.203            23.473         11736.500
        61   06 Jun 2027 08:01:46.333   06 Jun 2027 08:06:17.704           271.371        135685.500
        62   06 Jun 2027 09:38:21.083   06 Jun 2027 09:42:40.444           259.361        129680.500
        63   07 Jun 2027 03:24:36.521   07 Jun 2027 03:28:45.314           248.793        124396.500
        64   07 Jun 2027 04:59:29.957   07 Jun 2027 05:06:43.693           433.736        216868.000
        65   07 Jun 2027 06:36:20.744   07 Jun 2027 06:42:22.317           361.573        180786.500
        66   07 Jun 2027 08:14:27.239   07 Jun 2027 08:18:10.507           223.268        111634.000
        67   07 Jun 2027 09:49:56.510   07 Jun 2027 09:53:44.154           227.644        113822.000
        68   07 Jun 2027 09:54:12.241   07 Jun 2027 09:55:04.358            52.117         26058.500
        69   08 Jun 2027 03:34:52.778   08 Jun 2027 03:35:43.436            50.658         25329.000
        70   08 Jun 2027 03:36:21.521   08 Jun 2027 03:41:00.293           278.772        139386.000
        71   08 Jun 2027 05:11:11.571   08 Jun 2027 05:17:26.487           374.916        187458.000
        72   08 Jun 2027 05:17:56.920   08 Jun 2027 05:18:42.391            45.471         22735.500
        73   08 Jun 2027 05:18:44.385   08 Jun 2027 05:18:44.511             0.126            63.000
        74   08 Jun 2027 06:48:39.582   08 Jun 2027 06:54:37.687           358.105        179052.500
        75   08 Jun 2027 08:26:35.653   08 Jun 2027 08:30:11.959           216.306        108153.000
        76   08 Jun 2027 09:59:19.025   08 Jun 2027 10:05:39.452           380.427        190213.500
        77   08 Jun 2027 10:06:30.151   08 Jun 2027 10:07:20.878            50.727         25363.500
        78   09 Jun 2027 03:46:01.667   09 Jun 2027 03:47:56.574           114.907         57453.500
        79   09 Jun 2027 03:48:05.460   09 Jun 2027 03:53:22.851           317.391        158695.500
        80   09 Jun 2027 05:23:30.228   09 Jun 2027 05:30:48.436           438.208        219104.000
        81   09 Jun 2027 07:00:19.915   09 Jun 2027 07:06:47.512           387.597        193798.500
        82   09 Jun 2027 08:38:17.080   09 Jun 2027 08:42:24.102           247.022        123511.000
        83   09 Jun 2027 10:11:51.221   09 Jun 2027 10:17:58.052           366.831        183415.500
        84   10 Jun 2027 03:57:29.701   10 Jun 2027 04:05:32.854           483.153        241576.500
        85   10 Jun 2027 04:06:04.874   10 Jun 2027 04:06:51.332            46.458         23229.000
        86   10 Jun 2027 05:35:23.311   10 Jun 2027 05:42:48.436           445.125        222562.500
        87   10 Jun 2027 07:12:15.282   10 Jun 2027 07:17:58.165           342.883        171441.500
        88   10 Jun 2027 07:18:17.825   10 Jun 2027 07:18:51.226            33.401         16700.500
        89   10 Jun 2027 08:50:15.169   10 Jun 2027 08:54:23.232           248.063        124031.500
        90   10 Jun 2027 10:26:15.948   10 Jun 2027 10:30:20.741           244.793        122396.500
        91   11 Jun 2027 04:10:22.092   11 Jun 2027 04:17:41.116           439.024        219512.000
        92   11 Jun 2027 04:17:44.053   11 Jun 2027 04:18:52.582            68.529         34264.500
        93   11 Jun 2027 05:47:30.896   11 Jun 2027 05:54:48.609           437.713        218856.500
        94   11 Jun 2027 07:25:39.954   11 Jun 2027 07:29:17.013           217.059        108529.500
        95   11 Jun 2027 07:29:26.805   11 Jun 2027 07:30:37.826            71.021         35510.500
        96   11 Jun 2027 09:01:41.295   11 Jun 2027 09:06:19.149           277.854        138927.000
        97   11 Jun 2027 10:36:50.803   11 Jun 2027 10:36:53.176             2.373          1186.500
        98   11 Jun 2027 10:38:13.983   11 Jun 2027 10:41:22.425           188.442         94221.000
        99   12 Jun 2027 04:22:45.844   12 Jun 2027 04:29:47.912           422.068        211034.000
       100   12 Jun 2027 04:29:50.167   12 Jun 2027 04:30:51.119            60.952         30476.000
       101   12 Jun 2027 05:59:56.227   12 Jun 2027 06:06:38.411           402.184        201092.000
       102   12 Jun 2027 07:37:30.019   12 Jun 2027 07:42:19.739           289.720        144860.000
       103   12 Jun 2027 09:13:44.418   12 Jun 2027 09:18:12.614           268.196        134098.000
       104   12 Jun 2027 10:52:18.949   12 Jun 2027 10:52:55.638            36.689         18344.500
       105   13 Jun 2027 03:00:53.149   13 Jun 2027 03:04:25.969           212.820        106410.000
       106   13 Jun 2027 04:36:01.976   13 Jun 2027 04:41:47.053           345.077        172538.500
       107   13 Jun 2027 04:41:47.692   13 Jun 2027 04:42:50.692            63.000         31500.000
       108   13 Jun 2027 06:12:22.137   13 Jun 2027 06:18:44.407           382.270        191135.000
       109   13 Jun 2027 07:50:07.892   13 Jun 2027 07:54:17.860           249.968        124984.000
       110   13 Jun 2027 09:26:05.932   13 Jun 2027 09:30:09.701           243.769        121884.500
