uniorb/output/strategy_4/Camera/Camera_KinoSat_112010.txt

KinoSat_112010
-------------------------
    Access    *     Start Time (UTCG)     *     Stop Time (UTCG)  *   Duration (s) *   Data (Mbytes)
         1   01 Jun 2027 03:44:50.827   01 Jun 2027 03:47:08.155           137.328         68664.000
         2   01 Jun 2027 03:48:06.603   01 Jun 2027 03:48:12.319             5.716          2858.000
         3   01 Jun 2027 03:49:27.077   01 Jun 2027 03:49:35.721             8.644          4322.000
         4   01 Jun 2027 03:50:44.730   01 Jun 2027 03:50:50.910             6.180          3090.000
         5   01 Jun 2027 03:51:24.606   01 Jun 2027 03:51:28.686             4.080          2040.000
         6   01 Jun 2027 03:51:51.442   01 Jun 2027 03:51:55.760             4.318          2159.000
         7   01 Jun 2027 05:22:59.721   01 Jun 2027 05:23:59.456            59.735         29867.500
         8   01 Jun 2027 05:24:08.963   01 Jun 2027 05:25:04.383            55.420         27710.000
         9   01 Jun 2027 05:26:05.204   01 Jun 2027 05:26:22.976            17.772          8886.000
        10   01 Jun 2027 05:29:15.250   01 Jun 2027 05:29:16.148             0.898           449.000
        11   01 Jun 2027 07:01:18.369   01 Jun 2027 07:01:48.205            29.836         14918.000
        12   01 Jun 2027 07:02:07.156   01 Jun 2027 07:03:13.623            66.467         33233.500
        13   01 Jun 2027 07:03:45.937   01 Jun 2027 07:03:49.456             3.519          1759.500
        14   01 Jun 2027 07:04:54.269   01 Jun 2027 07:05:07.933            13.664          6832.000
        15   01 Jun 2027 08:24:41.680   01 Jun 2027 08:26:06.026            84.346         42173.000
        16   01 Jun 2027 08:27:32.339   01 Jun 2027 08:27:36.011             3.672          1836.000
        17   01 Jun 2027 10:01:11.703   01 Jun 2027 10:01:36.113            24.410         12205.000
        18   01 Jun 2027 10:02:35.279   01 Jun 2027 10:02:59.500            24.221         12110.500
        19   01 Jun 2027 10:03:45.249   01 Jun 2027 10:04:48.732            63.483         31741.500
        20   01 Jun 2027 11:36:51.858   01 Jun 2027 11:36:51.858             0.000             0.000
        21   01 Jun 2027 11:38:06.104   01 Jun 2027 11:39:52.182           106.078         53039.000
        22   01 Jun 2027 11:42:51.324   01 Jun 2027 11:43:00.607             9.283          4641.500
        23   02 Jun 2027 03:56:48.911   02 Jun 2027 03:58:07.986            79.075         39537.500
        24   02 Jun 2027 03:59:39.140   02 Jun 2027 04:00:31.489            52.349         26174.500
        25   02 Jun 2027 04:00:59.668   02 Jun 2027 04:01:25.577            25.909         12954.500
        26   02 Jun 2027 04:01:35.043   02 Jun 2027 04:01:37.561             2.518          1259.000
        27   02 Jun 2027 05:35:05.044   02 Jun 2027 05:35:14.507             9.463          4731.500
        28   02 Jun 2027 05:36:06.644   02 Jun 2027 05:38:57.260           170.616         85308.000
        29   02 Jun 2027 05:43:12.041   02 Jun 2027 05:43:57.861            45.820         22910.000
        30   02 Jun 2027 07:13:15.299   02 Jun 2027 07:13:54.035            38.736         19368.000
        31   02 Jun 2027 07:14:21.811   02 Jun 2027 07:16:07.582           105.771         52885.500
        32   02 Jun 2027 07:16:31.275   02 Jun 2027 07:16:31.275             0.000             0.000
        33   02 Jun 2027 08:37:22.359   02 Jun 2027 08:39:34.544           132.185         66092.500
        34   02 Jun 2027 10:13:07.719   02 Jun 2027 10:14:16.116            68.397         34198.500
        35   02 Jun 2027 10:14:52.880   02 Jun 2027 10:14:53.003             0.123            61.500
        36   02 Jun 2027 10:15:34.007   02 Jun 2027 10:15:53.623            19.616          7547.937
        37   02 Jun 2027 11:48:25.879   02 Jun 2027 11:48:25.879             0.000             0.000
        38   02 Jun 2027 11:54:43.367   02 Jun 2027 11:55:04.480            21.113         10556.500
        39   03 Jun 2027 04:09:18.205   03 Jun 2027 04:11:55.125           156.920         78460.000
        40   03 Jun 2027 04:13:10.320   03 Jun 2027 04:13:26.829            16.509          8254.500
        41   03 Jun 2027 05:48:10.417   03 Jun 2027 05:50:54.171           163.754         81877.000
        42   03 Jun 2027 05:54:19.679   03 Jun 2027 05:54:33.975            14.296          7148.000
        43   03 Jun 2027 05:54:59.781   03 Jun 2027 05:55:06.297             6.516          2599.406
        44   03 Jun 2027 07:14:11.250   03 Jun 2027 07:14:24.469            13.219          6399.094
        45   03 Jun 2027 07:25:11.902   03 Jun 2027 07:25:19.607             7.705          3626.344
        46   03 Jun 2027 07:26:20.288   03 Jun 2027 07:26:22.096             1.808           707.438
        47   03 Jun 2027 07:27:14.630   03 Jun 2027 07:27:16.063             1.433           290.625
        48   03 Jun 2027 07:27:31.525   03 Jun 2027 07:27:35.323             3.798           363.062
        49   03 Jun 2027 07:28:04.081   03 Jun 2027 07:28:05.497             1.416           272.031
        50   03 Jun 2027 07:28:25.429   03 Jun 2027 07:28:30.110             4.681           200.406
        51   03 Jun 2027 08:48:11.856   03 Jun 2027 08:48:25.159            13.303          5633.906
        52   03 Jun 2027 08:49:17.609   03 Jun 2027 08:49:19.698             2.089           921.656
        53   03 Jun 2027 08:49:51.352   03 Jun 2027 08:49:57.845             6.493           754.094
        54   03 Jun 2027 08:51:28.239   03 Jun 2027 08:51:34.237             5.998          2535.781
        55   03 Jun 2027 10:23:43.756   03 Jun 2027 10:23:50.636             6.880          3440.000
        56   03 Jun 2027 10:24:53.572   03 Jun 2027 10:24:56.380             2.808          1091.125
        57   03 Jun 2027 10:26:40.886   03 Jun 2027 10:26:46.265             5.379          1876.938
        58   03 Jun 2027 10:28:21.576   03 Jun 2027 10:28:25.870             4.294           683.969
        59   04 Jun 2027 04:21:33.791   04 Jun 2027 04:24:12.665           158.874         79437.000
        60   04 Jun 2027 06:00:40.408   04 Jun 2027 06:03:05.599           145.191         72595.500
        61   04 Jun 2027 06:03:25.686   04 Jun 2027 06:03:47.585            21.899         10949.500
        62   04 Jun 2027 06:04:08.323   04 Jun 2027 06:04:28.370            20.047          9636.750
        63   04 Jun 2027 06:06:12.883   04 Jun 2027 06:06:19.887             7.004          3266.031
        64   04 Jun 2027 07:25:32.602   04 Jun 2027 07:25:45.257            12.655          6042.531
        65   04 Jun 2027 07:26:17.846   04 Jun 2027 07:26:20.114             2.268          1018.406
        66   04 Jun 2027 07:37:15.188   04 Jun 2027 07:37:22.686             7.498          2588.156
        67   04 Jun 2027 07:37:59.530   04 Jun 2027 07:38:01.141             1.611           714.781
        68   04 Jun 2027 08:59:27.841   04 Jun 2027 08:59:56.102            28.261         14050.250
        69   04 Jun 2027 09:00:21.991   04 Jun 2027 09:00:23.621             1.630           809.031
        70   04 Jun 2027 09:01:28.187   04 Jun 2027 09:01:31.585             3.398          1006.625
        71   04 Jun 2027 09:02:28.131   04 Jun 2027 09:02:31.092             2.961          1078.500
        72   04 Jun 2027 10:34:35.312   04 Jun 2027 10:34:42.868             7.556          3543.594
        73   04 Jun 2027 10:35:36.100   04 Jun 2027 10:35:37.743             1.643           671.500
        74   04 Jun 2027 10:37:33.904   04 Jun 2027 10:37:41.951             8.047          3630.031
        75   04 Jun 2027 10:40:29.568   04 Jun 2027 10:40:35.028             5.460          2730.000
        76   04 Jun 2027 10:40:45.679   04 Jun 2027 10:40:52.133             6.454          1525.250
        77   04 Jun 2027 10:41:18.398   04 Jun 2027 10:41:19.585             1.187           505.062
        78   05 Jun 2027 03:00:00.000   05 Jun 2027 03:00:18.746            18.746          9373.000
        79   05 Jun 2027 03:01:12.807   05 Jun 2027 03:01:47.552            34.745         17372.500
        80   05 Jun 2027 03:04:15.482   05 Jun 2027 03:04:22.927             7.445          3722.500
        81   05 Jun 2027 04:33:52.844   05 Jun 2027 04:33:53.484             0.640           320.000
        82   05 Jun 2027 04:34:18.380   05 Jun 2027 04:36:56.570           158.190         79095.000
        83   05 Jun 2027 06:12:49.007   05 Jun 2027 06:15:10.616           141.609         70582.156
        84   05 Jun 2027 06:16:04.679   05 Jun 2027 06:16:06.456             1.777           640.750
        85   05 Jun 2027 06:16:20.383   05 Jun 2027 06:16:21.317             0.934           435.219
        86   05 Jun 2027 06:17:15.451   05 Jun 2027 06:17:20.609             5.158           786.781
        87   05 Jun 2027 06:17:34.190   05 Jun 2027 06:17:37.794             3.604           424.406
        88   05 Jun 2027 06:18:13.178   05 Jun 2027 06:18:18.455             5.277          1061.063
        89   05 Jun 2027 07:36:59.148   05 Jun 2027 07:37:12.629            13.481          5613.594
        90   05 Jun 2027 07:37:37.532   05 Jun 2027 07:37:41.726             4.194            84.781
        91   05 Jun 2027 07:37:51.764   05 Jun 2027 07:37:52.824             1.060           313.688
        92   05 Jun 2027 07:38:14.039   05 Jun 2027 07:38:17.401             3.362           429.500
        93   05 Jun 2027 07:38:24.044   05 Jun 2027 07:38:25.680             1.636           180.063
        94   05 Jun 2027 07:39:06.031   05 Jun 2027 07:39:09.008             2.977           888.938
        95   05 Jun 2027 07:49:16.153   05 Jun 2027 07:49:21.313             5.160          2451.844
        96   05 Jun 2027 09:11:13.135   05 Jun 2027 09:11:35.513            22.378         10565.000
        97   05 Jun 2027 09:13:16.793   05 Jun 2027 09:13:21.719             4.926          1860.437
        98   05 Jun 2027 09:13:55.601   05 Jun 2027 09:14:06.170            10.569          1055.875
        99   05 Jun 2027 09:14:34.970   05 Jun 2027 09:14:38.823             3.853           572.156
       100   05 Jun 2027 09:16:25.649   05 Jun 2027 09:16:31.644             5.995          2463.031
       101   05 Jun 2027 10:48:00.012   05 Jun 2027 10:48:11.573            11.561          5780.500
       102   05 Jun 2027 10:51:52.011   05 Jun 2027 10:52:08.869            16.858          7763.281
       103   05 Jun 2027 10:54:32.086   05 Jun 2027 10:54:39.370             7.284          2771.344
       104   05 Jun 2027 10:54:52.338   05 Jun 2027 10:54:52.812             0.474           115.594
       105   06 Jun 2027 03:08:59.840   06 Jun 2027 03:09:12.353            12.513          6256.500
       106   06 Jun 2027 03:11:16.457   06 Jun 2027 03:11:29.897            13.440          6720.000
       107   06 Jun 2027 03:11:48.589   06 Jun 2027 03:12:55.965            67.376         33688.000
       108   06 Jun 2027 03:13:13.555   06 Jun 2027 03:13:43.830            30.275         15137.500
       109   06 Jun 2027 03:15:09.074   06 Jun 2027 03:15:54.700            45.626         22813.000
       110   06 Jun 2027 03:16:09.083   06 Jun 2027 03:16:20.018            10.935          5467.500
       111   06 Jun 2027 04:46:37.559   06 Jun 2027 04:47:00.644            23.085         11542.500
       112   06 Jun 2027 04:47:04.133   06 Jun 2027 04:48:18.562            74.429         37214.500
       113   06 Jun 2027 04:48:38.589   06 Jun 2027 04:49:03.470            24.881         12440.500
       114   06 Jun 2027 04:50:03.517   06 Jun 2027 04:50:30.002            26.485         12822.501
       115   06 Jun 2027 04:51:36.540   06 Jun 2027 04:51:39.607             3.067          1367.656
       116   06 Jun 2027 06:25:00.190   06 Jun 2027 06:25:33.262            33.072         13918.094
       117   06 Jun 2027 06:26:12.790   06 Jun 2027 06:26:17.651             4.861           277.438
       118   06 Jun 2027 06:26:56.699   06 Jun 2027 06:26:59.590             2.891          1220.250
       119   06 Jun 2027 06:27:35.944   06 Jun 2027 06:27:41.346             5.402          1121.531
       120   06 Jun 2027 06:28:15.614   06 Jun 2027 06:28:18.501             2.887          1070.875
       121   06 Jun 2027 06:28:59.816   06 Jun 2027 06:29:02.114             2.298          1072.250
       122   06 Jun 2027 06:29:32.126   06 Jun 2027 06:29:34.213             2.087           801.687
       123   06 Jun 2027 06:30:11.291   06 Jun 2027 06:30:14.894             3.603          1063.438
       124   06 Jun 2027 06:31:07.304   06 Jun 2027 06:31:10.732             3.428           852.719
       125   06 Jun 2027 07:49:03.318   06 Jun 2027 07:49:10.856             7.538          3546.562
       126   06 Jun 2027 07:50:19.950   06 Jun 2027 07:50:25.258             5.308          1297.625
       127   06 Jun 2027 09:25:00.529   06 Jun 2027 09:25:14.295            13.766          6191.156
       128   06 Jun 2027 09:25:43.722   06 Jun 2027 09:25:53.677             9.955           267.000
       129   06 Jun 2027 09:26:44.544   06 Jun 2027 09:26:48.022             3.478          1477.813
       130   06 Jun 2027 09:27:54.637   06 Jun 2027 09:27:58.994             4.357          2081.719
       131   06 Jun 2027 09:28:18.406   06 Jun 2027 09:28:18.406             0.000             0.000
       132   06 Jun 2027 09:28:22.023   06 Jun 2027 09:28:23.562             1.539           595.625
       133   06 Jun 2027 11:00:27.904   06 Jun 2027 11:00:39.121            11.217          5162.187
       134   06 Jun 2027 11:03:36.162   06 Jun 2027 11:03:48.296            12.134          5380.469
       135   06 Jun 2027 11:05:08.684   06 Jun 2027 11:05:11.678             2.994           719.688
       136   07 Jun 2027 03:20:59.730   07 Jun 2027 03:21:24.382            24.652         12326.000
       137   07 Jun 2027 03:21:29.348   07 Jun 2027 03:21:29.348             0.000             0.000
       138   07 Jun 2027 03:23:15.704   07 Jun 2027 03:23:49.496            33.792         16896.000
       139   07 Jun 2027 03:25:22.029   07 Jun 2027 03:25:31.982             9.953          4976.500
       140   07 Jun 2027 03:26:19.973   07 Jun 2027 03:28:39.497           139.524         69762.000
       141   07 Jun 2027 05:00:46.973   07 Jun 2027 05:00:51.486             4.513          2256.500
       142   07 Jun 2027 05:00:53.319   07 Jun 2027 05:01:42.643            49.324         24662.000
       143   07 Jun 2027 05:02:05.838   07 Jun 2027 05:03:07.710            61.872         30936.000
       144   07 Jun 2027 05:03:49.866   07 Jun 2027 05:04:01.829            11.963          4762.563
       145   07 Jun 2027 06:37:35.193   07 Jun 2027 06:38:05.373            30.180         14658.969
       146   07 Jun 2027 06:38:30.699   07 Jun 2027 06:38:36.671             5.972            30.781
       147   07 Jun 2027 06:39:41.610   07 Jun 2027 06:39:44.340             2.730           903.906
       148   07 Jun 2027 06:40:36.916   07 Jun 2027 06:40:40.753             3.837           764.375
       149   07 Jun 2027 06:41:21.557   07 Jun 2027 06:41:24.393             2.836          1190.000
       150   07 Jun 2027 08:00:58.243   07 Jun 2027 08:01:14.499            16.256          7718.781
       151   07 Jun 2027 08:02:21.460   07 Jun 2027 08:02:25.463             4.003          1541.312
       152   07 Jun 2027 08:02:55.478   07 Jun 2027 08:02:56.303             0.825           213.594
       153   07 Jun 2027 09:37:18.372   07 Jun 2027 09:37:24.130             5.758          2615.188
       154   07 Jun 2027 09:38:02.179   07 Jun 2027 09:38:03.432             1.253           612.188
       155   07 Jun 2027 09:38:21.436   07 Jun 2027 09:38:23.038             1.602           375.688
       156   07 Jun 2027 09:39:29.943   07 Jun 2027 09:39:32.333             2.390          1029.406
       157   07 Jun 2027 09:40:19.526   07 Jun 2027 09:40:23.584             4.058          1396.656
       158   07 Jun 2027 11:10:48.723   07 Jun 2027 11:10:59.794            11.071          3909.063
       159   07 Jun 2027 11:13:15.625   07 Jun 2027 11:13:16.812             1.187           479.344
       160   07 Jun 2027 11:14:21.479   07 Jun 2027 11:14:27.437             5.958          1715.688
       161   07 Jun 2027 11:15:07.882   07 Jun 2027 11:15:14.323             6.441           826.437
       162   07 Jun 2027 11:16:11.366   07 Jun 2027 11:16:17.088             5.722          1139.531
       163   07 Jun 2027 11:16:46.610   07 Jun 2027 11:16:49.034             2.424           671.156
       164   07 Jun 2027 11:18:32.069   07 Jun 2027 11:18:39.859             7.790          3219.844
       165   07 Jun 2027 11:18:55.141   07 Jun 2027 11:18:56.170             1.029           235.906
       166   08 Jun 2027 03:33:07.826   08 Jun 2027 03:33:17.174             9.348          4674.000
       167   08 Jun 2027 03:33:24.286   08 Jun 2027 03:33:28.616             4.330          2165.000
       168   08 Jun 2027 03:33:38.209   08 Jun 2027 03:33:59.973            21.764         10882.000
       169   08 Jun 2027 03:34:43.393   08 Jun 2027 03:36:25.926           102.533         51266.500
       170   08 Jun 2027 03:36:54.891   08 Jun 2027 03:37:53.163            58.272         29136.000
       171   08 Jun 2027 03:40:17.967   08 Jun 2027 03:40:39.234            21.267         10633.500
       172   08 Jun 2027 05:11:08.803   08 Jun 2027 05:11:09.923             1.120           560.000
       173   08 Jun 2027 05:12:24.736   08 Jun 2027 05:13:17.804            53.068         26534.000
       174   08 Jun 2027 05:13:45.101   08 Jun 2027 05:14:06.399            21.298         10649.000
       175   08 Jun 2027 05:14:42.474   08 Jun 2027 05:15:43.990            61.516         30335.281
       176   08 Jun 2027 05:16:14.546   08 Jun 2027 05:16:16.225             1.679           749.312
       177   08 Jun 2027 05:16:33.868   08 Jun 2027 05:16:43.184             9.316           455.531
       178   08 Jun 2027 06:49:50.027   08 Jun 2027 06:50:20.158            30.131         12901.469
       179   08 Jun 2027 06:52:08.033   08 Jun 2027 06:52:12.956             4.923           960.563
       180   08 Jun 2027 06:53:22.196   08 Jun 2027 06:53:28.251             6.055          1768.156
       181   08 Jun 2027 08:12:49.055   08 Jun 2027 08:13:04.965            15.910          7414.937
       182   08 Jun 2027 08:14:22.756   08 Jun 2027 08:14:31.298             8.542          1855.281
       183   08 Jun 2027 08:14:45.117   08 Jun 2027 08:14:45.117             0.000             0.000
       184   08 Jun 2027 09:49:20.697   08 Jun 2027 09:49:30.635             9.938          4058.156
       185   08 Jun 2027 09:50:39.307   08 Jun 2027 09:50:43.305             3.998          1248.531
       186   08 Jun 2027 09:51:12.485   08 Jun 2027 09:51:14.827             2.342           911.875
       187   08 Jun 2027 09:52:23.181   08 Jun 2027 09:52:27.604             4.423          2062.031
       188   08 Jun 2027 11:23:50.142   08 Jun 2027 11:24:05.174            15.032          4934.625
       189   08 Jun 2027 11:28:32.073   08 Jun 2027 11:28:32.073             0.000             0.000
       190   08 Jun 2027 11:30:18.265   08 Jun 2027 11:30:36.835            18.570          9285.000
       191   08 Jun 2027 11:31:14.562   08 Jun 2027 11:31:14.682             0.120            60.000
       192   09 Jun 2027 03:45:09.637   09 Jun 2027 03:45:52.276            42.639         21319.500
       193   09 Jun 2027 03:46:11.694   09 Jun 2027 03:49:06.509           174.815         87407.500
       194   09 Jun 2027 03:50:00.784   09 Jun 2027 03:50:17.718            16.934          8467.000
       195   09 Jun 2027 03:51:06.677   09 Jun 2027 03:51:08.212             1.535           767.500
       196   09 Jun 2027 05:23:17.719   09 Jun 2027 05:24:19.801            62.082         31041.000
       197   09 Jun 2027 05:24:26.740   09 Jun 2027 05:25:19.067            52.327         25696.938
       198   09 Jun 2027 05:25:24.391   09 Jun 2027 05:25:24.835             0.444            66.688
       199   09 Jun 2027 05:26:23.490   09 Jun 2027 05:26:28.178             4.688          1761.250
       200   09 Jun 2027 05:27:40.928   09 Jun 2027 05:27:45.022             4.094          2001.188
       201   09 Jun 2027 07:01:36.413   09 Jun 2027 07:01:48.382            11.969          5789.437
       202   09 Jun 2027 07:02:42.385   09 Jun 2027 07:02:46.994             4.609          1053.969
       203   09 Jun 2027 07:04:02.406   09 Jun 2027 07:04:04.407             2.001           825.625
       204   09 Jun 2027 07:04:30.780   09 Jun 2027 07:04:32.556             1.776           824.156
       205   09 Jun 2027 07:04:43.484   09 Jun 2027 07:04:44.316             0.832           270.750
       206   09 Jun 2027 07:05:09.382   09 Jun 2027 07:05:11.689             2.307           783.313
       207   09 Jun 2027 08:24:59.393   09 Jun 2027 08:25:10.813            11.420          5614.000
       208   09 Jun 2027 08:26:23.782   09 Jun 2027 08:26:23.782             0.000             0.000
       209   09 Jun 2027 08:27:45.530   09 Jun 2027 08:27:54.666             9.136          3228.063
       210   09 Jun 2027 08:28:01.900   09 Jun 2027 08:28:03.412             1.512           226.063
       211   09 Jun 2027 10:01:30.639   09 Jun 2027 10:01:41.871            11.232          3923.500
       212   09 Jun 2027 10:03:14.003   09 Jun 2027 10:03:18.883             4.880          2322.813
       213   09 Jun 2027 10:04:28.917   09 Jun 2027 10:04:34.239             5.322          1803.312
       214   09 Jun 2027 11:38:21.831   09 Jun 2027 11:38:44.574            22.743         10429.844
       215   09 Jun 2027 11:40:11.844   09 Jun 2027 11:40:15.996             4.152          1123.250
       216   09 Jun 2027 11:40:38.897   09 Jun 2027 11:40:43.600             4.703           205.656
       217   09 Jun 2027 11:40:59.245   09 Jun 2027 11:41:02.349             3.104           311.844
       218   09 Jun 2027 11:41:15.555   09 Jun 2027 11:41:16.888             1.333            57.156
       219   09 Jun 2027 11:42:10.366   09 Jun 2027 11:42:18.024             7.658           984.094
       220   09 Jun 2027 11:42:32.839   09 Jun 2027 11:42:33.910             1.071            85.938
       221   09 Jun 2027 11:42:48.080   09 Jun 2027 11:42:50.258             2.178           326.312
       222   09 Jun 2027 11:43:08.555   09 Jun 2027 11:43:12.280             3.725           523.156
       223   09 Jun 2027 11:43:14.726   09 Jun 2027 11:43:14.952             0.226            76.437
       224   10 Jun 2027 03:57:07.349   10 Jun 2027 04:00:47.132           219.783        109891.500
       225   10 Jun 2027 04:01:01.799   10 Jun 2027 04:01:11.444             9.645          4822.500
       226   10 Jun 2027 04:02:07.794   10 Jun 2027 04:02:08.355             0.561           280.500
       227   10 Jun 2027 04:03:24.314   10 Jun 2027 04:03:27.850             3.536          1768.000
       228   10 Jun 2027 04:03:48.149   10 Jun 2027 04:03:52.298             4.149          2074.500
       229   10 Jun 2027 05:36:24.589   10 Jun 2027 05:38:19.693           115.104         57201.250
       230   10 Jun 2027 05:38:35.981   10 Jun 2027 05:38:36.764             0.783           236.469
       231   10 Jun 2027 05:39:53.744   10 Jun 2027 05:39:57.408             3.664          1419.406
       232   10 Jun 2027 05:40:25.112   10 Jun 2027 05:40:25.770             0.658            80.688
       233   10 Jun 2027 05:40:38.251   10 Jun 2027 05:40:41.365             3.114           390.031
       234   10 Jun 2027 05:43:25.429   10 Jun 2027 05:43:34.277             8.848          4237.719
       235   10 Jun 2027 07:13:33.490   10 Jun 2027 07:13:44.930            11.440          5529.438
       236   10 Jun 2027 07:14:37.764   10 Jun 2027 07:14:41.256             3.492           853.781
       237   10 Jun 2027 07:15:26.739   10 Jun 2027 07:15:28.317             1.578           753.500
       238   10 Jun 2027 07:15:55.652   10 Jun 2027 07:15:57.625             1.973           642.156
       239   10 Jun 2027 07:16:42.920   10 Jun 2027 07:16:44.893             1.973           646.344
       240   10 Jun 2027 07:16:46.539   10 Jun 2027 07:16:47.253             0.714            11.563
       241   10 Jun 2027 08:37:39.550   10 Jun 2027 08:37:58.544            18.994          9105.219
       242   10 Jun 2027 08:38:11.323   10 Jun 2027 08:38:13.252             1.929           142.375
       243   10 Jun 2027 08:39:59.707   10 Jun 2027 08:40:08.403             8.696          2975.875
       244   10 Jun 2027 10:13:24.669   10 Jun 2027 10:13:32.145             7.476          3265.531
       245   10 Jun 2027 10:15:09.132   10 Jun 2027 10:15:15.533             6.401          2179.719
       246   10 Jun 2027 10:15:54.398   10 Jun 2027 10:15:58.041             3.643            30.906
       247   10 Jun 2027 11:51:14.160   10 Jun 2027 11:51:24.321            10.161          5080.500
       248   10 Jun 2027 11:55:00.363   10 Jun 2027 11:55:23.777            23.414         11707.000
       249   11 Jun 2027 04:09:46.164   11 Jun 2027 04:13:06.004           199.840         99920.000
       250   11 Jun 2027 04:13:51.901   11 Jun 2027 04:13:52.955             1.054           527.000
       251   11 Jun 2027 05:48:28.445   11 Jun 2027 05:51:07.465           159.020         77534.687
       252   11 Jun 2027 05:54:31.208   11 Jun 2027 05:54:46.294            15.086          5401.031
       253   11 Jun 2027 07:14:25.067   11 Jun 2027 07:14:42.127            17.060          7624.563
       254   11 Jun 2027 07:25:29.581   11 Jun 2027 07:25:35.563             5.982          2624.813
       255   11 Jun 2027 07:26:35.900   11 Jun 2027 07:26:38.692             2.792           737.875
       256   11 Jun 2027 07:27:47.853   11 Jun 2027 07:27:52.628             4.775           736.219
       257   11 Jun 2027 07:28:33.923   11 Jun 2027 07:28:36.876             2.953           722.219
       258   11 Jun 2027 08:48:27.340   11 Jun 2027 08:48:44.348            17.008          6964.500
       259   11 Jun 2027 08:49:33.641   11 Jun 2027 08:49:35.928             2.287           865.906
       260   11 Jun 2027 08:50:09.255   11 Jun 2027 08:50:12.776             3.521           871.500
       261   11 Jun 2027 08:51:44.558   11 Jun 2027 08:51:51.512             6.954          2493.375
       262   11 Jun 2027 10:23:46.928   11 Jun 2027 10:23:56.181             9.253          4605.812
       263   11 Jun 2027 10:25:58.376   11 Jun 2027 10:26:08.508            10.132          2995.125
       264   11 Jun 2027 10:28:19.418   11 Jun 2027 10:28:25.329             5.911          2583.469
       265   11 Jun 2027 10:28:50.270   11 Jun 2027 10:28:52.629             2.359           259.031
       266   12 Jun 2027 04:21:52.398   12 Jun 2027 04:23:24.793            92.395         46197.500
       267   12 Jun 2027 04:24:26.600   12 Jun 2027 04:24:38.125            11.525          5762.500
       268   12 Jun 2027 06:00:58.088   12 Jun 2027 06:04:08.023           189.935         94967.500
       269   12 Jun 2027 06:04:43.096   12 Jun 2027 06:05:09.638            26.542         13101.968
       270   12 Jun 2027 06:05:39.134   12 Jun 2027 06:05:43.046             3.912           829.313
       271   12 Jun 2027 06:06:20.169   12 Jun 2027 06:06:21.989             1.820           826.125
       272   12 Jun 2027 06:06:27.805   12 Jun 2027 06:06:28.054             0.249           124.500
       273   12 Jun 2027 06:06:37.941   12 Jun 2027 06:06:39.494             1.553           366.219
       274   12 Jun 2027 07:25:49.910   12 Jun 2027 07:26:02.199            12.289          5233.750
       275   12 Jun 2027 07:26:03.401   12 Jun 2027 07:26:06.446             3.045            37.563
       276   12 Jun 2027 07:26:39.755   12 Jun 2027 07:26:43.003             3.248          1040.906
       277   12 Jun 2027 07:37:32.333   12 Jun 2027 07:37:39.706             7.373          3554.156
       278   12 Jun 2027 07:37:52.845   12 Jun 2027 07:37:54.081             1.236            45.469
       279   12 Jun 2027 07:38:33.487   12 Jun 2027 07:38:34.814             1.327           603.594
       280   12 Jun 2027 08:59:45.659   12 Jun 2027 09:00:11.194            25.535         12238.656
       281   12 Jun 2027 09:00:39.946   12 Jun 2027 09:00:43.417             3.471           833.000
       282   12 Jun 2027 09:01:47.451   12 Jun 2027 09:01:51.185             3.734          1186.406
       283   12 Jun 2027 09:02:46.028   12 Jun 2027 09:02:48.337             2.309          1079.281
       284   12 Jun 2027 10:34:51.416   12 Jun 2027 10:35:05.093            13.677          3664.906
       285   12 Jun 2027 10:35:55.750   12 Jun 2027 10:35:57.306             1.556           772.219
       286   12 Jun 2027 10:37:56.515   12 Jun 2027 10:38:04.413             7.898          3703.250
       287   12 Jun 2027 10:39:42.528   12 Jun 2027 10:39:47.718             5.190          1969.781
       288   12 Jun 2027 10:41:22.084   12 Jun 2027 10:41:24.429             2.345          1127.688
       289   12 Jun 2027 10:41:39.652   12 Jun 2027 10:41:39.652             0.000             0.000
       290   13 Jun 2027 03:00:00.000   13 Jun 2027 03:00:08.723             8.723          4361.500
       291   13 Jun 2027 03:00:12.437   13 Jun 2027 03:00:35.916            23.479         11739.500
       292   13 Jun 2027 03:02:50.356   13 Jun 2027 03:02:58.621             8.265          4132.500
       293   13 Jun 2027 03:03:53.645   13 Jun 2027 03:04:14.683            21.038         10519.000
       294   13 Jun 2027 04:34:12.042   13 Jun 2027 04:34:12.837             0.795           397.500
       295   13 Jun 2027 04:34:31.386   13 Jun 2027 04:35:20.998            49.612         24806.000
       296   13 Jun 2027 04:35:23.214   13 Jun 2027 04:36:22.633            59.419         29709.500
       297   13 Jun 2027 04:36:24.984   13 Jun 2027 04:37:17.255            52.271         26135.500
       298   13 Jun 2027 04:37:49.188   13 Jun 2027 04:37:50.136             0.948           474.000
       299   13 Jun 2027 06:12:59.471   13 Jun 2027 06:15:13.966           134.495         66802.563
       300   13 Jun 2027 06:16:19.757   13 Jun 2027 06:16:21.392             1.635           653.781
       301   13 Jun 2027 06:16:37.569   13 Jun 2027 06:16:38.958             1.389           505.531
       302   13 Jun 2027 06:17:31.050   13 Jun 2027 06:17:36.664             5.614           820.125
       303   13 Jun 2027 06:17:57.086   13 Jun 2027 06:17:59.480             2.394           638.187
       304   13 Jun 2027 06:18:28.655   13 Jun 2027 06:18:30.857             2.202           743.031
       305   13 Jun 2027 07:37:18.864   13 Jun 2027 07:37:33.680            14.816          5747.094
       306   13 Jun 2027 07:38:23.452   13 Jun 2027 07:38:25.873             2.421          1112.031
       307   13 Jun 2027 07:39:28.021   13 Jun 2027 07:39:32.733             4.712          1622.062
       308   13 Jun 2027 07:49:34.399   13 Jun 2027 07:49:39.159             4.760          2092.563
       309   13 Jun 2027 09:11:31.160   13 Jun 2027 09:11:52.702            21.542          9972.063
       310   13 Jun 2027 09:13:33.913   13 Jun 2027 09:13:40.067             6.154          1894.375
       311   13 Jun 2027 09:14:13.446   13 Jun 2027 09:14:23.727            10.281          1043.094
       312   13 Jun 2027 09:14:53.087   13 Jun 2027 09:14:56.348             3.261           544.187
       313   13 Jun 2027 09:16:39.713   13 Jun 2027 09:16:48.849             9.136          2409.781
       314   13 Jun 2027 10:47:19.972   13 Jun 2027 10:47:19.972             0.000             0.000
       315   13 Jun 2027 10:48:19.992   13 Jun 2027 10:48:35.501            15.509          7165.625
       316   13 Jun 2027 10:49:53.617   13 Jun 2027 10:50:00.081             6.464          2208.312
       317   13 Jun 2027 10:50:25.410   13 Jun 2027 10:50:25.410             0.000             0.000
       318   13 Jun 2027 10:53:23.145   13 Jun 2027 10:53:35.538            12.393          5909.281
       319   13 Jun 2027 10:53:57.886   13 Jun 2027 10:54:00.568             2.682           480.656
       320   13 Jun 2027 10:54:58.386   13 Jun 2027 10:55:01.134             2.748           633.531
       321   13 Jun 2027 10:55:08.595   13 Jun 2027 10:55:10.142             1.547            73.063
