uniorb/output/strategy_4/Camera/Camera_KinoSat_111704.txt

KinoSat_111704
-------------------------
    Access    *     Start Time (UTCG)     *     Stop Time (UTCG)  *   Duration (s) *   Data (Mbytes)
         1   01 Jun 2027 03:19:01.874   01 Jun 2027 03:19:28.450            26.576         13288.000
         2   01 Jun 2027 03:19:33.421   01 Jun 2027 03:20:08.044            34.623         17311.500
         3   01 Jun 2027 03:20:11.772   01 Jun 2027 03:21:13.979            62.207         31103.500
         4   01 Jun 2027 03:22:12.552   01 Jun 2027 03:22:30.968            18.416          9208.000
         5   01 Jun 2027 03:22:55.391   01 Jun 2027 03:23:03.785             8.394          4197.000
         6   01 Jun 2027 03:24:51.034   01 Jun 2027 03:24:58.820             7.786          3893.000
         7   01 Jun 2027 04:57:48.420   01 Jun 2027 04:59:10.582            82.162         41081.000
         8   01 Jun 2027 05:01:04.088   01 Jun 2027 05:01:04.088             0.000             0.000
         9   01 Jun 2027 05:01:08.715   01 Jun 2027 05:01:30.918            22.203         11101.500
        10   01 Jun 2027 05:01:43.948   01 Jun 2027 05:01:52.438             8.490          4245.000
        11   01 Jun 2027 05:04:46.520   01 Jun 2027 05:04:49.093             2.573          1286.500
        12   01 Jun 2027 06:22:09.315   01 Jun 2027 06:22:48.587            39.272         19636.000
        13   01 Jun 2027 06:23:45.434   01 Jun 2027 06:24:14.210            28.776         14388.000
        14   01 Jun 2027 06:34:25.760   01 Jun 2027 06:34:53.440            27.680         13840.000
        15   01 Jun 2027 07:56:15.861   01 Jun 2027 07:57:29.203            73.342         36671.000
        16   01 Jun 2027 07:58:19.033   01 Jun 2027 07:59:24.178            65.145         32572.500
        17   01 Jun 2027 08:01:20.342   01 Jun 2027 08:01:20.342             0.000             0.000
        18   01 Jun 2027 09:31:03.293   01 Jun 2027 09:32:25.022            81.729         40864.500
        19   01 Jun 2027 09:33:04.569   01 Jun 2027 09:33:08.933             4.364          2182.000
        20   01 Jun 2027 09:38:37.476   01 Jun 2027 09:38:49.340            11.864          5932.000
        21   01 Jun 2027 09:39:59.763   01 Jun 2027 09:40:01.319             1.556           778.000
        22   01 Jun 2027 11:08:55.525   01 Jun 2027 11:11:54.896           179.371         89685.500
        23   01 Jun 2027 11:14:52.412   01 Jun 2027 11:14:55.497             3.085          1542.500
        24   01 Jun 2027 11:15:57.395   01 Jun 2027 11:16:21.063            23.668         11834.000
        25   02 Jun 2027 03:31:44.592   02 Jun 2027 03:32:00.808            16.216          8108.000
        26   02 Jun 2027 03:32:08.814   02 Jun 2027 03:33:21.231            72.417         36208.500
        27   02 Jun 2027 03:33:49.043   02 Jun 2027 03:35:06.404            77.361         38680.500
        28   02 Jun 2027 05:10:12.902   02 Jun 2027 05:13:45.028           212.126        106063.000
        29   02 Jun 2027 05:13:58.216   02 Jun 2027 05:15:19.848            81.632         40816.000
        30   02 Jun 2027 06:34:07.225   02 Jun 2027 06:34:32.329            25.104         12552.000
        31   02 Jun 2027 08:10:04.943   02 Jun 2027 08:13:11.137           186.194         93097.000
        32   02 Jun 2027 09:43:53.424   02 Jun 2027 09:44:58.651            65.227         31138.187
        33   02 Jun 2027 09:45:25.558   02 Jun 2027 09:45:29.081             3.523           840.844
        34   02 Jun 2027 09:46:04.807   02 Jun 2027 09:46:06.168             1.361           400.937
        35   02 Jun 2027 09:48:32.173   02 Jun 2027 09:48:43.028            10.855          4562.656
        36   02 Jun 2027 09:49:51.318   02 Jun 2027 09:49:55.904             4.586          2039.625
        37   02 Jun 2027 09:51:01.740   02 Jun 2027 09:51:09.759             8.019          1442.563
        38   02 Jun 2027 09:51:58.413   02 Jun 2027 09:52:03.883             5.470          1412.594
        39   02 Jun 2027 09:52:05.015   02 Jun 2027 09:52:05.741             0.726            35.375
        40   02 Jun 2027 11:21:02.783   02 Jun 2027 11:21:20.505            17.722          5770.281
        41   02 Jun 2027 11:26:11.165   02 Jun 2027 11:26:26.562            15.397          7591.188
        42   02 Jun 2027 11:27:22.847   02 Jun 2027 11:27:26.029             3.182           666.625
        43   02 Jun 2027 11:27:50.248   02 Jun 2027 11:27:53.463             3.215           663.156
        44   02 Jun 2027 11:28:20.706   02 Jun 2027 11:28:21.054             0.348           174.000
        45   03 Jun 2027 03:44:37.290   03 Jun 2027 03:44:38.940             1.650           825.000
        46   03 Jun 2027 03:46:19.139   03 Jun 2027 03:49:05.157           166.018         83009.000
        47   03 Jun 2027 03:49:38.772   03 Jun 2027 03:49:43.896             5.124          2562.000
        48   03 Jun 2027 03:50:00.506   03 Jun 2027 03:50:23.563            23.057         11528.500
        49   03 Jun 2027 05:22:36.700   03 Jun 2027 05:24:29.323           112.623         55179.500
        50   03 Jun 2027 05:25:16.523   03 Jun 2027 05:25:21.698             5.175          1475.000
        51   03 Jun 2027 06:45:59.916   03 Jun 2027 06:46:13.727            13.811          5294.531
        52   03 Jun 2027 06:47:17.383   03 Jun 2027 06:47:21.388             4.005          1613.969
        53   03 Jun 2027 06:47:39.077   03 Jun 2027 06:47:47.282             8.205           256.875
        54   03 Jun 2027 06:48:25.190   03 Jun 2027 06:48:27.638             2.448          1053.750
        55   03 Jun 2027 08:22:22.286   03 Jun 2027 08:22:40.325            18.039          8758.563
        56   03 Jun 2027 08:22:54.504   03 Jun 2027 08:22:55.838             1.334           117.750
        57   03 Jun 2027 08:23:04.785   03 Jun 2027 08:23:06.299             1.514           230.187
        58   03 Jun 2027 08:23:58.025   03 Jun 2027 08:24:05.296             7.271          1586.687
        59   03 Jun 2027 08:24:27.013   03 Jun 2027 08:24:28.773             1.760           334.250
        60   03 Jun 2027 08:25:25.320   03 Jun 2027 08:25:25.320             0.000             0.000
        61   03 Jun 2027 09:56:16.033   03 Jun 2027 09:56:22.592             6.559          3126.969
        62   03 Jun 2027 09:58:55.376   03 Jun 2027 09:59:08.965            13.589          1051.656
        63   03 Jun 2027 10:00:44.991   03 Jun 2027 10:00:50.099             5.108          2479.219
        64   03 Jun 2027 10:01:52.281   03 Jun 2027 10:01:55.846             3.565          1656.094
        65   03 Jun 2027 10:02:48.556   03 Jun 2027 10:02:56.661             8.105           875.000
        66   03 Jun 2027 10:04:05.324   03 Jun 2027 10:04:13.769             8.445          2145.719
        67   03 Jun 2027 10:04:19.400   03 Jun 2027 10:04:22.546             3.146           175.969
        68   03 Jun 2027 11:33:29.049   03 Jun 2027 11:33:39.933            10.884          5197.844
        69   03 Jun 2027 11:35:31.852   03 Jun 2027 11:35:34.239             2.387          1098.219
        70   03 Jun 2027 11:36:55.324   03 Jun 2027 11:36:58.651             3.327           567.750
        71   03 Jun 2027 11:38:10.981   03 Jun 2027 11:38:17.765             6.784          1935.219
        72   03 Jun 2027 11:39:04.475   03 Jun 2027 11:39:12.893             8.418          1234.250
        73   03 Jun 2027 11:39:15.933   03 Jun 2027 11:39:19.385             3.452            95.000
        74   03 Jun 2027 11:39:34.523   03 Jun 2027 11:39:36.396             1.873           424.938
        75   03 Jun 2027 11:39:53.392   03 Jun 2027 11:39:56.489             3.097           531.125
        76   04 Jun 2027 03:56:36.635   04 Jun 2027 03:57:28.820            52.185         26092.500
        77   04 Jun 2027 03:57:34.664   04 Jun 2027 03:59:10.838            96.174         48087.000
        78   04 Jun 2027 03:59:16.354   04 Jun 2027 03:59:45.611            29.257         14628.500
        79   04 Jun 2027 04:00:24.515   04 Jun 2027 04:00:49.868            25.353         12676.500
        80   04 Jun 2027 04:01:37.101   04 Jun 2027 04:01:45.417             8.316          4158.000
        81   04 Jun 2027 04:01:59.163   04 Jun 2027 04:02:30.736            31.573         15786.500
        82   04 Jun 2027 05:34:55.885   04 Jun 2027 05:36:12.229            76.344         38172.000
        83   04 Jun 2027 05:36:29.967   04 Jun 2027 05:36:34.523             4.556          2278.000
        84   04 Jun 2027 05:37:21.579   04 Jun 2027 05:37:26.705             5.126          2341.656
        85   04 Jun 2027 06:57:49.578   04 Jun 2027 06:57:59.687            10.109          4954.375
        86   04 Jun 2027 06:59:18.514   04 Jun 2027 06:59:24.597             6.083          2411.812
        87   04 Jun 2027 07:00:01.590   04 Jun 2027 07:00:03.288             1.698           849.000
        88   04 Jun 2027 08:34:25.813   04 Jun 2027 08:34:33.465             7.652          3074.938
        89   04 Jun 2027 08:35:15.193   04 Jun 2027 08:35:17.738             2.545           678.375
        90   04 Jun 2027 08:35:19.670   04 Jun 2027 08:35:23.028             3.358            60.375
        91   04 Jun 2027 08:36:08.930   04 Jun 2027 08:36:08.930             0.000             0.000
        92   04 Jun 2027 08:37:11.115   04 Jun 2027 08:37:20.553             9.438          3272.281
        93   04 Jun 2027 10:09:33.618   04 Jun 2027 10:09:43.363             9.745          4473.688
        94   04 Jun 2027 10:10:35.719   04 Jun 2027 10:10:42.593             6.874           686.187
        95   04 Jun 2027 10:11:33.367   04 Jun 2027 10:11:37.721             4.354          1586.687
        96   04 Jun 2027 10:12:43.077   04 Jun 2027 10:12:43.077             0.000             0.000
        97   04 Jun 2027 10:13:22.736   04 Jun 2027 10:13:26.450             3.714          1796.719
        98   04 Jun 2027 10:13:43.236   04 Jun 2027 10:13:47.228             3.992           288.813
        99   04 Jun 2027 10:14:27.245   04 Jun 2027 10:14:28.232             0.987            77.969
       100   04 Jun 2027 10:15:31.568   04 Jun 2027 10:15:35.730             4.162          1545.562
       101   04 Jun 2027 10:15:57.097   04 Jun 2027 10:15:59.868             2.771           637.875
       102   04 Jun 2027 10:16:14.972   04 Jun 2027 10:16:17.660             2.688           472.000
       103   04 Jun 2027 11:45:53.949   04 Jun 2027 11:46:08.646            14.697          6247.344
       104   04 Jun 2027 11:47:49.840   04 Jun 2027 11:47:54.105             4.265           440.500
       105   04 Jun 2027 11:48:15.677   04 Jun 2027 11:48:16.904             1.227           580.969
       106   04 Jun 2027 11:49:12.830   04 Jun 2027 11:49:16.029             3.199          1018.094
       107   04 Jun 2027 11:49:37.943   04 Jun 2027 11:49:43.874             5.931           188.219
       108   04 Jun 2027 11:49:48.053   04 Jun 2027 11:49:48.691             0.638            57.875
       109   04 Jun 2027 11:50:20.550   04 Jun 2027 11:50:22.363             1.813           720.406
       110   04 Jun 2027 11:51:07.034   04 Jun 2027 11:51:20.339            13.305           912.500
       111   05 Jun 2027 04:08:23.148   05 Jun 2027 04:09:23.295            60.147         30073.500
       112   05 Jun 2027 04:09:30.695   05 Jun 2027 04:11:21.883           111.188         55594.000
       113   05 Jun 2027 04:11:58.133   05 Jun 2027 04:12:12.969            14.836          7418.000
       114   05 Jun 2027 04:12:59.984   05 Jun 2027 04:13:12.222            12.238          6119.000
       115   05 Jun 2027 04:13:42.087   05 Jun 2027 04:14:02.050            19.963          9981.500
       116   05 Jun 2027 05:46:40.272   05 Jun 2027 05:47:15.106            34.834         17417.000
       117   05 Jun 2027 05:47:28.927   05 Jun 2027 05:48:39.763            70.836         35146.062
       118   05 Jun 2027 05:49:24.763   05 Jun 2027 05:49:27.511             2.748          1307.469
       119   05 Jun 2027 07:10:02.578   05 Jun 2027 07:10:17.718            15.140          6704.781
       120   05 Jun 2027 07:10:55.112   05 Jun 2027 07:10:57.536             2.424           663.719
       121   05 Jun 2027 07:11:30.103   05 Jun 2027 07:11:35.685             5.582           934.094
       122   05 Jun 2027 07:12:40.329   05 Jun 2027 07:12:41.477             1.148           574.000
       123   05 Jun 2027 07:13:01.864   05 Jun 2027 07:13:12.292            10.428          1870.250
       124   05 Jun 2027 08:46:37.093   05 Jun 2027 08:46:44.802             7.709          2341.250
       125   05 Jun 2027 08:47:43.298   05 Jun 2027 08:47:43.298             0.000             0.000
       126   05 Jun 2027 08:47:50.978   05 Jun 2027 08:47:54.528             3.550          1775.000
       127   05 Jun 2027 08:49:10.232   05 Jun 2027 08:49:16.065             5.833          2560.875
       128   05 Jun 2027 08:49:36.393   05 Jun 2027 08:49:39.265             2.872           268.344
       129   05 Jun 2027 10:21:46.474   05 Jun 2027 10:21:59.001            12.527          4817.844
       130   05 Jun 2027 10:23:06.815   05 Jun 2027 10:23:12.068             5.253          1994.625
       131   05 Jun 2027 10:23:43.857   05 Jun 2027 10:23:46.825             2.968           750.687
       132   05 Jun 2027 10:25:22.329   05 Jun 2027 10:25:27.745             5.416          1892.656
       133   05 Jun 2027 10:25:59.160   05 Jun 2027 10:26:00.747             1.587           438.875
       134   05 Jun 2027 10:26:09.582   05 Jun 2027 10:26:11.535             1.953           261.688
       135   05 Jun 2027 10:26:55.955   05 Jun 2027 10:26:57.881             1.926           868.188
       136   05 Jun 2027 10:28:21.579   05 Jun 2027 10:28:22.690             1.111           555.500
       137   05 Jun 2027 11:58:07.836   05 Jun 2027 11:58:31.620            23.784          5837.031
       138   05 Jun 2027 11:59:45.316   05 Jun 2027 11:59:47.671             2.355          1140.063
       139   06 Jun 2027 04:21:29.720   06 Jun 2027 04:23:40.008           130.288         65144.000
       140   06 Jun 2027 04:24:51.557   06 Jun 2027 04:25:12.485            20.928         10464.000
       141   06 Jun 2027 04:25:57.696   06 Jun 2027 04:26:00.094             2.398          1199.000
       142   06 Jun 2027 04:28:08.059   06 Jun 2027 04:28:31.999            23.940         11970.000
       143   06 Jun 2027 05:58:36.989   06 Jun 2027 05:59:29.131            52.142         26071.000
       144   06 Jun 2027 05:59:34.750   06 Jun 2027 06:00:17.761            43.011         21505.500
       145   06 Jun 2027 06:01:14.531   06 Jun 2027 06:01:31.360            16.829          8414.500
       146   06 Jun 2027 06:02:02.870   06 Jun 2027 06:02:12.987            10.117          5058.500
       147   06 Jun 2027 07:22:32.956   06 Jun 2027 07:22:54.596            21.640         10280.188
       148   06 Jun 2027 07:23:29.138   06 Jun 2027 07:23:33.824             4.686           825.000
       149   06 Jun 2027 07:25:10.944   06 Jun 2027 07:25:17.023             6.079          2419.563
       150   06 Jun 2027 08:58:26.556   06 Jun 2027 08:58:38.424            11.868          2398.062
       151   06 Jun 2027 09:00:18.739   06 Jun 2027 09:00:29.696            10.957          3080.344
       152   06 Jun 2027 09:00:40.245   06 Jun 2027 09:00:42.585             2.340           246.187
       153   06 Jun 2027 09:01:08.577   06 Jun 2027 09:01:08.577             0.000             0.000
       154   06 Jun 2027 09:01:46.645   06 Jun 2027 09:01:51.920             5.275          2001.875
       155   06 Jun 2027 10:33:19.792   06 Jun 2027 10:33:36.695            16.903          2016.687
       156   06 Jun 2027 10:35:35.065   06 Jun 2027 10:35:42.887             7.822          3339.844
       157   06 Jun 2027 10:36:12.467   06 Jun 2027 10:36:13.466             0.999           474.625
       158   06 Jun 2027 10:36:35.890   06 Jun 2027 10:36:35.890             0.000             0.000
       159   06 Jun 2027 10:38:42.504   06 Jun 2027 10:38:52.132             9.628          4510.313
       160   06 Jun 2027 10:39:50.043   06 Jun 2027 10:39:54.448             4.405          1548.469
       161   06 Jun 2027 10:40:27.396   06 Jun 2027 10:40:31.069             3.673           950.750
       162   07 Jun 2027 03:00:00.000   07 Jun 2027 03:00:06.337             6.337          3168.500
       163   07 Jun 2027 03:00:36.743   07 Jun 2027 03:01:03.257            26.514         13257.000
       164   07 Jun 2027 04:33:34.108   07 Jun 2027 04:35:44.282           130.174         65087.000
       165   07 Jun 2027 04:36:31.364   07 Jun 2027 04:37:05.762            34.398         17199.000
       166   07 Jun 2027 04:38:47.322   07 Jun 2027 04:39:14.941            27.619         13809.500
       167   07 Jun 2027 04:39:31.532   07 Jun 2027 04:39:54.069            22.537         11268.500
       168   07 Jun 2027 04:40:03.921   07 Jun 2027 04:41:07.156            63.235         31617.500
       169   07 Jun 2027 05:59:36.732   07 Jun 2027 06:00:03.578            26.846         13423.000
       170   07 Jun 2027 06:10:34.153   07 Jun 2027 06:11:14.375            40.222         16283.000
       171   07 Jun 2027 07:33:09.546   07 Jun 2027 07:33:22.360            12.814          5963.781
       172   07 Jun 2027 07:35:20.014   07 Jun 2027 07:35:25.245             5.231          2081.656
       173   07 Jun 2027 07:36:40.506   07 Jun 2027 07:36:48.367             7.861          2183.969
       174   07 Jun 2027 07:37:31.997   07 Jun 2027 07:37:36.194             4.197           911.906
       175   07 Jun 2027 09:08:42.380   07 Jun 2027 09:08:48.019             5.639          2558.469
       176   07 Jun 2027 09:10:29.210   07 Jun 2027 09:10:33.565             4.355          2042.937
       177   07 Jun 2027 09:11:38.204   07 Jun 2027 09:11:44.189             5.985          1392.656
       178   07 Jun 2027 09:13:02.857   07 Jun 2027 09:13:13.227            10.370          2458.375
       179   07 Jun 2027 09:13:58.449   07 Jun 2027 09:14:05.769             7.320          1254.688
       180   07 Jun 2027 09:14:34.427   07 Jun 2027 09:14:37.480             3.053           205.375
       181   07 Jun 2027 10:44:59.711   07 Jun 2027 10:45:11.578            11.867          3624.688
       182   07 Jun 2027 10:45:48.378   07 Jun 2027 10:45:48.378             0.000             0.000
       183   07 Jun 2027 10:48:07.852   07 Jun 2027 10:48:18.331            10.479          5025.375
       184   07 Jun 2027 10:48:34.886   07 Jun 2027 10:48:38.429             3.543           507.969
       185   07 Jun 2027 10:48:55.583   07 Jun 2027 10:48:57.529             1.946           353.250
       186   07 Jun 2027 10:51:49.653   07 Jun 2027 10:52:07.614            17.961          4730.094
       187   08 Jun 2027 03:06:59.323   08 Jun 2027 03:07:58.425            59.102         29551.000
       188   08 Jun 2027 03:08:21.837   08 Jun 2027 03:08:21.837             0.000             0.000
       189   08 Jun 2027 03:09:43.595   08 Jun 2027 03:09:50.706             7.111          3555.500
       190   08 Jun 2027 03:11:02.613   08 Jun 2027 03:11:16.994            14.381          7190.500
       191   08 Jun 2027 03:11:32.901   08 Jun 2027 03:11:46.042            13.141          6570.500
       192   08 Jun 2027 03:11:59.538   08 Jun 2027 03:11:59.827             0.289           144.500
       193   08 Jun 2027 04:46:04.268   08 Jun 2027 04:48:51.635           167.367         83683.500
       194   08 Jun 2027 04:49:52.654   08 Jun 2027 04:50:30.017            37.363         18110.094
       195   08 Jun 2027 04:51:01.353   08 Jun 2027 04:51:02.906             1.553           374.156
       196   08 Jun 2027 04:51:25.191   08 Jun 2027 04:51:26.931             1.740           443.375
       197   08 Jun 2027 04:51:52.584   08 Jun 2027 04:51:55.109             2.525            73.563
       198   08 Jun 2027 04:53:08.757   08 Jun 2027 04:53:11.777             3.020          1510.000
       199   08 Jun 2027 06:10:53.804   08 Jun 2027 06:11:12.062            18.258          7944.781
       200   08 Jun 2027 06:22:34.157   08 Jun 2027 06:22:42.884             8.727          2673.875
       201   08 Jun 2027 07:44:52.947   08 Jun 2027 07:45:05.604            12.657          5492.750
       202   08 Jun 2027 07:46:49.821   08 Jun 2027 07:46:51.827             2.006           888.438
       203   08 Jun 2027 07:47:34.616   08 Jun 2027 07:47:36.322             1.706           615.594
       204   08 Jun 2027 07:48:21.941   08 Jun 2027 07:48:27.111             5.170           788.250
       205   08 Jun 2027 07:49:05.780   08 Jun 2027 07:49:12.687             6.907           815.313
       206   08 Jun 2027 07:49:44.399   08 Jun 2027 07:49:49.932             5.533           991.000
       207   08 Jun 2027 09:19:50.701   08 Jun 2027 09:19:57.894             7.193          3084.281
       208   08 Jun 2027 09:22:33.666   08 Jun 2027 09:22:40.517             6.851          1119.187
       209   08 Jun 2027 09:23:27.796   08 Jun 2027 09:23:30.927             3.131          1131.469
       210   08 Jun 2027 09:25:03.596   08 Jun 2027 09:25:11.234             7.638          2737.750
       211   08 Jun 2027 09:26:15.306   08 Jun 2027 09:26:15.306             0.000             0.000
       212   08 Jun 2027 09:27:07.766   08 Jun 2027 09:27:09.766             2.000          1000.000
       213   08 Jun 2027 09:27:49.658   08 Jun 2027 09:27:58.290             8.632          2455.031
       214   08 Jun 2027 11:00:22.085   08 Jun 2027 11:00:22.085             0.000             0.000
       215   08 Jun 2027 11:00:33.632   08 Jun 2027 11:00:54.357            20.725         10057.344
       216   08 Jun 2027 11:01:42.993   08 Jun 2027 11:01:45.936             2.943           289.906
       217   08 Jun 2027 11:02:33.621   08 Jun 2027 11:02:35.990             2.369           934.750
       218   08 Jun 2027 11:03:43.134   08 Jun 2027 11:03:49.130             5.996          2045.875
       219   08 Jun 2027 11:04:30.592   08 Jun 2027 11:04:34.568             3.976           662.719
       220   09 Jun 2027 03:19:19.499   09 Jun 2027 03:19:46.028            26.529         13264.500
       221   09 Jun 2027 03:19:53.001   09 Jun 2027 03:20:25.011            32.010         16005.000
       222   09 Jun 2027 03:20:29.036   09 Jun 2027 03:21:23.006            53.970         26985.000
       223   09 Jun 2027 03:21:24.883   09 Jun 2027 03:22:25.616            60.733         30366.500
       224   09 Jun 2027 03:23:39.475   09 Jun 2027 03:24:05.835            26.360         13180.000
       225   09 Jun 2027 03:25:10.024   09 Jun 2027 03:25:17.308             7.284          3642.000
       226   09 Jun 2027 04:58:06.663   09 Jun 2027 04:59:48.612           101.949         50723.469
       227   09 Jun 2027 05:00:29.082   09 Jun 2027 05:00:33.428             4.346          1019.219
       228   09 Jun 2027 05:00:58.917   09 Jun 2027 05:01:01.382             2.465           796.531
       229   09 Jun 2027 05:01:46.892   09 Jun 2027 05:01:48.958             2.066           740.500
       230   09 Jun 2027 05:04:50.057   09 Jun 2027 05:04:51.898             1.841           619.406
       231   09 Jun 2027 06:22:27.134   09 Jun 2027 06:22:39.334            12.200          5362.938
       232   09 Jun 2027 06:24:15.835   09 Jun 2027 06:24:21.311             5.476          2649.187
       233   09 Jun 2027 06:34:42.777   09 Jun 2027 06:34:48.821             6.044          2632.469
       234   09 Jun 2027 07:56:26.541   09 Jun 2027 07:56:37.033            10.492          4872.000
       235   09 Jun 2027 07:57:14.309   09 Jun 2027 07:57:16.579             2.270           478.938
       236   09 Jun 2027 07:58:34.726   09 Jun 2027 07:58:37.905             3.179           521.969
       237   09 Jun 2027 07:59:18.604   09 Jun 2027 07:59:22.735             4.131           945.156
       238   09 Jun 2027 08:00:38.123   09 Jun 2027 08:00:42.765             4.642          1777.781
       239   09 Jun 2027 08:00:55.345   09 Jun 2027 08:01:00.949             5.604           357.156
       240   09 Jun 2027 08:01:35.045   09 Jun 2027 08:01:38.608             3.563           826.562
       241   09 Jun 2027 09:31:18.723   09 Jun 2027 09:31:26.210             7.487          3516.563
       242   09 Jun 2027 09:33:19.614   09 Jun 2027 09:33:20.525             0.911           131.687
       243   09 Jun 2027 09:34:48.497   09 Jun 2027 09:34:51.814             3.317          1227.813
       244   09 Jun 2027 09:35:36.190   09 Jun 2027 09:35:39.314             3.124          1004.594
       245   09 Jun 2027 09:37:35.033   09 Jun 2027 09:37:40.780             5.747           999.156
       246   09 Jun 2027 09:38:53.226   09 Jun 2027 09:38:53.226             0.000             0.000
       247   09 Jun 2027 09:39:07.139   09 Jun 2027 09:39:18.517            11.378          2687.500
       248   09 Jun 2027 09:39:42.561   09 Jun 2027 09:39:48.785             6.224           454.438
       249   09 Jun 2027 09:40:06.277   09 Jun 2027 09:40:11.570             5.293           312.719
       250   09 Jun 2027 11:09:12.550   09 Jun 2027 11:09:35.485            22.935          4661.875
       251   09 Jun 2027 11:11:24.781   09 Jun 2027 11:11:28.517             3.736          1044.469
       252   09 Jun 2027 11:12:10.044   09 Jun 2027 11:12:11.275             1.231           615.500
       253   09 Jun 2027 11:13:30.508   09 Jun 2027 11:13:40.123             9.615          2932.719
       254   09 Jun 2027 11:14:33.647   09 Jun 2027 11:14:36.174             2.527           628.281
       255   09 Jun 2027 11:15:07.181   09 Jun 2027 11:15:12.694             5.513           926.687
       256   09 Jun 2027 11:15:32.464   09 Jun 2027 11:15:34.125             1.661           617.813
       257   09 Jun 2027 11:15:43.673   09 Jun 2027 11:15:44.398             0.725            19.875
       258   09 Jun 2027 11:16:11.328   09 Jun 2027 11:16:13.596             2.268           723.531
       259   10 Jun 2027 03:32:02.409   10 Jun 2027 03:32:16.499            14.090          7045.000
       260   10 Jun 2027 03:32:25.960   10 Jun 2027 03:33:34.844            68.884         34442.000
       261   10 Jun 2027 03:34:12.945   10 Jun 2027 03:36:06.266           113.321         56660.500
       262   10 Jun 2027 03:36:35.477   10 Jun 2027 03:36:39.534             4.057          2028.500
       263   10 Jun 2027 05:10:32.549   10 Jun 2027 05:12:08.029            95.480         46017.031
       264   10 Jun 2027 05:12:37.726   10 Jun 2027 05:12:39.120             1.394           557.250
       265   10 Jun 2027 05:13:40.194   10 Jun 2027 05:13:47.551             7.357           427.062
       266   10 Jun 2027 05:14:52.864   10 Jun 2027 05:14:55.947             3.083          1356.000
       267   10 Jun 2027 05:15:21.907   10 Jun 2027 05:15:26.682             4.775           457.969
       268   10 Jun 2027 06:34:23.391   10 Jun 2027 06:34:38.324            14.933          6315.000
       269   10 Jun 2027 06:35:27.316   10 Jun 2027 06:35:30.713             3.397          1242.750
       270   10 Jun 2027 06:36:28.084   10 Jun 2027 06:36:31.942             3.858          1721.344
       271   10 Jun 2027 08:10:24.087   10 Jun 2027 08:10:36.285            12.198          5364.375
       272   10 Jun 2027 08:10:49.151   10 Jun 2027 08:10:49.854             0.703           193.938
       273   10 Jun 2027 08:11:16.808   10 Jun 2027 08:11:18.527             1.719           374.750
       274   10 Jun 2027 08:12:35.651   10 Jun 2027 08:12:39.157             3.506          1408.844
       275   10 Jun 2027 08:13:11.221   10 Jun 2027 08:13:13.881             2.660           974.813
       276   10 Jun 2027 08:13:40.836   10 Jun 2027 08:13:47.199             6.363           842.344
       277   10 Jun 2027 09:44:11.708   10 Jun 2027 09:44:19.440             7.732          3408.531
       278   10 Jun 2027 09:46:11.284   10 Jun 2027 09:46:14.852             3.568           837.031
       279   10 Jun 2027 09:46:25.047   10 Jun 2027 09:46:27.172             2.125            47.156
       280   10 Jun 2027 09:46:44.159   10 Jun 2027 09:46:50.898             6.739           499.625
       281   10 Jun 2027 09:49:03.415   10 Jun 2027 09:49:16.399            12.984          2641.250
       282   10 Jun 2027 09:50:54.890   10 Jun 2027 09:50:57.773             2.883          1441.500
       283   10 Jun 2027 09:51:48.539   10 Jun 2027 09:51:54.719             6.180          1634.219
       284   10 Jun 2027 09:52:18.881   10 Jun 2027 09:52:20.005             1.124           553.531
       285   10 Jun 2027 09:52:41.118   10 Jun 2027 09:52:42.568             1.450           646.438
       286   10 Jun 2027 11:21:20.651   10 Jun 2027 11:21:35.923            15.272          6295.656
       287   10 Jun 2027 11:22:17.864   10 Jun 2027 11:22:19.281             1.417           679.438
       288   10 Jun 2027 11:25:24.378   10 Jun 2027 11:25:35.341            10.963          5356.906
       289   10 Jun 2027 11:26:04.588   10 Jun 2027 11:26:04.901             0.313            24.031
       290   10 Jun 2027 11:26:32.634   10 Jun 2027 11:26:33.715             1.081           329.438
       291   10 Jun 2027 11:27:54.963   10 Jun 2027 11:27:58.486             3.523          1148.437
       292   11 Jun 2027 03:44:45.568   11 Jun 2027 03:44:53.806             8.238          4119.000
       293   11 Jun 2027 03:46:34.280   11 Jun 2027 03:49:25.866           171.586         85793.000
       294   11 Jun 2027 03:50:15.125   11 Jun 2027 03:50:45.385            30.260         15130.000
       295   11 Jun 2027 05:22:53.654   11 Jun 2027 05:24:28.829            95.175         45277.125
       296   11 Jun 2027 05:25:30.981   11 Jun 2027 05:25:34.635             3.654          1707.719
       297   11 Jun 2027 05:26:20.837   11 Jun 2027 05:26:23.991             3.154          1270.563
       298   11 Jun 2027 05:27:02.574   11 Jun 2027 05:27:03.839             1.265           383.906
       299   11 Jun 2027 06:46:16.606   11 Jun 2027 06:46:29.134            12.528          5423.812
       300   11 Jun 2027 06:47:34.333   11 Jun 2027 06:47:38.208             3.875          1670.250
       301   11 Jun 2027 06:47:55.245   11 Jun 2027 06:48:01.895             6.650           268.187
       302   11 Jun 2027 06:48:20.038   11 Jun 2027 06:48:22.028             1.990           365.500
       303   11 Jun 2027 06:48:37.769   11 Jun 2027 06:48:42.596             4.827           245.844
       304   11 Jun 2027 08:22:37.747   11 Jun 2027 08:22:55.517            17.770          7748.437
       305   11 Jun 2027 08:23:11.434   11 Jun 2027 08:23:12.017             0.583           108.750
       306   11 Jun 2027 08:23:21.277   11 Jun 2027 08:23:22.143             0.866           226.250
       307   11 Jun 2027 08:24:16.861   11 Jun 2027 08:24:21.043             4.182          1655.188
       308   11 Jun 2027 08:24:32.085   11 Jun 2027 08:24:33.273             1.188           165.219
       309   11 Jun 2027 08:25:13.636   11 Jun 2027 08:25:24.200            10.564          1019.125
       310   11 Jun 2027 09:56:37.456   11 Jun 2027 09:56:44.757             7.301          2299.438
       311   11 Jun 2027 09:58:17.287   11 Jun 2027 09:58:21.907             4.620          1886.469
       312   11 Jun 2027 09:58:41.020   11 Jun 2027 09:58:43.908             2.888            91.344
       313   11 Jun 2027 09:59:44.173   11 Jun 2027 09:59:47.746             3.573           894.062
       314   11 Jun 2027 10:01:15.356   11 Jun 2027 10:01:20.416             5.060           707.156
       315   11 Jun 2027 10:02:59.140   11 Jun 2027 10:02:59.140             0.000             0.000
       316   11 Jun 2027 10:03:20.914   11 Jun 2027 10:03:29.613             8.699          2684.375
       317   11 Jun 2027 10:04:39.373   11 Jun 2027 10:04:41.875             2.502          1251.000
       318   11 Jun 2027 11:33:46.260   11 Jun 2027 11:34:00.776            14.516          6063.781
       319   11 Jun 2027 11:35:45.166   11 Jun 2027 11:35:49.400             4.234          1288.406
       320   11 Jun 2027 11:36:32.643   11 Jun 2027 11:36:53.371            20.728          1221.437
       321   11 Jun 2027 11:37:14.645   11 Jun 2027 11:37:19.632             4.987           617.594
       322   11 Jun 2027 11:38:29.565   11 Jun 2027 11:38:33.817             4.252          1974.281
       323   11 Jun 2027 11:38:41.514   11 Jun 2027 11:38:43.789             2.275            42.656
       324   11 Jun 2027 11:39:30.903   11 Jun 2027 11:39:34.407             3.504          1056.625
       325   11 Jun 2027 11:39:51.520   11 Jun 2027 11:39:52.791             1.271           472.375
       326   11 Jun 2027 11:40:19.624   11 Jun 2027 11:40:27.079             7.455           697.563
       327   12 Jun 2027 03:56:47.502   12 Jun 2027 03:57:45.991            58.489         29244.500
       328   12 Jun 2027 03:57:51.763   12 Jun 2027 03:59:49.733           117.970         58985.000
       329   12 Jun 2027 04:01:55.276   12 Jun 2027 04:02:47.069            51.793         25896.500
       330   12 Jun 2027 05:35:19.298   12 Jun 2027 05:36:50.659            91.361         45680.500
       331   12 Jun 2027 05:37:10.960   12 Jun 2027 05:37:17.735             6.775          2892.375
       332   12 Jun 2027 06:58:10.214   12 Jun 2027 06:58:19.110             8.896          4448.000
       333   12 Jun 2027 06:59:35.445   12 Jun 2027 06:59:49.743            14.298          3603.437
       334   12 Jun 2027 07:00:16.118   12 Jun 2027 07:00:16.118             0.000             0.000
       335   12 Jun 2027 08:34:43.350   12 Jun 2027 08:34:47.981             4.631          2238.844
       336   12 Jun 2027 08:35:34.608   12 Jun 2027 08:35:34.608             0.000             0.000
       337   12 Jun 2027 08:35:45.750   12 Jun 2027 08:35:49.052             3.302          1117.125
       338   12 Jun 2027 08:36:17.970   12 Jun 2027 08:36:17.970             0.000             0.000
       339   12 Jun 2027 08:36:27.152   12 Jun 2027 08:36:27.982             0.830           357.625
       340   12 Jun 2027 08:37:28.482   12 Jun 2027 08:37:28.482             0.000             0.000
       341   12 Jun 2027 10:09:52.204   12 Jun 2027 10:10:02.063             9.859          3920.594
       342   12 Jun 2027 10:10:55.384   12 Jun 2027 10:10:59.539             4.155           794.250
       343   12 Jun 2027 10:11:52.139   12 Jun 2027 10:11:56.769             4.630          1570.656
       344   12 Jun 2027 10:13:00.295   12 Jun 2027 10:13:02.144             1.849           379.688
       345   12 Jun 2027 10:13:21.454   12 Jun 2027 10:13:25.087             3.633           515.969
       346   12 Jun 2027 10:15:00.079   12 Jun 2027 10:15:10.973            10.894          2563.312
       347   12 Jun 2027 10:16:19.448   12 Jun 2027 10:16:24.525             5.077          2139.844
       348   12 Jun 2027 10:16:25.209   12 Jun 2027 10:16:28.030             2.821            21.375
       349   12 Jun 2027 10:16:34.363   12 Jun 2027 10:16:36.290             1.927            29.687
       350   12 Jun 2027 11:46:12.540   12 Jun 2027 11:46:27.323            14.783          6642.031
       351   12 Jun 2027 11:47:40.912   12 Jun 2027 11:47:47.168             6.256          1514.250
       352   12 Jun 2027 11:48:07.411   12 Jun 2027 11:48:09.287             1.876           632.594
       353   12 Jun 2027 11:49:25.267   12 Jun 2027 11:49:30.413             5.146          1639.719
       354   12 Jun 2027 11:50:26.861   12 Jun 2027 11:50:31.503             4.642          1764.000
       355   12 Jun 2027 11:50:36.100   12 Jun 2027 11:50:37.530             1.430           143.656
       356   12 Jun 2027 11:51:20.772   12 Jun 2027 11:51:26.923             6.151           822.531
       357   13 Jun 2027 04:08:40.986   13 Jun 2027 04:09:38.098            57.112         28556.000
       358   13 Jun 2027 04:09:47.964   13 Jun 2027 04:12:20.339           152.375         76187.500
       359   13 Jun 2027 04:13:32.690   13 Jun 2027 04:13:58.448            25.758         12879.000
       360   13 Jun 2027 04:14:13.513   13 Jun 2027 04:14:13.598             0.085            42.500
       361   13 Jun 2027 05:46:57.241   13 Jun 2027 05:48:44.812           107.571         52385.312
       362   13 Jun 2027 05:49:42.344   13 Jun 2027 05:49:44.373             2.029          1014.500
       363   13 Jun 2027 05:50:15.836   13 Jun 2027 05:50:21.190             5.354          1255.594
       364   13 Jun 2027 07:10:18.474   13 Jun 2027 07:10:29.281            10.807          4812.375
       365   13 Jun 2027 07:11:11.249   13 Jun 2027 07:11:16.549             5.300           688.344
       366   13 Jun 2027 07:11:46.551   13 Jun 2027 07:11:50.900             4.349           914.969
       367   13 Jun 2027 07:12:56.328   13 Jun 2027 07:12:57.247             0.919           459.500
       368   13 Jun 2027 07:13:19.725   13 Jun 2027 07:13:28.088             8.363          2100.125
       369   13 Jun 2027 08:47:04.318   13 Jun 2027 08:47:19.417            15.099          4874.875
       370   13 Jun 2027 08:48:41.464   13 Jun 2027 08:48:45.038             3.574          1305.094
       371   13 Jun 2027 08:49:46.121   13 Jun 2027 08:49:51.455             5.334           888.750
       372   13 Jun 2027 10:22:04.236   13 Jun 2027 10:22:10.174             5.938          2308.250
       373   13 Jun 2027 10:23:26.414   13 Jun 2027 10:23:33.274             6.860          2107.969
       374   13 Jun 2027 10:24:02.897   13 Jun 2027 10:24:04.746             1.849           715.469
       375   13 Jun 2027 10:25:41.748   13 Jun 2027 10:25:46.879             5.131          1999.688
       376   13 Jun 2027 10:26:25.092   13 Jun 2027 10:26:28.023             2.931          1194.156
       377   13 Jun 2027 10:27:12.386   13 Jun 2027 10:27:14.393             2.007           857.969
       378   13 Jun 2027 10:28:16.676   13 Jun 2027 10:28:22.099             5.423          1108.875
       379   13 Jun 2027 10:28:27.532   13 Jun 2027 10:28:28.104             0.572            38.625
       380   13 Jun 2027 11:58:24.078   13 Jun 2027 11:58:46.332            22.254          6279.500
