uniorb/output/strategy_4/Camera/Camera_KinoSat_110801.txt

KinoSat_110801
-------------------------
    Access    *     Start Time (UTCG)     *     Stop Time (UTCG)  *   Duration (s) *   Data (Mbytes)
         1   01 Jun 2027 04:13:39.434   01 Jun 2027 04:15:45.680           126.246         63123.000
         2   01 Jun 2027 05:47:30.399   01 Jun 2027 05:49:30.861           120.462         60231.000
         3   01 Jun 2027 05:49:39.095   01 Jun 2027 05:49:46.870             7.775          3887.500
         4   01 Jun 2027 05:51:00.498   01 Jun 2027 05:51:26.831            26.333         13166.500
         5   01 Jun 2027 05:55:33.385   01 Jun 2027 05:55:44.534            11.149          5574.500
         6   01 Jun 2027 07:24:37.175   01 Jun 2027 07:25:16.666            39.491         19745.500
         7   01 Jun 2027 07:25:31.438   01 Jun 2027 07:27:05.843            94.405         47202.500
         8   01 Jun 2027 07:29:30.413   01 Jun 2027 07:29:32.872             2.459          1229.500
         9   01 Jun 2027 07:29:49.996   01 Jun 2027 07:30:08.311            18.315          9157.500
        10   01 Jun 2027 07:31:25.452   01 Jun 2027 07:31:42.162            16.710          8355.000
        11   01 Jun 2027 09:01:39.739   01 Jun 2027 09:04:23.310           163.571         81785.500
        12   01 Jun 2027 09:05:32.097   01 Jun 2027 09:05:48.689            16.592          8296.000
        13   01 Jun 2027 09:06:06.305   01 Jun 2027 09:06:39.029            32.724         16362.000
        14   01 Jun 2027 09:07:04.745   01 Jun 2027 09:07:10.505             5.760          2880.000
        15   01 Jun 2027 10:38:37.100   01 Jun 2027 10:40:53.803           136.703         68351.500
        16   01 Jun 2027 10:42:55.643   01 Jun 2027 10:43:01.563             5.920          2960.000
        17   02 Jun 2027 04:26:01.194   02 Jun 2027 04:27:52.389           111.195         55597.500
        18   02 Jun 2027 04:28:26.743   02 Jun 2027 04:28:26.743             0.000             0.000
        19   02 Jun 2027 04:28:52.608   02 Jun 2027 04:29:00.083             7.475          3737.500
        20   02 Jun 2027 05:59:41.369   02 Jun 2027 06:02:16.344           154.975         77487.500
        21   02 Jun 2027 06:02:34.000   02 Jun 2027 06:02:54.803            20.803         10401.500
        22   02 Jun 2027 06:04:00.768   02 Jun 2027 06:04:03.895             3.127          1563.500
        23   02 Jun 2027 06:04:41.318   02 Jun 2027 06:05:00.651            19.333          9666.500
        24   02 Jun 2027 06:06:02.255   02 Jun 2027 06:06:14.751            12.496          6248.000
        25   02 Jun 2027 06:06:27.446   02 Jun 2027 06:06:32.467             5.021          2510.500
        26   02 Jun 2027 06:06:43.960   02 Jun 2027 06:06:57.116            13.156          6578.000
        27   02 Jun 2027 06:07:42.395   02 Jun 2027 06:07:48.734             6.339          3169.500
        28   02 Jun 2027 06:07:56.192   02 Jun 2027 06:07:59.531             3.339          1669.500
        29   02 Jun 2027 07:37:03.171   02 Jun 2027 07:39:16.479           133.308         66654.000
        30   02 Jun 2027 07:41:04.023   02 Jun 2027 07:42:40.232            96.209         48104.500
        31   02 Jun 2027 09:14:00.251   02 Jun 2027 09:16:01.172           120.921         59851.563
        32   02 Jun 2027 09:16:35.309   02 Jun 2027 09:16:38.354             3.045          1066.781
        33   02 Jun 2027 09:17:25.517   02 Jun 2027 09:17:29.253             3.736          1427.500
        34   02 Jun 2027 09:18:19.977   02 Jun 2027 09:18:21.318             1.341           670.500
        35   02 Jun 2027 09:18:23.730   02 Jun 2027 09:18:28.164             4.434           746.750
        36   02 Jun 2027 09:19:18.761   02 Jun 2027 09:19:21.335             2.574          1261.938
        37   02 Jun 2027 10:50:50.653   02 Jun 2027 10:51:05.077            14.424          6048.188
        38   02 Jun 2027 10:53:10.808   02 Jun 2027 10:53:16.909             6.101           230.813
        39   02 Jun 2027 10:55:04.528   02 Jun 2027 10:55:07.465             2.937            85.812
        40   03 Jun 2027 03:01:24.128   03 Jun 2027 03:01:28.282             4.154          2077.000
        41   03 Jun 2027 03:01:54.386   03 Jun 2027 03:02:07.167            12.781          6390.500
        42   03 Jun 2027 03:02:58.425   03 Jun 2027 03:02:58.756             0.331           165.500
        43   03 Jun 2027 04:38:03.166   03 Jun 2027 04:38:41.212            38.046         19023.000
        44   03 Jun 2027 04:39:08.249   03 Jun 2027 04:41:34.160           145.911         72955.500
        45   03 Jun 2027 06:12:58.126   03 Jun 2027 06:14:38.683           100.557         48735.468
        46   03 Jun 2027 06:14:53.227   03 Jun 2027 06:14:56.504             3.277           434.562
        47   03 Jun 2027 06:16:36.758   03 Jun 2027 06:16:40.100             3.342          1085.625
        48   03 Jun 2027 06:18:04.470   03 Jun 2027 06:18:10.510             6.040          2080.125
        49   03 Jun 2027 06:19:01.221   03 Jun 2027 06:19:01.618             0.397           152.750
        50   03 Jun 2027 06:19:40.374   03 Jun 2027 06:19:43.094             2.720           685.313
        51   03 Jun 2027 07:49:10.600   03 Jun 2027 07:49:15.175             4.575          1525.875
        52   03 Jun 2027 07:53:10.571   03 Jun 2027 07:53:18.353             7.782          1920.031
        53   03 Jun 2027 07:54:34.412   03 Jun 2027 07:54:45.781            11.369          2145.406
        54   03 Jun 2027 07:55:09.120   03 Jun 2027 07:55:12.978             3.858           474.094
        55   03 Jun 2027 09:26:54.234   03 Jun 2027 09:27:05.248            11.014          5387.563
        56   03 Jun 2027 09:31:11.547   03 Jun 2027 09:31:13.990             2.443           895.625
        57   03 Jun 2027 11:03:00.502   03 Jun 2027 11:03:13.765            13.263          6186.094
        58   04 Jun 2027 03:13:38.520   04 Jun 2027 03:13:56.085            17.565          8782.500
        59   04 Jun 2027 03:16:40.037   04 Jun 2027 03:16:40.037             0.000             0.000
        60   04 Jun 2027 04:50:10.297   04 Jun 2027 04:53:41.988           211.691        105845.500
        61   04 Jun 2027 06:25:20.421   04 Jun 2027 06:26:26.831            66.410         33199.313
        62   04 Jun 2027 06:27:40.278   04 Jun 2027 06:27:43.636             3.358          1655.469
        63   04 Jun 2027 06:27:59.217   04 Jun 2027 06:28:02.419             3.202           125.281
        64   04 Jun 2027 06:28:07.330   04 Jun 2027 06:28:08.793             1.463            43.156
        65   04 Jun 2027 06:28:34.528   04 Jun 2027 06:28:36.789             2.261           122.375
        66   04 Jun 2027 06:30:07.573   04 Jun 2027 06:30:12.261             4.688           439.156
        67   04 Jun 2027 06:31:37.800   04 Jun 2027 06:31:43.701             5.901          1200.312
        68   04 Jun 2027 08:01:45.137   04 Jun 2027 08:01:48.395             3.258          1016.969
        69   04 Jun 2027 08:02:35.480   04 Jun 2027 08:02:37.138             1.658           133.375
        70   04 Jun 2027 08:04:14.302   04 Jun 2027 08:04:15.592             1.290           451.562
        71   04 Jun 2027 08:05:16.280   04 Jun 2027 08:05:19.617             3.337           727.406
        72   04 Jun 2027 08:06:26.546   04 Jun 2027 08:06:30.648             4.102          1716.937
        73   04 Jun 2027 08:07:04.637   04 Jun 2027 08:07:06.537             1.900           801.844
        74   04 Jun 2027 09:39:00.603   04 Jun 2027 09:39:18.056            17.453          5159.719
        75   04 Jun 2027 09:42:32.872   04 Jun 2027 09:42:35.965             3.093            18.000
        76   04 Jun 2027 09:43:06.880   04 Jun 2027 09:43:08.289             1.409           536.656
        77   04 Jun 2027 09:43:18.151   04 Jun 2027 09:43:20.277             2.126           106.219
        78   04 Jun 2027 11:15:14.898   04 Jun 2027 11:15:28.784            13.886          5563.219
        79   04 Jun 2027 11:16:58.476   04 Jun 2027 11:16:58.982             0.506           224.156
        80   04 Jun 2027 11:17:54.168   04 Jun 2027 11:17:57.972             3.804           281.875
        81   05 Jun 2027 03:25:40.893   05 Jun 2027 03:25:52.430            11.537          5768.500
        82   05 Jun 2027 03:27:46.349   05 Jun 2027 03:27:46.349             0.000             0.000
        83   05 Jun 2027 03:28:01.772   05 Jun 2027 03:28:17.191            15.419          7709.500
        84   05 Jun 2027 05:02:03.121   05 Jun 2027 05:05:21.384           198.263         99131.500
        85   05 Jun 2027 05:06:04.143   05 Jun 2027 05:06:05.813             1.670           835.000
        86   05 Jun 2027 06:36:59.179   05 Jun 2027 06:38:16.779            77.600         38659.219
        87   05 Jun 2027 06:38:36.255   05 Jun 2027 06:38:38.447             2.192           470.969
        88   05 Jun 2027 06:39:41.516   05 Jun 2027 06:39:45.350             3.834          1358.031
        89   05 Jun 2027 06:40:08.267   05 Jun 2027 06:40:10.541             2.274           106.063
        90   05 Jun 2027 06:40:34.692   05 Jun 2027 06:40:34.692             0.000             0.000
        91   05 Jun 2027 06:40:37.382   05 Jun 2027 06:40:39.858             2.476           838.781
        92   05 Jun 2027 06:42:10.590   05 Jun 2027 06:42:13.905             3.315           536.781
        93   05 Jun 2027 06:42:58.800   05 Jun 2027 06:43:01.389             2.589            98.219
        94   05 Jun 2027 06:43:36.106   05 Jun 2027 06:43:37.798             1.692           180.531
        95   05 Jun 2027 08:13:18.374   05 Jun 2027 08:13:23.489             5.115          1584.187
        96   05 Jun 2027 08:17:02.687   05 Jun 2027 08:17:07.945             5.258          1917.750
        97   05 Jun 2027 08:17:50.213   05 Jun 2027 08:17:53.848             3.635           424.594
        98   05 Jun 2027 08:18:37.121   05 Jun 2027 08:18:37.420             0.299            56.187
        99   05 Jun 2027 08:19:26.122   05 Jun 2027 08:19:30.282             4.160          1234.000
       100   05 Jun 2027 09:51:33.507   05 Jun 2027 09:51:48.616            15.109          5570.625
       101   05 Jun 2027 09:52:59.530   05 Jun 2027 09:53:02.186             2.656          1302.688
       102   05 Jun 2027 09:53:28.875   05 Jun 2027 09:53:32.213             3.338           827.500
       103   05 Jun 2027 09:54:46.752   05 Jun 2027 09:54:53.562             6.810           103.125
       104   05 Jun 2027 09:55:09.977   05 Jun 2027 09:55:11.466             1.489           432.562
       105   05 Jun 2027 11:26:53.837   05 Jun 2027 11:27:09.747            15.910          5944.219
       106   06 Jun 2027 03:36:45.732   06 Jun 2027 03:36:55.565             9.833          4916.500
       107   06 Jun 2027 03:37:21.313   06 Jun 2027 03:37:21.313             0.000             0.000
       108   06 Jun 2027 03:38:19.725   06 Jun 2027 03:38:34.198            14.473          7236.500
       109   06 Jun 2027 05:12:21.751   06 Jun 2027 05:13:00.607            38.856         19428.000
       110   06 Jun 2027 05:13:47.194   06 Jun 2027 05:14:13.661            26.467         13233.500
       111   06 Jun 2027 05:15:12.312   06 Jun 2027 05:17:00.417           108.105         54052.500
       112   06 Jun 2027 05:17:59.208   06 Jun 2027 05:18:20.836            21.628         10814.000
       113   06 Jun 2027 06:48:32.558   06 Jun 2027 06:50:06.527            93.969         46146.499
       114   06 Jun 2027 06:50:24.371   06 Jun 2027 06:50:26.073             1.702           556.469
       115   06 Jun 2027 06:51:49.941   06 Jun 2027 06:51:54.687             4.746           285.812
       116   06 Jun 2027 06:52:37.331   06 Jun 2027 06:52:39.992             2.661           843.031
       117   06 Jun 2027 06:54:36.081   06 Jun 2027 06:54:39.238             3.157          1370.500
       118   06 Jun 2027 06:55:23.963   06 Jun 2027 06:55:28.124             4.161           989.656
       119   06 Jun 2027 08:25:37.815   06 Jun 2027 08:25:41.970             4.155          1779.656
       120   06 Jun 2027 08:27:07.330   06 Jun 2027 08:27:11.321             3.991           740.406
       121   06 Jun 2027 08:28:30.709   06 Jun 2027 08:28:33.906             3.197           899.281
       122   06 Jun 2027 08:29:40.868   06 Jun 2027 08:29:45.193             4.325           775.156
       123   06 Jun 2027 08:30:02.197   06 Jun 2027 08:30:03.367             1.170           405.156
       124   06 Jun 2027 08:30:58.126   06 Jun 2027 08:31:01.032             2.906            64.750
       125   06 Jun 2027 08:31:33.831   06 Jun 2027 08:31:36.751             2.920           961.625
       126   06 Jun 2027 08:31:59.188   06 Jun 2027 08:32:00.126             0.938           408.938
       127   06 Jun 2027 10:03:36.651   06 Jun 2027 10:03:47.744            11.093          5364.844
       128   06 Jun 2027 10:04:43.988   06 Jun 2027 10:04:49.859             5.871           718.094
       129   06 Jun 2027 10:05:28.644   06 Jun 2027 10:05:30.816             2.172           421.219
       130   06 Jun 2027 10:06:40.184   06 Jun 2027 10:06:43.237             3.053           112.844
       131   06 Jun 2027 10:07:19.855   06 Jun 2027 10:07:23.155             3.300          1019.531
       132   06 Jun 2027 11:36:45.250   06 Jun 2027 11:36:59.475            14.225          5431.875
       133   07 Jun 2027 03:48:24.456   07 Jun 2027 03:48:44.909            20.453         10226.500
       134   07 Jun 2027 03:49:34.136   07 Jun 2027 03:49:34.136             0.000             0.000
       135   07 Jun 2027 05:23:28.149   07 Jun 2027 05:25:11.605           103.456         51728.000
       136   07 Jun 2027 05:25:31.527   07 Jun 2027 05:26:23.087            51.560         25780.000
       137   07 Jun 2027 05:27:12.703   07 Jun 2027 05:28:08.528            55.825         27912.500
       138   07 Jun 2027 07:00:51.017   07 Jun 2027 07:02:24.826            93.809         46594.969
       139   07 Jun 2027 07:03:18.486   07 Jun 2027 07:03:23.769             5.283          1594.000
       140   07 Jun 2027 07:03:42.804   07 Jun 2027 07:03:45.552             2.748            81.906
       141   07 Jun 2027 07:04:17.197   07 Jun 2027 07:04:18.253             1.056           156.687
       142   07 Jun 2027 07:05:51.278   07 Jun 2027 07:05:56.308             5.030          2148.813
       143   07 Jun 2027 07:06:48.073   07 Jun 2027 07:06:48.073             0.000             0.000
       144   07 Jun 2027 07:07:07.300   07 Jun 2027 07:07:13.072             5.772          1526.687
       145   07 Jun 2027 07:07:58.293   07 Jun 2027 07:08:07.172             8.879          1322.531
       146   07 Jun 2027 08:37:39.205   07 Jun 2027 08:37:48.307             9.102          4216.844
       147   07 Jun 2027 08:40:51.855   07 Jun 2027 08:40:56.909             5.054          1570.437
       148   07 Jun 2027 08:41:29.294   07 Jun 2027 08:41:30.594             1.300           358.406
       149   07 Jun 2027 08:41:37.528   07 Jun 2027 08:41:39.717             2.189           163.875
       150   07 Jun 2027 08:42:22.327   07 Jun 2027 08:42:25.859             3.532          1186.813
       151   07 Jun 2027 08:43:22.206   07 Jun 2027 08:43:24.444             2.238           659.375
       152   07 Jun 2027 08:43:55.493   07 Jun 2027 08:43:58.530             3.037           835.781
       153   07 Jun 2027 10:15:36.341   07 Jun 2027 10:15:50.500            14.159          6717.812
       154   07 Jun 2027 10:16:37.447   07 Jun 2027 10:16:40.804             3.357          1273.375
       155   07 Jun 2027 10:18:26.896   07 Jun 2027 10:18:31.649             4.753          1853.187
       156   07 Jun 2027 10:19:03.693   07 Jun 2027 10:19:04.651             0.958             4.656
       157   07 Jun 2027 10:19:19.174   07 Jun 2027 10:19:22.442             3.268           142.938
       158   07 Jun 2027 11:49:12.472   07 Jun 2027 11:49:17.805             5.333           909.125
       159   07 Jun 2027 11:54:08.353   07 Jun 2027 11:54:15.143             6.790           123.594
       160   07 Jun 2027 11:55:35.263   07 Jun 2027 11:55:38.463             3.200           841.406
       161   07 Jun 2027 11:56:29.099   07 Jun 2027 11:56:32.427             3.328            76.531
       162   08 Jun 2027 04:00:08.122   08 Jun 2027 04:00:22.432            14.310          7155.000
       163   08 Jun 2027 04:02:10.794   08 Jun 2027 04:02:28.979            18.185          9092.500
       164   08 Jun 2027 04:04:04.672   08 Jun 2027 04:04:19.216            14.544          7272.000
       165   08 Jun 2027 05:34:56.367   08 Jun 2027 05:38:22.626           206.259        103129.500
       166   08 Jun 2027 07:12:45.576   08 Jun 2027 07:14:06.392            80.816         40408.000
       167   08 Jun 2027 07:14:30.489   08 Jun 2027 07:14:33.322             2.833          1244.281
       168   08 Jun 2027 07:16:13.706   08 Jun 2027 07:16:13.706             0.000             0.000
       169   08 Jun 2027 07:16:20.223   08 Jun 2027 07:16:25.834             5.611           987.719
       170   08 Jun 2027 07:17:49.006   08 Jun 2027 07:17:53.375             4.369          1832.531
       171   08 Jun 2027 07:18:18.870   08 Jun 2027 07:18:21.241             2.371           501.406
       172   08 Jun 2027 07:20:06.438   08 Jun 2027 07:20:08.241             1.803           265.312
       173   08 Jun 2027 08:49:29.976   08 Jun 2027 08:49:41.915            11.939          5532.969
       174   08 Jun 2027 08:52:00.232   08 Jun 2027 08:52:03.229             2.997           719.031
       175   08 Jun 2027 08:52:19.689   08 Jun 2027 08:52:21.586             1.897            37.781
       176   08 Jun 2027 08:53:07.541   08 Jun 2027 08:53:10.436             2.895          1436.094
       177   08 Jun 2027 08:53:47.063   08 Jun 2027 08:53:52.428             5.365           930.063
       178   08 Jun 2027 08:54:21.641   08 Jun 2027 08:54:23.661             2.020           829.437
       179   08 Jun 2027 08:55:34.784   08 Jun 2027 08:55:45.358            10.574          2142.844
       180   08 Jun 2027 10:27:38.393   08 Jun 2027 10:27:52.646            14.253          6880.156
       181   08 Jun 2027 10:30:36.207   08 Jun 2027 10:30:39.706             3.499            60.094
       182   08 Jun 2027 10:31:18.896   08 Jun 2027 10:31:21.654             2.758           829.938
       183   08 Jun 2027 10:31:42.313   08 Jun 2027 10:31:44.449             2.136            74.063
       184   09 Jun 2027 04:13:54.234   09 Jun 2027 04:14:27.685            33.451         16725.500
       185   09 Jun 2027 04:16:00.530   09 Jun 2027 04:16:07.231             6.701          3350.500
       186   09 Jun 2027 05:47:45.014   09 Jun 2027 05:50:38.125           173.111         86555.500
       187   09 Jun 2027 05:50:46.715   09 Jun 2027 05:50:58.569            11.854          5927.000
       188   09 Jun 2027 05:54:44.587   09 Jun 2027 05:54:49.866             5.279          2639.500
       189   09 Jun 2027 05:56:02.174   09 Jun 2027 05:56:15.358            13.184          6592.000
       190   09 Jun 2027 07:24:52.016   09 Jun 2027 07:26:19.891            87.875         43811.188
       191   09 Jun 2027 07:26:39.483   09 Jun 2027 07:26:43.504             4.021           191.219
       192   09 Jun 2027 07:27:20.493   09 Jun 2027 07:27:21.707             1.214           378.594
       193   09 Jun 2027 07:28:21.347   09 Jun 2027 07:28:23.914             2.567           484.719
       194   09 Jun 2027 07:29:00.981   09 Jun 2027 07:29:04.192             3.211          1158.344
       195   09 Jun 2027 07:29:45.707   09 Jun 2027 07:29:49.276             3.569          1195.719
       196   09 Jun 2027 07:30:03.839   09 Jun 2027 07:30:07.673             3.834           455.094
       197   09 Jun 2027 09:01:54.945   09 Jun 2027 09:02:06.146            11.201          5315.031
       198   09 Jun 2027 09:03:34.216   09 Jun 2027 09:03:38.418             4.202          1979.719
       199   09 Jun 2027 09:05:05.952   09 Jun 2027 09:05:09.116             3.164           588.219
       200   09 Jun 2027 09:05:46.718   09 Jun 2027 09:05:48.647             1.929           782.844
       201   09 Jun 2027 09:06:09.415   09 Jun 2027 09:06:11.043             1.628           638.438
       202   09 Jun 2027 09:06:33.478   09 Jun 2027 09:06:34.303             0.825           369.438
       203   09 Jun 2027 09:07:43.015   09 Jun 2027 09:07:44.616             1.601            94.688
       204   09 Jun 2027 10:38:52.781   09 Jun 2027 10:39:04.544            11.763          5761.312
       205   09 Jun 2027 10:42:11.657   09 Jun 2027 10:42:25.572            13.915           102.844
       206   09 Jun 2027 10:43:11.078   09 Jun 2027 10:43:12.200             1.122           512.312
       207   09 Jun 2027 10:43:17.016   09 Jun 2027 10:43:18.987             1.971            40.781
       208   09 Jun 2027 10:43:42.564   09 Jun 2027 10:43:44.388             1.824           736.781
       209   10 Jun 2027 04:26:15.924   10 Jun 2027 04:28:08.513           112.589         56294.500
       210   10 Jun 2027 04:29:08.575   10 Jun 2027 04:29:14.965             6.390          3195.000
       211   10 Jun 2027 05:59:57.611   10 Jun 2027 06:02:17.438           139.827         69913.500
       212   10 Jun 2027 06:02:28.592   10 Jun 2027 06:02:49.570            20.978         10489.000
       213   10 Jun 2027 06:04:17.199   10 Jun 2027 06:04:18.858             1.659           829.500
       214   10 Jun 2027 06:04:57.041   10 Jun 2027 06:05:03.529             6.488          3244.000
       215   10 Jun 2027 06:06:05.774   10 Jun 2027 06:06:07.749             1.975           987.500
       216   10 Jun 2027 06:06:18.426   10 Jun 2027 06:06:29.365            10.939          5469.500
       217   10 Jun 2027 06:06:41.866   10 Jun 2027 06:06:46.310             4.444          2222.000
       218   10 Jun 2027 06:06:59.291   10 Jun 2027 06:06:59.456             0.165            82.500
       219   10 Jun 2027 06:08:11.821   10 Jun 2027 06:08:14.306             2.485          1242.500
       220   10 Jun 2027 07:37:18.244   10 Jun 2027 07:37:24.920             6.676          3230.438
       221   10 Jun 2027 07:40:46.747   10 Jun 2027 07:40:47.446             0.699           205.250
       222   10 Jun 2027 07:42:54.808   10 Jun 2027 07:43:03.657             8.849          1905.375
       223   10 Jun 2027 07:43:29.445   10 Jun 2027 07:43:31.277             1.832           760.125
       224   10 Jun 2027 09:14:15.093   10 Jun 2027 09:14:30.528            15.435          7148.969
       225   10 Jun 2027 09:15:53.744   10 Jun 2027 09:16:00.756             7.012            86.063
       226   10 Jun 2027 09:19:14.819   10 Jun 2027 09:19:18.921             4.102          1284.875
       227   10 Jun 2027 10:51:05.584   10 Jun 2027 10:51:17.263            11.679          5042.094
       228   10 Jun 2027 10:53:27.294   10 Jun 2027 10:53:29.529             2.235           257.125
       229   11 Jun 2027 03:01:38.871   11 Jun 2027 03:01:42.950             4.079          2039.500
       230   11 Jun 2027 03:02:21.794   11 Jun 2027 03:02:26.786             4.992          2496.000
       231   11 Jun 2027 03:03:27.715   11 Jun 2027 03:03:38.940            11.225          5612.500
       232   11 Jun 2027 03:04:01.310   11 Jun 2027 03:04:15.165            13.855          6927.500
       233   11 Jun 2027 04:38:18.951   11 Jun 2027 04:38:53.626            34.675         17337.500
       234   11 Jun 2027 04:39:01.735   11 Jun 2027 04:39:23.261            21.526         10763.000
       235   11 Jun 2027 04:40:04.619   11 Jun 2027 04:41:49.331           104.712         52356.000
       236   11 Jun 2027 06:13:18.052   11 Jun 2027 06:15:07.068           109.016         53757.500
       237   11 Jun 2027 06:16:16.959   11 Jun 2027 06:16:21.844             4.885          2136.719
       238   11 Jun 2027 06:16:26.687   11 Jun 2027 06:16:28.073             1.386           138.531
       239   11 Jun 2027 06:18:08.569   11 Jun 2027 06:18:13.805             5.236          2374.406
       240   11 Jun 2027 06:19:11.907   11 Jun 2027 06:19:15.479             3.572          1572.688
       241   11 Jun 2027 06:19:34.296   11 Jun 2027 06:19:43.230             8.934           552.719
       242   11 Jun 2027 06:20:06.694   11 Jun 2027 06:20:07.747             1.053           339.812
       243   11 Jun 2027 07:49:25.668   11 Jun 2027 07:49:30.199             4.531           758.969
       244   11 Jun 2027 07:52:23.894   11 Jun 2027 07:52:30.360             6.466           696.406
       245   11 Jun 2027 07:53:03.221   11 Jun 2027 07:53:07.861             4.640            46.969
       246   11 Jun 2027 07:53:41.413   11 Jun 2027 07:53:43.756             2.343          1031.375
       247   11 Jun 2027 07:54:53.461   11 Jun 2027 07:54:53.797             0.336           140.563
       248   11 Jun 2027 07:55:23.626   11 Jun 2027 07:55:24.914             1.288           410.438
       249   11 Jun 2027 09:27:09.817   11 Jun 2027 09:27:20.054            10.237          5039.719
       250   11 Jun 2027 09:30:58.634   11 Jun 2027 09:30:58.860             0.226            70.625
       251   11 Jun 2027 09:31:20.614   11 Jun 2027 09:31:26.148             5.534           624.094
       252   11 Jun 2027 11:03:15.650   11 Jun 2027 11:03:29.592            13.942          6172.469
       253   11 Jun 2027 11:05:30.734   11 Jun 2027 11:05:34.028             3.294           584.531
       254   11 Jun 2027 11:06:43.533   11 Jun 2027 11:06:51.396             7.863           336.562
       255   11 Jun 2027 11:07:27.357   11 Jun 2027 11:07:29.007             1.650           335.469
       256   12 Jun 2027 03:13:53.323   12 Jun 2027 03:14:11.098            17.775          8887.500
       257   12 Jun 2027 04:50:25.145   12 Jun 2027 04:53:56.568           211.423        105711.500
       258   12 Jun 2027 06:25:35.389   12 Jun 2027 06:26:44.294            68.905         34186.750
       259   12 Jun 2027 06:28:11.081   12 Jun 2027 06:28:14.134             3.053           478.812
       260   12 Jun 2027 06:28:22.360   12 Jun 2027 06:28:24.471             2.111           257.062
       261   12 Jun 2027 06:28:45.595   12 Jun 2027 06:28:45.944             0.349           174.500
       262   12 Jun 2027 06:28:50.462   12 Jun 2027 06:28:51.974             1.512           599.969
       263   12 Jun 2027 06:30:24.674   12 Jun 2027 06:30:26.810             2.136           491.281
       264   12 Jun 2027 06:31:27.377   12 Jun 2027 06:31:29.683             2.306           120.625
       265   12 Jun 2027 06:31:50.105   12 Jun 2027 06:31:52.188             2.083           543.594
       266   12 Jun 2027 06:31:58.425   12 Jun 2027 06:31:59.845             1.420           159.906
       267   12 Jun 2027 08:01:59.288   12 Jun 2027 08:02:03.793             4.505          2090.656
       268   12 Jun 2027 08:02:45.876   12 Jun 2027 08:02:47.525             1.649           514.938
       269   12 Jun 2027 08:03:11.151   12 Jun 2027 08:03:14.705             3.554           715.313
       270   12 Jun 2027 08:03:22.477   12 Jun 2027 08:03:27.660             5.183            19.312
       271   12 Jun 2027 08:04:26.605   12 Jun 2027 08:04:31.903             5.298          1397.406
       272   12 Jun 2027 08:05:31.318   12 Jun 2027 08:05:34.124             2.806           729.344
       273   12 Jun 2027 08:06:41.065   12 Jun 2027 08:06:44.564             3.499          1682.563
       274   12 Jun 2027 08:06:53.656   12 Jun 2027 08:06:54.686             1.030           275.094
       275   12 Jun 2027 08:07:18.937   12 Jun 2027 08:07:20.148             1.211           546.781
       276   12 Jun 2027 09:39:15.703   12 Jun 2027 09:39:29.651            13.948          5490.719
       277   12 Jun 2027 09:40:26.893   12 Jun 2027 09:40:33.384             6.491           507.156
       278   12 Jun 2027 09:42:50.047   12 Jun 2027 09:42:50.558             0.511            66.344
       279   12 Jun 2027 09:43:16.684   12 Jun 2027 09:43:21.893             5.209           628.406
       280   12 Jun 2027 09:43:29.814   12 Jun 2027 09:43:33.245             3.431           230.719
       281   12 Jun 2027 11:15:29.419   12 Jun 2027 11:15:43.458            14.039          6121.781
       282   12 Jun 2027 11:19:21.181   12 Jun 2027 11:19:22.778             1.597           692.938
       283   13 Jun 2027 03:26:22.949   13 Jun 2027 03:26:30.338             7.389          3694.500
       284   13 Jun 2027 03:27:21.124   13 Jun 2027 03:27:27.529             6.405          3202.500
       285   13 Jun 2027 03:28:53.493   13 Jun 2027 03:28:53.493             0.000             0.000
       286   13 Jun 2027 03:28:56.281   13 Jun 2027 03:29:05.939             9.658          4829.000
       287   13 Jun 2027 05:02:17.753   13 Jun 2027 05:05:33.345           195.592         97796.000
       288   13 Jun 2027 05:06:14.419   13 Jun 2027 05:06:14.419             0.000             0.000
       289   13 Jun 2027 06:37:13.865   13 Jun 2027 06:38:38.611            84.746         42373.000
       290   13 Jun 2027 06:38:51.853   13 Jun 2027 06:38:57.660             5.807           714.656
       291   13 Jun 2027 06:39:57.529   13 Jun 2027 06:40:02.401             4.872          1363.656
       292   13 Jun 2027 06:40:28.550   13 Jun 2027 06:40:29.113             0.563           256.219
       293   13 Jun 2027 06:40:53.052   13 Jun 2027 06:40:53.628             0.576            72.344
       294   13 Jun 2027 06:42:27.678   13 Jun 2027 06:42:31.202             3.524           589.156
       295   13 Jun 2027 06:43:14.915   13 Jun 2027 06:43:14.915             0.000             0.000
       296   13 Jun 2027 06:43:46.074   13 Jun 2027 06:43:48.952             2.878          1083.281
       297   13 Jun 2027 08:13:33.114   13 Jun 2027 08:13:38.404             5.290           941.844
       298   13 Jun 2027 08:16:19.935   13 Jun 2027 08:16:20.479             0.544           112.250
       299   13 Jun 2027 08:17:52.220   13 Jun 2027 08:17:56.494             4.274          1077.937
       300   13 Jun 2027 08:18:27.253   13 Jun 2027 08:18:29.625             2.372           684.969
       301   13 Jun 2027 08:19:02.332   13 Jun 2027 08:19:03.304             0.972           328.844
       302   13 Jun 2027 09:51:48.462   13 Jun 2027 09:51:59.855            11.393          5481.500
       303   13 Jun 2027 09:53:15.063   13 Jun 2027 09:53:18.883             3.820          1745.000
       304   13 Jun 2027 09:53:43.873   13 Jun 2027 09:53:47.514             3.641           776.375
       305   13 Jun 2027 09:55:01.069   13 Jun 2027 09:55:09.422             8.353          1577.469
       306   13 Jun 2027 09:55:25.509   13 Jun 2027 09:55:29.669             4.160           443.375
       307   13 Jun 2027 11:27:09.023   13 Jun 2027 11:27:24.266            15.243          6016.438
