uniorb/output/strategy_4/Camera/Camera_KinoSat_110207.txt

KinoSat_110207
-------------------------
    Access    *     Start Time (UTCG)     *     Stop Time (UTCG)  *   Duration (s) *   Data (Mbytes)
         1   01 Jun 2027 03:41:54.257   01 Jun 2027 03:43:19.873            85.616         42808.000
         2   01 Jun 2027 03:44:04.111   01 Jun 2027 03:44:08.954             4.843          2421.500
         3   01 Jun 2027 03:44:27.866   01 Jun 2027 03:44:46.766            18.900          9450.000
         4   01 Jun 2027 03:45:35.443   01 Jun 2027 03:45:56.590            21.147         10573.500
         5   01 Jun 2027 03:47:02.080   01 Jun 2027 03:47:11.439             9.359          4679.500
         6   01 Jun 2027 03:47:22.828   01 Jun 2027 03:48:06.603            43.775         21887.500
         7   01 Jun 2027 03:48:12.319   01 Jun 2027 03:48:35.030            22.711         11355.500
         8   01 Jun 2027 05:18:48.694   01 Jun 2027 05:22:04.191           195.497         97748.500
         9   01 Jun 2027 05:23:33.957   01 Jun 2027 05:23:51.255            17.298          8649.000
        10   01 Jun 2027 05:24:57.087   01 Jun 2027 05:25:07.053             9.966          4983.000
        11   01 Jun 2027 06:56:32.293   01 Jun 2027 06:59:40.294           188.001         94000.500
        12   01 Jun 2027 07:00:29.869   01 Jun 2027 07:00:39.106             9.237          4618.500
        13   01 Jun 2027 08:30:46.644   01 Jun 2027 08:31:46.902            60.258         30129.000
        14   01 Jun 2027 08:32:31.830   01 Jun 2027 08:33:50.416            78.586         39293.000
        15   01 Jun 2027 08:34:57.344   01 Jun 2027 08:35:22.310            24.966         12483.000
        16   02 Jun 2027 03:54:15.168   02 Jun 2027 04:01:16.031           420.863        210431.500
        17   02 Jun 2027 05:31:18.918   02 Jun 2027 05:35:17.635           238.717        119358.500
        18   02 Jun 2027 05:35:42.820   02 Jun 2027 05:35:48.201             5.381          2690.500
        19   02 Jun 2027 05:35:55.708   02 Jun 2027 05:36:36.150            40.442         20221.000
        20   02 Jun 2027 05:36:49.018   02 Jun 2027 05:37:03.722            14.704          7352.000
        21   02 Jun 2027 07:08:03.762   02 Jun 2027 07:12:52.129           288.367        144183.500
        22   02 Jun 2027 08:43:25.351   02 Jun 2027 08:43:28.205             2.854          1427.000
        23   02 Jun 2027 08:45:01.130   02 Jun 2027 08:47:51.775           170.645         85322.500
        24   03 Jun 2027 04:06:28.682   03 Jun 2027 04:13:11.223           402.541        201270.500
        25   03 Jun 2027 05:43:24.488   03 Jun 2027 05:48:24.916           300.428        150214.000
        26   03 Jun 2027 07:20:10.991   03 Jun 2027 07:24:53.351           282.360        141180.000
        27   03 Jun 2027 08:58:23.388   03 Jun 2027 08:59:20.876            57.488         28744.000
        28   04 Jun 2027 04:18:57.813   04 Jun 2027 04:25:17.723           379.910        189955.000
        29   04 Jun 2027 05:56:27.748   04 Jun 2027 06:00:54.014           266.266        133133.000
        30   04 Jun 2027 07:32:38.404   04 Jun 2027 07:36:46.931           248.527        124263.500
        31   05 Jun 2027 03:00:00.000   05 Jun 2027 03:01:21.788            81.788         40894.000
        32   05 Jun 2027 04:30:59.385   05 Jun 2027 04:36:50.309           350.924        175462.000
        33   05 Jun 2027 04:36:59.057   05 Jun 2027 04:37:07.140             8.083          4041.500
        34   05 Jun 2027 06:08:33.381   05 Jun 2027 06:13:04.626           271.245        135622.500
        35   05 Jun 2027 07:44:56.009   05 Jun 2027 07:48:46.410           230.401        115200.500
        36   05 Jun 2027 07:48:50.469   05 Jun 2027 07:49:34.973            44.504         22252.000
        37   06 Jun 2027 03:06:09.593   06 Jun 2027 03:13:32.177           442.584        221292.000
        38   06 Jun 2027 04:42:45.557   06 Jun 2027 04:49:09.446           383.889        191944.500
        39   06 Jun 2027 06:21:05.967   06 Jun 2027 06:24:58.125           232.158        116079.000
        40   06 Jun 2027 07:54:32.103   06 Jun 2027 07:54:34.529             2.426          1213.000
        41   06 Jun 2027 07:56:23.119   06 Jun 2027 08:00:35.834           252.715        126357.500
        42   06 Jun 2027 08:01:07.828   06 Jun 2027 08:01:53.304            45.476         22738.000
        43   07 Jun 2027 03:18:02.922   07 Jun 2027 03:25:32.556           449.634        224817.000
        44   07 Jun 2027 04:55:06.689   07 Jun 2027 05:00:57.422           350.733        175366.500
        45   07 Jun 2027 05:01:00.371   07 Jun 2027 05:01:17.393            17.022          8511.000
        46   07 Jun 2027 06:33:00.969   07 Jun 2027 06:37:00.634           239.665        119832.500
        47   07 Jun 2027 08:06:13.594   07 Jun 2027 08:12:35.068           381.474        190737.000
        48   07 Jun 2027 08:12:53.492   07 Jun 2027 08:14:05.108            71.616         35808.000
        49   08 Jun 2027 03:30:15.006   08 Jun 2027 03:37:36.054           441.048        220524.000
        50   08 Jun 2027 05:06:57.766   08 Jun 2027 05:13:10.953           373.187        186593.500
        51   08 Jun 2027 05:13:15.134   08 Jun 2027 05:13:35.684            20.550         10275.000
        52   08 Jun 2027 06:45:00.787   08 Jun 2027 06:49:10.315           249.528        124764.000
        53   08 Jun 2027 08:18:41.546   08 Jun 2027 08:23:46.376           304.830        152415.000
        54   08 Jun 2027 08:24:00.213   08 Jun 2027 08:26:01.533           121.320         60660.000
        55   09 Jun 2027 03:42:09.010   09 Jun 2027 03:49:37.455           448.445        224222.500
        56   09 Jun 2027 05:19:33.066   09 Jun 2027 05:24:24.236           291.170        145585.000
        57   09 Jun 2027 05:25:08.885   09 Jun 2027 05:25:34.962            26.077         13038.500
        58   09 Jun 2027 06:56:51.206   09 Jun 2027 07:01:08.813           257.607        128803.500
        59   09 Jun 2027 08:31:01.880   09 Jun 2027 08:32:15.476            73.596         36798.000
        60   09 Jun 2027 08:32:48.487   09 Jun 2027 08:36:21.297           212.810        106405.000
        61   10 Jun 2027 03:54:30.135   10 Jun 2027 04:01:33.963           423.828        211914.000
        62   10 Jun 2027 05:31:33.710   10 Jun 2027 05:36:02.974           269.264        134632.000
        63   10 Jun 2027 05:36:36.668   10 Jun 2027 05:37:23.996            47.328         23664.000
        64   10 Jun 2027 07:08:56.080   10 Jun 2027 07:13:06.929           250.849        125424.500
        65   10 Jun 2027 08:43:39.609   10 Jun 2027 08:43:42.782             3.173          1586.500
        66   10 Jun 2027 08:45:16.551   10 Jun 2027 08:48:06.287           169.736         84868.000
        67   11 Jun 2027 04:06:43.324   11 Jun 2027 04:13:26.043           402.719        201359.500
        68   11 Jun 2027 05:43:39.435   11 Jun 2027 05:48:40.135           300.700        150350.000
        69   11 Jun 2027 07:20:25.768   11 Jun 2027 07:25:08.654           282.886        141443.000
        70   11 Jun 2027 08:58:38.530   11 Jun 2027 08:59:35.486            56.956         28478.000
        71   12 Jun 2027 04:19:13.082   12 Jun 2027 04:25:32.608           379.526        189763.000
        72   12 Jun 2027 05:56:41.727   12 Jun 2027 06:01:09.150           267.423        133711.500
        73   12 Jun 2027 07:32:52.949   12 Jun 2027 07:37:01.859           248.910        124455.000
        74   13 Jun 2027 03:00:00.000   13 Jun 2027 03:01:36.597            96.597         48298.500
        75   13 Jun 2027 04:31:13.431   13 Jun 2027 04:36:51.526           338.095        169047.500
        76   13 Jun 2027 04:36:55.796   13 Jun 2027 04:37:05.270             9.474          4737.000
        77   13 Jun 2027 06:08:48.105   13 Jun 2027 06:13:19.260           271.155        135577.500
        78   13 Jun 2027 07:45:13.978   13 Jun 2027 07:49:01.094           227.116        113558.000
        79   13 Jun 2027 07:49:05.064   13 Jun 2027 07:49:50.371            45.307         22653.500
