uniorb/output/strategy_4/Camera/Camera_KinoSat_111803.txt

KinoSat_111803
-------------------------
    Access    *     Start Time (UTCG)     *     Stop Time (UTCG)  *   Duration (s) *   Data (Mbytes)
         1   01 Jun 2027 03:24:26.552   01 Jun 2027 03:26:57.135           150.583         75291.500
         2   01 Jun 2027 03:30:25.765   01 Jun 2027 03:30:28.821             3.056          1528.000
         3   01 Jun 2027 03:30:32.299   01 Jun 2027 03:30:34.774             2.475          1237.500
         4   01 Jun 2027 03:30:36.608   01 Jun 2027 03:30:45.359             8.751          4375.500
         5   01 Jun 2027 05:03:25.045   01 Jun 2027 05:04:26.894            61.849         30924.500
         6   01 Jun 2027 05:04:43.594   01 Jun 2027 05:04:58.899            15.305          7652.500
         7   01 Jun 2027 05:05:19.188   01 Jun 2027 05:05:19.188             0.000             0.000
         8   01 Jun 2027 05:06:53.263   01 Jun 2027 05:06:56.192             2.929          1464.500
         9   01 Jun 2027 05:07:20.972   01 Jun 2027 05:07:37.112            16.140          8070.000
        10   01 Jun 2027 05:08:31.653   01 Jun 2027 05:08:51.497            19.844          9922.000
        11   01 Jun 2027 05:10:15.030   01 Jun 2027 05:10:43.715            28.685         14342.500
        12   01 Jun 2027 06:28:35.116   01 Jun 2027 06:29:23.636            48.520         24260.000
        13   01 Jun 2027 06:29:37.673   01 Jun 2027 06:29:54.301            16.628          8314.000
        14   01 Jun 2027 06:40:09.281   01 Jun 2027 06:40:50.456            41.175         20587.500
        15   01 Jun 2027 08:02:45.189   01 Jun 2027 08:03:43.721            58.532         29266.000
        16   01 Jun 2027 08:04:22.144   01 Jun 2027 08:06:04.357           102.213         51106.500
        17   01 Jun 2027 09:37:53.933   01 Jun 2027 09:38:37.476            43.543         21771.500
        18   01 Jun 2027 09:39:59.763   01 Jun 2027 09:39:59.763             0.000             0.000
        19   01 Jun 2027 11:14:41.278   01 Jun 2027 11:14:52.412            11.134          5567.000
        20   01 Jun 2027 11:17:45.204   01 Jun 2027 11:22:06.704           261.500        130750.000
        21   02 Jun 2027 03:36:42.476   02 Jun 2027 03:38:06.004            83.528         41764.000
        22   02 Jun 2027 03:38:08.325   02 Jun 2027 03:39:07.362            59.037         29518.500
        23   02 Jun 2027 03:39:45.422   02 Jun 2027 03:40:06.097            20.675         10337.500
        24   02 Jun 2027 03:41:02.756   02 Jun 2027 03:41:07.135             4.379          2189.500
        25   02 Jun 2027 05:15:41.596   02 Jun 2027 05:18:14.690           153.094         76547.000
        26   02 Jun 2027 05:20:47.025   02 Jun 2027 05:22:23.075            96.050         48025.000
        27   02 Jun 2027 05:22:29.100   02 Jun 2027 05:22:42.776            13.676          6838.000
        28   02 Jun 2027 06:39:53.430   02 Jun 2027 06:40:23.772            30.342         15171.000
        29   02 Jun 2027 06:40:59.572   02 Jun 2027 06:40:59.572             0.000             0.000
        30   02 Jun 2027 06:52:06.771   02 Jun 2027 06:53:02.196            55.425         27712.500
        31   02 Jun 2027 08:14:20.893   02 Jun 2027 08:15:28.737            67.844         33922.000
        32   02 Jun 2027 08:16:17.395   02 Jun 2027 08:17:54.487            97.092         48546.000
        33   02 Jun 2027 09:49:13.985   02 Jun 2027 09:49:51.318            37.333         18666.500
        34   02 Jun 2027 09:50:30.323   02 Jun 2027 09:50:35.921             5.598          2734.187
        35   02 Jun 2027 09:50:39.717   02 Jun 2027 09:50:39.717             0.000             0.000
        36   02 Jun 2027 09:51:29.899   02 Jun 2027 09:51:35.992             6.093          1686.813
        37   02 Jun 2027 09:52:40.966   02 Jun 2027 09:52:49.796             8.830          1869.125
        38   02 Jun 2027 09:53:02.738   02 Jun 2027 09:53:03.638             0.900           197.437
        39   02 Jun 2027 09:55:03.639   02 Jun 2027 09:55:08.989             5.350          1995.937
        40   02 Jun 2027 09:55:52.420   02 Jun 2027 09:55:54.670             2.250           850.344
        41   02 Jun 2027 09:57:19.312   02 Jun 2027 09:57:24.314             5.002          1912.156
        42   02 Jun 2027 11:28:34.467   02 Jun 2027 11:28:56.988            22.521          8945.375
        43   02 Jun 2027 11:32:58.956   02 Jun 2027 11:33:14.575            15.619          6478.094
        44   02 Jun 2027 11:33:37.659   02 Jun 2027 11:33:40.291             2.632           721.375
        45   03 Jun 2027 03:49:01.762   03 Jun 2027 03:49:14.909            13.147          6573.500
        46   03 Jun 2027 03:49:29.138   03 Jun 2027 03:52:43.111           193.973         96986.500
        47   03 Jun 2027 05:27:48.343   03 Jun 2027 05:29:31.452           103.109         51554.500
        48   03 Jun 2027 05:30:19.166   03 Jun 2027 05:30:36.155            16.989          7791.156
        49   03 Jun 2027 05:31:10.330   03 Jun 2027 05:31:12.798             2.468           317.094
        50   03 Jun 2027 05:32:11.250   03 Jun 2027 05:32:13.229             1.979           841.281
        51   03 Jun 2027 05:32:57.486   03 Jun 2027 05:33:03.380             5.894          1097.344
        52   03 Jun 2027 05:33:45.708   03 Jun 2027 05:33:48.853             3.145          1160.313
        53   03 Jun 2027 06:51:59.501   03 Jun 2027 06:52:12.708            13.207          6147.031
        54   03 Jun 2027 06:52:49.765   03 Jun 2027 06:52:52.390             2.625           821.844
        55   03 Jun 2027 07:04:31.787   03 Jun 2027 07:04:33.549             1.762           881.000
        56   03 Jun 2027 08:25:49.802   03 Jun 2027 08:26:06.127            16.325          8015.469
        57   03 Jun 2027 08:27:04.009   03 Jun 2027 08:27:07.746             3.737          1178.531
        58   03 Jun 2027 08:27:53.054   03 Jun 2027 08:27:54.822             1.768           392.906
        59   03 Jun 2027 08:28:44.850   03 Jun 2027 08:28:47.298             2.448          1210.000
        60   03 Jun 2027 08:29:40.340   03 Jun 2027 08:29:43.297             2.957          1460.969
        61   03 Jun 2027 08:30:57.915   03 Jun 2027 08:31:04.714             6.799          1863.875
        62   03 Jun 2027 10:00:44.370   03 Jun 2027 10:00:49.444             5.074          2516.281
        63   03 Jun 2027 10:02:41.124   03 Jun 2027 10:02:45.384             4.260          1930.906
        64   03 Jun 2027 10:03:16.857   03 Jun 2027 10:03:16.857             0.000             0.000
        65   03 Jun 2027 10:03:41.989   03 Jun 2027 10:03:45.449             3.460          1260.812
        66   03 Jun 2027 10:04:28.306   03 Jun 2027 10:04:30.807             2.501           180.000
        67   03 Jun 2027 10:07:49.921   03 Jun 2027 10:07:57.044             7.123          2387.937
        68   03 Jun 2027 10:08:05.820   03 Jun 2027 10:08:07.713             1.893           178.250
        69   03 Jun 2027 10:09:15.888   03 Jun 2027 10:09:19.895             4.007          1670.656
        70   03 Jun 2027 10:09:42.336   03 Jun 2027 10:09:43.975             1.639           697.656
        71   03 Jun 2027 11:38:44.616   03 Jun 2027 11:38:59.624            15.008          5413.656
        72   03 Jun 2027 11:43:11.834   03 Jun 2027 11:43:27.001            15.167          7583.500
        73   03 Jun 2027 11:44:29.785   03 Jun 2027 11:44:40.951            11.166          2036.000
        74   03 Jun 2027 11:45:20.128   03 Jun 2027 11:45:24.069             3.941           538.969
        75   03 Jun 2027 11:45:33.054   03 Jun 2027 11:45:34.198             1.144           280.781
        76   04 Jun 2027 04:01:39.584   04 Jun 2027 04:01:46.803             7.219          3609.500
        77   04 Jun 2027 04:02:01.027   04 Jun 2027 04:03:02.336            61.309         30654.500
        78   04 Jun 2027 04:03:07.183   04 Jun 2027 04:05:14.177           126.994         63497.000
        79   04 Jun 2027 04:06:17.658   04 Jun 2027 04:06:35.362            17.704          8852.000
        80   04 Jun 2027 04:07:05.637   04 Jun 2027 04:07:11.179             5.542          2771.000
        81   04 Jun 2027 05:40:25.849   04 Jun 2027 05:41:15.283            49.434         24717.000
        82   04 Jun 2027 05:42:09.996   04 Jun 2027 05:43:07.703            57.707         27842.063
        83   04 Jun 2027 05:43:30.151   04 Jun 2027 05:43:31.808             1.657           638.438
        84   04 Jun 2027 05:44:38.424   04 Jun 2027 05:44:39.053             0.629           131.531
        85   04 Jun 2027 05:45:00.830   04 Jun 2027 05:45:01.569             0.739           312.031
        86   04 Jun 2027 07:03:55.904   04 Jun 2027 07:04:11.699            15.795          7185.219
        87   04 Jun 2027 07:05:08.960   04 Jun 2027 07:05:12.143             3.183          1585.062
        88   04 Jun 2027 07:06:10.522   04 Jun 2027 07:06:13.194             2.672          1336.000
        89   04 Jun 2027 08:40:08.383   04 Jun 2027 08:40:21.162            12.779          4806.219
        90   04 Jun 2027 08:40:33.772   04 Jun 2027 08:40:36.198             2.426           152.125
        91   04 Jun 2027 08:41:31.965   04 Jun 2027 08:41:34.842             2.877          1429.563
        92   04 Jun 2027 08:42:37.417   04 Jun 2027 08:42:40.822             3.405           823.531
        93   04 Jun 2027 08:43:14.140   04 Jun 2027 08:43:19.827             5.687          1021.344
        94   04 Jun 2027 10:13:41.269   04 Jun 2027 10:13:47.599             6.330          3081.406
        95   04 Jun 2027 10:15:36.685   04 Jun 2027 10:15:37.799             1.114           159.906
        96   04 Jun 2027 10:16:12.994   04 Jun 2027 10:16:14.882             1.888           496.781
        97   04 Jun 2027 10:18:32.994   04 Jun 2027 10:18:42.175             9.181          4229.187
        98   04 Jun 2027 10:19:41.163   04 Jun 2027 10:19:45.292             4.129          1764.563
        99   04 Jun 2027 10:20:44.413   04 Jun 2027 10:20:45.447             1.034           271.969
       100   04 Jun 2027 10:21:52.000   04 Jun 2027 10:21:56.238             4.238          1835.656
       101   04 Jun 2027 10:22:15.581   04 Jun 2027 10:22:15.742             0.161            80.500
       102   04 Jun 2027 11:51:07.061   04 Jun 2027 11:51:20.339            13.278          6317.562
       103   04 Jun 2027 11:53:17.331   04 Jun 2027 11:53:20.560             3.229          1463.594
       104   04 Jun 2027 11:55:33.729   04 Jun 2027 11:55:42.056             8.327          4116.000
       105   04 Jun 2027 11:56:47.111   04 Jun 2027 11:56:50.504             3.393          1198.344
       106   04 Jun 2027 11:57:05.212   04 Jun 2027 11:57:07.378             2.166           133.813
       107   04 Jun 2027 11:57:24.468   04 Jun 2027 11:57:25.774             1.306           534.062
       108   04 Jun 2027 11:57:53.318   04 Jun 2027 11:57:58.001             4.683           860.750
       109   05 Jun 2027 04:14:06.263   05 Jun 2027 04:14:12.786             6.523          3261.500
       110   05 Jun 2027 04:15:01.203   05 Jun 2027 04:17:35.695           154.492         77246.000
       111   05 Jun 2027 04:18:21.872   05 Jun 2027 04:18:54.887            33.015         16507.500
       112   05 Jun 2027 04:19:29.970   05 Jun 2027 04:19:49.708            19.738          9869.000
       113   05 Jun 2027 05:52:07.110   05 Jun 2027 05:52:41.000            33.890         16945.000
       114   05 Jun 2027 05:54:20.289   05 Jun 2027 05:54:27.124             6.835          3417.500
       115   05 Jun 2027 05:55:08.403   05 Jun 2027 05:56:31.903            83.500         41672.906
       116   05 Jun 2027 05:56:48.839   05 Jun 2027 05:56:51.573             2.734           249.281
       117   05 Jun 2027 07:15:47.554   05 Jun 2027 07:16:00.566            13.012          6422.562
       118   05 Jun 2027 07:17:10.271   05 Jun 2027 07:17:10.271             0.000             0.000
       119   05 Jun 2027 07:17:39.627   05 Jun 2027 07:17:45.422             5.795          2769.625
       120   05 Jun 2027 08:52:14.625   05 Jun 2027 08:52:38.771            24.146          8054.031
       121   05 Jun 2027 08:52:58.552   05 Jun 2027 08:53:01.669             3.117           601.687
       122   05 Jun 2027 08:53:45.416   05 Jun 2027 08:53:49.016             3.600           700.031
       123   05 Jun 2027 08:54:07.050   05 Jun 2027 08:54:07.050             0.000             0.000
       124   05 Jun 2027 08:54:43.868   05 Jun 2027 08:54:47.579             3.711          1341.344
       125   05 Jun 2027 10:24:25.747   05 Jun 2027 10:24:32.350             6.603          3301.500
       126   05 Jun 2027 10:26:20.095   05 Jun 2027 10:26:26.571             6.476          1958.281
       127   05 Jun 2027 10:28:06.296   05 Jun 2027 10:28:11.692             5.396          2615.594
       128   05 Jun 2027 10:29:25.382   05 Jun 2027 10:29:31.867             6.485          2186.719
       129   05 Jun 2027 10:31:25.985   05 Jun 2027 10:31:29.933             3.948          1695.406
       130   05 Jun 2027 10:32:29.946   05 Jun 2027 10:32:31.245             1.299           437.281
       131   05 Jun 2027 10:33:55.470   05 Jun 2027 10:34:00.399             4.929          2082.219
       132   05 Jun 2027 10:34:10.602   05 Jun 2027 10:34:12.462             1.860           315.125
       133   06 Jun 2027 04:26:12.378   06 Jun 2027 04:26:46.258            33.880         16940.000
       134   06 Jun 2027 04:27:42.476   06 Jun 2027 04:30:10.323           147.847         73923.500
       135   06 Jun 2027 04:30:46.792   06 Jun 2027 04:30:50.766             3.974          1987.000
       136   06 Jun 2027 04:31:31.203   06 Jun 2027 04:31:31.687             0.484           242.000
       137   06 Jun 2027 06:05:20.729   06 Jun 2027 06:07:44.289           143.560         71666.125
       138   06 Jun 2027 07:27:53.925   06 Jun 2027 07:28:00.938             7.013          3506.500
       139   06 Jun 2027 07:29:11.345   06 Jun 2027 07:29:21.996            10.651          3373.531
       140   06 Jun 2027 07:29:35.566   06 Jun 2027 07:29:37.336             1.770           329.750
       141   06 Jun 2027 09:04:22.537   06 Jun 2027 09:04:30.090             7.553          3647.250
       142   06 Jun 2027 09:05:26.530   06 Jun 2027 09:05:29.745             3.215          1214.219
       143   06 Jun 2027 09:06:23.392   06 Jun 2027 09:06:23.392             0.000             0.000
       144   06 Jun 2027 09:06:46.019   06 Jun 2027 09:06:49.526             3.507          1389.844
       145   06 Jun 2027 10:39:31.296   06 Jun 2027 10:39:44.740            13.444          5417.500
       146   06 Jun 2027 10:40:46.720   06 Jun 2027 10:40:50.374             3.654          1398.937
       147   06 Jun 2027 10:43:06.445   06 Jun 2027 10:43:11.182             4.737          1152.937
       148   06 Jun 2027 10:43:50.504   06 Jun 2027 10:43:53.234             2.730           432.156
       149   06 Jun 2027 10:45:34.872   06 Jun 2027 10:45:44.283             9.411          2407.750
       150   06 Jun 2027 10:46:05.670   06 Jun 2027 10:46:07.734             2.064           668.344
       151   06 Jun 2027 10:46:14.261   06 Jun 2027 10:46:14.845             0.584           118.656
       152   07 Jun 2027 03:00:05.108   07 Jun 2027 03:00:12.944             7.836          3918.000
       153   07 Jun 2027 03:00:48.450   07 Jun 2027 03:01:21.090            32.640         16320.000
       154   07 Jun 2027 03:03:17.762   07 Jun 2027 03:03:18.050             0.288           144.000
       155   07 Jun 2027 03:04:17.306   07 Jun 2027 03:04:20.253             2.947          1473.500
       156   07 Jun 2027 03:04:23.402   07 Jun 2027 03:04:34.147            10.745          5372.500
       157   07 Jun 2027 03:05:34.294   07 Jun 2027 03:05:38.836             4.542          2271.000
       158   07 Jun 2027 03:06:00.649   07 Jun 2027 03:06:04.398             3.749          1874.500
       159   07 Jun 2027 03:06:56.369   07 Jun 2027 03:07:03.858             7.489          3744.500
       160   07 Jun 2027 04:38:16.994   07 Jun 2027 04:38:58.407            41.413         20706.500
       161   07 Jun 2027 04:39:20.545   07 Jun 2027 04:41:51.614           151.069         75534.500
       162   07 Jun 2027 06:16:29.778   07 Jun 2027 06:17:06.227            36.449         18224.500
       163   07 Jun 2027 06:17:34.858   07 Jun 2027 06:18:05.446            30.588         15181.844
       164   07 Jun 2027 07:39:56.811   07 Jun 2027 07:40:09.776            12.965          5184.469
       165   07 Jun 2027 07:40:53.662   07 Jun 2027 07:40:56.573             2.911          1024.813
       166   07 Jun 2027 07:42:32.512   07 Jun 2027 07:42:39.468             6.956          2512.281
       167   07 Jun 2027 09:16:25.403   07 Jun 2027 09:16:33.548             8.145          2202.813
       168   07 Jun 2027 09:18:05.949   07 Jun 2027 09:18:13.950             8.001          2764.781
       169   07 Jun 2027 09:18:47.872   07 Jun 2027 09:18:57.168             9.296           814.344
       170   07 Jun 2027 10:51:37.830   07 Jun 2027 10:51:45.633             7.803          3514.687
       171   07 Jun 2027 10:53:02.686   07 Jun 2027 10:53:02.686             0.000             0.000
       172   07 Jun 2027 10:53:34.325   07 Jun 2027 10:53:42.768             8.443          3271.000
       173   07 Jun 2027 10:57:58.202   07 Jun 2027 10:58:11.772            13.570          6623.063
       174   08 Jun 2027 03:12:04.111   08 Jun 2027 03:12:18.940            14.829          7414.500
       175   08 Jun 2027 03:12:20.036   08 Jun 2027 03:13:25.097            65.061         32530.500
       176   08 Jun 2027 03:13:51.719   08 Jun 2027 03:14:05.139            13.420          6710.000
       177   08 Jun 2027 03:14:21.983   08 Jun 2027 03:14:51.771            29.788         14894.000
       178   08 Jun 2027 03:17:08.844   08 Jun 2027 03:17:14.564             5.720          2860.000
       179   08 Jun 2027 04:51:21.600   08 Jun 2027 04:54:21.080           179.480         88499.782
       180   08 Jun 2027 04:55:32.988   08 Jun 2027 04:55:35.944             2.956          1478.000
       181   08 Jun 2027 04:56:03.870   08 Jun 2027 04:56:08.754             4.884           902.625
       182   08 Jun 2027 04:58:01.671   08 Jun 2027 04:58:10.736             9.065          2811.000
       183   08 Jun 2027 06:17:33.733   08 Jun 2027 06:17:43.955            10.222          4849.938
       184   08 Jun 2027 06:28:25.558   08 Jun 2027 06:28:29.601             4.043          2013.219
       185   08 Jun 2027 06:29:25.629   08 Jun 2027 06:29:29.238             3.609          1540.594
       186   08 Jun 2027 07:52:23.756   08 Jun 2027 07:52:38.192            14.436          6659.469
       187   08 Jun 2027 07:52:56.159   08 Jun 2027 07:53:03.763             7.604           241.625
       188   08 Jun 2027 07:54:27.340   08 Jun 2027 07:54:32.376             5.036          2337.812
       189   08 Jun 2027 07:54:47.880   08 Jun 2027 07:54:50.213             2.333           453.000
       190   08 Jun 2027 09:28:08.809   08 Jun 2027 09:28:13.694             4.885          2029.750
       191   08 Jun 2027 09:30:15.664   08 Jun 2027 09:30:28.422            12.758          3348.156
       192   08 Jun 2027 09:30:45.248   08 Jun 2027 09:30:49.138             3.890            23.844
       193   08 Jun 2027 09:31:40.860   08 Jun 2027 09:31:49.883             9.023          1609.125
       194   08 Jun 2027 11:02:52.157   08 Jun 2027 11:03:02.309            10.152          5076.000
       195   08 Jun 2027 11:03:32.500   08 Jun 2027 11:03:39.949             7.449          1699.125
       196   08 Jun 2027 11:06:18.549   08 Jun 2027 11:06:21.601             3.052          1442.688
       197   08 Jun 2027 11:09:48.071   08 Jun 2027 11:10:02.609            14.538          6452.188
       198   09 Jun 2027 03:24:44.347   09 Jun 2027 03:27:28.386           164.039         82019.500
       199   09 Jun 2027 03:30:17.461   09 Jun 2027 03:30:42.991            25.530         12765.000
       200   09 Jun 2027 03:31:01.665   09 Jun 2027 03:31:07.782             6.117          3058.500
       201   09 Jun 2027 05:03:43.940   09 Jun 2027 05:05:25.837           101.897         50585.969
       202   09 Jun 2027 05:06:29.647   09 Jun 2027 05:06:32.446             2.799          1207.562
       203   09 Jun 2027 05:07:07.924   09 Jun 2027 05:07:12.539             4.615           934.156
       204   09 Jun 2027 05:08:02.770   09 Jun 2027 05:08:05.851             3.081           960.969
       205   09 Jun 2027 05:08:38.766   09 Jun 2027 05:08:47.756             8.990           668.969
       206   09 Jun 2027 05:09:34.528   09 Jun 2027 05:09:37.624             3.096          1401.563
       207   09 Jun 2027 05:09:51.743   09 Jun 2027 05:09:54.622             2.879           104.437
       208   09 Jun 2027 06:28:48.198   09 Jun 2027 06:28:56.960             8.762          3659.375
       209   09 Jun 2027 06:29:37.983   09 Jun 2027 06:29:42.607             4.624           518.500
       210   09 Jun 2027 06:40:26.820   09 Jun 2027 06:40:32.192             5.372          1956.469
       211   09 Jun 2027 08:02:59.862   09 Jun 2027 08:03:11.528            11.666          5223.000
       212   09 Jun 2027 08:03:31.705   09 Jun 2027 08:03:33.602             1.897           489.531
       213   09 Jun 2027 08:03:57.002   09 Jun 2027 08:04:00.095             3.093           283.281
       214   09 Jun 2027 08:04:58.428   09 Jun 2027 08:05:03.334             4.906          1479.031
       215   09 Jun 2027 08:06:20.140   09 Jun 2027 08:06:27.624             7.484          2114.250
       216   09 Jun 2027 08:06:50.987   09 Jun 2027 08:06:50.987             0.000             0.000
       217   09 Jun 2027 08:07:37.638   09 Jun 2027 08:07:42.573             4.935          2020.313
       218   09 Jun 2027 09:38:03.230   09 Jun 2027 09:38:04.803             1.573           786.500
       219   09 Jun 2027 09:38:53.226   09 Jun 2027 09:39:03.845            10.619          3178.750
       220   09 Jun 2027 09:40:15.723   09 Jun 2027 09:40:20.931             5.208          2143.250
       221   09 Jun 2027 09:42:50.463   09 Jun 2027 09:43:00.951            10.488          3908.563
       222   09 Jun 2027 09:43:34.222   09 Jun 2027 09:43:38.667             4.445           675.125
       223   09 Jun 2027 09:44:09.562   09 Jun 2027 09:44:09.562             0.000             0.000
       224   09 Jun 2027 09:44:19.452   09 Jun 2027 09:44:21.224             1.772           778.031
       225   09 Jun 2027 11:16:01.789   09 Jun 2027 11:16:12.526            10.737          5304.562
       226   09 Jun 2027 11:18:10.015   09 Jun 2027 11:18:15.184             5.169          1900.875
       227   09 Jun 2027 11:19:47.343   09 Jun 2027 11:19:53.784             6.441          2879.969
       228   09 Jun 2027 11:20:28.491   09 Jun 2027 11:20:34.016             5.525           822.500
       229   09 Jun 2027 11:21:17.117   09 Jun 2027 11:21:21.053             3.936           980.906
       230   09 Jun 2027 11:21:56.823   09 Jun 2027 11:21:59.155             2.332           572.156
       231   10 Jun 2027 03:37:00.794   10 Jun 2027 03:39:46.975           166.181         83090.500
       232   10 Jun 2027 05:16:03.580   10 Jun 2027 05:18:11.339           127.759         63879.500
       233   10 Jun 2027 05:19:56.925   10 Jun 2027 05:20:15.007            18.082          8431.031
       234   10 Jun 2027 05:20:34.936   10 Jun 2027 05:20:36.129             1.193           382.938
       235   10 Jun 2027 05:20:53.156   10 Jun 2027 05:21:00.305             7.149           296.875
       236   10 Jun 2027 05:21:28.277   10 Jun 2027 05:21:30.127             1.850           518.156
       237   10 Jun 2027 05:22:07.136   10 Jun 2027 05:22:10.381             3.245           872.906
       238   10 Jun 2027 05:22:47.597   10 Jun 2027 05:22:50.403             2.806           313.437
       239   10 Jun 2027 06:40:09.178   10 Jun 2027 06:40:16.566             7.388          3409.406
       240   10 Jun 2027 06:40:46.562   10 Jun 2027 06:40:50.013             3.451           937.375
       241   10 Jun 2027 06:41:15.190   10 Jun 2027 06:41:16.113             0.923           461.500
       242   10 Jun 2027 06:41:23.115   10 Jun 2027 06:41:25.012             1.897           348.156
       243   10 Jun 2027 06:42:12.654   10 Jun 2027 06:42:17.248             4.594          1205.688
       244   10 Jun 2027 06:52:24.196   10 Jun 2027 06:52:31.945             7.749          1919.500
       245   10 Jun 2027 08:14:29.605   10 Jun 2027 08:14:45.008            15.403          5648.719
       246   10 Jun 2027 08:14:55.184   10 Jun 2027 08:14:55.184             0.000             0.000
       247   10 Jun 2027 08:15:33.540   10 Jun 2027 08:15:38.991             5.451          1274.688
       248   10 Jun 2027 08:16:33.481   10 Jun 2027 08:16:38.278             4.797          1468.156
       249   10 Jun 2027 08:17:11.890   10 Jun 2027 08:17:14.120             2.230          1050.375
       250   10 Jun 2027 08:18:31.908   10 Jun 2027 08:18:37.773             5.865          1903.313
       251   10 Jun 2027 08:19:31.011   10 Jun 2027 08:19:33.285             2.274          1137.000
       252   10 Jun 2027 09:49:27.924   10 Jun 2027 09:49:39.352            11.428          2994.062
       253   10 Jun 2027 09:50:54.890   10 Jun 2027 09:50:54.890             0.000             0.000
       254   10 Jun 2027 09:50:57.773   10 Jun 2027 09:51:01.015             3.242           258.125
       255   10 Jun 2027 09:52:42.953   10 Jun 2027 09:52:49.521             6.568          1700.438
       256   10 Jun 2027 09:53:30.671   10 Jun 2027 09:53:32.172             1.501           600.969
       257   10 Jun 2027 09:54:51.089   10 Jun 2027 09:54:52.021             0.932           261.031
       258   10 Jun 2027 09:56:11.362   10 Jun 2027 09:56:13.810             2.448           842.250
       259   10 Jun 2027 09:56:35.309   10 Jun 2027 09:56:38.442             3.133           671.844
       260   10 Jun 2027 11:27:04.468   10 Jun 2027 11:27:18.213            13.745          4548.781
       261   10 Jun 2027 11:27:58.486   10 Jun 2027 11:27:58.796             0.310           101.844
       262   10 Jun 2027 11:29:46.374   10 Jun 2027 11:29:46.374             0.000             0.000
       263   10 Jun 2027 11:33:14.414   10 Jun 2027 11:33:32.324            17.910          8250.375
       264   10 Jun 2027 11:33:53.228   10 Jun 2027 11:33:54.833             1.605           418.781
       265   11 Jun 2027 03:49:26.439   11 Jun 2027 03:49:32.268             5.829          2914.500
       266   11 Jun 2027 03:49:47.262   11 Jun 2027 03:51:24.068            96.806         48403.000
       267   11 Jun 2027 03:52:57.465   11 Jun 2027 03:53:21.420            23.955         11977.500
       268   11 Jun 2027 03:53:51.802   11 Jun 2027 03:54:00.345             8.543          4271.500
       269   11 Jun 2027 03:54:39.925   11 Jun 2027 03:55:17.079            37.154         18577.000
       270   11 Jun 2027 05:28:08.197   11 Jun 2027 05:29:45.893            97.696         48848.000
       271   11 Jun 2027 05:30:33.252   11 Jun 2027 05:31:11.807            38.555         19216.750
       272   11 Jun 2027 05:31:27.940   11 Jun 2027 05:31:29.999             2.059           351.312
       273   11 Jun 2027 05:32:25.664   11 Jun 2027 05:32:27.437             1.773           827.906
       274   11 Jun 2027 05:33:14.566   11 Jun 2027 05:33:18.718             4.152          1161.719
       275   11 Jun 2027 05:33:59.287   11 Jun 2027 05:34:03.949             4.662          1102.781
       276   11 Jun 2027 06:52:16.319   11 Jun 2027 06:52:31.840            15.521          6929.875
       277   11 Jun 2027 06:53:07.216   11 Jun 2027 06:53:07.216             0.000             0.000
       278   11 Jun 2027 06:53:24.737   11 Jun 2027 06:53:28.879             4.142          1430.531
       279   11 Jun 2027 06:54:01.589   11 Jun 2027 06:54:05.904             4.315           495.844
       280   11 Jun 2027 08:26:05.863   11 Jun 2027 08:26:19.572            13.709          5725.656
       281   11 Jun 2027 08:27:22.049   11 Jun 2027 08:27:26.298             4.249          1239.750
       282   11 Jun 2027 08:28:00.639   11 Jun 2027 08:28:04.529             3.890           222.031
       283   11 Jun 2027 08:29:10.602   11 Jun 2027 08:29:15.021             4.419          2050.281
       284   11 Jun 2027 08:30:30.016   11 Jun 2027 08:30:34.937             4.921          1596.063
       285   11 Jun 2027 08:30:56.762   11 Jun 2027 08:30:58.900             2.138           624.250
       286   11 Jun 2027 08:31:31.284   11 Jun 2027 08:31:34.180             2.896           509.875
       287   11 Jun 2027 10:00:58.377   11 Jun 2027 10:01:08.801            10.424          3743.625
       288   11 Jun 2027 10:03:20.914   11 Jun 2027 10:03:20.914             0.000             0.000
       289   11 Jun 2027 10:03:36.544   11 Jun 2027 10:03:39.675             3.131          1168.875
       290   11 Jun 2027 10:03:56.678   11 Jun 2027 10:04:00.759             4.081           453.937
       291   11 Jun 2027 10:04:39.373   11 Jun 2027 10:04:41.788             2.415          1202.625
       292   11 Jun 2027 10:06:51.166   11 Jun 2027 10:06:59.084             7.918          3959.000
       293   11 Jun 2027 10:08:02.233   11 Jun 2027 10:08:07.898             5.665          2032.156
       294   11 Jun 2027 10:08:31.499   11 Jun 2027 10:08:34.323             2.824           317.812
       295   11 Jun 2027 10:09:58.846   11 Jun 2027 10:10:03.817             4.971          1368.188
       296   11 Jun 2027 11:39:03.795   11 Jun 2027 11:39:19.887            16.092          6080.437
       297   11 Jun 2027 11:43:43.032   11 Jun 2027 11:44:00.378            17.346          7891.594
       298   11 Jun 2027 11:45:21.195   11 Jun 2027 11:45:25.926             4.731          1984.875
       299   11 Jun 2027 11:45:58.763   11 Jun 2027 11:46:01.578             2.815          1026.156
       300   12 Jun 2027 04:01:57.738   12 Jun 2027 04:02:00.555             2.817          1408.500
       301   12 Jun 2027 04:02:19.380   12 Jun 2027 04:02:57.735            38.355         19177.500
       302   12 Jun 2027 04:03:13.786   12 Jun 2027 04:03:19.082             5.296          2648.000
       303   12 Jun 2027 04:03:24.191   12 Jun 2027 04:05:24.068           119.877         59938.500
       304   12 Jun 2027 04:06:31.994   12 Jun 2027 04:06:54.388            22.394         11197.000
       305   12 Jun 2027 04:07:18.679   12 Jun 2027 04:07:25.770             7.091          3545.500
       306   12 Jun 2027 05:40:44.862   12 Jun 2027 05:41:30.119            45.257         22628.500
       307   12 Jun 2027 05:42:28.484   12 Jun 2027 05:43:55.922            87.438         41324.844
       308   12 Jun 2027 05:44:52.330   12 Jun 2027 05:44:53.252             0.922            97.813
       309   12 Jun 2027 05:45:17.939   12 Jun 2027 05:45:19.047             1.108           369.156
       310   12 Jun 2027 07:04:14.305   12 Jun 2027 07:04:31.948            17.643          6653.531
       311   12 Jun 2027 07:05:26.222   12 Jun 2027 07:05:29.607             3.385          1642.625
       312   12 Jun 2027 07:06:28.386   12 Jun 2027 07:06:28.386             0.000             0.000
       313   12 Jun 2027 08:40:14.926   12 Jun 2027 08:40:25.503            10.577          4910.344
       314   12 Jun 2027 08:41:03.466   12 Jun 2027 08:41:05.192             1.726           382.062
       315   12 Jun 2027 08:41:33.444   12 Jun 2027 08:41:35.326             1.882           780.844
       316   12 Jun 2027 08:42:27.133   12 Jun 2027 08:42:33.800             6.667          1171.000
       317   12 Jun 2027 08:42:59.375   12 Jun 2027 08:43:00.334             0.959           233.969
       318   12 Jun 2027 10:13:58.599   12 Jun 2027 10:14:09.313            10.714          2618.062
       319   12 Jun 2027 10:15:48.413   12 Jun 2027 10:15:48.413             0.000             0.000
       320   12 Jun 2027 10:16:16.269   12 Jun 2027 10:16:23.145             6.876          2380.937
       321   12 Jun 2027 10:18:50.593   12 Jun 2027 10:18:59.486             8.893          4286.875
       322   12 Jun 2027 10:19:56.434   12 Jun 2027 10:19:57.994             1.560           591.813
       323   12 Jun 2027 10:21:04.465   12 Jun 2027 10:21:06.274             1.809           288.094
       324   12 Jun 2027 10:22:10.194   12 Jun 2027 10:22:14.619             4.425          1922.031
       325   12 Jun 2027 10:22:32.084   12 Jun 2027 10:22:33.211             1.127           545.781
       326   12 Jun 2027 11:51:26.923   12 Jun 2027 11:51:41.496            14.573          6140.750
       327   12 Jun 2027 11:53:35.157   12 Jun 2027 11:53:37.934             2.777          1388.500
       328   12 Jun 2027 11:55:42.897   12 Jun 2027 11:55:50.883             7.986          3975.313
       329   12 Jun 2027 11:55:57.065   12 Jun 2027 11:56:01.385             4.320            73.094
       330   12 Jun 2027 11:57:02.212   12 Jun 2027 11:57:12.793            10.581          1147.625
       331   12 Jun 2027 11:57:20.424   12 Jun 2027 11:57:23.130             2.706            94.875
       332   12 Jun 2027 11:57:38.986   12 Jun 2027 11:57:41.472             2.486           495.500
       333   12 Jun 2027 11:58:10.520   12 Jun 2027 11:58:12.820             2.300           857.688
       334   13 Jun 2027 04:14:22.211   13 Jun 2027 04:14:50.241            28.030         14015.000
       335   13 Jun 2027 04:14:54.254   13 Jun 2027 04:16:18.318            84.064         42032.000
       336   13 Jun 2027 04:17:50.390   13 Jun 2027 04:17:53.154             2.764          1382.000
       337   13 Jun 2027 04:18:37.346   13 Jun 2027 04:19:45.598            68.252         34126.000
       338   13 Jun 2027 05:52:24.641   13 Jun 2027 05:52:55.558            30.917         15458.500
       339   13 Jun 2027 05:54:38.904   13 Jun 2027 05:56:45.568           126.664         62795.032
       340   13 Jun 2027 05:57:03.307   13 Jun 2027 05:57:06.941             3.634           243.656
       341   13 Jun 2027 07:16:04.107   13 Jun 2027 07:16:25.505            21.398          8452.594
       342   13 Jun 2027 07:18:10.639   13 Jun 2027 07:18:18.510             7.871          3259.969
       343   13 Jun 2027 08:52:30.981   13 Jun 2027 08:52:52.156            21.175          7938.094
       344   13 Jun 2027 08:53:18.121   13 Jun 2027 08:53:22.178             4.057           811.406
       345   13 Jun 2027 08:54:03.316   13 Jun 2027 08:54:06.010             2.694           702.375
       346   13 Jun 2027 08:54:23.048   13 Jun 2027 08:54:23.048             0.000             0.000
       347   13 Jun 2027 08:55:01.757   13 Jun 2027 08:55:05.554             3.797          1470.625
       348   13 Jun 2027 10:24:39.615   13 Jun 2027 10:24:50.070            10.455          5227.500
       349   13 Jun 2027 10:27:00.512   13 Jun 2027 10:27:12.386            11.874          3951.812
       350   13 Jun 2027 10:29:47.281   13 Jun 2027 10:29:52.585             5.304          2530.781
       351   13 Jun 2027 10:31:41.695   13 Jun 2027 10:31:48.868             7.173          1638.969
       352   13 Jun 2027 10:32:06.498   13 Jun 2027 10:32:07.767             1.269           532.219
       353   13 Jun 2027 10:32:51.320   13 Jun 2027 10:32:59.094             7.774          1243.688
       354   13 Jun 2027 10:33:47.690   13 Jun 2027 10:33:49.598             1.908           772.844
       355   13 Jun 2027 10:33:59.103   13 Jun 2027 10:34:01.349             2.246           184.812
       356   13 Jun 2027 10:34:18.495   13 Jun 2027 10:34:18.947             0.452           222.344
