uniorb/output/strategy_4/Camera/Camera_KinoSat_112004.txt

KinoSat_112004
-------------------------
    Access    *     Start Time (UTCG)     *     Stop Time (UTCG)  *   Duration (s) *   Data (Mbytes)
         1   01 Jun 2027 03:06:25.068   01 Jun 2027 03:07:21.090            56.022         28011.000
         2   01 Jun 2027 03:07:42.902   01 Jun 2027 03:07:58.223            15.321          7660.500
         3   01 Jun 2027 03:08:41.671   01 Jun 2027 03:08:41.859             0.188            94.000
         4   01 Jun 2027 03:09:05.916   01 Jun 2027 03:09:15.695             9.779          4889.500
         5   01 Jun 2027 03:10:20.492   01 Jun 2027 03:10:30.815            10.323          5161.500
         6   01 Jun 2027 03:11:08.389   01 Jun 2027 03:11:16.529             8.140          4070.000
         7   01 Jun 2027 03:12:02.781   01 Jun 2027 03:12:07.537             4.756          2378.000
         8   01 Jun 2027 03:12:13.803   01 Jun 2027 03:12:14.092             0.289           144.500
         9   01 Jun 2027 03:12:36.341   01 Jun 2027 03:12:48.451            12.110          6055.000
        10   01 Jun 2027 04:43:39.164   01 Jun 2027 04:43:43.879             4.715          2357.500
        11   01 Jun 2027 04:44:00.277   01 Jun 2027 04:45:24.001            83.724         41862.000
        12   01 Jun 2027 04:46:09.682   01 Jun 2027 04:46:27.377            17.695          8847.500
        13   01 Jun 2027 04:48:06.159   01 Jun 2027 04:48:18.692            12.533          6266.500
        14   01 Jun 2027 06:22:21.282   01 Jun 2027 06:24:17.861           116.579         58289.500
        15   01 Jun 2027 06:24:37.607   01 Jun 2027 06:24:40.637             3.030          1515.000
        16   01 Jun 2027 06:25:17.280   01 Jun 2027 06:25:24.808             7.528          3764.000
        17   01 Jun 2027 06:25:58.655   01 Jun 2027 06:26:02.298             3.643          1821.500
        18   01 Jun 2027 06:26:37.166   01 Jun 2027 06:27:03.226            26.060         13030.000
        19   01 Jun 2027 07:46:28.819   01 Jun 2027 07:47:05.865            37.046         18523.000
        20   01 Jun 2027 07:47:31.040   01 Jun 2027 07:47:44.931            13.891          6945.500
        21   01 Jun 2027 09:20:18.412   01 Jun 2027 09:21:09.079            50.667         25333.500
        22   01 Jun 2027 09:22:29.747   01 Jun 2027 09:24:19.271           109.524         54762.000
        23   01 Jun 2027 09:25:26.894   01 Jun 2027 09:25:26.894             0.000             0.000
        24   01 Jun 2027 10:55:10.886   01 Jun 2027 10:56:18.785            67.899         33949.500
        25   01 Jun 2027 10:57:45.829   01 Jun 2027 10:57:54.323             8.494          4247.000
        26   01 Jun 2027 11:04:13.243   01 Jun 2027 11:04:44.099            30.856         15428.000
        27   02 Jun 2027 03:18:24.893   02 Jun 2027 03:18:59.795            34.902         17451.000
        28   02 Jun 2027 03:20:41.743   02 Jun 2027 03:20:41.743             0.000             0.000
        29   02 Jun 2027 03:20:49.469   02 Jun 2027 03:21:29.641            40.172         20086.000
        30   02 Jun 2027 03:22:44.635   02 Jun 2027 03:22:58.240            13.605          6802.500
        31   02 Jun 2027 03:23:51.573   02 Jun 2027 03:25:43.122           111.549         55774.500
        32   02 Jun 2027 04:56:32.638   02 Jun 2027 04:57:30.858            58.220         29110.000
        33   02 Jun 2027 04:57:36.632   02 Jun 2027 04:58:19.212            42.580         21290.000
        34   02 Jun 2027 04:58:49.921   02 Jun 2027 04:59:09.252            19.331          9665.500
        35   02 Jun 2027 05:01:29.674   02 Jun 2027 05:01:50.418            20.744         10372.000
        36   02 Jun 2027 06:34:58.086   02 Jun 2027 06:37:48.691           170.605         85302.500
        37   02 Jun 2027 06:37:57.348   02 Jun 2027 06:39:39.432           102.084         51042.000
        38   02 Jun 2027 07:58:26.696   02 Jun 2027 07:59:08.303            41.607         20803.500
        39   02 Jun 2027 07:59:22.752   02 Jun 2027 07:59:46.488            23.736         11868.000
        40   02 Jun 2027 09:34:27.375   02 Jun 2027 09:35:39.140            71.765         35319.094
        41   02 Jun 2027 09:35:51.775   02 Jun 2027 09:35:52.680             0.905           189.938
        42   02 Jun 2027 09:37:44.255   02 Jun 2027 09:37:47.644             3.389          1482.906
        43   02 Jun 2027 11:08:11.155   02 Jun 2027 11:08:17.736             6.581          3251.344
        44   02 Jun 2027 11:10:46.625   02 Jun 2027 11:10:53.503             6.878           925.344
        45   02 Jun 2027 11:11:29.144   02 Jun 2027 11:11:54.330            25.186          1111.594
        46   02 Jun 2027 11:12:33.962   02 Jun 2027 11:12:43.130             9.168             3.906
        47   02 Jun 2027 11:13:01.325   02 Jun 2027 11:13:06.857             5.532            28.813
        48   02 Jun 2027 11:13:51.254   02 Jun 2027 11:13:54.222             2.968           839.969
        49   02 Jun 2027 11:15:50.345   02 Jun 2027 11:15:59.176             8.831          3400.875
        50   02 Jun 2027 11:16:14.138   02 Jun 2027 11:16:22.187             8.049            35.156
        51   03 Jun 2027 03:30:30.393   03 Jun 2027 03:30:43.150            12.757          6378.500
        52   03 Jun 2027 03:30:55.851   03 Jun 2027 03:31:10.752            14.901          7450.500
        53   03 Jun 2027 03:32:16.866   03 Jun 2027 03:35:25.649           188.783         94391.500
        54   03 Jun 2027 03:37:28.496   03 Jun 2027 03:37:43.251            14.755          7377.500
        55   03 Jun 2027 05:09:56.303   03 Jun 2027 05:10:45.940            49.637         24818.500
        56   03 Jun 2027 05:11:11.873   03 Jun 2027 05:11:32.170            20.297         10148.500
        57   03 Jun 2027 05:12:27.069   03 Jun 2027 05:13:31.042            63.973         31397.718
        58   03 Jun 2027 05:14:29.984   03 Jun 2027 05:14:33.893             3.909          1841.937
        59   03 Jun 2027 06:46:37.215   03 Jun 2027 06:47:04.187            26.972         13446.594
        60   03 Jun 2027 06:47:08.454   03 Jun 2027 06:47:11.132             2.678           133.344
        61   03 Jun 2027 06:47:38.042   03 Jun 2027 06:47:39.077             1.035           131.031
        62   03 Jun 2027 06:48:40.964   03 Jun 2027 06:48:44.309             3.345           416.438
        63   03 Jun 2027 06:49:35.080   03 Jun 2027 06:49:37.164             2.084           946.187
        64   03 Jun 2027 06:50:44.062   03 Jun 2027 06:50:47.620             3.558          1640.312
        65   03 Jun 2027 08:10:16.790   03 Jun 2027 08:10:29.544            12.754          5956.500
        66   03 Jun 2027 08:12:41.143   03 Jun 2027 08:12:47.990             6.847          3412.313
        67   03 Jun 2027 09:46:43.661   03 Jun 2027 09:46:51.606             7.945          3746.437
        68   03 Jun 2027 09:47:57.565   03 Jun 2027 09:48:03.022             5.457          1030.781
        69   03 Jun 2027 09:48:29.413   03 Jun 2027 09:48:32.921             3.508           117.500
        70   03 Jun 2027 09:49:47.254   03 Jun 2027 09:49:53.850             6.596          2293.375
        71   03 Jun 2027 11:20:50.414   03 Jun 2027 11:20:57.455             7.041          3520.500
        72   03 Jun 2027 11:22:46.470   03 Jun 2027 11:22:46.470             0.000             0.000
        73   03 Jun 2027 11:22:53.203   03 Jun 2027 11:23:04.403            11.200          4231.750
        74   03 Jun 2027 11:24:22.754   03 Jun 2027 11:24:24.796             2.042           454.719
        75   03 Jun 2027 11:24:45.815   03 Jun 2027 11:24:47.658             1.843           656.844
        76   03 Jun 2027 11:26:02.451   03 Jun 2027 11:26:02.451             0.000             0.000
        77   03 Jun 2027 11:28:23.539   03 Jun 2027 11:28:37.699            14.160          6500.313
        78   03 Jun 2027 11:28:41.086   03 Jun 2027 11:28:41.481             0.395            48.375
        79   04 Jun 2027 03:42:33.263   04 Jun 2027 03:42:51.044            17.781          8890.500
        80   04 Jun 2027 03:43:44.890   04 Jun 2027 03:45:46.236           121.346         60673.000
        81   04 Jun 2027 03:46:02.381   04 Jun 2027 03:46:35.252            32.871         16435.500
        82   04 Jun 2027 03:47:20.063   04 Jun 2027 03:48:16.356            56.293         28146.500
        83   04 Jun 2027 03:48:20.661   04 Jun 2027 03:48:21.943             1.282           641.000
        84   04 Jun 2027 05:20:42.454   04 Jun 2027 05:21:32.744            50.290         25145.000
        85   04 Jun 2027 05:22:40.322   04 Jun 2027 05:23:56.399            76.077         36653.500
        86   04 Jun 2027 05:25:04.975   04 Jun 2027 05:25:11.483             6.508          1947.563
        87   04 Jun 2027 05:25:47.134   04 Jun 2027 05:25:48.714             1.580           790.000
        88   04 Jun 2027 06:59:50.607   04 Jun 2027 07:00:01.848            11.241          5517.500
        89   04 Jun 2027 07:01:29.734   04 Jun 2027 07:01:32.342             2.608           823.063
        90   04 Jun 2027 07:01:50.862   04 Jun 2027 07:01:53.105             2.243           336.844
        91   04 Jun 2027 07:02:03.828   04 Jun 2027 07:02:04.634             0.806           287.250
        92   04 Jun 2027 07:02:41.552   04 Jun 2027 07:02:44.455             2.903          1033.531
        93   04 Jun 2027 08:22:24.983   04 Jun 2027 08:22:37.563            12.580          5963.250
        94   04 Jun 2027 08:24:01.299   04 Jun 2027 08:24:06.401             5.102          1017.375
        95   04 Jun 2027 08:25:20.366   04 Jun 2027 08:25:26.455             6.089          2311.406
        96   04 Jun 2027 09:58:53.175   04 Jun 2027 09:58:58.999             5.824          2699.312
        97   04 Jun 2027 10:00:31.041   04 Jun 2027 10:00:35.343             4.302          2062.688
        98   04 Jun 2027 10:00:51.765   04 Jun 2027 10:00:52.432             0.667           181.781
        99   04 Jun 2027 10:01:52.836   04 Jun 2027 10:01:55.193             2.357           515.000
       100   04 Jun 2027 11:35:35.406   04 Jun 2027 11:36:04.650            29.244         12797.406
       101   04 Jun 2027 11:37:29.694   04 Jun 2027 11:37:31.934             2.240           869.750
       102   04 Jun 2027 11:40:07.984   04 Jun 2027 11:40:18.628            10.644          4626.625
       103   05 Jun 2027 03:54:30.715   05 Jun 2027 03:55:14.185            43.470         21735.000
       104   05 Jun 2027 03:55:14.284   05 Jun 2027 03:57:25.127           130.843         65421.500
       105   05 Jun 2027 05:32:47.357   05 Jun 2027 05:33:04.340            16.983          8491.500
       106   05 Jun 2027 05:33:50.132   05 Jun 2027 05:36:11.567           141.435         69216.156
       107   05 Jun 2027 05:41:06.350   05 Jun 2027 05:41:20.962            14.612          7178.687
       108   05 Jun 2027 07:10:59.121   05 Jun 2027 07:11:13.001            13.880          6533.219
       109   05 Jun 2027 07:12:05.109   05 Jun 2027 07:12:07.069             1.960           629.406
       110   05 Jun 2027 07:12:55.647   05 Jun 2027 07:13:01.864             6.217           814.938
       111   05 Jun 2027 07:13:23.245   05 Jun 2027 07:13:25.473             2.228           650.562
       112   05 Jun 2027 07:14:09.150   05 Jun 2027 07:14:11.147             1.997           589.531
       113   05 Jun 2027 08:34:26.516   05 Jun 2027 08:34:51.556            25.040         11117.156
       114   05 Jun 2027 08:35:43.068   05 Jun 2027 08:35:44.746             1.678           361.906
       115   05 Jun 2027 08:37:09.085   05 Jun 2027 08:37:18.174             9.089          2479.688
       116   05 Jun 2027 10:10:54.057   05 Jun 2027 10:11:01.230             7.173          2808.813
       117   05 Jun 2027 10:12:37.479   05 Jun 2027 10:12:42.153             4.674          2267.750
       118   05 Jun 2027 10:13:13.069   05 Jun 2027 10:13:26.997            13.928            97.281
       119   05 Jun 2027 11:48:25.335   05 Jun 2027 11:48:44.496            19.161          9580.500
       120   05 Jun 2027 11:51:37.302   05 Jun 2027 11:51:57.995            20.693          8994.375
       121   05 Jun 2027 11:52:00.305   05 Jun 2027 11:52:01.306             1.001            72.187
       122   05 Jun 2027 11:52:13.982   05 Jun 2027 11:52:16.199             2.217           330.906
       123   05 Jun 2027 11:52:29.557   05 Jun 2027 11:52:30.451             0.894           417.437
       124   05 Jun 2027 11:52:35.750   05 Jun 2027 11:52:35.843             0.093            13.844
       125   06 Jun 2027 04:07:00.747   06 Jun 2027 04:07:50.432            49.685         24842.500
       126   06 Jun 2027 04:09:05.217   06 Jun 2027 04:09:53.740            48.523         24261.500
       127   06 Jun 2027 04:10:38.695   06 Jun 2027 04:11:08.584            29.889         14944.500
       128   06 Jun 2027 05:45:52.826   06 Jun 2027 05:48:05.846           133.020         66510.000
       129   06 Jun 2027 05:52:02.054   06 Jun 2027 05:53:35.954            93.900         46114.375
       130   06 Jun 2027 07:12:01.114   06 Jun 2027 07:12:16.078            14.964          6552.125
       131   06 Jun 2027 07:22:55.257   06 Jun 2027 07:23:02.738             7.481          2433.156
       132   06 Jun 2027 07:24:30.733   06 Jun 2027 07:24:33.174             2.441           864.063
       133   06 Jun 2027 07:24:44.124   06 Jun 2027 07:24:48.517             4.393           342.188
       134   06 Jun 2027 07:25:15.689   06 Jun 2027 07:25:17.023             1.334           432.188
       135   06 Jun 2027 07:25:46.581   06 Jun 2027 07:25:46.581             0.000             0.000
       136   06 Jun 2027 07:26:08.259   06 Jun 2027 07:26:12.670             4.411           882.344
       137   06 Jun 2027 08:46:15.219   06 Jun 2027 08:46:27.214            11.995          5961.500
       138   06 Jun 2027 08:47:16.034   06 Jun 2027 08:47:17.493             1.459           475.219
       139   06 Jun 2027 08:48:06.450   06 Jun 2027 08:48:10.527             4.077          1012.937
       140   06 Jun 2027 10:22:38.549   06 Jun 2027 10:22:45.114             6.565          2817.000
       141   06 Jun 2027 10:24:25.994   06 Jun 2027 10:24:27.258             1.264           632.000
       142   06 Jun 2027 10:24:30.792   06 Jun 2027 10:24:35.534             4.742          1412.469
       143   06 Jun 2027 10:25:55.613   06 Jun 2027 10:25:58.943             3.330           547.344
       144   06 Jun 2027 11:57:22.439   06 Jun 2027 11:57:29.764             7.325          3351.562
       145   07 Jun 2027 04:19:15.484   07 Jun 2027 04:22:04.862           169.378         84689.000
       146   07 Jun 2027 05:58:16.813   07 Jun 2027 06:00:46.838           150.025         75012.500
       147   07 Jun 2027 06:03:41.875   07 Jun 2027 06:04:18.191            36.316         16882.688
       148   07 Jun 2027 07:23:17.401   07 Jun 2027 07:23:29.044            11.643          5821.500
       149   07 Jun 2027 07:23:59.268   07 Jun 2027 07:24:05.095             5.827          1721.313
       150   07 Jun 2027 07:34:57.207   07 Jun 2027 07:35:04.237             7.030          2644.906
       151   07 Jun 2027 07:35:19.655   07 Jun 2027 07:35:20.014             0.359            42.813
       152   07 Jun 2027 07:36:00.553   07 Jun 2027 07:36:03.758             3.205           610.781
       153   07 Jun 2027 08:57:14.111   07 Jun 2027 08:57:45.122            31.011         14269.812
       154   07 Jun 2027 08:59:50.066   07 Jun 2027 09:00:02.093            12.027          3636.781
       155   07 Jun 2027 09:01:20.331   07 Jun 2027 09:01:26.697             6.366          2190.750
       156   07 Jun 2027 10:32:26.592   07 Jun 2027 10:32:35.722             9.130          3824.563
       157   07 Jun 2027 10:33:13.751   07 Jun 2027 10:33:14.860             1.109           461.281
       158   07 Jun 2027 10:34:56.115   07 Jun 2027 10:35:05.249             9.134          3141.094
       159   07 Jun 2027 10:36:10.135   07 Jun 2027 10:36:16.133             5.998          1489.375
       160   07 Jun 2027 10:38:26.266   07 Jun 2027 10:38:27.472             1.206           594.656
       161   07 Jun 2027 10:38:50.438   07 Jun 2027 10:38:51.823             1.385           605.188
       162   07 Jun 2027 10:39:00.239   07 Jun 2027 10:39:00.559             0.320           160.000
       163   08 Jun 2027 03:00:00.000   08 Jun 2027 03:00:10.498            10.498          5249.000
       164   08 Jun 2027 03:00:49.477   08 Jun 2027 03:00:54.334             4.857          2428.500
       165   08 Jun 2027 03:01:37.140   08 Jun 2027 03:02:01.333            24.193         12096.500
       166   08 Jun 2027 04:31:33.433   08 Jun 2027 04:32:12.307            38.874         19437.000
       167   08 Jun 2027 04:32:21.655   08 Jun 2027 04:33:15.014            53.359         26679.500
       168   08 Jun 2027 04:35:08.743   08 Jun 2027 04:35:20.581            11.838          5919.000
       169   08 Jun 2027 04:36:44.368   08 Jun 2027 04:37:29.126            44.758         22379.000
       170   08 Jun 2027 06:10:35.662   08 Jun 2027 06:13:26.088           170.426         84943.343
       171   08 Jun 2027 06:14:00.360   08 Jun 2027 06:14:03.311             2.951          1052.750
       172   08 Jun 2027 06:15:34.469   08 Jun 2027 06:15:38.320             3.851          1902.687
       173   08 Jun 2027 07:34:38.656   08 Jun 2027 07:34:55.617            16.961          7733.406
       174   08 Jun 2027 07:35:44.244   08 Jun 2027 07:35:49.764             5.520           943.750
       175   08 Jun 2027 07:36:01.073   08 Jun 2027 07:36:03.581             2.508           169.344
       176   08 Jun 2027 07:36:27.398   08 Jun 2027 07:36:28.919             1.521           311.781
       177   08 Jun 2027 07:36:50.857   08 Jun 2027 07:36:52.078             1.221            55.750
       178   08 Jun 2027 07:46:54.326   08 Jun 2027 07:47:02.039             7.713          1222.500
       179   08 Jun 2027 09:08:53.794   08 Jun 2027 09:09:30.860            37.066         14421.156
       180   08 Jun 2027 09:11:01.250   08 Jun 2027 09:11:05.808             4.558          1648.656
       181   08 Jun 2027 09:11:44.133   08 Jun 2027 09:11:49.409             5.276           180.125
       182   08 Jun 2027 09:12:04.957   08 Jun 2027 09:12:06.712             1.755           485.875
       183   08 Jun 2027 09:13:18.977   08 Jun 2027 09:13:23.263             4.286          1948.781
       184   08 Jun 2027 09:14:06.857   08 Jun 2027 09:14:10.491             3.634           110.094
       185   08 Jun 2027 10:44:48.737   08 Jun 2027 10:45:00.459            11.722          4930.000
       186   08 Jun 2027 10:49:37.782   08 Jun 2027 10:49:56.583            18.801          7912.969
       187   08 Jun 2027 10:52:05.724   08 Jun 2027 10:52:11.083             5.359          2474.031
       188   08 Jun 2027 10:52:31.885   08 Jun 2027 10:52:33.404             1.519           547.344
       189   09 Jun 2027 03:06:42.609   09 Jun 2027 03:06:54.262            11.653          5826.500
       190   09 Jun 2027 03:08:58.008   09 Jun 2027 03:09:11.373            13.365          6682.500
       191   09 Jun 2027 03:09:37.082   09 Jun 2027 03:10:32.891            55.809         27904.500
       192   09 Jun 2027 03:12:17.712   09 Jun 2027 03:12:32.718            15.006          7503.000
       193   09 Jun 2027 03:13:32.497   09 Jun 2027 03:14:03.923            31.426         15713.000
       194   09 Jun 2027 04:44:19.499   09 Jun 2027 04:44:44.577            25.078         12539.000
       195   09 Jun 2027 04:44:46.988   09 Jun 2027 04:46:45.557           118.569         59284.500
       196   09 Jun 2027 04:46:55.749   09 Jun 2027 04:46:59.725             3.976          1988.000
       197   09 Jun 2027 06:22:41.629   09 Jun 2027 06:24:01.041            79.412         38898.781
       198   09 Jun 2027 06:24:40.058   09 Jun 2027 06:24:44.018             3.960          1215.094
       199   09 Jun 2027 06:25:17.715   09 Jun 2027 06:25:19.553             1.838           794.906
       200   09 Jun 2027 06:26:12.678   09 Jun 2027 06:26:15.617             2.939          1039.187
       201   09 Jun 2027 06:26:31.395   09 Jun 2027 06:26:32.417             1.022           156.437
       202   09 Jun 2027 06:27:23.045   09 Jun 2027 06:27:24.761             1.716           858.000
       203   09 Jun 2027 06:27:58.845   09 Jun 2027 06:28:02.618             3.773          1280.031
       204   09 Jun 2027 07:46:46.804   09 Jun 2027 07:46:57.338            10.534          4923.125
       205   09 Jun 2027 07:47:49.315   09 Jun 2027 07:47:53.713             4.398           858.625
       206   09 Jun 2027 07:48:06.443   09 Jun 2027 07:48:06.748             0.305           115.156
       207   09 Jun 2027 07:48:32.763   09 Jun 2027 07:48:35.054             2.291           792.187
       208   09 Jun 2027 09:20:35.612   09 Jun 2027 09:20:54.258            18.646          7497.875
       209   09 Jun 2027 09:23:10.199   09 Jun 2027 09:23:12.929             2.730           893.000
       210   09 Jun 2027 09:23:48.019   09 Jun 2027 09:23:50.952             2.933           990.219
       211   09 Jun 2027 09:25:16.726   09 Jun 2027 09:25:23.345             6.619          1593.875
       212   09 Jun 2027 09:25:49.272   09 Jun 2027 09:25:51.656             2.384           691.094
       213   09 Jun 2027 10:55:27.820   09 Jun 2027 10:55:32.738             4.918          2459.000
       214   09 Jun 2027 10:56:34.676   09 Jun 2027 10:56:39.277             4.601          2258.938
       215   09 Jun 2027 10:58:48.224   09 Jun 2027 10:58:48.224             0.000             0.000
       216   09 Jun 2027 11:02:45.842   09 Jun 2027 11:03:04.013            18.171          8742.125
       217   10 Jun 2027 03:18:42.487   10 Jun 2027 03:19:14.438            31.951         15975.500
       218   10 Jun 2027 03:21:04.398   10 Jun 2027 03:23:31.101           146.703         73351.500
       219   10 Jun 2027 03:23:38.521   10 Jun 2027 03:24:07.141            28.620         14310.000
       220   10 Jun 2027 04:56:52.516   10 Jun 2027 04:57:44.141            51.625         25812.500
       221   10 Jun 2027 04:57:54.166   10 Jun 2027 04:58:33.541            39.375         19687.500
       222   10 Jun 2027 05:01:42.414   10 Jun 2027 05:02:06.826            24.412         12206.000
       223   10 Jun 2027 06:35:16.383   10 Jun 2027 06:35:58.692            42.309         19964.250
       224   10 Jun 2027 06:37:55.847   10 Jun 2027 06:38:00.638             4.791          1077.937
       225   10 Jun 2027 06:38:11.662   10 Jun 2027 06:38:12.883             1.221           344.500
       226   10 Jun 2027 06:39:21.298   10 Jun 2027 06:39:27.359             6.061          2137.969
       227   10 Jun 2027 07:58:43.064   10 Jun 2027 07:58:53.728            10.664          3925.000
       228   10 Jun 2027 08:00:04.296   10 Jun 2027 08:00:07.556             3.260          1511.938
       229   10 Jun 2027 08:00:31.634   10 Jun 2027 08:00:32.729             1.095            77.937
       230   10 Jun 2027 08:00:39.267   10 Jun 2027 08:00:41.702             2.435           204.313
       231   10 Jun 2027 08:00:51.326   10 Jun 2027 08:00:52.097             0.771           273.750
       232   10 Jun 2027 09:34:56.341   10 Jun 2027 09:35:02.129             5.788          2758.375
       233   10 Jun 2027 09:35:45.724   10 Jun 2027 09:35:47.443             1.719           794.000
       234   10 Jun 2027 09:35:55.086   10 Jun 2027 09:35:55.824             0.738           238.844
       235   10 Jun 2027 09:37:20.895   10 Jun 2027 09:37:26.639             5.744          2341.062
       236   10 Jun 2027 11:08:29.553   10 Jun 2027 11:08:38.711             9.158          3501.156
       237   10 Jun 2027 11:11:01.166   10 Jun 2027 11:11:03.002             1.836           733.563
       238   10 Jun 2027 11:14:34.309   10 Jun 2027 11:14:48.734            14.425          6363.063
       239   10 Jun 2027 11:14:53.770   10 Jun 2027 11:14:54.345             0.575           142.156
       240   10 Jun 2027 11:15:53.062   10 Jun 2027 11:15:59.667             6.605          1244.031
       241   10 Jun 2027 11:17:02.627   10 Jun 2027 11:17:03.621             0.994           497.000
       242   11 Jun 2027 03:30:49.389   11 Jun 2027 03:31:06.193            16.804          8402.000
       243   11 Jun 2027 03:32:31.837   11 Jun 2027 03:35:32.265           180.428         90214.000
       244   11 Jun 2027 03:37:05.712   11 Jun 2027 03:37:31.880            26.168         13084.000
       245   11 Jun 2027 05:08:52.076   11 Jun 2027 05:08:59.759             7.683          3841.500
       246   11 Jun 2027 05:09:07.398   11 Jun 2027 05:10:10.673            63.275         31637.500
       247   11 Jun 2027 05:11:26.541   11 Jun 2027 05:11:46.909            20.368         10184.000
       248   11 Jun 2027 05:12:38.232   11 Jun 2027 05:13:14.812            36.580         17546.687
       249   11 Jun 2027 05:13:32.600   11 Jun 2027 05:13:34.993             2.393           555.875
       250   11 Jun 2027 05:14:30.889   11 Jun 2027 05:14:33.735             2.846          1301.500
       251   11 Jun 2027 05:14:44.547   11 Jun 2027 05:14:45.329             0.782           206.969
       252   11 Jun 2027 06:46:55.358   11 Jun 2027 06:47:25.043            29.685         12356.406
       253   11 Jun 2027 06:47:55.621   11 Jun 2027 06:48:01.895             6.274           223.000
       254   11 Jun 2027 06:49:26.732   11 Jun 2027 06:49:29.836             3.104           972.344
       255   11 Jun 2027 06:49:51.638   11 Jun 2027 06:49:54.053             2.415           584.500
       256   11 Jun 2027 06:50:57.749   11 Jun 2027 06:51:01.369             3.620          1602.250
       257   11 Jun 2027 08:10:34.395   11 Jun 2027 08:10:47.957            13.562          5934.125
       258   11 Jun 2027 08:12:05.629   11 Jun 2027 08:12:13.781             8.152          1811.375
       259   11 Jun 2027 08:12:29.460   11 Jun 2027 08:12:29.460             0.000             0.000
       260   11 Jun 2027 08:13:13.346   11 Jun 2027 08:13:13.529             0.183            91.500
       261   11 Jun 2027 09:47:01.608   11 Jun 2027 09:47:12.462            10.854          3823.188
       262   11 Jun 2027 09:47:54.458   11 Jun 2027 09:47:55.652             1.194           381.188
       263   11 Jun 2027 09:48:38.648   11 Jun 2027 09:48:41.434             2.786           689.969
       264   11 Jun 2027 09:48:52.656   11 Jun 2027 09:48:54.289             1.633           118.688
       265   11 Jun 2027 09:50:05.575   11 Jun 2027 09:50:09.606             4.031          1777.469
       266   11 Jun 2027 11:19:12.033   11 Jun 2027 11:19:19.740             7.707          3853.500
       267   11 Jun 2027 11:21:08.688   11 Jun 2027 11:21:13.494             4.806          2403.000
       268   11 Jun 2027 11:21:18.148   11 Jun 2027 11:21:29.489            11.341          1563.719
       269   11 Jun 2027 11:25:21.445   11 Jun 2027 11:25:34.489            13.044          4892.812
       270   11 Jun 2027 11:26:09.100   11 Jun 2027 11:26:11.020             1.920           868.469
       271   11 Jun 2027 11:28:58.523   11 Jun 2027 11:29:00.815             2.292          1146.000
       272   12 Jun 2027 03:42:51.435   12 Jun 2027 03:43:36.255            44.820         22410.000
       273   12 Jun 2027 03:43:59.964   12 Jun 2027 03:46:02.570           122.606         61303.000
       274   12 Jun 2027 03:46:26.373   12 Jun 2027 03:46:42.671            16.298          8149.000
       275   12 Jun 2027 03:47:27.482   12 Jun 2027 03:48:32.430            64.948         32474.000
       276   12 Jun 2027 03:48:42.676   12 Jun 2027 03:48:49.801             7.125          3562.500
       277   12 Jun 2027 05:21:00.582   12 Jun 2027 05:22:00.627            60.045         30022.500
       278   12 Jun 2027 05:22:09.672   12 Jun 2027 05:22:15.817             6.145          3072.500
       279   12 Jun 2027 05:22:34.389   12 Jun 2027 05:23:19.790            45.401         22564.782
       280   12 Jun 2027 05:24:20.212   12 Jun 2027 05:24:21.225             1.013           470.250
       281   12 Jun 2027 05:24:58.545   12 Jun 2027 05:25:00.838             2.293           274.469
       282   12 Jun 2027 05:25:31.275   12 Jun 2027 05:25:33.087             1.812           351.469
       283   12 Jun 2027 05:26:04.195   12 Jun 2027 05:26:08.835             4.640           912.531
       284   12 Jun 2027 06:59:20.405   12 Jun 2027 06:59:31.839            11.434          5298.781
       285   12 Jun 2027 06:59:51.946   12 Jun 2027 06:59:53.301             1.355            55.563
       286   12 Jun 2027 07:01:46.214   12 Jun 2027 07:01:50.087             3.873           879.000
       287   12 Jun 2027 07:02:11.752   12 Jun 2027 07:02:16.401             4.649           554.406
       288   12 Jun 2027 07:02:38.151   12 Jun 2027 07:02:42.875             4.724           588.969
       289   12 Jun 2027 08:22:42.902   12 Jun 2027 08:22:56.048            13.146          5937.187
       290   12 Jun 2027 08:24:06.702   12 Jun 2027 08:24:11.230             4.528          2207.937
       291   12 Jun 2027 08:24:23.649   12 Jun 2027 08:24:24.688             1.039           232.844
       292   12 Jun 2027 09:59:11.811   12 Jun 2027 09:59:15.217             3.406          1598.562
       293   12 Jun 2027 10:00:50.387   12 Jun 2027 10:00:54.739             4.352          2114.406
       294   12 Jun 2027 10:01:10.818   12 Jun 2027 10:01:12.451             1.633           266.406
       295   12 Jun 2027 11:35:57.165   12 Jun 2027 11:36:14.605            17.440          7648.688
       296   12 Jun 2027 11:40:52.818   12 Jun 2027 11:41:02.584             9.766          4883.000
       297   13 Jun 2027 03:54:49.210   13 Jun 2027 03:57:39.497           170.287         85143.500
       298   13 Jun 2027 05:33:05.589   13 Jun 2027 05:33:18.272            12.683          6341.500
       299   13 Jun 2027 05:34:07.806   13 Jun 2027 05:36:40.692           152.886         74612.312
       300   13 Jun 2027 05:41:19.605   13 Jun 2027 05:41:34.061            14.456          6733.750
       301   13 Jun 2027 07:11:16.549   13 Jun 2027 07:11:29.943            13.394          6614.688
       302   13 Jun 2027 07:12:24.098   13 Jun 2027 07:12:30.004             5.906           662.031
       303   13 Jun 2027 07:13:11.293   13 Jun 2027 07:13:14.256             2.963           843.500
       304   13 Jun 2027 07:13:39.650   13 Jun 2027 07:13:41.225             1.575           703.937
       305   13 Jun 2027 07:14:25.670   13 Jun 2027 07:14:28.122             2.452           650.406
       306   13 Jun 2027 08:35:25.713   13 Jun 2027 08:35:44.249            18.536          8778.125
       307   13 Jun 2027 08:35:57.747   13 Jun 2027 08:35:59.490             1.743           260.469
       308   13 Jun 2027 08:37:25.937   13 Jun 2027 08:37:30.892             4.955          2452.500
       309   13 Jun 2027 10:11:09.741   13 Jun 2027 10:11:17.332             7.591          2949.469
       310   13 Jun 2027 10:12:53.642   13 Jun 2027 10:12:58.331             4.689          2221.844
       311   13 Jun 2027 10:13:32.416   13 Jun 2027 10:13:41.630             9.214            84.437
       312   13 Jun 2027 11:46:24.108   13 Jun 2027 11:46:37.365            13.257          6628.500
       313   13 Jun 2027 11:46:39.828   13 Jun 2027 11:46:39.828             0.000             0.000
       314   13 Jun 2027 11:49:00.401   13 Jun 2027 11:49:16.687            16.286          6589.469
       315   13 Jun 2027 11:51:51.770   13 Jun 2027 11:52:04.325            12.555          4846.344
       316   13 Jun 2027 11:52:17.125   13 Jun 2027 11:52:18.356             1.231            85.844
       317   13 Jun 2027 11:52:31.753   13 Jun 2027 11:52:33.357             1.604           418.656
