uniorb/output/strategy_4/Camera/Camera_KinoSat_110901.txt

KinoSat_110901
-------------------------
    Access    *     Start Time (UTCG)     *     Stop Time (UTCG)  *   Duration (s) *   Data (Mbytes)
         1   01 Jun 2027 04:08:27.462   01 Jun 2027 04:10:23.040           115.578         57789.000
         2   01 Jun 2027 05:44:00.788   01 Jun 2027 05:44:50.124            49.336         24668.000
         3   01 Jun 2027 05:45:28.390   01 Jun 2027 05:46:35.698            67.308         33654.000
         4   01 Jun 2027 05:47:27.202   01 Jun 2027 05:47:47.502            20.300         10150.000
         5   01 Jun 2027 05:49:56.971   01 Jun 2027 05:50:06.205             9.234          4617.000
         6   01 Jun 2027 07:20:17.312   01 Jun 2027 07:22:24.464           127.152         63576.000
         7   01 Jun 2027 07:23:04.474   01 Jun 2027 07:23:17.047            12.573          6286.500
         8   01 Jun 2027 07:23:37.553   01 Jun 2027 07:23:37.553             0.000             0.000
         9   01 Jun 2027 07:24:06.043   01 Jun 2027 07:24:14.185             8.142          4071.000
        10   01 Jun 2027 07:25:31.864   01 Jun 2027 07:25:43.799            11.935          5967.500
        11   01 Jun 2027 07:27:50.739   01 Jun 2027 07:27:50.856             0.117            58.500
        12   01 Jun 2027 08:57:23.124   01 Jun 2027 09:00:18.706           175.582         87791.000
        13   01 Jun 2027 09:01:18.913   01 Jun 2027 09:01:27.573             8.660          4330.000
        14   01 Jun 2027 09:01:33.760   01 Jun 2027 09:01:34.347             0.587           293.500
        15   01 Jun 2027 09:01:49.634   01 Jun 2027 09:01:54.624             4.990          2495.000
        16   01 Jun 2027 09:02:40.196   01 Jun 2027 09:02:40.417             0.221           110.500
        17   01 Jun 2027 10:35:20.597   01 Jun 2027 10:37:26.724           126.127         63063.500
        18   01 Jun 2027 10:38:33.909   01 Jun 2027 10:39:13.959            40.050         20025.000
        19   02 Jun 2027 04:20:10.650   02 Jun 2027 04:21:16.558            65.908         32954.000
        20   02 Jun 2027 04:23:43.475   02 Jun 2027 04:24:12.357            28.882         14441.000
        21   02 Jun 2027 05:55:08.960   02 Jun 2027 05:56:53.644           104.684         52342.000
        22   02 Jun 2027 05:58:23.045   02 Jun 2027 05:58:51.984            28.939         14469.500
        23   02 Jun 2027 06:01:18.932   02 Jun 2027 06:01:31.012            12.080          6040.000
        24   02 Jun 2027 06:02:01.667   02 Jun 2027 06:02:28.984            27.317         13658.500
        25   02 Jun 2027 06:03:13.787   02 Jun 2027 06:03:30.020            16.233          8116.500
        26   02 Jun 2027 07:32:36.978   02 Jun 2027 07:34:26.467           109.489         54744.500
        27   02 Jun 2027 07:35:26.973   02 Jun 2027 07:36:09.456            42.483         21241.500
        28   02 Jun 2027 07:38:06.620   02 Jun 2027 07:38:18.714            12.094          6047.000
        29   02 Jun 2027 07:38:48.299   02 Jun 2027 07:39:43.787            55.488         27744.000
        30   02 Jun 2027 07:39:54.542   02 Jun 2027 07:39:55.013             0.471           235.500
        31   02 Jun 2027 09:09:22.697   02 Jun 2027 09:12:45.867           203.170        101585.000
        32   02 Jun 2027 09:13:02.413   02 Jun 2027 09:13:08.866             6.453          2986.344
        33   02 Jun 2027 09:13:20.890   02 Jun 2027 09:13:22.556             1.666             7.969
        34   02 Jun 2027 09:14:17.367   02 Jun 2027 09:14:19.556             2.189          1064.375
        35   02 Jun 2027 09:14:31.273   02 Jun 2027 09:14:33.306             2.033           266.562
        36   02 Jun 2027 09:14:46.459   02 Jun 2027 09:14:51.255             4.796           241.969
        37   02 Jun 2027 09:15:38.413   02 Jun 2027 09:15:42.592             4.179          1137.438
        38   02 Jun 2027 10:47:20.421   02 Jun 2027 10:47:35.771            15.350          7153.906
        39   02 Jun 2027 10:48:15.195   02 Jun 2027 10:48:17.279             2.084           526.687
        40   02 Jun 2027 10:49:16.515   02 Jun 2027 10:49:20.877             4.362          1834.781
        41   02 Jun 2027 10:50:38.632   02 Jun 2027 10:50:40.818             2.186           512.062
        42   02 Jun 2027 10:51:06.629   02 Jun 2027 10:51:13.014             6.385           569.938
        43   02 Jun 2027 10:51:13.590   02 Jun 2027 10:51:15.597             2.007            18.000
        44   02 Jun 2027 10:51:19.860   02 Jun 2027 10:51:23.012             3.152            73.562
        45   03 Jun 2027 03:09:56.763   03 Jun 2027 03:10:28.283            31.520         15760.000
        46   03 Jun 2027 04:31:47.282   03 Jun 2027 04:32:59.639            72.357         36178.500
        47   03 Jun 2027 04:33:52.045   03 Jun 2027 04:34:08.807            16.762          8381.000
        48   03 Jun 2027 04:35:52.639   03 Jun 2027 04:36:08.594            15.955          7977.500
        49   03 Jun 2027 04:36:41.286   03 Jun 2027 04:36:48.022             6.736          3368.000
        50   03 Jun 2027 04:37:01.961   03 Jun 2027 04:37:35.440            33.479         16739.500
        51   03 Jun 2027 06:06:36.813   03 Jun 2027 06:08:18.024           101.211         50605.500
        52   03 Jun 2027 06:09:11.753   03 Jun 2027 06:09:29.911            18.158          9079.000
        53   03 Jun 2027 06:11:24.447   03 Jun 2027 06:11:37.903            13.456          6728.000
        54   03 Jun 2027 06:13:49.222   03 Jun 2027 06:13:58.828             9.606          4174.875
        55   03 Jun 2027 06:14:23.199   03 Jun 2027 06:14:27.174             3.975           618.875
        56   03 Jun 2027 06:14:59.664   03 Jun 2027 06:15:00.621             0.957           434.562
        57   03 Jun 2027 06:15:30.476   03 Jun 2027 06:15:32.941             2.465           546.062
        58   03 Jun 2027 07:44:30.047   03 Jun 2027 07:44:32.527             2.480           370.969
        59   03 Jun 2027 07:46:06.350   03 Jun 2027 07:46:11.603             5.253          2089.219
        60   03 Jun 2027 07:46:42.711   03 Jun 2027 07:46:44.127             1.416           379.062
        61   03 Jun 2027 07:47:51.986   03 Jun 2027 07:47:52.990             1.004           461.031
        62   03 Jun 2027 07:48:22.341   03 Jun 2027 07:48:23.225             0.884           158.781
        63   03 Jun 2027 07:49:45.274   03 Jun 2027 07:49:50.029             4.755          1462.781
        64   03 Jun 2027 07:50:21.259   03 Jun 2027 07:50:26.023             4.764           916.531
        65   03 Jun 2027 07:51:47.070   03 Jun 2027 07:51:53.946             6.876           956.063
        66   03 Jun 2027 09:21:13.901   03 Jun 2027 09:21:25.641            11.740          4894.531
        67   03 Jun 2027 09:23:07.204   03 Jun 2027 09:23:09.823             2.619          1199.594
        68   03 Jun 2027 09:23:58.513   03 Jun 2027 09:24:00.277             1.764           357.844
        69   03 Jun 2027 09:25:12.598   03 Jun 2027 09:25:14.345             1.747           776.625
        70   03 Jun 2027 09:26:01.933   03 Jun 2027 09:26:04.852             2.919           507.469
        71   03 Jun 2027 09:27:33.325   03 Jun 2027 09:27:39.973             6.648          2209.719
        72   03 Jun 2027 10:59:20.817   03 Jun 2027 10:59:33.013            12.196          5840.281
        73   03 Jun 2027 10:59:56.216   03 Jun 2027 10:59:57.290             1.074           348.188
        74   03 Jun 2027 11:01:14.261   03 Jun 2027 11:01:24.337            10.076          2000.531
        75   03 Jun 2027 11:01:56.591   03 Jun 2027 11:01:58.843             2.252           668.969
        76   03 Jun 2027 11:02:22.675   03 Jun 2027 11:02:33.297            10.622           293.750
        77   03 Jun 2027 11:03:14.270   03 Jun 2027 11:03:14.554             0.284            15.781
        78   04 Jun 2027 03:09:40.502   04 Jun 2027 03:09:44.037             3.535          1767.500
        79   04 Jun 2027 03:10:54.693   04 Jun 2027 03:11:08.875            14.182          7091.000
        80   04 Jun 2027 04:45:41.009   04 Jun 2027 04:49:33.293           232.284        116142.000
        81   04 Jun 2027 06:19:28.498   04 Jun 2027 06:20:26.659            58.161         27230.313
        82   04 Jun 2027 06:21:24.723   04 Jun 2027 06:21:29.806             5.083          1684.844
        83   04 Jun 2027 06:21:41.679   04 Jun 2027 06:21:42.959             1.280           269.687
        84   04 Jun 2027 06:22:01.874   04 Jun 2027 06:22:03.678             1.804           550.156
        85   04 Jun 2027 06:22:25.815   04 Jun 2027 06:22:25.815             0.000             0.000
        86   04 Jun 2027 06:22:45.432   04 Jun 2027 06:22:50.014             4.582           912.375
        87   04 Jun 2027 06:23:55.260   04 Jun 2027 06:24:07.580            12.320          1784.156
        88   04 Jun 2027 06:24:18.837   04 Jun 2027 06:24:23.059             4.222           318.906
        89   04 Jun 2027 06:24:47.017   04 Jun 2027 06:24:48.423             1.406           183.625
        90   04 Jun 2027 06:25:01.562   04 Jun 2027 06:25:02.175             0.613           256.906
        91   04 Jun 2027 06:25:52.554   04 Jun 2027 06:25:57.871             5.317          1542.906
        92   04 Jun 2027 06:26:10.858   04 Jun 2027 06:26:12.037             1.179           188.562
        93   04 Jun 2027 06:26:46.659   04 Jun 2027 06:26:48.994             2.335          1068.500
        94   04 Jun 2027 06:27:55.208   04 Jun 2027 06:27:59.189             3.981           466.563
        95   04 Jun 2027 07:56:37.312   04 Jun 2027 07:56:41.466             4.154          1200.312
        96   04 Jun 2027 07:58:24.853   04 Jun 2027 07:58:28.449             3.596           621.344
        97   04 Jun 2027 07:59:05.596   04 Jun 2027 07:59:07.635             2.039          1004.844
        98   04 Jun 2027 08:00:22.973   04 Jun 2027 08:00:26.453             3.480           148.094
        99   04 Jun 2027 08:00:42.889   04 Jun 2027 08:00:43.152             0.263           101.281
       100   04 Jun 2027 08:01:38.948   04 Jun 2027 08:01:41.440             2.492           838.688
       101   04 Jun 2027 09:33:51.428   04 Jun 2027 09:34:01.954            10.526          4506.031
       102   04 Jun 2027 09:36:15.750   04 Jun 2027 09:36:18.617             2.867           763.313
       103   04 Jun 2027 09:37:29.254   04 Jun 2027 09:37:38.153             8.899          1095.250
       104   04 Jun 2027 09:38:10.544   04 Jun 2027 09:38:13.858             3.314           727.156
       105   04 Jun 2027 09:39:25.801   04 Jun 2027 09:39:33.758             7.957          1702.906
       106   04 Jun 2027 11:10:34.203   04 Jun 2027 11:10:46.131            11.928          5516.375
       107   04 Jun 2027 11:12:02.446   04 Jun 2027 11:12:02.901             0.455            38.219
       108   04 Jun 2027 11:13:59.728   04 Jun 2027 11:14:04.182             4.454           974.312
       109   04 Jun 2027 11:15:14.874   04 Jun 2027 11:15:20.211             5.337          2120.094
       110   05 Jun 2027 03:21:33.541   05 Jun 2027 03:21:45.487            11.946          5973.000
       111   05 Jun 2027 04:57:55.415   05 Jun 2027 05:01:02.393           186.978         93489.000
       112   05 Jun 2027 06:31:51.639   05 Jun 2027 06:33:32.126           100.487         50035.156
       113   05 Jun 2027 06:33:40.745   05 Jun 2027 06:33:42.595             1.850            78.344
       114   05 Jun 2027 06:34:18.830   05 Jun 2027 06:34:18.830             0.000             0.000
       115   05 Jun 2027 06:34:29.098   05 Jun 2027 06:34:30.722             1.624           675.469
       116   05 Jun 2027 06:36:07.883   05 Jun 2027 06:36:11.396             3.513          1756.500
       117   05 Jun 2027 06:36:56.225   05 Jun 2027 06:37:06.754            10.529          2092.031
       118   05 Jun 2027 06:38:05.896   05 Jun 2027 06:38:08.396             2.500          1250.000
       119   05 Jun 2027 06:38:36.592   05 Jun 2027 06:38:43.126             6.534           968.875
       120   05 Jun 2027 06:39:41.516   05 Jun 2027 06:39:45.350             3.834          1358.031
       121   05 Jun 2027 08:09:02.880   05 Jun 2027 08:09:06.137             3.257          1126.594
       122   05 Jun 2027 08:13:35.651   05 Jun 2027 08:13:36.184             0.533           242.406
       123   05 Jun 2027 08:14:37.213   05 Jun 2027 08:14:38.466             1.253           311.313
       124   05 Jun 2027 09:46:04.882   05 Jun 2027 09:46:16.573            11.691          5588.438
       125   05 Jun 2027 09:46:41.264   05 Jun 2027 09:46:44.601             3.337           264.469
       126   05 Jun 2027 09:49:47.989   05 Jun 2027 09:49:48.982             0.993           259.969
       127   05 Jun 2027 09:50:15.109   05 Jun 2027 09:50:19.237             4.128           402.687
       128   05 Jun 2027 09:51:14.443   05 Jun 2027 09:51:21.671             7.228          1362.719
       129   05 Jun 2027 11:22:49.392   05 Jun 2027 11:23:04.890            15.498          7414.812
       130   05 Jun 2027 11:25:32.279   05 Jun 2027 11:25:34.340             2.061           820.656
       131   05 Jun 2027 11:26:03.544   05 Jun 2027 11:26:07.773             4.229           751.500
       132   05 Jun 2027 11:26:56.504   05 Jun 2027 11:26:59.428             2.924           700.812
       133   05 Jun 2027 11:27:14.745   05 Jun 2027 11:27:15.920             1.175           478.656
       134   06 Jun 2027 03:33:26.194   06 Jun 2027 03:33:46.618            20.424         10212.000
       135   06 Jun 2027 05:09:59.805   06 Jun 2027 05:10:21.665            21.860         10930.000
       136   06 Jun 2027 05:12:41.602   06 Jun 2027 05:13:30.309            48.707         24353.500
       137   06 Jun 2027 06:45:08.617   06 Jun 2027 06:48:50.254           221.637        109572.718
       138   06 Jun 2027 06:50:06.564   06 Jun 2027 06:50:17.849            11.285          2292.406
       139   06 Jun 2027 06:51:05.827   06 Jun 2027 06:51:11.739             5.912          1295.500
       140   06 Jun 2027 06:51:29.934   06 Jun 2027 06:51:32.337             2.403           568.594
       141   06 Jun 2027 06:51:49.941   06 Jun 2027 06:51:54.687             4.746           285.812
       142   06 Jun 2027 08:21:28.543   06 Jun 2027 08:21:30.322             1.779           569.344
       143   06 Jun 2027 08:25:03.686   06 Jun 2027 08:25:08.507             4.821          1691.250
       144   06 Jun 2027 08:25:44.085   06 Jun 2027 08:25:47.040             2.955           663.125
       145   06 Jun 2027 08:25:52.768   06 Jun 2027 08:25:53.593             0.825           168.562
       146   06 Jun 2027 08:26:43.637   06 Jun 2027 08:26:46.464             2.827           686.719
       147   06 Jun 2027 08:27:19.019   06 Jun 2027 08:27:25.772             6.753           365.281
       148   06 Jun 2027 09:59:03.335   06 Jun 2027 09:59:15.343            12.008          5167.875
       149   06 Jun 2027 10:01:12.267   06 Jun 2027 10:01:13.430             1.163           381.219
       150   06 Jun 2027 10:02:22.995   06 Jun 2027 10:02:28.782             5.787          1590.125
       151   06 Jun 2027 10:02:45.504   06 Jun 2027 10:02:51.139             5.635           522.562
       152   06 Jun 2027 10:02:59.854   06 Jun 2027 10:03:02.407             2.553           107.844
       153   06 Jun 2027 10:03:19.682   06 Jun 2027 10:03:20.919             1.237            42.906
       154   06 Jun 2027 11:35:05.942   06 Jun 2027 11:35:19.657            13.715          5763.969
       155   07 Jun 2027 03:45:35.198   07 Jun 2027 03:45:47.380            12.182          6091.000
       156   07 Jun 2027 03:48:17.481   07 Jun 2027 03:48:17.481             0.000             0.000
       157   07 Jun 2027 05:22:10.327   07 Jun 2027 05:24:59.398           169.071         84535.500
       158   07 Jun 2027 06:57:20.276   07 Jun 2027 06:59:27.871           127.595         61347.219
       159   07 Jun 2027 07:00:02.676   07 Jun 2027 07:00:12.516             9.840           865.281
       160   07 Jun 2027 07:00:26.508   07 Jun 2027 07:00:26.676             0.168            84.000
       161   07 Jun 2027 07:00:28.322   07 Jun 2027 07:00:29.534             1.212           245.531
       162   07 Jun 2027 07:02:06.756   07 Jun 2027 07:02:06.756             0.000             0.000
       163   07 Jun 2027 07:02:27.478   07 Jun 2027 07:02:35.645             8.167          2966.281
       164   07 Jun 2027 07:03:28.519   07 Jun 2027 07:03:29.685             1.166           313.531
       165   07 Jun 2027 07:03:42.804   07 Jun 2027 07:03:45.552             2.748            81.906
       166   07 Jun 2027 08:33:41.297   07 Jun 2027 08:33:48.905             7.608          2357.344
       167   07 Jun 2027 08:36:09.087   07 Jun 2027 08:36:12.311             3.224           132.156
       168   07 Jun 2027 08:37:48.307   07 Jun 2027 08:37:51.278             2.971           185.906
       169   07 Jun 2027 08:38:36.287   07 Jun 2027 08:38:39.542             3.255           694.000
       170   07 Jun 2027 08:39:28.776   07 Jun 2027 08:39:33.141             4.365          1538.563
       171   07 Jun 2027 10:10:58.210   07 Jun 2027 10:11:11.826            13.616          6177.375
       172   07 Jun 2027 10:11:42.039   07 Jun 2027 10:11:43.598             1.559           412.406
       173   07 Jun 2027 10:12:20.515   07 Jun 2027 10:12:23.262             2.747           990.062
       174   07 Jun 2027 10:13:05.368   07 Jun 2027 10:13:08.116             2.748          1125.875
       175   07 Jun 2027 10:13:33.092   07 Jun 2027 10:13:35.364             2.272           431.500
       176   07 Jun 2027 10:14:34.109   07 Jun 2027 10:14:37.982             3.873           106.156
       177   07 Jun 2027 10:15:01.181   07 Jun 2027 10:15:03.667             2.486           687.094
       178   07 Jun 2027 10:15:21.688   07 Jun 2027 10:15:25.217             3.529            35.250
       179   07 Jun 2027 10:15:30.831   07 Jun 2027 10:15:32.629             1.798            47.875
       180   07 Jun 2027 11:47:10.498   07 Jun 2027 11:47:22.820            12.322          5828.125
       181   07 Jun 2027 11:49:18.841   07 Jun 2027 11:49:25.168             6.327           449.438
       182   07 Jun 2027 11:51:00.776   07 Jun 2027 11:51:03.789             3.013          1305.812
       183   08 Jun 2027 03:58:08.002   08 Jun 2027 03:58:22.455            14.453          7226.500
       184   08 Jun 2027 03:59:44.363   08 Jun 2027 03:59:47.881             3.518          1759.000
       185   08 Jun 2027 04:00:17.006   08 Jun 2027 04:00:22.432             5.426          2713.000
       186   08 Jun 2027 04:00:50.851   08 Jun 2027 04:00:50.903             0.052            26.000
       187   08 Jun 2027 05:33:58.347   08 Jun 2027 05:36:51.928           173.581         86790.500
       188   08 Jun 2027 07:08:51.842   08 Jun 2027 07:10:44.469           112.627         56206.969
       189   08 Jun 2027 07:11:51.794   08 Jun 2027 07:11:54.364             2.570          1053.719
       190   08 Jun 2027 07:12:03.295   08 Jun 2027 07:12:03.295             0.000             0.000
       191   08 Jun 2027 07:12:20.917   08 Jun 2027 07:12:22.698             1.781           704.500
       192   08 Jun 2027 07:12:32.551   08 Jun 2027 07:12:37.298             4.747           113.875
       193   08 Jun 2027 07:14:06.392   08 Jun 2027 07:14:06.392             0.000             0.000
       194   08 Jun 2027 07:14:30.489   08 Jun 2027 07:14:37.871             7.382          3004.000
       195   08 Jun 2027 07:15:13.312   08 Jun 2027 07:15:14.577             1.265           477.813
       196   08 Jun 2027 08:45:19.239   08 Jun 2027 08:45:29.186             9.947          4463.625
       197   08 Jun 2027 08:47:01.396   08 Jun 2027 08:47:07.796             6.400          1292.156
       198   08 Jun 2027 08:48:06.105   08 Jun 2027 08:48:08.095             1.990           929.938
       199   08 Jun 2027 08:49:03.836   08 Jun 2027 08:49:06.876             3.040           769.906
       200   08 Jun 2027 08:49:52.093   08 Jun 2027 08:49:53.395             1.302           619.719
       201   08 Jun 2027 08:50:15.195   08 Jun 2027 08:50:23.234             8.039           350.625
       202   08 Jun 2027 08:51:37.223   08 Jun 2027 08:51:42.894             5.671          2037.781
       203   08 Jun 2027 10:23:37.517   08 Jun 2027 10:23:50.131            12.614          6231.688
       204   08 Jun 2027 10:24:14.213   08 Jun 2027 10:24:16.685             2.472           249.156
       205   08 Jun 2027 10:25:25.615   08 Jun 2027 10:25:33.403             7.788          2078.937
       206   08 Jun 2027 10:25:47.298   08 Jun 2027 10:25:54.813             7.515           434.219
       207   08 Jun 2027 10:27:03.699   08 Jun 2027 10:27:05.389             1.690           470.156
       208   08 Jun 2027 10:27:24.575   08 Jun 2027 10:27:26.716             2.141           529.313
       209   08 Jun 2027 11:59:04.186   08 Jun 2027 11:59:24.113            19.927          7877.469
       210   09 Jun 2027 04:08:42.395   09 Jun 2027 04:09:14.888            32.493         16246.500
       211   09 Jun 2027 04:09:39.950   09 Jun 2027 04:09:39.950             0.000             0.000
       212   09 Jun 2027 04:09:42.311   09 Jun 2027 04:09:46.745             4.434          2217.000
       213   09 Jun 2027 04:11:44.640   09 Jun 2027 04:11:51.796             7.156          3578.000
       214   09 Jun 2027 05:44:14.496   09 Jun 2027 05:45:05.030            50.534         25267.000
       215   09 Jun 2027 05:45:43.097   09 Jun 2027 05:46:22.879            39.782         19891.000
       216   09 Jun 2027 05:46:46.047   09 Jun 2027 05:47:28.772            42.725         21362.500
       217   09 Jun 2027 05:50:01.516   09 Jun 2027 05:50:21.585            20.069         10034.500
       218   09 Jun 2027 07:20:32.966   09 Jun 2027 07:22:56.272           143.306         67993.843
       219   09 Jun 2027 07:23:33.405   09 Jun 2027 07:23:33.405             0.000             0.000
       220   09 Jun 2027 07:23:39.978   09 Jun 2027 07:23:41.644             1.666           606.469
       221   09 Jun 2027 07:23:52.553   09 Jun 2027 07:23:54.258             1.705           340.906
       222   09 Jun 2027 07:24:01.812   09 Jun 2027 07:24:02.202             0.390           174.312
       223   09 Jun 2027 07:26:05.374   09 Jun 2027 07:26:10.313             4.939          2084.000
       224   09 Jun 2027 07:26:47.975   09 Jun 2027 07:26:49.824             1.849           546.594
       225   09 Jun 2027 07:27:20.493   09 Jun 2027 07:27:21.707             1.214           378.594
       226   09 Jun 2027 08:57:38.933   09 Jun 2027 08:57:51.644            12.711          5140.375
       227   09 Jun 2027 08:58:52.613   09 Jun 2027 08:58:56.174             3.561          1193.750
       228   09 Jun 2027 08:59:09.562   09 Jun 2027 08:59:11.180             1.618            67.969
       229   09 Jun 2027 09:01:02.934   09 Jun 2027 09:01:09.710             6.776          1764.719
       230   09 Jun 2027 09:01:50.565   09 Jun 2027 09:01:52.640             2.075          1019.562
       231   09 Jun 2027 09:01:55.991   09 Jun 2027 09:01:56.450             0.459            57.594
       232   09 Jun 2027 09:02:12.491   09 Jun 2027 09:02:19.929             7.438           378.719
       233   09 Jun 2027 09:02:56.410   09 Jun 2027 09:03:00.304             3.894           813.594
       234   09 Jun 2027 09:03:44.583   09 Jun 2027 09:03:46.709             2.126           323.969
       235   09 Jun 2027 10:35:35.750   09 Jun 2027 10:35:49.641            13.891          5905.594
       236   09 Jun 2027 10:37:31.344   09 Jun 2027 10:37:32.959             1.615           726.875
       237   09 Jun 2027 10:37:42.735   09 Jun 2027 10:37:45.056             2.321           305.500
       238   09 Jun 2027 10:38:29.666   09 Jun 2027 10:38:38.159             8.493           250.250
       239   09 Jun 2027 10:39:06.879   09 Jun 2027 10:39:08.972             2.093           543.062
       240   09 Jun 2027 10:39:16.511   09 Jun 2027 10:39:16.836             0.325           126.750
       241   09 Jun 2027 10:39:31.843   09 Jun 2027 10:39:33.472             1.629           153.000
       242   10 Jun 2027 04:20:25.473   10 Jun 2027 04:21:31.317            65.844         32922.000
       243   10 Jun 2027 04:22:52.842   10 Jun 2027 04:22:59.031             6.189          3094.500
       244   10 Jun 2027 04:24:09.430   10 Jun 2027 04:24:22.818            13.388          6694.000
       245   10 Jun 2027 04:24:27.635   10 Jun 2027 04:24:48.079            20.444         10222.000
       246   10 Jun 2027 05:55:23.358   10 Jun 2027 05:56:56.112            92.754         46377.000
       247   10 Jun 2027 05:57:27.154   10 Jun 2027 05:57:34.432             7.278          3639.000
       248   10 Jun 2027 05:58:16.297   10 Jun 2027 05:58:28.554            12.257          6128.500
       249   10 Jun 2027 05:58:34.726   10 Jun 2027 05:58:37.219             2.493          1246.500
       250   10 Jun 2027 06:00:22.426   10 Jun 2027 06:00:31.010             8.584          4292.000
       251   10 Jun 2027 06:01:51.669   10 Jun 2027 06:02:30.565            38.896         19448.000
       252   10 Jun 2027 07:32:51.844   10 Jun 2027 07:33:56.420            64.576         31034.250
       253   10 Jun 2027 07:34:45.284   10 Jun 2027 07:34:47.082             1.798           697.344
       254   10 Jun 2027 07:35:44.780   10 Jun 2027 07:35:49.802             5.022           346.375
       255   10 Jun 2027 07:38:03.570   10 Jun 2027 07:38:07.467             3.897          1810.219
       256   10 Jun 2027 07:38:36.086   10 Jun 2027 07:38:38.031             1.945           411.344
       257   10 Jun 2027 09:09:36.612   10 Jun 2027 09:09:51.326            14.714          6449.594
       258   10 Jun 2027 09:13:09.846   10 Jun 2027 09:13:19.835             9.989          1999.656
       259   10 Jun 2027 09:13:32.539   10 Jun 2027 09:13:34.472             1.933           365.813
       260   10 Jun 2027 09:13:36.295   10 Jun 2027 09:13:37.095             0.800             6.875
       261   10 Jun 2027 09:14:32.922   10 Jun 2027 09:14:36.680             3.758          1056.375
       262   10 Jun 2027 09:15:12.305   10 Jun 2027 09:15:15.534             3.229          1077.969
       263   10 Jun 2027 09:15:41.715   10 Jun 2027 09:15:48.349             6.634           162.687
       264   10 Jun 2027 09:15:53.744   10 Jun 2027 09:16:00.756             7.012            86.063
       265   10 Jun 2027 10:47:34.985   10 Jun 2027 10:47:47.047            12.062          5763.563
       266   10 Jun 2027 10:49:31.662   10 Jun 2027 10:49:49.904            18.242          2554.656
       267   10 Jun 2027 10:50:52.997   10 Jun 2027 10:50:55.411             2.414           469.406
       268   10 Jun 2027 10:51:24.390   10 Jun 2027 10:51:28.769             4.379           652.375
       269   10 Jun 2027 10:51:29.120   10 Jun 2027 10:51:30.258             1.138            10.969
       270   11 Jun 2027 03:00:00.000   11 Jun 2027 03:00:05.675             5.675          2837.500
       271   11 Jun 2027 03:10:11.837   11 Jun 2027 03:10:43.298            31.461         15730.500
       272   11 Jun 2027 04:31:58.559   11 Jun 2027 04:33:16.604            78.045         39022.500
       273   11 Jun 2027 04:34:06.505   11 Jun 2027 04:34:24.950            18.445          9222.500
       274   11 Jun 2027 04:35:00.290   11 Jun 2027 04:35:28.945            28.655         14327.500
       275   11 Jun 2027 04:36:07.512   11 Jun 2027 04:36:25.379            17.867          8933.500
       276   11 Jun 2027 04:36:56.265   11 Jun 2027 04:37:07.715            11.450          5725.000
       277   11 Jun 2027 06:06:51.361   11 Jun 2027 06:08:33.488           102.127         51063.500
       278   11 Jun 2027 06:09:18.737   11 Jun 2027 06:09:25.849             7.112          2441.406
       279   11 Jun 2027 06:10:10.026   11 Jun 2027 06:10:10.026             0.000             0.000
       280   11 Jun 2027 06:10:30.887   11 Jun 2027 06:10:35.356             4.469          1988.250
       281   11 Jun 2027 06:10:59.528   11 Jun 2027 06:10:59.528             0.000             0.000
       282   11 Jun 2027 06:11:53.450   11 Jun 2027 06:12:07.107            13.657          2408.250
       283   11 Jun 2027 06:13:53.237   11 Jun 2027 06:14:00.850             7.613          2983.094
       284   11 Jun 2027 06:14:19.154   11 Jun 2027 06:14:21.354             2.200           453.063
       285   11 Jun 2027 06:14:38.154   11 Jun 2027 06:14:38.154             0.000             0.000
       286   11 Jun 2027 06:15:30.230   11 Jun 2027 06:15:34.555             4.325          1927.656
       287   11 Jun 2027 07:44:44.952   11 Jun 2027 07:44:45.980             1.028           417.563
       288   11 Jun 2027 07:46:48.271   11 Jun 2027 07:46:58.853            10.582           812.469
       289   11 Jun 2027 07:47:28.004   11 Jun 2027 07:47:32.710             4.706           910.969
       290   11 Jun 2027 07:48:07.322   11 Jun 2027 07:48:10.930             3.608           474.844
       291   11 Jun 2027 07:48:31.122   11 Jun 2027 07:48:33.904             2.782           536.500
       292   11 Jun 2027 07:48:38.769   11 Jun 2027 07:48:39.625             0.856           152.031
       293   11 Jun 2027 07:50:00.828   11 Jun 2027 07:50:04.156             3.328          1421.875
       294   11 Jun 2027 07:50:36.882   11 Jun 2027 07:50:41.040             4.158           889.531
       295   11 Jun 2027 07:52:01.609   11 Jun 2027 07:52:05.487             3.878           953.813
       296   11 Jun 2027 09:21:28.879   11 Jun 2027 09:21:45.060            16.181          7617.187
       297   11 Jun 2027 09:22:43.381   11 Jun 2027 09:22:44.311             0.930           203.500
       298   11 Jun 2027 09:24:04.172   11 Jun 2027 09:24:04.371             0.199            82.469
       299   11 Jun 2027 09:25:02.740   11 Jun 2027 09:25:06.132             3.392          1640.438
       300   11 Jun 2027 09:25:21.570   11 Jun 2027 09:25:27.391             5.821           440.594
       301   11 Jun 2027 09:25:58.645   11 Jun 2027 09:26:01.062             2.417           731.094
       302   11 Jun 2027 09:26:01.470   11 Jun 2027 09:26:01.723             0.253            12.750
       303   11 Jun 2027 09:26:38.277   11 Jun 2027 09:26:41.595             3.318           680.656
       304   11 Jun 2027 09:27:25.897   11 Jun 2027 09:27:28.637             2.740          1146.125
       305   11 Jun 2027 10:59:35.217   11 Jun 2027 10:59:46.804            11.587          5298.781
       306   11 Jun 2027 11:01:41.197   11 Jun 2027 11:01:43.424             2.227           369.375
       307   11 Jun 2027 11:02:38.010   11 Jun 2027 11:02:48.340            10.330           276.906
       308   12 Jun 2027 03:09:55.418   12 Jun 2027 03:10:10.550            15.132          7566.000
       309   12 Jun 2027 04:45:56.386   12 Jun 2027 04:48:55.177           178.791         89395.500
       310   12 Jun 2027 06:19:43.764   12 Jun 2027 06:21:26.131           102.367         51127.406
       311   12 Jun 2027 06:21:48.454   12 Jun 2027 06:21:52.079             3.625           254.437
       312   12 Jun 2027 06:22:16.606   12 Jun 2027 06:22:18.929             2.323           595.313
       313   12 Jun 2027 06:22:47.251   12 Jun 2027 06:22:50.372             3.121           885.063
       314   12 Jun 2027 06:24:24.341   12 Jun 2027 06:24:26.836             2.495          1247.500
       315   12 Jun 2027 06:24:35.598   12 Jun 2027 06:24:40.913             5.315          1623.156
       316   12 Jun 2027 06:25:05.069   12 Jun 2027 06:25:06.136             1.067           227.906
       317   12 Jun 2027 06:26:07.616   12 Jun 2027 06:26:15.161             7.545          1830.250
       318   12 Jun 2027 06:26:26.370   12 Jun 2027 06:26:28.063             1.693           181.281
       319   12 Jun 2027 06:27:03.955   12 Jun 2027 06:27:07.254             3.299          1121.625
       320   12 Jun 2027 06:28:11.081   12 Jun 2027 06:28:14.134             3.053           478.812
       321   12 Jun 2027 07:56:52.563   12 Jun 2027 07:56:53.308             0.745           276.844
       322   12 Jun 2027 07:58:41.183   12 Jun 2027 07:58:43.285             2.102           635.344
       323   12 Jun 2027 08:00:06.177   12 Jun 2027 08:00:11.661             5.484          2578.375
       324   12 Jun 2027 08:00:39.755   12 Jun 2027 08:00:41.104             1.349           153.312
       325   12 Jun 2027 08:00:57.860   12 Jun 2027 08:00:58.681             0.821           119.531
       326   12 Jun 2027 08:01:52.512   12 Jun 2027 08:01:54.838             2.326           741.344
       327   12 Jun 2027 09:34:07.067   12 Jun 2027 09:34:16.686             9.619          4796.344
       328   12 Jun 2027 09:37:09.939   12 Jun 2027 09:37:12.795             2.856          1256.312
       329   12 Jun 2027 09:37:43.644   12 Jun 2027 09:37:46.663             3.019           964.031
       330   12 Jun 2027 09:38:26.200   12 Jun 2027 09:38:28.567             2.367           724.500
       331   12 Jun 2027 09:39:25.984   12 Jun 2027 09:39:29.651             3.667          1735.344
       332   12 Jun 2027 11:10:49.116   12 Jun 2027 11:11:00.740            11.624          5500.375
       333   12 Jun 2027 11:13:45.376   12 Jun 2027 11:13:46.633             1.257           197.375
       334   12 Jun 2027 11:14:07.483   12 Jun 2027 11:14:12.598             5.115           436.594
       335   12 Jun 2027 11:14:23.050   12 Jun 2027 11:14:30.565             7.515           243.094
       336   12 Jun 2027 11:15:10.462   12 Jun 2027 11:15:11.214             0.752           330.406
       337   12 Jun 2027 11:15:35.287   12 Jun 2027 11:15:37.420             2.133           415.625
       338   13 Jun 2027 03:21:48.360   13 Jun 2027 03:22:00.145            11.785          5892.500
       339   13 Jun 2027 04:58:09.263   13 Jun 2027 05:00:25.605           136.342         68171.000
       340   13 Jun 2027 05:01:12.329   13 Jun 2027 05:01:38.942            26.613         13306.500
       341   13 Jun 2027 06:32:07.583   13 Jun 2027 06:34:07.530           119.947         59310.625
       342   13 Jun 2027 06:34:34.890   13 Jun 2027 06:34:35.742             0.852           349.875
       343   13 Jun 2027 06:35:05.469   13 Jun 2027 06:35:15.359             9.890           582.406
       344   13 Jun 2027 06:35:59.657   13 Jun 2027 06:36:02.988             3.331          1376.344
       345   13 Jun 2027 06:37:12.282   13 Jun 2027 06:37:24.047            11.765          1539.250
       346   13 Jun 2027 06:38:38.611   13 Jun 2027 06:38:44.759             6.148          1885.531
       347   13 Jun 2027 06:39:13.892   13 Jun 2027 06:39:15.530             1.638           688.719
       348   13 Jun 2027 06:40:10.166   13 Jun 2027 06:40:11.148             0.982           394.906
       349   13 Jun 2027 08:09:17.960   13 Jun 2027 08:09:21.862             3.902           698.031
       350   13 Jun 2027 08:11:37.841   13 Jun 2027 08:11:42.106             4.265          1367.437
       351   13 Jun 2027 08:11:54.599   13 Jun 2027 08:11:55.388             0.789           390.406
       352   13 Jun 2027 08:13:01.169   13 Jun 2027 08:13:06.973             5.804          1250.375
       353   13 Jun 2027 08:14:41.891   13 Jun 2027 08:14:46.181             4.290          1570.812
       354   13 Jun 2027 09:46:17.360   13 Jun 2027 09:46:33.264            15.904          6728.563
       355   13 Jun 2027 09:49:51.037   13 Jun 2027 09:49:52.882             1.845           164.563
       356   13 Jun 2027 09:50:01.032   13 Jun 2027 09:50:03.413             2.381           174.719
       357   13 Jun 2027 09:50:59.539   13 Jun 2027 09:51:03.545             4.006          1745.375
       358   13 Jun 2027 11:23:03.911   13 Jun 2027 11:23:20.698            16.787          8159.437
       359   13 Jun 2027 11:26:19.711   13 Jun 2027 11:26:23.738             4.027           764.656
