uniorb/output/strategy_4/Camera/Camera_KinoSat_111506.txt

KinoSat_111506
-------------------------
    Access    *     Start Time (UTCG)     *     Stop Time (UTCG)  *   Duration (s) *   Data (Mbytes)
         1   01 Jun 2027 03:08:47.024   01 Jun 2027 03:09:43.412            56.388         28194.000
         2   01 Jun 2027 03:09:49.132   01 Jun 2027 03:10:14.907            25.775         12887.500
         3   01 Jun 2027 03:10:31.949   01 Jun 2027 03:10:36.989             5.040          2520.000
         4   01 Jun 2027 03:11:38.048   01 Jun 2027 03:11:48.417            10.369          5184.500
         5   01 Jun 2027 03:12:53.762   01 Jun 2027 03:13:15.174            21.412         10706.000
         6   01 Jun 2027 04:47:15.235   01 Jun 2027 04:48:54.442            99.207         49603.500
         7   01 Jun 2027 04:49:13.247   01 Jun 2027 04:49:15.883             2.636          1318.000
         8   01 Jun 2027 04:50:40.111   01 Jun 2027 04:50:41.264             1.153           576.500
         9   01 Jun 2027 06:10:13.832   01 Jun 2027 06:11:26.676            72.844         36422.000
        10   01 Jun 2027 06:12:41.550   01 Jun 2027 06:12:41.550             0.000             0.000
        11   01 Jun 2027 07:46:40.596   01 Jun 2027 07:48:44.326           123.730         61865.000
        12   01 Jun 2027 07:50:05.024   01 Jun 2027 07:50:13.716             8.692          4346.000
        13   01 Jun 2027 09:21:49.191   01 Jun 2027 09:23:22.257            93.066         46533.000
        14   01 Jun 2027 09:24:07.433   01 Jun 2027 09:25:00.055            52.622         26311.000
        15   01 Jun 2027 09:28:24.781   01 Jun 2027 09:28:36.590            11.809          5904.500
        16   01 Jun 2027 10:58:09.691   01 Jun 2027 11:00:58.358           168.667         84333.500
        17   01 Jun 2027 11:01:27.762   01 Jun 2027 11:01:48.688            20.926         10463.000
        18   01 Jun 2027 11:02:44.592   01 Jun 2027 11:02:50.122             5.530          2765.000
        19   02 Jun 2027 03:20:37.885   02 Jun 2027 03:21:36.462            58.577         29288.500
        20   02 Jun 2027 03:21:45.205   02 Jun 2027 03:22:22.372            37.167         18583.500
        21   02 Jun 2027 03:23:16.097   02 Jun 2027 03:23:44.882            28.785         14392.500
        22   02 Jun 2027 03:26:13.077   02 Jun 2027 03:26:16.900             3.823          1911.500
        23   02 Jun 2027 03:26:24.554   02 Jun 2027 03:26:49.157            24.603         12301.500
        24   02 Jun 2027 04:58:54.684   02 Jun 2027 05:02:40.313           225.629        112814.500
        25   02 Jun 2027 06:22:15.222   02 Jun 2027 06:23:09.475            54.253         27126.500
        26   02 Jun 2027 07:58:51.160   02 Jun 2027 08:02:16.885           205.725        102862.500
        27   02 Jun 2027 09:34:01.369   02 Jun 2027 09:35:06.476            65.107         31719.906
        28   02 Jun 2027 09:35:28.733   02 Jun 2027 09:35:30.740             2.007           159.500
        29   02 Jun 2027 09:36:19.152   02 Jun 2027 09:36:25.416             6.264          1341.937
        30   02 Jun 2027 09:37:44.255   02 Jun 2027 09:37:47.644             3.389          1482.906
        31   02 Jun 2027 09:38:31.960   02 Jun 2027 09:38:36.030             4.070           316.219
        32   02 Jun 2027 09:38:53.403   02 Jun 2027 09:38:54.329             0.926           339.875
        33   02 Jun 2027 09:39:32.807   02 Jun 2027 09:39:36.659             3.852           999.062
        34   02 Jun 2027 09:40:28.072   02 Jun 2027 09:40:32.664             4.592          1553.344
        35   02 Jun 2027 11:10:19.578   02 Jun 2027 11:10:31.468            11.890          5713.688
        36   02 Jun 2027 11:12:09.631   02 Jun 2027 11:12:13.087             3.456          1412.375
        37   02 Jun 2027 11:12:24.889   02 Jun 2027 11:12:28.448             3.559           351.531
        38   02 Jun 2027 11:13:01.325   02 Jun 2027 11:13:06.857             5.532            28.813
        39   02 Jun 2027 11:14:09.402   02 Jun 2027 11:14:17.996             8.594          1643.125
        40   02 Jun 2027 11:14:55.407   02 Jun 2027 11:14:59.636             4.229          1147.000
        41   02 Jun 2027 11:15:51.686   02 Jun 2027 11:15:54.427             2.741          1019.750
        42   02 Jun 2027 11:16:13.013   02 Jun 2027 11:16:14.138             1.125           344.281
        43   02 Jun 2027 11:16:31.904   02 Jun 2027 11:16:32.152             0.248           124.000
        44   03 Jun 2027 03:33:44.168   03 Jun 2027 03:36:50.951           186.783         93391.500
        45   03 Jun 2027 03:38:41.944   03 Jun 2027 03:38:49.915             7.971          3985.500
        46   03 Jun 2027 03:40:35.988   03 Jun 2027 03:41:36.999            61.011         30505.500
        47   03 Jun 2027 05:10:50.964   03 Jun 2027 05:11:32.554            41.590         20795.000
        48   03 Jun 2027 05:11:40.313   03 Jun 2027 05:12:23.185            42.872         20311.968
        49   03 Jun 2027 05:13:15.044   03 Jun 2027 05:13:23.206             8.162           485.500
        50   03 Jun 2027 05:13:47.812   03 Jun 2027 05:13:50.299             2.487           100.094
        51   03 Jun 2027 05:14:22.536   03 Jun 2027 05:14:25.696             3.160           738.719
        52   03 Jun 2027 06:34:49.606   03 Jun 2027 06:35:00.024            10.418          3851.125
        53   03 Jun 2027 06:35:16.079   03 Jun 2027 06:35:16.079             0.000             0.000
        54   03 Jun 2027 06:35:17.640   03 Jun 2027 06:35:20.829             3.189           362.781
        55   03 Jun 2027 06:35:23.892   03 Jun 2027 06:35:23.892             0.000             0.000
        56   03 Jun 2027 06:35:43.134   03 Jun 2027 06:35:46.328             3.194           662.937
        57   03 Jun 2027 06:36:23.113   03 Jun 2027 06:36:27.198             4.085           980.625
        58   03 Jun 2027 08:10:36.999   03 Jun 2027 08:10:50.742            13.743          1879.250
        59   03 Jun 2027 08:11:47.839   03 Jun 2027 08:11:51.962             4.123          1746.562
        60   03 Jun 2027 08:12:14.420   03 Jun 2027 08:12:15.183             0.763           139.031
        61   03 Jun 2027 08:12:55.640   03 Jun 2027 08:12:59.451             3.811           453.031
        62   03 Jun 2027 08:13:19.358   03 Jun 2027 08:13:20.355             0.997           396.125
        63   03 Jun 2027 08:13:57.387   03 Jun 2027 08:13:59.964             2.577          1001.937
        64   03 Jun 2027 08:14:44.797   03 Jun 2027 08:14:47.902             3.105          1361.156
        65   03 Jun 2027 09:45:30.388   03 Jun 2027 09:45:38.573             8.185          3867.031
        66   03 Jun 2027 09:47:24.580   03 Jun 2027 09:47:33.577             8.997          2658.875
        67   03 Jun 2027 09:48:25.653   03 Jun 2027 09:48:27.515             1.862           877.750
        68   03 Jun 2027 09:48:33.866   03 Jun 2027 09:48:36.661             2.795           139.156
        69   03 Jun 2027 09:49:47.254   03 Jun 2027 09:49:50.840             3.586          1719.937
        70   03 Jun 2027 09:51:01.452   03 Jun 2027 09:51:06.100             4.648           514.656
        71   03 Jun 2027 09:52:14.796   03 Jun 2027 09:52:19.416             4.620          1973.906
        72   03 Jun 2027 09:52:42.328   03 Jun 2027 09:52:46.295             3.967           601.156
        73   03 Jun 2027 11:22:01.064   03 Jun 2027 11:22:14.072            13.008          5530.250
        74   03 Jun 2027 11:24:00.117   03 Jun 2027 11:24:04.304             4.187          1875.750
        75   03 Jun 2027 11:24:27.590   03 Jun 2027 11:24:29.205             1.615           697.375
        76   03 Jun 2027 11:25:17.383   03 Jun 2027 11:25:21.189             3.806          1185.594
        77   03 Jun 2027 11:25:53.334   03 Jun 2027 11:25:58.003             4.669           856.406
        78   03 Jun 2027 11:26:11.328   03 Jun 2027 11:26:11.804             0.476           136.406
        79   03 Jun 2027 11:26:31.866   03 Jun 2027 11:26:33.625             1.759           583.406
        80   03 Jun 2027 11:27:29.322   03 Jun 2027 11:27:34.118             4.796          1627.281
        81   04 Jun 2027 03:45:49.045   04 Jun 2027 03:49:22.179           213.134        106567.000
        82   04 Jun 2027 03:49:41.463   04 Jun 2027 03:49:58.207            16.744          8372.000
        83   04 Jun 2027 03:52:52.444   04 Jun 2027 03:53:26.937            34.493         17246.500
        84   04 Jun 2027 05:12:33.894   04 Jun 2027 05:12:34.515             0.621           310.500
        85   04 Jun 2027 05:22:48.560   04 Jun 2027 05:24:03.552            74.992         37096.500
        86   04 Jun 2027 06:45:24.502   04 Jun 2027 06:45:37.364            12.862          5234.156
        87   04 Jun 2027 06:46:13.732   04 Jun 2027 06:46:14.727             0.995           493.031
        88   04 Jun 2027 06:46:58.764   04 Jun 2027 06:47:01.294             2.530           886.375
        89   04 Jun 2027 06:47:18.271   04 Jun 2027 06:47:20.910             2.639           530.531
        90   04 Jun 2027 06:47:44.750   04 Jun 2027 06:47:47.850             3.100           745.000
        91   04 Jun 2027 06:48:24.549   04 Jun 2027 06:48:24.549             0.000             0.000
        92   04 Jun 2027 06:48:49.660   04 Jun 2027 06:48:53.511             3.851          1752.031
        93   04 Jun 2027 06:49:20.934   04 Jun 2027 06:49:22.738             1.804           592.281
        94   04 Jun 2027 08:20:54.310   04 Jun 2027 08:21:00.235             5.925          2213.156
        95   04 Jun 2027 08:22:23.281   04 Jun 2027 08:22:28.542             5.261          1293.906
        96   04 Jun 2027 08:23:48.945   04 Jun 2027 08:23:55.427             6.482          2137.031
        97   04 Jun 2027 08:24:06.401   04 Jun 2027 08:24:09.462             3.061           159.437
        98   04 Jun 2027 08:25:22.402   04 Jun 2027 08:25:24.018             1.616           297.281
        99   04 Jun 2027 08:25:34.798   04 Jun 2027 08:25:36.158             1.360           336.875
       100   04 Jun 2027 08:26:25.910   04 Jun 2027 08:26:28.560             2.650          1187.656
       101   04 Jun 2027 08:26:41.038   04 Jun 2027 08:26:43.402             2.364           242.063
       102   04 Jun 2027 09:57:15.390   04 Jun 2027 09:57:22.891             7.501          3503.156
       103   04 Jun 2027 10:00:10.363   04 Jun 2027 10:00:13.349             2.986          1310.156
       104   04 Jun 2027 10:00:45.948   04 Jun 2027 10:00:51.765             5.817           465.844
       105   04 Jun 2027 10:01:36.356   04 Jun 2027 10:01:41.961             5.605          1393.469
       106   04 Jun 2027 10:03:10.411   04 Jun 2027 10:03:16.958             6.547          2424.219
       107   04 Jun 2027 10:03:58.796   04 Jun 2027 10:04:02.010             3.214          1307.438
       108   04 Jun 2027 10:04:22.705   04 Jun 2027 10:04:30.543             7.838           484.563
       109   04 Jun 2027 11:34:21.359   04 Jun 2027 11:34:36.819            15.460          5334.875
       110   04 Jun 2027 11:37:01.862   04 Jun 2027 11:37:07.470             5.608          2129.594
       111   04 Jun 2027 11:38:00.876   04 Jun 2027 11:38:04.231             3.355           974.437
       112   04 Jun 2027 11:38:27.771   04 Jun 2027 11:38:29.787             2.016             5.844
       113   04 Jun 2027 11:38:31.118   04 Jun 2027 11:38:31.760             0.642            11.969
       114   04 Jun 2027 11:39:03.610   04 Jun 2027 11:39:05.789             2.179           787.344
       115   04 Jun 2027 11:40:14.274   04 Jun 2027 11:40:18.628             4.354          2041.406
       116   05 Jun 2027 03:58:18.383   05 Jun 2027 04:00:49.416           151.033         75516.500
       117   05 Jun 2027 04:01:03.187   05 Jun 2027 04:01:10.102             6.915          3457.500
       118   05 Jun 2027 04:01:28.483   05 Jun 2027 04:01:35.768             7.285          3642.500
       119   05 Jun 2027 04:02:23.927   05 Jun 2027 04:02:24.096             0.169            84.500
       120   05 Jun 2027 04:03:37.420   05 Jun 2027 04:04:10.874            33.454         16727.000
       121   05 Jun 2027 05:23:07.916   05 Jun 2027 05:23:16.029             8.113          4056.500
       122   05 Jun 2027 05:23:20.963   05 Jun 2027 05:23:29.200             8.237          4118.500
       123   05 Jun 2027 05:34:48.050   05 Jun 2027 05:35:49.002            60.952         30476.000
       124   05 Jun 2027 06:57:05.978   05 Jun 2027 06:58:04.410            58.432         28763.625
       125   05 Jun 2027 06:59:32.191   05 Jun 2027 06:59:36.520             4.329          1278.406
       126   05 Jun 2027 07:01:23.762   05 Jun 2027 07:01:33.339             9.577          2965.031
       127   05 Jun 2027 07:02:07.870   05 Jun 2027 07:02:12.712             4.842          1056.563
       128   05 Jun 2027 08:32:25.352   05 Jun 2027 08:32:32.028             6.676          3282.937
       129   05 Jun 2027 08:33:44.267   05 Jun 2027 08:33:47.460             3.193          1406.875
       130   05 Jun 2027 08:35:43.068   05 Jun 2027 08:35:44.746             1.678           361.906
       131   05 Jun 2027 08:37:20.921   05 Jun 2027 08:37:30.644             9.723          2366.187
       132   05 Jun 2027 08:38:37.298   05 Jun 2027 08:38:41.155             3.857          1521.000
       133   05 Jun 2027 10:09:32.201   05 Jun 2027 10:09:38.213             6.012          2968.656
       134   05 Jun 2027 10:10:20.366   05 Jun 2027 10:10:23.535             3.169           593.250
       135   05 Jun 2027 10:11:02.326   05 Jun 2027 10:11:04.879             2.553            34.250
       136   05 Jun 2027 10:12:37.479   05 Jun 2027 10:12:42.153             4.674          2267.750
       137   05 Jun 2027 10:13:47.292   05 Jun 2027 10:13:51.588             4.296          1491.750
       138   05 Jun 2027 10:15:08.297   05 Jun 2027 10:15:12.657             4.360          2099.281
       139   05 Jun 2027 10:15:44.174   05 Jun 2027 10:15:46.037             1.863           801.000
       140   05 Jun 2027 10:15:59.861   05 Jun 2027 10:16:07.041             7.180           223.656
       141   05 Jun 2027 10:16:48.946   05 Jun 2027 10:16:51.651             2.705          1309.531
       142   05 Jun 2027 11:46:17.444   05 Jun 2027 11:46:27.508            10.064          4951.500
       143   05 Jun 2027 11:49:48.188   05 Jun 2027 11:49:51.846             3.658          1471.344
       144   05 Jun 2027 11:50:16.186   05 Jun 2027 11:50:19.739             3.553           587.781
       145   05 Jun 2027 11:50:21.917   05 Jun 2027 11:50:22.776             0.859            68.062
       146   05 Jun 2027 11:50:38.650   05 Jun 2027 11:50:42.138             3.488           129.688
       147   05 Jun 2027 11:51:57.995   05 Jun 2027 11:52:03.393             5.398          2370.531
       148   05 Jun 2027 11:52:13.982   05 Jun 2027 11:52:16.199             2.217           330.906
       149   05 Jun 2027 11:52:29.557   05 Jun 2027 11:52:30.451             0.894           417.437
       150   06 Jun 2027 04:10:21.538   06 Jun 2027 04:12:01.196            99.658         49829.000
       151   06 Jun 2027 04:12:18.148   06 Jun 2027 04:13:09.637            51.489         25744.500
       152   06 Jun 2027 04:14:21.865   06 Jun 2027 04:14:29.360             7.495          3747.500
       153   06 Jun 2027 04:15:02.608   06 Jun 2027 04:15:11.563             8.955          4477.500
       154   06 Jun 2027 05:34:41.523   06 Jun 2027 05:35:14.404            32.881         16440.500
       155   06 Jun 2027 05:35:22.308   06 Jun 2027 05:35:26.209             3.901          1950.500
       156   06 Jun 2027 05:46:57.118   06 Jun 2027 05:47:23.179            26.061         13030.500
       157   06 Jun 2027 07:08:38.190   06 Jun 2027 07:09:57.870            79.680         39840.000
       158   06 Jun 2027 07:10:46.122   06 Jun 2027 07:10:59.304            13.182          5310.968
       159   06 Jun 2027 07:11:31.010   06 Jun 2027 07:11:32.910             1.900           716.313
       160   06 Jun 2027 07:12:58.959   06 Jun 2027 07:13:06.852             7.893          1979.031
       161   06 Jun 2027 07:14:20.147   06 Jun 2027 07:14:26.523             6.376          2044.063
       162   06 Jun 2027 08:43:31.359   06 Jun 2027 08:43:40.702             9.343          2572.438
       163   06 Jun 2027 08:45:30.611   06 Jun 2027 08:45:36.995             6.384          2184.344
       164   06 Jun 2027 08:46:28.545   06 Jun 2027 08:46:31.505             2.960          1394.094
       165   06 Jun 2027 08:47:16.034   06 Jun 2027 08:47:17.493             1.459           475.219
       166   06 Jun 2027 08:48:06.450   06 Jun 2027 08:48:10.527             4.077          1012.937
       167   06 Jun 2027 08:48:50.489   06 Jun 2027 08:48:52.900             2.411           368.000
       168   06 Jun 2027 08:50:13.809   06 Jun 2027 08:50:18.637             4.828          1652.188
       169   06 Jun 2027 08:50:28.981   06 Jun 2027 08:50:37.179             8.198           223.594
       170   06 Jun 2027 08:51:26.204   06 Jun 2027 08:51:35.701             9.497          1180.562
       171   06 Jun 2027 08:52:20.855   06 Jun 2027 08:52:27.582             6.727          1411.062
       172   06 Jun 2027 10:21:26.904   06 Jun 2027 10:21:39.641            12.737          5171.313
       173   06 Jun 2027 10:22:34.676   06 Jun 2027 10:22:36.282             1.606           511.437
       174   06 Jun 2027 10:22:45.114   06 Jun 2027 10:22:45.619             0.505           131.844
       175   06 Jun 2027 10:23:04.314   06 Jun 2027 10:23:05.605             1.291           241.406
       176   06 Jun 2027 10:24:25.994   06 Jun 2027 10:24:30.792             4.798          1934.031
       177   06 Jun 2027 10:25:34.630   06 Jun 2027 10:25:36.794             2.164           935.563
       178   06 Jun 2027 10:26:47.127   06 Jun 2027 10:26:54.510             7.383          2038.969
       179   06 Jun 2027 10:27:17.677   06 Jun 2027 10:27:23.802             6.125           393.031
       180   06 Jun 2027 10:28:17.626   06 Jun 2027 10:28:20.744             3.118          1063.281
       181   06 Jun 2027 10:28:41.162   06 Jun 2027 10:28:42.182             1.020           483.031
       182   06 Jun 2027 11:58:14.139   06 Jun 2027 11:58:27.274            13.135          5745.375
       183   07 Jun 2027 04:22:47.642   07 Jun 2027 04:23:59.280            71.638         35819.000
       184   07 Jun 2027 04:25:17.476   07 Jun 2027 04:26:16.157            58.681         29340.500
       185   07 Jun 2027 05:46:37.244   07 Jun 2027 05:47:20.137            42.893         21446.500
       186   07 Jun 2027 05:47:55.437   07 Jun 2027 05:48:03.219             7.782          3891.000
       187   07 Jun 2027 07:22:37.025   07 Jun 2027 07:25:06.685           149.660         73450.938
       188   07 Jun 2027 07:25:31.698   07 Jun 2027 07:25:33.495             1.797            86.656
       189   07 Jun 2027 07:26:19.278   07 Jun 2027 07:26:19.278             0.000             0.000
       190   07 Jun 2027 08:56:24.901   07 Jun 2027 08:56:32.259             7.358          3528.687
       191   07 Jun 2027 08:58:43.253   07 Jun 2027 08:58:43.879             0.626           191.781
       192   07 Jun 2027 08:59:36.338   07 Jun 2027 08:59:46.685            10.347          1253.031
       193   07 Jun 2027 09:01:03.888   07 Jun 2027 09:01:09.276             5.388          2306.938
       194   07 Jun 2027 09:02:07.417   07 Jun 2027 09:02:15.400             7.983          1471.438
       195   07 Jun 2027 09:03:06.744   07 Jun 2027 09:03:10.819             4.075          1475.594
       196   07 Jun 2027 09:03:27.699   07 Jun 2027 09:03:33.326             5.627           527.500
       197   07 Jun 2027 09:04:07.305   07 Jun 2027 09:04:12.032             4.727          1045.187
       198   07 Jun 2027 09:04:14.143   07 Jun 2027 09:04:15.030             0.887            44.594
       199   07 Jun 2027 09:04:31.425   07 Jun 2027 09:04:32.059             0.634            56.750
       200   07 Jun 2027 10:33:38.433   07 Jun 2027 10:33:50.760            12.327          5652.344
       201   07 Jun 2027 10:36:10.135   07 Jun 2027 10:36:16.133             5.998          2313.125
       202   07 Jun 2027 10:37:12.705   07 Jun 2027 10:37:14.180             1.475           114.594
       203   07 Jun 2027 10:37:39.595   07 Jun 2027 10:37:47.578             7.983           744.937
       204   07 Jun 2027 10:38:12.260   07 Jun 2027 10:38:14.501             2.241           160.719
       205   07 Jun 2027 10:38:46.801   07 Jun 2027 10:38:50.438             3.637           604.031
       206   07 Jun 2027 10:38:54.898   07 Jun 2027 10:38:55.516             0.618           103.688
       207   07 Jun 2027 10:39:55.721   07 Jun 2027 10:40:02.642             6.921          1164.094
       208   07 Jun 2027 10:40:12.747   07 Jun 2027 10:40:14.951             2.204           315.781
       209   07 Jun 2027 10:40:17.247   07 Jun 2027 10:40:18.833             1.586            71.750
       210   07 Jun 2027 10:40:20.091   07 Jun 2027 10:40:21.069             0.978            38.625
       211   08 Jun 2027 03:00:00.000   08 Jun 2027 03:00:09.016             9.016          4508.000
       212   08 Jun 2027 03:00:24.985   08 Jun 2027 03:00:49.477            24.492         12246.000
       213   08 Jun 2027 03:01:04.793   08 Jun 2027 03:01:13.763             8.970          4485.000
       214   08 Jun 2027 04:35:07.685   08 Jun 2027 04:37:02.760           115.075         57537.500
       215   08 Jun 2027 04:37:40.921   08 Jun 2027 04:38:16.314            35.393         17696.500
       216   08 Jun 2027 05:58:29.393   08 Jun 2027 05:59:11.781            42.388         21194.000
       217   08 Jun 2027 06:00:21.387   08 Jun 2027 06:01:02.491            41.104         20552.000
       218   08 Jun 2027 07:34:50.795   08 Jun 2027 07:35:49.764            58.969         29352.625
       219   08 Jun 2027 07:36:50.772   08 Jun 2027 07:36:54.145             3.373          1553.094
       220   08 Jun 2027 07:37:56.892   08 Jun 2027 07:37:59.711             2.819           802.937
       221   08 Jun 2027 09:08:56.250   08 Jun 2027 09:09:04.765             8.515          2823.656
       222   08 Jun 2027 09:11:01.132   08 Jun 2027 09:11:04.520             3.388           347.625
       223   08 Jun 2027 09:11:44.133   08 Jun 2027 09:11:49.409             5.276           180.125
       224   08 Jun 2027 09:13:18.977   08 Jun 2027 09:13:23.263             4.286          1948.781
       225   08 Jun 2027 09:14:06.857   08 Jun 2027 09:14:10.491             3.634           110.094
       226   08 Jun 2027 09:15:37.047   08 Jun 2027 09:15:39.737             2.690           257.937
       227   08 Jun 2027 09:16:27.124   08 Jun 2027 09:16:30.958             3.834          1024.750
       228   08 Jun 2027 09:16:52.620   08 Jun 2027 09:16:53.616             0.996            12.562
       229   08 Jun 2027 10:46:00.486   08 Jun 2027 10:46:09.955             9.469          4688.312
       230   08 Jun 2027 10:47:45.974   08 Jun 2027 10:47:49.650             3.676          1258.719
       231   08 Jun 2027 10:48:11.609   08 Jun 2027 10:48:12.471             0.862           231.125
       232   08 Jun 2027 10:49:12.612   08 Jun 2027 10:49:13.778             1.166           580.563
       233   08 Jun 2027 10:49:57.806   08 Jun 2027 10:50:01.953             4.147           900.219
       234   08 Jun 2027 10:50:27.769   08 Jun 2027 10:50:32.201             4.432           777.750
       235   08 Jun 2027 10:51:02.002   08 Jun 2027 10:51:03.793             1.791           574.156
       236   08 Jun 2027 10:51:18.160   08 Jun 2027 10:51:19.693             1.533           365.406
       237   08 Jun 2027 10:51:52.383   08 Jun 2027 10:51:58.680             6.297           636.281
       238   08 Jun 2027 10:52:14.370   08 Jun 2027 10:52:18.794             4.424           314.313
       239   08 Jun 2027 10:52:32.615   08 Jun 2027 10:52:33.404             0.789           374.500
       240   09 Jun 2027 03:08:59.251   09 Jun 2027 03:09:59.828            60.577         30288.500
       241   09 Jun 2027 03:10:22.512   09 Jun 2027 03:10:30.357             7.845          3922.500
       242   09 Jun 2027 03:10:48.896   09 Jun 2027 03:10:48.896             0.000             0.000
       243   09 Jun 2027 03:10:51.270   09 Jun 2027 03:10:55.332             4.062          2031.000
       244   09 Jun 2027 03:11:49.101   09 Jun 2027 03:12:08.971            19.870          9935.000
       245   09 Jun 2027 03:13:45.761   09 Jun 2027 03:14:09.530            23.769         11884.500
       246   09 Jun 2027 04:47:35.089   09 Jun 2027 04:50:41.660           186.571         93279.406
       247   09 Jun 2027 06:10:32.205   09 Jun 2027 06:10:54.459            22.254         10375.906
       248   09 Jun 2027 06:11:09.260   09 Jun 2027 06:11:11.132             1.872           285.375
       249   09 Jun 2027 06:12:02.933   09 Jun 2027 06:12:06.110             3.177          1128.219
       250   09 Jun 2027 07:46:57.623   09 Jun 2027 07:47:06.320             8.697          2836.375
       251   09 Jun 2027 07:47:37.565   09 Jun 2027 07:47:38.873             1.308           405.313
       252   09 Jun 2027 07:48:02.758   09 Jun 2027 07:48:06.443             3.685           420.094
       253   09 Jun 2027 07:48:59.160   09 Jun 2027 07:49:02.845             3.685          1647.406
       254   09 Jun 2027 07:49:45.153   09 Jun 2027 07:49:45.153             0.000             0.000
       255   09 Jun 2027 07:50:23.300   09 Jun 2027 07:50:28.471             5.171          2514.219
       256   09 Jun 2027 09:22:05.793   09 Jun 2027 09:22:10.904             5.111          2294.906
       257   09 Jun 2027 09:23:10.199   09 Jun 2027 09:23:12.929             2.730           893.000
       258   09 Jun 2027 09:23:40.081   09 Jun 2027 09:23:41.977             1.896           551.687
       259   09 Jun 2027 09:25:16.726   09 Jun 2027 09:25:23.345             6.619          1593.875
       260   09 Jun 2027 09:25:49.272   09 Jun 2027 09:25:51.656             2.384           691.094
       261   09 Jun 2027 09:27:29.429   09 Jun 2027 09:27:34.997             5.568          2744.062
       262   09 Jun 2027 09:28:07.543   09 Jun 2027 09:28:09.190             1.647           616.875
       263   09 Jun 2027 09:28:47.367   09 Jun 2027 09:28:48.211             0.844           127.875
       264   09 Jun 2027 10:58:26.868   09 Jun 2027 10:58:35.289             8.421          3736.000
       265   09 Jun 2027 11:00:38.145   09 Jun 2027 11:00:40.611             2.466           451.594
       266   09 Jun 2027 11:01:44.689   09 Jun 2027 11:01:49.204             4.515           915.094
       267   09 Jun 2027 11:02:28.388   09 Jun 2027 11:02:31.865             3.477           732.812
       268   09 Jun 2027 11:02:42.972   09 Jun 2027 11:02:44.737             1.765            98.313
       269   09 Jun 2027 11:03:58.018   09 Jun 2027 11:04:02.863             4.845          1561.875
       270   09 Jun 2027 11:04:31.681   09 Jun 2027 11:04:35.631             3.950           900.563
       271   10 Jun 2027 03:20:55.107   10 Jun 2027 03:21:50.438            55.331         27665.500
       272   10 Jun 2027 03:22:01.988   10 Jun 2027 03:24:14.152           132.164         66082.000
       273   10 Jun 2027 03:24:57.481   10 Jun 2027 03:25:11.835            14.354          7177.000
       274   10 Jun 2027 04:59:10.819   10 Jun 2027 04:59:46.750            35.931         17965.500
       275   10 Jun 2027 04:59:59.630   10 Jun 2027 05:01:05.964            66.334         31768.562
       276   10 Jun 2027 05:02:07.188   10 Jun 2027 05:02:12.586             5.398          1290.125
       277   10 Jun 2027 05:02:30.517   10 Jun 2027 05:02:30.971             0.454           104.625
       278   10 Jun 2027 06:22:30.771   10 Jun 2027 06:22:40.100             9.329          4379.281
       279   10 Jun 2027 06:23:48.669   10 Jun 2027 06:23:52.921             4.252          2045.187
       280   10 Jun 2027 06:24:18.710   10 Jun 2027 06:24:18.710             0.000             0.000
       281   10 Jun 2027 06:25:17.770   10 Jun 2027 06:25:23.625             5.855          2256.281
       282   10 Jun 2027 07:59:15.914   10 Jun 2027 07:59:24.551             8.637          3856.344
       283   10 Jun 2027 07:59:40.731   10 Jun 2027 07:59:43.003             2.272           505.625
       284   10 Jun 2027 08:00:29.140   10 Jun 2027 08:00:31.086             1.946           776.375
       285   10 Jun 2027 08:01:17.319   10 Jun 2027 08:01:20.819             3.500          1427.656
       286   10 Jun 2027 08:02:08.589   10 Jun 2027 08:02:11.339             2.750          1051.687
       287   10 Jun 2027 08:02:32.082   10 Jun 2027 08:02:33.374             1.292           117.219
       288   10 Jun 2027 09:34:17.687   10 Jun 2027 09:34:23.606             5.919          2912.781
       289   10 Jun 2027 09:35:41.414   10 Jun 2027 09:35:46.527             5.113          2222.125
       290   10 Jun 2027 09:35:55.086   10 Jun 2027 09:35:55.824             0.738           238.844
       291   10 Jun 2027 09:37:13.389   10 Jun 2027 09:37:16.533             3.144          1115.781
       292   10 Jun 2027 09:38:02.337   10 Jun 2027 09:38:05.442             3.105          1218.375
       293   10 Jun 2027 09:39:09.105   10 Jun 2027 09:39:10.415             1.310           326.938
       294   10 Jun 2027 09:39:52.580   10 Jun 2027 09:39:58.658             6.078           728.562
       295   10 Jun 2027 09:40:51.654   10 Jun 2027 09:40:53.169             1.515           265.656
       296   10 Jun 2027 11:10:34.978   10 Jun 2027 11:10:46.879            11.901          5074.531
       297   10 Jun 2027 11:12:29.405   10 Jun 2027 11:12:37.139             7.734           403.188
       298   10 Jun 2027 11:13:17.392   10 Jun 2027 11:13:22.215             4.823           993.906
       299   10 Jun 2027 11:14:07.023   10 Jun 2027 11:14:08.927             1.904           800.625
       300   10 Jun 2027 11:14:38.975   10 Jun 2027 11:14:45.840             6.865           443.563
       301   10 Jun 2027 11:15:39.761   10 Jun 2027 11:15:44.838             5.077          1685.031
       302   10 Jun 2027 11:16:41.223   10 Jun 2027 11:16:41.548             0.325           162.500
       303   11 Jun 2027 03:34:00.849   11 Jun 2027 03:37:05.712           184.863         92431.500
       304   11 Jun 2027 03:38:27.752   11 Jun 2027 03:38:29.342             1.590           795.000
       305   11 Jun 2027 03:40:53.601   11 Jun 2027 03:41:52.429            58.828         29414.000
       306   11 Jun 2027 05:00:25.072   11 Jun 2027 05:00:29.673             4.601          2300.500
       307   11 Jun 2027 05:11:07.203   11 Jun 2027 05:12:27.704            80.501         39385.625
       308   11 Jun 2027 05:13:32.600   11 Jun 2027 05:13:34.993             2.393           555.875
       309   11 Jun 2027 05:14:14.552   11 Jun 2027 05:14:26.647            12.095           382.125
       310   11 Jun 2027 06:35:07.027   11 Jun 2027 06:35:15.020             7.993          3833.813
       311   11 Jun 2027 06:35:32.483   11 Jun 2027 06:35:35.650             3.167           361.094
       312   11 Jun 2027 06:35:37.501   11 Jun 2027 06:35:37.501             0.000             0.000
       313   11 Jun 2027 06:35:39.309   11 Jun 2027 06:35:40.739             1.430           114.344
       314   11 Jun 2027 06:36:40.595   11 Jun 2027 06:36:44.161             3.566          1611.344
       315   11 Jun 2027 08:10:51.778   11 Jun 2027 08:11:07.542            15.764          1852.000
       316   11 Jun 2027 08:12:27.031   11 Jun 2027 08:12:30.012             2.981          1351.594
       317   11 Jun 2027 08:13:23.566   11 Jun 2027 08:13:25.834             2.268           319.375
       318   11 Jun 2027 08:13:42.006   11 Jun 2027 08:13:42.006             0.000             0.000
       319   11 Jun 2027 08:14:12.157   11 Jun 2027 08:14:16.318             4.161          1182.656
       320   11 Jun 2027 08:15:00.613   11 Jun 2027 08:15:04.764             4.151          1316.063
       321   11 Jun 2027 09:45:44.610   11 Jun 2027 09:45:50.741             6.131          2955.469
       322   11 Jun 2027 09:48:16.569   11 Jun 2027 09:48:19.621             3.052          1070.219
       323   11 Jun 2027 09:48:48.858   11 Jun 2027 09:48:51.094             2.236           319.062
       324   11 Jun 2027 09:49:08.696   11 Jun 2027 09:49:08.696             0.000             0.000
       325   11 Jun 2027 09:50:05.575   11 Jun 2027 09:50:17.817            12.242          2278.719
       326   11 Jun 2027 09:50:39.671   11 Jun 2027 09:50:40.905             1.234           185.563
       327   11 Jun 2027 09:51:01.059   11 Jun 2027 09:51:02.505             1.446           620.969
       328   11 Jun 2027 09:51:44.686   11 Jun 2027 09:51:48.800             4.114          1036.813
       329   11 Jun 2027 09:52:38.123   11 Jun 2027 09:52:41.798             3.675          1071.500
       330   11 Jun 2027 11:22:18.462   11 Jun 2027 11:22:29.483            11.021          5129.844
       331   11 Jun 2027 11:24:56.080   11 Jun 2027 11:24:57.299             1.219           483.750
       332   11 Jun 2027 11:25:11.640   11 Jun 2027 11:25:13.498             1.858           405.156
       333   11 Jun 2027 11:25:18.521   11 Jun 2027 11:25:18.956             0.435           155.562
       334   11 Jun 2027 11:25:41.309   11 Jun 2027 11:25:44.490             3.181           213.125
       335   11 Jun 2027 11:26:24.919   11 Jun 2027 11:26:26.895             1.976           670.125
       336   11 Jun 2027 11:27:14.042   11 Jun 2027 11:27:17.675             3.633          1473.344
       337   11 Jun 2027 11:27:51.258   11 Jun 2027 11:27:56.197             4.939          1049.469
       338   11 Jun 2027 11:28:17.883   11 Jun 2027 11:28:19.331             1.448           243.312
       339   11 Jun 2027 11:28:30.123   11 Jun 2027 11:28:30.702             0.579            15.438
       340   12 Jun 2027 03:46:09.143   12 Jun 2027 03:49:19.606           190.463         95231.500
       341   12 Jun 2027 03:49:56.945   12 Jun 2027 03:50:13.037            16.092          8046.000
       342   12 Jun 2027 03:50:21.952   12 Jun 2027 03:50:29.273             7.321          3660.500
       343   12 Jun 2027 03:53:09.934   12 Jun 2027 03:53:45.166            35.232         17616.000
       344   12 Jun 2027 05:12:48.941   12 Jun 2027 05:12:51.669             2.728          1364.000
       345   12 Jun 2027 05:23:05.187   12 Jun 2027 05:24:33.895            88.708         44232.375
       346   12 Jun 2027 06:45:43.600   12 Jun 2027 06:45:55.760            12.160          5124.344
       347   12 Jun 2027 06:47:03.425   12 Jun 2027 06:47:09.207             5.782          1385.594
       348   12 Jun 2027 06:47:16.157   12 Jun 2027 06:47:17.314             1.157            46.375
       349   12 Jun 2027 06:47:38.923   12 Jun 2027 06:47:41.318             2.395           133.219
       350   12 Jun 2027 06:48:42.190   12 Jun 2027 06:48:42.190             0.000             0.000
       351   12 Jun 2027 06:49:04.788   12 Jun 2027 06:49:10.431             5.643          2369.156
       352   12 Jun 2027 06:49:38.019   12 Jun 2027 06:49:40.978             2.959           644.937
       353   12 Jun 2027 06:50:23.376   12 Jun 2027 06:50:23.408             0.032            16.000
       354   12 Jun 2027 08:21:06.021   12 Jun 2027 08:21:10.450             4.429          2206.531
       355   12 Jun 2027 08:22:37.333   12 Jun 2027 08:22:40.201             2.868          1253.500
       356   12 Jun 2027 08:23:46.688   12 Jun 2027 08:23:53.674             6.986           756.250
       357   12 Jun 2027 08:25:32.075   12 Jun 2027 08:25:37.676             5.601          2667.906
       358   12 Jun 2027 08:25:53.950   12 Jun 2027 08:25:56.374             2.424           508.562
       359   12 Jun 2027 08:26:44.790   12 Jun 2027 08:26:48.292             3.502          1173.125
       360   12 Jun 2027 08:26:56.791   12 Jun 2027 08:26:57.232             0.441           209.469
       361   12 Jun 2027 09:57:33.218   12 Jun 2027 09:57:41.265             8.047          3579.063
       362   12 Jun 2027 09:59:42.726   12 Jun 2027 09:59:50.261             7.535          3446.937
       363   12 Jun 2027 10:01:02.293   12 Jun 2027 10:01:04.775             2.482           372.062
       364   12 Jun 2027 10:01:56.829   12 Jun 2027 10:01:59.800             2.971          1437.844
       365   12 Jun 2027 10:03:27.697   12 Jun 2027 10:03:32.758             5.061          2384.125
       366   12 Jun 2027 10:04:31.212   12 Jun 2027 10:04:35.059             3.847          1508.062
       367   12 Jun 2027 10:04:57.502   12 Jun 2027 10:05:03.989             6.487           588.125
       368   12 Jun 2027 11:34:40.035   12 Jun 2027 11:34:54.968            14.933          7158.313
       369   12 Jun 2027 11:36:46.137   12 Jun 2027 11:36:54.171             8.034           176.687
       370   12 Jun 2027 11:38:11.147   12 Jun 2027 11:38:16.853             5.706          1331.250
       371   12 Jun 2027 11:38:18.474   12 Jun 2027 11:38:19.380             0.906            50.656
       372   12 Jun 2027 11:38:45.161   12 Jun 2027 11:38:46.865             1.704           801.000
       373   12 Jun 2027 11:39:14.596   12 Jun 2027 11:39:17.683             3.087           834.500
       374   12 Jun 2027 11:39:52.664   12 Jun 2027 11:40:02.150             9.486           979.469
       375   13 Jun 2027 03:58:35.091   13 Jun 2027 04:01:20.531           165.440         82720.000
       376   13 Jun 2027 04:03:36.652   13 Jun 2027 04:04:25.885            49.233         24616.500
       377   13 Jun 2027 05:24:53.135   13 Jun 2027 05:25:00.920             7.785          3892.500
       378   13 Jun 2027 05:35:04.565   13 Jun 2027 05:36:04.241            59.676         29838.000
       379   13 Jun 2027 06:57:21.461   13 Jun 2027 06:58:16.802            55.341         25485.562
       380   13 Jun 2027 06:59:16.381   13 Jun 2027 06:59:24.577             8.196          1712.406
       381   13 Jun 2027 07:00:05.111   13 Jun 2027 07:00:08.990             3.879           891.594
       382   13 Jun 2027 07:00:54.926   13 Jun 2027 07:01:00.565             5.639          1299.281
       383   13 Jun 2027 07:02:14.551   13 Jun 2027 07:02:18.511             3.960          1822.187
       384   13 Jun 2027 08:32:15.269   13 Jun 2027 08:32:19.701             4.432          2066.094
       385   13 Jun 2027 08:33:39.238   13 Jun 2027 08:33:41.055             1.817           643.312
       386   13 Jun 2027 08:36:07.457   13 Jun 2027 08:36:18.356            10.899          2763.906
       387   13 Jun 2027 08:37:37.805   13 Jun 2027 08:37:45.870             8.065          2348.687
       388   13 Jun 2027 08:38:56.396   13 Jun 2027 08:38:59.433             3.037          1509.031
       389   13 Jun 2027 10:09:48.270   13 Jun 2027 10:09:55.608             7.338          3312.688
       390   13 Jun 2027 10:10:36.480   13 Jun 2027 10:10:38.389             1.909           641.375
       391   13 Jun 2027 10:11:18.728   13 Jun 2027 10:11:20.433             1.705            43.625
       392   13 Jun 2027 10:12:53.642   13 Jun 2027 10:12:58.331             4.689          2221.844
       393   13 Jun 2027 10:14:03.454   13 Jun 2027 10:14:06.681             3.227          1457.406
       394   13 Jun 2027 10:14:12.875   13 Jun 2027 10:14:14.355             1.480           193.562
       395   13 Jun 2027 10:14:56.284   13 Jun 2027 10:15:00.363             4.079          1285.375
       396   13 Jun 2027 10:15:37.369   13 Jun 2027 10:15:43.565             6.196          1061.438
       397   13 Jun 2027 10:15:59.389   13 Jun 2027 10:16:01.363             1.974           494.500
       398   13 Jun 2027 10:16:24.149   13 Jun 2027 10:16:26.491             2.342           248.375
       399   13 Jun 2027 10:16:54.692   13 Jun 2027 10:17:04.686             9.994           480.000
       400   13 Jun 2027 10:17:07.977   13 Jun 2027 10:17:08.292             0.315           102.844
       401   13 Jun 2027 11:46:31.056   13 Jun 2027 11:46:45.447            14.391          6744.563
       402   13 Jun 2027 11:48:02.061   13 Jun 2027 11:48:07.301             5.240           285.187
       403   13 Jun 2027 11:49:17.878   13 Jun 2027 11:49:23.645             5.767          2191.313
       404   13 Jun 2027 11:49:31.742   13 Jun 2027 11:49:33.452             1.710           209.938
       405   13 Jun 2027 11:50:14.975   13 Jun 2027 11:50:21.313             6.338          1062.844
       406   13 Jun 2027 11:50:37.600   13 Jun 2027 11:50:38.438             0.838           288.313
       407   13 Jun 2027 11:51:24.181   13 Jun 2027 11:51:31.656             7.475          1429.469
       408   13 Jun 2027 11:52:50.270   13 Jun 2027 11:53:01.325            11.055          1644.281
