uniorb/output/strategy_4/Camera/Camera_KinoSat_111806.txt

KinoSat_111806
-------------------------
    Access    *     Start Time (UTCG)     *     Stop Time (UTCG)  *   Duration (s) *   Data (Mbytes)
         1   01 Jun 2027 03:00:00.000   01 Jun 2027 03:00:12.057            12.057          6028.500
         2   01 Jun 2027 03:00:44.932   01 Jun 2027 03:00:47.489             2.557          1278.500
         3   01 Jun 2027 03:01:08.841   01 Jun 2027 03:01:21.229            12.388          6194.000
         4   01 Jun 2027 03:01:36.061   01 Jun 2027 03:01:48.740            12.679          6339.500
         5   01 Jun 2027 04:33:12.984   01 Jun 2027 04:34:14.264            61.280         30640.000
         6   01 Jun 2027 04:34:20.949   01 Jun 2027 04:35:10.012            49.063         24531.500
         7   01 Jun 2027 04:37:36.696   01 Jun 2027 04:37:58.037            21.341         10670.500
         8   01 Jun 2027 04:38:55.919   01 Jun 2027 04:38:58.142             2.223          1111.500
         9   01 Jun 2027 04:39:23.027   01 Jun 2027 04:39:25.186             2.159          1079.500
        10   01 Jun 2027 06:11:30.407   01 Jun 2027 06:13:22.027           111.620         55810.000
        11   01 Jun 2027 06:13:50.802   01 Jun 2027 06:14:04.801            13.999          6999.500
        12   01 Jun 2027 07:34:53.523   01 Jun 2027 07:37:22.756           149.233         74616.500
        13   01 Jun 2027 09:11:26.061   01 Jun 2027 09:12:34.158            68.097         34048.500
        14   01 Jun 2027 09:13:57.384   01 Jun 2027 09:14:58.025            60.641         30320.500
        15   01 Jun 2027 10:46:36.653   01 Jun 2027 10:47:50.025            73.372         36686.000
        16   01 Jun 2027 10:53:01.719   01 Jun 2027 10:53:12.559            10.840          5420.000
        17   02 Jun 2027 03:07:02.009   02 Jun 2027 03:07:08.372             6.363          3181.500
        18   02 Jun 2027 03:07:19.124   02 Jun 2027 03:07:29.905            10.781          5390.500
        19   02 Jun 2027 03:07:32.391   02 Jun 2027 03:08:28.812            56.421         28210.500
        20   02 Jun 2027 03:08:34.801   02 Jun 2027 03:08:41.088             6.287          3143.500
        21   02 Jun 2027 03:08:44.633   02 Jun 2027 03:08:53.423             8.790          4395.000
        22   02 Jun 2027 03:11:50.327   02 Jun 2027 03:11:55.017             4.690          2345.000
        23   02 Jun 2027 03:12:41.181   02 Jun 2027 03:12:48.564             7.383          3691.500
        24   02 Jun 2027 03:13:04.376   02 Jun 2027 03:13:16.699            12.323          6161.500
        25   02 Jun 2027 03:13:40.263   02 Jun 2027 03:13:55.747            15.484          7742.000
        26   02 Jun 2027 04:46:19.696   02 Jun 2027 04:48:54.302           154.606         77303.000
        27   02 Jun 2027 04:49:34.166   02 Jun 2027 04:50:02.182            28.016         14008.000
        28   02 Jun 2027 04:50:37.885   02 Jun 2027 04:50:54.021            16.136          8068.000
        29   02 Jun 2027 04:53:16.768   02 Jun 2027 04:53:54.098            37.330         18665.000
        30   02 Jun 2027 06:23:27.390   02 Jun 2027 06:24:07.793            40.403         20201.500
        31   02 Jun 2027 06:24:25.501   02 Jun 2027 06:24:56.533            31.032         15516.000
        32   02 Jun 2027 06:25:00.435   02 Jun 2027 06:27:03.137           122.702         61351.000
        33   02 Jun 2027 07:46:55.098   02 Jun 2027 07:48:03.261            68.163         34081.500
        34   02 Jun 2027 09:23:18.068   02 Jun 2027 09:25:25.904           127.836         63918.000
        35   02 Jun 2027 09:26:35.375   02 Jun 2027 09:26:40.416             5.041          2520.500
        36   02 Jun 2027 10:58:11.568   02 Jun 2027 10:58:34.485            22.917         10578.782
        37   02 Jun 2027 11:00:17.734   02 Jun 2027 11:00:23.967             6.233          3021.938
        38   02 Jun 2027 11:01:11.262   02 Jun 2027 11:01:11.262             0.000             0.000
        39   02 Jun 2027 11:04:52.915   02 Jun 2027 11:05:08.020            15.105          7143.813
        40   03 Jun 2027 03:19:43.221   03 Jun 2027 03:22:22.217           158.996         79498.000
        41   03 Jun 2027 03:22:35.769   03 Jun 2027 03:22:44.399             8.630          4315.000
        42   03 Jun 2027 03:24:18.335   03 Jun 2027 03:24:24.250             5.915          2957.500
        43   03 Jun 2027 03:24:42.547   03 Jun 2027 03:24:43.264             0.717           358.500
        44   03 Jun 2027 03:25:29.067   03 Jun 2027 03:25:46.254            17.187          8593.500
        45   03 Jun 2027 04:58:23.843   03 Jun 2027 05:00:17.596           113.753         56876.500
        46   03 Jun 2027 05:02:00.618   03 Jun 2027 05:02:06.171             5.553          2776.500
        47   03 Jun 2027 05:04:34.840   03 Jun 2027 05:04:48.288            13.448          5320.780
        48   03 Jun 2027 05:05:58.618   03 Jun 2027 05:06:01.861             3.243          1621.500
        49   03 Jun 2027 06:24:10.481   03 Jun 2027 06:24:19.919             9.438          4345.688
        50   03 Jun 2027 06:24:49.879   03 Jun 2027 06:24:49.879             0.000             0.000
        51   03 Jun 2027 06:35:24.111   03 Jun 2027 06:35:31.469             7.358          3048.094
        52   03 Jun 2027 07:58:00.807   03 Jun 2027 07:58:07.647             6.840          3366.813
        53   03 Jun 2027 07:58:17.367   03 Jun 2027 07:58:20.931             3.564           292.312
        54   03 Jun 2027 07:58:42.454   03 Jun 2027 07:58:43.200             0.746           209.969
        55   03 Jun 2027 08:00:12.564   03 Jun 2027 08:00:24.405            11.841          2009.562
        56   03 Jun 2027 08:01:33.855   03 Jun 2027 08:01:45.874            12.019          2170.312
        57   03 Jun 2027 09:33:35.409   03 Jun 2027 09:33:39.565             4.156          1978.375
        58   03 Jun 2027 09:34:11.127   03 Jun 2027 09:34:14.839             3.712           986.313
        59   03 Jun 2027 09:35:46.169   03 Jun 2027 09:35:50.916             4.747          2216.687
        60   03 Jun 2027 09:37:32.293   03 Jun 2027 09:37:40.664             8.371          2788.625
        61   03 Jun 2027 09:38:00.032   03 Jun 2027 09:38:02.565             2.533           324.969
        62   03 Jun 2027 11:09:48.224   03 Jun 2027 11:10:01.092            12.868          6222.750
        63   03 Jun 2027 11:12:49.903   03 Jun 2027 11:13:01.455            11.552          4683.406
        64   03 Jun 2027 11:16:40.915   03 Jun 2027 11:16:57.474            16.559          4715.594
        65   03 Jun 2027 11:17:02.561   03 Jun 2027 11:17:02.940             0.379            92.844
        66   04 Jun 2027 03:31:49.227   04 Jun 2027 03:35:27.250           218.023        109011.500
        67   04 Jun 2027 03:36:05.860   04 Jun 2027 03:36:07.014             1.154           577.000
        68   04 Jun 2027 03:36:44.199   04 Jun 2027 03:36:49.900             5.701          2850.500
        69   04 Jun 2027 03:37:42.125   04 Jun 2027 03:37:45.560             3.435          1717.500
        70   04 Jun 2027 05:10:53.937   04 Jun 2027 05:12:12.622            78.685         38890.750
        71   04 Jun 2027 05:12:31.634   04 Jun 2027 05:12:33.299             1.665           215.531
        72   04 Jun 2027 05:13:07.543   04 Jun 2027 05:13:09.174             1.631           798.750
        73   04 Jun 2027 05:13:41.821   04 Jun 2027 05:13:45.096             3.275           921.969
        74   04 Jun 2027 05:16:01.199   04 Jun 2027 05:16:05.421             4.222          1951.313
        75   04 Jun 2027 05:16:10.774   04 Jun 2027 05:16:12.235             1.461           108.625
        76   04 Jun 2027 05:16:45.613   04 Jun 2027 05:16:47.772             2.159           611.750
        77   04 Jun 2027 06:35:44.287   04 Jun 2027 06:35:50.886             6.599          3252.625
        78   04 Jun 2027 06:36:05.296   04 Jun 2027 06:36:06.047             0.751           328.063
        79   04 Jun 2027 06:36:59.857   04 Jun 2027 06:36:59.857             0.000             0.000
        80   04 Jun 2027 06:47:25.175   04 Jun 2027 06:47:32.735             7.560          3075.563
        81   04 Jun 2027 08:09:43.135   04 Jun 2027 08:09:57.340            14.205          7009.562
        82   04 Jun 2027 08:10:19.152   04 Jun 2027 08:10:20.795             1.643           249.156
        83   04 Jun 2027 08:12:12.235   04 Jun 2027 08:12:20.149             7.914          2785.000
        84   04 Jun 2027 08:13:33.091   04 Jun 2027 08:13:43.933            10.842          2018.250
        85   04 Jun 2027 08:14:34.781   04 Jun 2027 08:14:37.608             2.827          1330.313
        86   04 Jun 2027 09:44:42.169   04 Jun 2027 09:44:48.901             6.732          2579.312
        87   04 Jun 2027 09:47:44.185   04 Jun 2027 09:47:45.945             1.760           739.625
        88   04 Jun 2027 09:49:50.487   04 Jun 2027 09:49:56.789             6.302          2787.531
        89   04 Jun 2027 09:51:15.924   04 Jun 2027 09:51:20.196             4.272          2097.781
        90   04 Jun 2027 11:22:24.748   04 Jun 2027 11:22:34.927            10.179          4150.187
        91   04 Jun 2027 11:24:25.505   04 Jun 2027 11:24:29.825             4.320          1647.469
        92   04 Jun 2027 11:25:27.247   04 Jun 2027 11:25:29.033             1.786           524.750
        93   04 Jun 2027 11:26:21.526   04 Jun 2027 11:26:24.270             2.744           176.000
        94   04 Jun 2027 11:27:27.421   04 Jun 2027 11:27:33.761             6.340          1973.469
        95   04 Jun 2027 11:28:19.324   04 Jun 2027 11:28:20.601             1.277           514.750
        96   04 Jun 2027 11:28:53.093   04 Jun 2027 11:28:55.020             1.927           647.125
        97   04 Jun 2027 11:29:03.178   04 Jun 2027 11:29:04.273             1.095           204.937
        98   04 Jun 2027 11:29:26.479   04 Jun 2027 11:29:26.707             0.228           114.000
        99   05 Jun 2027 03:44:09.370   05 Jun 2027 03:44:36.009            26.639         13319.500
       100   05 Jun 2027 03:44:41.465   05 Jun 2027 03:45:15.240            33.775         16887.500
       101   05 Jun 2027 03:45:19.121   05 Jun 2027 03:46:14.506            55.385         27692.500
       102   05 Jun 2027 03:46:15.289   05 Jun 2027 03:46:34.599            19.310          9655.000
       103   05 Jun 2027 03:48:08.790   05 Jun 2027 03:48:50.396            41.606         20803.000
       104   05 Jun 2027 05:22:56.178   05 Jun 2027 05:24:54.269           118.091         59045.500
       105   05 Jun 2027 05:25:52.631   05 Jun 2027 05:26:06.837            14.206          7103.000
       106   05 Jun 2027 05:26:50.960   05 Jun 2027 05:26:52.570             1.610           805.000
       107   05 Jun 2027 05:27:00.322   05 Jun 2027 05:27:04.875             4.553          1854.501
       108   05 Jun 2027 05:27:42.324   05 Jun 2027 05:27:45.048             2.724           977.906
       109   05 Jun 2027 05:27:50.202   05 Jun 2027 05:27:50.946             0.744           161.062
       110   05 Jun 2027 05:28:31.569   05 Jun 2027 05:28:34.232             2.663           567.437
       111   05 Jun 2027 05:29:15.284   05 Jun 2027 05:29:23.884             8.600          1273.656
       112   05 Jun 2027 05:29:49.058   05 Jun 2027 05:29:51.221             2.163           497.969
       113   05 Jun 2027 06:47:16.697   05 Jun 2027 06:47:31.112            14.415          5591.875
       114   05 Jun 2027 06:48:24.006   05 Jun 2027 06:48:27.089             3.083          1492.094
       115   05 Jun 2027 06:48:43.170   05 Jun 2027 06:48:45.272             2.102           287.031
       116   05 Jun 2027 06:59:32.909   05 Jun 2027 06:59:38.781             5.872          2540.312
       117   05 Jun 2027 08:21:21.777   05 Jun 2027 08:21:35.787            14.010          6629.406
       118   05 Jun 2027 08:21:56.364   05 Jun 2027 08:22:01.303             4.939           100.438
       119   05 Jun 2027 08:23:33.246   05 Jun 2027 08:23:38.247             5.001          2263.687
       120   05 Jun 2027 08:24:35.240   05 Jun 2027 08:24:41.784             6.544          1057.875
       121   05 Jun 2027 08:25:31.573   05 Jun 2027 08:25:35.597             4.024          1241.531
       122   05 Jun 2027 09:56:10.184   05 Jun 2027 09:56:17.166             6.982          3355.719
       123   05 Jun 2027 09:57:58.018   05 Jun 2027 09:58:01.865             3.847          1772.000
       124   05 Jun 2027 09:58:15.120   05 Jun 2027 09:58:15.120             0.000             0.000
       125   05 Jun 2027 09:58:54.436   05 Jun 2027 09:59:01.072             6.636          1431.813
       126   05 Jun 2027 09:59:57.538   05 Jun 2027 10:00:00.393             2.855           512.000
       127   05 Jun 2027 10:03:04.293   05 Jun 2027 10:03:09.609             5.316          2295.656
       128   05 Jun 2027 10:03:21.655   05 Jun 2027 10:03:23.889             2.234           361.531
       129   05 Jun 2027 11:34:03.043   05 Jun 2027 11:34:25.637            22.594          3822.219
       130   05 Jun 2027 11:35:08.558   05 Jun 2027 11:35:10.159             1.601           540.219
       131   05 Jun 2027 11:36:18.819   05 Jun 2027 11:36:21.185             2.366          1093.531
       132   05 Jun 2027 11:37:03.452   05 Jun 2027 11:37:08.618             5.166           938.469
       133   05 Jun 2027 11:38:18.520   05 Jun 2027 11:38:22.188             3.668          1432.625
       134   05 Jun 2027 11:39:14.335   05 Jun 2027 11:39:17.847             3.512           827.469
       135   05 Jun 2027 11:40:02.973   05 Jun 2027 11:40:07.644             4.671          1109.125
       136   05 Jun 2027 11:40:40.624   05 Jun 2027 11:40:43.128             2.504           601.813
       137   05 Jun 2027 11:40:57.243   05 Jun 2027 11:40:59.686             2.443           303.969
       138   06 Jun 2027 03:56:52.283   06 Jun 2027 03:57:07.056            14.773          7386.500
       139   06 Jun 2027 03:57:16.059   06 Jun 2027 03:58:27.959            71.900         35950.000
       140   06 Jun 2027 03:58:57.069   06 Jun 2027 04:00:40.959           103.890         51945.000
       141   06 Jun 2027 04:01:26.082   06 Jun 2027 04:01:27.533             1.451           725.500
       142   06 Jun 2027 04:01:45.938   06 Jun 2027 04:01:59.391            13.453          6726.500
       143   06 Jun 2027 05:35:43.884   06 Jun 2027 05:36:44.603            60.719         30359.500
       144   06 Jun 2027 05:37:23.798   06 Jun 2027 05:38:07.239            43.441         21720.500
       145   06 Jun 2027 05:38:31.735   06 Jun 2027 05:38:57.206            25.471         10283.844
       146   06 Jun 2027 05:39:45.344   06 Jun 2027 05:39:46.245             0.901           450.500
       147   06 Jun 2027 05:40:14.863   06 Jun 2027 05:40:16.563             1.700           850.000
       148   06 Jun 2027 06:59:14.448   06 Jun 2027 06:59:36.159            21.711          8529.938
       149   06 Jun 2027 07:00:12.108   06 Jun 2027 07:00:16.037             3.929          1091.688
       150   06 Jun 2027 07:01:22.271   06 Jun 2027 07:01:26.812             4.541          1923.906
       151   06 Jun 2027 08:35:12.564   06 Jun 2027 08:35:20.590             8.026          4013.000
       152   06 Jun 2027 08:35:34.549   06 Jun 2027 08:35:49.398            14.849          3106.062
       153   06 Jun 2027 08:36:09.551   06 Jun 2027 08:36:11.990             2.439           629.781
       154   06 Jun 2027 08:37:29.148   06 Jun 2027 08:37:36.248             7.100          1389.125
       155   06 Jun 2027 08:38:04.011   06 Jun 2027 08:38:05.684             1.673           193.906
       156   06 Jun 2027 10:09:01.169   06 Jun 2027 10:09:09.926             8.757          2723.750
       157   06 Jun 2027 10:11:07.145   06 Jun 2027 10:11:12.397             5.252           945.094
       158   06 Jun 2027 10:11:36.832   06 Jun 2027 10:11:47.473            10.641           573.969
       159   06 Jun 2027 10:15:01.070   06 Jun 2027 10:15:07.437             6.367          2203.125
       160   06 Jun 2027 10:15:44.473   06 Jun 2027 10:15:44.473             0.000             0.000
       161   06 Jun 2027 10:16:32.601   06 Jun 2027 10:16:35.842             3.241          1415.250
       162   06 Jun 2027 10:16:53.563   06 Jun 2027 10:16:55.561             1.998            79.156
       163   06 Jun 2027 10:17:15.971   06 Jun 2027 10:17:21.622             5.651           375.500
       164   06 Jun 2027 11:46:10.211   06 Jun 2027 11:46:21.402            11.191          4543.625
       165   06 Jun 2027 11:47:35.554   06 Jun 2027 11:47:39.092             3.538          1705.813
       166   06 Jun 2027 11:48:54.243   06 Jun 2027 11:48:56.435             2.192           258.281
       167   06 Jun 2027 11:49:37.420   06 Jun 2027 11:49:43.333             5.913          1280.094
       168   06 Jun 2027 11:50:07.103   06 Jun 2027 11:50:09.701             2.598           201.594
       169   06 Jun 2027 11:51:26.496   06 Jun 2027 11:51:31.214             4.718          2205.844
       170   06 Jun 2027 11:52:24.166   06 Jun 2027 11:52:27.263             3.097           981.656
       171   06 Jun 2027 11:52:44.737   06 Jun 2027 11:52:45.287             0.550            77.469
       172   06 Jun 2027 11:52:49.833   06 Jun 2027 11:52:51.233             1.400           142.062
       173   06 Jun 2027 11:53:00.904   06 Jun 2027 11:53:03.777             2.873            12.250
       174   07 Jun 2027 04:09:36.273   07 Jun 2027 04:09:55.423            19.150          9575.000
       175   07 Jun 2027 04:10:09.140   07 Jun 2027 04:11:04.423            55.283         27641.500
       176   07 Jun 2027 04:11:04.728   07 Jun 2027 04:11:27.053            22.325         11162.500
       177   07 Jun 2027 04:13:22.832   07 Jun 2027 04:13:23.841             1.009           504.500
       178   07 Jun 2027 04:15:32.889   07 Jun 2027 04:15:35.547             2.658          1329.000
       179   07 Jun 2027 05:47:43.885   07 Jun 2027 05:48:11.510            27.625         13812.500
       180   07 Jun 2027 05:48:32.702   07 Jun 2027 05:51:44.915           192.213         95739.000
       181   07 Jun 2027 07:11:07.260   07 Jun 2027 07:11:29.165            21.905         10370.687
       182   07 Jun 2027 07:12:52.641   07 Jun 2027 07:12:58.137             5.496          2557.875
       183   07 Jun 2027 08:47:29.724   07 Jun 2027 08:47:51.865            22.141          9063.781
       184   07 Jun 2027 08:48:04.020   07 Jun 2027 08:48:06.848             2.828            71.937
       185   07 Jun 2027 08:48:08.160   07 Jun 2027 08:48:10.732             2.572            41.000
       186   07 Jun 2027 08:48:25.828   07 Jun 2027 08:48:26.532             0.704           337.844
       187   07 Jun 2027 08:49:25.627   07 Jun 2027 08:49:27.817             2.190           893.906
       188   07 Jun 2027 08:50:00.304   07 Jun 2027 08:50:05.311             5.007           812.656
       189   07 Jun 2027 10:21:24.140   07 Jun 2027 10:21:32.763             8.623          2514.625
       190   07 Jun 2027 10:23:09.733   07 Jun 2027 10:23:14.354             4.621          2183.844
       191   07 Jun 2027 10:24:11.964   07 Jun 2027 10:24:17.544             5.580          1452.531
       192   07 Jun 2027 10:26:48.819   07 Jun 2027 10:26:53.863             5.044          1850.531
       193   07 Jun 2027 10:28:31.775   07 Jun 2027 10:28:33.451             1.676           694.500
       194   07 Jun 2027 10:29:30.021   07 Jun 2027 10:29:32.260             2.239          1119.500
       195   07 Jun 2027 11:58:36.321   07 Jun 2027 11:58:50.967            14.646          6930.500
       196   08 Jun 2027 04:21:48.656   08 Jun 2027 04:22:36.283            47.627         23813.500
       197   08 Jun 2027 04:22:41.990   08 Jun 2027 04:24:19.635            97.645         48822.500
       198   08 Jun 2027 04:24:33.140   08 Jun 2027 04:24:40.346             7.206          3603.000
       199   08 Jun 2027 06:01:35.034   08 Jun 2027 06:04:06.093           151.059         75529.500
       200   08 Jun 2027 07:22:57.453   08 Jun 2027 07:23:40.073            42.620         21310.000
       201   08 Jun 2027 07:24:07.060   08 Jun 2027 07:24:12.514             5.454          1202.157
       202   08 Jun 2027 07:24:43.525   08 Jun 2027 07:24:47.354             3.829           815.750
       203   08 Jun 2027 08:59:33.271   08 Jun 2027 08:59:42.203             8.932          3559.875
       204   08 Jun 2027 09:00:27.058   08 Jun 2027 09:00:29.673             2.615           755.406
       205   08 Jun 2027 09:02:15.748   08 Jun 2027 09:02:23.221             7.473          3314.844
       206   08 Jun 2027 10:34:41.610   08 Jun 2027 10:34:47.521             5.911          2306.156
       207   08 Jun 2027 10:35:45.923   08 Jun 2027 10:35:45.923             0.000             0.000
       208   08 Jun 2027 10:35:47.873   08 Jun 2027 10:35:49.946             2.073           782.625
       209   08 Jun 2027 10:38:18.054   08 Jun 2027 10:38:26.452             8.398          1071.500
       210   08 Jun 2027 10:40:39.615   08 Jun 2027 10:40:48.682             9.067          3994.875
       211   08 Jun 2027 10:41:17.080   08 Jun 2027 10:41:18.722             1.642           745.625
       212   08 Jun 2027 10:41:25.130   08 Jun 2027 10:41:25.294             0.164            77.469
       213   09 Jun 2027 03:00:49.330   09 Jun 2027 03:01:14.279            24.949         12474.500
       214   09 Jun 2027 03:01:30.134   09 Jun 2027 03:01:36.296             6.162          3081.000
       215   09 Jun 2027 03:02:19.860   09 Jun 2027 03:02:30.893            11.033          5516.500
       216   09 Jun 2027 04:33:30.910   09 Jun 2027 04:34:29.547            58.637         29318.500
       217   09 Jun 2027 04:34:38.156   09 Jun 2027 04:35:48.256            70.100         35050.000
       218   09 Jun 2027 04:36:20.502   09 Jun 2027 04:36:22.068             1.566           783.000
       219   09 Jun 2027 04:36:42.276   09 Jun 2027 04:36:50.313             8.037          4018.500
       220   09 Jun 2027 06:11:47.654   09 Jun 2027 06:14:19.988           152.334         75868.718
       221   09 Jun 2027 07:35:09.824   09 Jun 2027 07:35:20.849            11.025          4293.625
       222   09 Jun 2027 07:36:00.445   09 Jun 2027 07:36:02.341             1.896           687.594
       223   09 Jun 2027 07:36:40.437   09 Jun 2027 07:36:45.822             5.385           956.781
       224   09 Jun 2027 07:37:49.878   09 Jun 2027 07:37:52.798             2.920          1140.250
       225   09 Jun 2027 07:38:08.485   09 Jun 2027 07:38:10.633             2.148           241.344
       226   09 Jun 2027 09:11:44.466   09 Jun 2027 09:11:57.208            12.742          2225.937
       227   09 Jun 2027 09:13:06.760   09 Jun 2027 09:13:11.522             4.762          2171.281
       228   09 Jun 2027 09:13:30.940   09 Jun 2027 09:13:33.604             2.664           526.063
       229   09 Jun 2027 09:14:26.160   09 Jun 2027 09:14:27.705             1.545           676.094
       230   09 Jun 2027 10:46:54.083   09 Jun 2027 10:47:02.329             8.246          3045.781
       231   09 Jun 2027 10:48:32.532   09 Jun 2027 10:48:40.433             7.901          2519.937
       232   09 Jun 2027 10:50:06.717   09 Jun 2027 10:50:08.850             2.133           680.469
       233   09 Jun 2027 10:53:13.271   09 Jun 2027 10:53:28.330            15.059          5464.625
       234   10 Jun 2027 03:07:19.421   10 Jun 2027 03:07:34.423            15.002          7501.000
       235   10 Jun 2027 03:07:47.650   10 Jun 2027 03:08:31.121            43.471         21735.500
       236   10 Jun 2027 03:08:57.821   10 Jun 2027 03:09:05.618             7.797          3898.500
       237   10 Jun 2027 03:09:13.805   10 Jun 2027 03:09:14.768             0.963           481.500
       238   10 Jun 2027 03:12:51.521   10 Jun 2027 03:13:50.931            59.410         29705.000
       239   10 Jun 2027 04:46:37.235   10 Jun 2027 04:49:06.761           149.526         74763.000
       240   10 Jun 2027 04:49:50.691   10 Jun 2027 04:50:10.682            19.991          9995.500
       241   10 Jun 2027 04:51:00.133   10 Jun 2027 04:51:08.891             8.758          4379.000
       242   10 Jun 2027 04:53:15.969   10 Jun 2027 04:53:32.016            16.047          6892.562
       243   10 Jun 2027 06:23:44.091   10 Jun 2027 06:24:02.603            18.512          9220.719
       244   10 Jun 2027 07:47:40.616   10 Jun 2027 07:47:49.685             9.069          3478.531
       245   10 Jun 2027 07:48:17.590   10 Jun 2027 07:48:18.174             0.584           162.562
       246   10 Jun 2027 07:49:46.404   10 Jun 2027 07:49:51.951             5.547          2401.250
       247   10 Jun 2027 09:23:33.459   10 Jun 2027 09:23:41.042             7.583          3325.406
       248   10 Jun 2027 09:25:21.774   10 Jun 2027 09:25:29.834             8.060          2886.562
       249   10 Jun 2027 09:25:52.971   10 Jun 2027 09:26:00.812             7.841           266.156
       250   10 Jun 2027 09:26:53.717   10 Jun 2027 09:26:57.967             4.250          1486.125
       251   10 Jun 2027 10:58:26.268   10 Jun 2027 10:58:32.012             5.744          2872.000
       252   10 Jun 2027 10:59:03.218   10 Jun 2027 10:59:13.755            10.537          1101.344
       253   10 Jun 2027 11:01:30.248   10 Jun 2027 11:01:37.277             7.029          2051.594
       254   10 Jun 2027 11:05:09.468   10 Jun 2027 11:05:22.659            13.191          6520.156
       255   11 Jun 2027 03:20:00.869   11 Jun 2027 03:22:10.928           130.059         65029.500
       256   11 Jun 2027 03:22:45.854   11 Jun 2027 03:23:03.036            17.182          8591.000
       257   11 Jun 2027 03:25:31.258   11 Jun 2027 03:26:15.609            44.351         22175.500
       258   11 Jun 2027 04:58:42.260   11 Jun 2027 05:00:31.409           109.149         54574.500
       259   11 Jun 2027 05:00:32.137   11 Jun 2027 05:00:34.825             2.688           786.563
       260   11 Jun 2027 05:01:22.174   11 Jun 2027 05:01:26.091             3.917          1277.719
       261   11 Jun 2027 05:04:49.963   11 Jun 2027 05:05:02.347            12.384          5706.031
       262   11 Jun 2027 05:06:14.800   11 Jun 2027 05:06:18.703             3.903          1939.719
       263   11 Jun 2027 06:24:24.002   11 Jun 2027 06:24:32.731             8.729          4016.969
       264   11 Jun 2027 06:25:09.357   11 Jun 2027 06:25:14.359             5.002           983.938
       265   11 Jun 2027 06:35:41.746   11 Jun 2027 06:35:47.404             5.658          1496.406
       266   11 Jun 2027 06:35:55.067   11 Jun 2027 06:35:57.670             2.603           194.031
       267   11 Jun 2027 07:58:16.975   11 Jun 2027 07:58:30.867            13.892          6221.219
       268   11 Jun 2027 07:59:35.143   11 Jun 2027 07:59:38.739             3.596          1606.469
       269   11 Jun 2027 08:00:41.475   11 Jun 2027 08:00:43.242             1.767           835.250
       270   11 Jun 2027 08:02:30.360   11 Jun 2027 08:02:34.195             3.835          1572.000
       271   11 Jun 2027 09:33:48.943   11 Jun 2027 09:33:55.349             6.406          2413.625
       272   11 Jun 2027 09:35:17.804   11 Jun 2027 09:35:23.277             5.473          1319.500
       273   11 Jun 2027 09:36:53.143   11 Jun 2027 09:36:57.930             4.787          1560.719
       274   11 Jun 2027 09:38:18.800   11 Jun 2027 09:38:21.967             3.167           355.969
       275   11 Jun 2027 11:10:07.840   11 Jun 2027 11:10:27.229            19.389          6318.219
       276   11 Jun 2027 11:13:10.676   11 Jun 2027 11:13:20.904            10.228          4859.062
       277   11 Jun 2027 11:14:32.975   11 Jun 2027 11:14:36.744             3.769          1808.156
       278   11 Jun 2027 11:14:51.805   11 Jun 2027 11:14:53.791             1.986           304.406
       279   11 Jun 2027 11:15:43.385   11 Jun 2027 11:15:45.288             1.903           840.938
       280   11 Jun 2027 11:16:19.955   11 Jun 2027 11:16:24.817             4.862           744.187
       281   11 Jun 2027 11:16:55.231   11 Jun 2027 11:16:57.145             1.914           694.219
       282   11 Jun 2027 11:17:39.978   11 Jun 2027 11:17:41.252             1.274           637.000
       283   12 Jun 2027 03:32:07.157   12 Jun 2027 03:35:31.463           204.306        102153.000
       284   12 Jun 2027 03:35:38.354   12 Jun 2027 03:35:50.664            12.310          6155.000
       285   12 Jun 2027 03:37:07.996   12 Jun 2027 03:37:19.116            11.120          5560.000
       286   12 Jun 2027 03:37:48.341   12 Jun 2027 03:37:52.305             3.964          1982.000
       287   12 Jun 2027 05:11:11.675   12 Jun 2027 05:12:51.202            99.527         49748.844
       288   12 Jun 2027 05:13:57.258   12 Jun 2027 05:14:03.521             6.263          2049.469
       289   12 Jun 2027 05:15:32.097   12 Jun 2027 05:15:36.946             4.849          1391.906
       290   12 Jun 2027 05:15:59.319   12 Jun 2027 05:16:01.281             1.962           483.969
       291   12 Jun 2027 05:16:31.635   12 Jun 2027 05:16:35.202             3.567           378.906
       292   12 Jun 2027 05:17:01.224   12 Jun 2027 05:17:03.143             1.919           610.281
       293   12 Jun 2027 06:36:01.312   12 Jun 2027 06:36:12.224            10.912          5310.000
       294   12 Jun 2027 06:36:20.877   12 Jun 2027 06:36:21.491             0.614           270.406
       295   12 Jun 2027 06:37:17.346   12 Jun 2027 06:37:22.732             5.386          1353.187
       296   12 Jun 2027 06:47:41.318   12 Jun 2027 06:47:45.710             4.392          1969.594
       297   12 Jun 2027 08:10:00.323   12 Jun 2027 08:10:15.827            15.504          7267.219
       298   12 Jun 2027 08:10:37.216   12 Jun 2027 08:10:37.715             0.499           225.437
       299   12 Jun 2027 08:12:29.328   12 Jun 2027 08:12:37.148             7.820          2738.844
       300   12 Jun 2027 08:13:49.291   12 Jun 2027 08:13:57.658             8.367          1985.500
       301   12 Jun 2027 08:14:51.873   12 Jun 2027 08:14:57.195             5.322          1303.219
       302   12 Jun 2027 09:44:57.471   12 Jun 2027 09:45:05.211             7.740          2981.844
       303   12 Jun 2027 09:46:03.226   12 Jun 2027 09:46:04.743             1.517           397.781
       304   12 Jun 2027 09:47:01.976   12 Jun 2027 09:47:05.279             3.303          1482.500
       305   12 Jun 2027 09:48:01.137   12 Jun 2027 09:48:02.452             1.315           596.313
       306   12 Jun 2027 09:50:08.218   12 Jun 2027 09:50:16.873             8.655          2867.094
       307   12 Jun 2027 09:51:30.547   12 Jun 2027 09:51:37.438             6.891          2015.313
       308   12 Jun 2027 11:22:26.589   12 Jun 2027 11:22:36.487             9.898          3595.375
       309   12 Jun 2027 11:25:07.668   12 Jun 2027 11:25:22.378            14.710          4703.719
       310   12 Jun 2027 11:25:48.522   12 Jun 2027 11:25:51.932             3.410           662.375
       311   12 Jun 2027 11:27:44.327   12 Jun 2027 11:27:49.703             5.376          1975.312
       312   12 Jun 2027 11:28:18.261   12 Jun 2027 11:28:26.734             8.473           604.000
       313   12 Jun 2027 11:28:50.667   12 Jun 2027 11:28:56.452             5.785           586.281
       314   12 Jun 2027 11:29:11.254   12 Jun 2027 11:29:13.197             1.943           462.563
       315   13 Jun 2027 03:44:28.856   13 Jun 2027 03:44:53.666            24.810         12405.000
       316   13 Jun 2027 03:45:00.555   13 Jun 2027 03:45:31.997            31.442         15721.000
       317   13 Jun 2027 03:45:36.135   13 Jun 2027 03:46:29.612            53.477         26738.500
       318   13 Jun 2027 03:46:32.259   13 Jun 2027 03:46:50.357            18.098          9049.000
       319   13 Jun 2027 03:48:23.127   13 Jun 2027 03:48:28.756             5.629          2814.500
       320   13 Jun 2027 03:48:41.044   13 Jun 2027 03:49:01.234            20.190         10095.000
       321   13 Jun 2027 03:49:57.441   13 Jun 2027 03:50:28.405            30.964         15482.000
       322   13 Jun 2027 05:23:15.017   13 Jun 2027 05:25:08.699           113.682         56841.000
       323   13 Jun 2027 05:26:06.682   13 Jun 2027 05:26:13.314             6.632          2952.094
       324   13 Jun 2027 05:27:15.169   13 Jun 2027 05:27:16.151             0.982           212.344
       325   13 Jun 2027 05:27:25.800   13 Jun 2027 05:27:28.977             3.177           301.531
       326   13 Jun 2027 05:28:05.685   13 Jun 2027 05:28:08.502             2.817           538.500
       327   13 Jun 2027 05:29:34.256   13 Jun 2027 05:29:41.143             6.887          1993.125
       328   13 Jun 2027 06:47:34.777   13 Jun 2027 06:47:46.779            12.002          5727.531
       329   13 Jun 2027 06:48:41.286   13 Jun 2027 06:48:44.832             3.546          1500.094
       330   13 Jun 2027 06:48:59.080   13 Jun 2027 06:49:03.928             4.848           294.406
       331   13 Jun 2027 06:49:35.512   13 Jun 2027 06:49:37.388             1.876           403.594
       332   13 Jun 2027 06:59:50.573   13 Jun 2027 06:59:56.379             5.806          1979.594
       333   13 Jun 2027 08:21:32.681   13 Jun 2027 08:21:49.288            16.607          6981.844
       334   13 Jun 2027 08:22:14.586   13 Jun 2027 08:22:16.370             1.784           152.594
       335   13 Jun 2027 08:23:52.263   13 Jun 2027 08:23:57.066             4.803          2294.031
       336   13 Jun 2027 08:24:52.669   13 Jun 2027 08:24:58.988             6.319          1062.281
       337   13 Jun 2027 08:25:47.722   13 Jun 2027 08:25:51.146             3.424          1189.781
       338   13 Jun 2027 08:26:32.655   13 Jun 2027 08:26:35.077             2.422           626.437
       339   13 Jun 2027 08:26:48.986   13 Jun 2027 08:26:50.380             1.394           328.125
       340   13 Jun 2027 09:56:25.979   13 Jun 2027 09:56:31.489             5.510          2506.313
       341   13 Jun 2027 09:58:16.047   13 Jun 2027 09:58:21.400             5.353          1842.375
       342   13 Jun 2027 09:58:34.597   13 Jun 2027 09:58:38.780             4.183           213.437
       343   13 Jun 2027 09:59:58.016   13 Jun 2027 10:00:02.246             4.230          1399.438
       344   13 Jun 2027 10:02:08.510   13 Jun 2027 10:02:23.805            15.295          3635.531
       345   13 Jun 2027 10:03:25.735   13 Jun 2027 10:03:37.904            12.169           844.813
       346   13 Jun 2027 10:04:50.193   13 Jun 2027 10:04:53.927             3.734          1812.219
       347   13 Jun 2027 10:05:12.709   13 Jun 2027 10:05:12.894             0.185            39.719
       348   13 Jun 2027 10:05:29.605   13 Jun 2027 10:05:31.318             1.713           346.656
       349   13 Jun 2027 11:34:20.244   13 Jun 2027 11:34:39.880            19.636          6134.063
       350   13 Jun 2027 11:35:26.142   13 Jun 2027 11:35:30.876             4.734           569.406
       351   13 Jun 2027 11:36:56.478   13 Jun 2027 11:36:59.215             2.737           746.656
       352   13 Jun 2027 11:38:30.412   13 Jun 2027 11:38:30.412             0.000             0.000
       353   13 Jun 2027 11:40:14.450   13 Jun 2027 11:40:26.492            12.042          5553.719
       354   13 Jun 2027 11:40:57.905   13 Jun 2027 11:40:59.300             1.395           649.406
       355   13 Jun 2027 11:41:14.394   13 Jun 2027 11:41:16.772             2.378           404.156
