uniorb/output/strategy_4/Camera/Camera_KinoSat_110609.txt

KinoSat_110609
-------------------------
    Access    *     Start Time (UTCG)     *     Stop Time (UTCG)  *   Duration (s) *   Data (Mbytes)
         1   01 Jun 2027 03:03:17.403   01 Jun 2027 03:03:51.803            34.400         17200.000
         2   01 Jun 2027 03:04:13.851   01 Jun 2027 03:04:17.469             3.618          1809.000
         3   01 Jun 2027 03:04:28.931   01 Jun 2027 03:04:32.364             3.433          1716.500
         4   01 Jun 2027 03:05:25.031   01 Jun 2027 03:05:37.230            12.199          6099.500
         5   01 Jun 2027 03:06:10.503   01 Jun 2027 03:06:10.503             0.000             0.000
         6   01 Jun 2027 03:06:38.440   01 Jun 2027 03:06:51.088            12.648          6324.000
         7   01 Jun 2027 03:07:42.902   01 Jun 2027 03:07:42.902             0.000             0.000
         8   01 Jun 2027 03:07:58.223   01 Jun 2027 03:08:01.172             2.949          1474.500
         9   01 Jun 2027 04:38:09.981   01 Jun 2027 04:40:05.360           115.379         57689.500
        10   01 Jun 2027 04:40:32.174   01 Jun 2027 04:40:40.623             8.449          4224.500
        11   01 Jun 2027 04:42:44.381   01 Jun 2027 04:42:44.381             0.000             0.000
        12   01 Jun 2027 04:43:12.972   01 Jun 2027 04:43:24.691            11.719          5859.500
        13   01 Jun 2027 04:47:06.286   01 Jun 2027 04:47:18.040            11.754          5877.000
        14   01 Jun 2027 06:16:16.646   01 Jun 2027 06:18:23.186           126.540         63270.000
        15   01 Jun 2027 06:19:00.836   01 Jun 2027 06:19:15.096            14.260          7130.000
        16   01 Jun 2027 06:23:22.079   01 Jun 2027 06:23:26.879             4.800          2400.000
        17   01 Jun 2027 07:53:11.612   01 Jun 2027 07:53:36.780            25.168         12584.000
        18   01 Jun 2027 07:53:43.972   01 Jun 2027 07:55:55.622           131.650         65825.000
        19   01 Jun 2027 07:57:52.237   01 Jun 2027 07:57:56.141             3.904          1952.000
        20   01 Jun 2027 07:58:16.201   01 Jun 2027 07:58:16.781             0.580           290.000
        21   01 Jun 2027 07:58:28.356   01 Jun 2027 07:58:31.130             2.774          1387.000
        22   01 Jun 2027 09:30:19.258   01 Jun 2027 09:33:27.159           187.901         93950.500
        23   01 Jun 2027 11:05:12.563   01 Jun 2027 11:06:15.171            62.608         31304.000
        24   01 Jun 2027 11:07:01.351   01 Jun 2027 11:08:21.973            80.622         40311.000
        25   02 Jun 2027 03:17:38.875   02 Jun 2027 03:18:06.177            27.302         13651.000
        26   02 Jun 2027 03:18:40.664   02 Jun 2027 03:18:40.664             0.000             0.000
        27   02 Jun 2027 03:18:59.795   02 Jun 2027 03:19:00.919             1.124           562.000
        28   02 Jun 2027 03:20:41.743   02 Jun 2027 03:20:52.138            10.395          5197.500
        29   02 Jun 2027 03:20:59.045   02 Jun 2027 03:21:10.951            11.906          5953.000
        30   02 Jun 2027 04:51:11.168   02 Jun 2027 04:53:41.781           150.613         75306.500
        31   02 Jun 2027 04:56:43.684   02 Jun 2027 04:56:55.826            12.142          6071.000
        32   02 Jun 2027 04:59:39.976   02 Jun 2027 04:59:39.976             0.000             0.000
        33   02 Jun 2027 04:59:42.757   02 Jun 2027 04:59:44.319             1.562           781.000
        34   02 Jun 2027 06:28:43.750   02 Jun 2027 06:32:21.287           217.537        108768.500
        35   02 Jun 2027 06:34:02.195   02 Jun 2027 06:34:49.586            47.391         23695.500
        36   02 Jun 2027 08:05:38.510   02 Jun 2027 08:08:43.283           184.773         92386.500
        37   02 Jun 2027 08:09:39.950   02 Jun 2027 08:09:58.006            18.056          8985.377
        38   02 Jun 2027 08:11:06.361   02 Jun 2027 08:11:10.714             4.353          1681.219
        39   02 Jun 2027 09:42:33.156   02 Jun 2027 09:42:49.026            15.870          7829.875
        40   02 Jun 2027 11:19:42.440   02 Jun 2027 11:19:44.975             2.535           905.156
        41   03 Jun 2027 03:29:42.872   03 Jun 2027 03:29:52.740             9.868          4934.000
        42   03 Jun 2027 03:31:52.571   03 Jun 2027 03:31:52.571             0.000             0.000
        43   03 Jun 2027 05:01:50.666   03 Jun 2027 05:02:01.402            10.736          5368.000
        44   03 Jun 2027 05:03:49.814   03 Jun 2027 05:04:52.331            62.517         31258.500
        45   03 Jun 2027 05:05:07.606   03 Jun 2027 05:05:33.032            25.426         12713.000
        46   03 Jun 2027 05:06:14.158   03 Jun 2027 05:06:19.816             5.658          2829.000
        47   03 Jun 2027 05:08:24.259   03 Jun 2027 05:10:21.600           117.341         58670.500
        48   03 Jun 2027 05:10:29.334   03 Jun 2027 05:10:36.584             7.250          3625.000
        49   03 Jun 2027 05:10:43.170   03 Jun 2027 05:10:43.170             0.000             0.000
        50   03 Jun 2027 05:11:38.063   03 Jun 2027 05:11:38.536             0.473           236.500
        51   03 Jun 2027 06:40:48.277   03 Jun 2027 06:42:01.240            72.963         35467.469
        52   03 Jun 2027 08:18:18.662   03 Jun 2027 08:18:21.175             2.513          1126.656
        53   03 Jun 2027 08:19:56.698   03 Jun 2027 08:19:57.835             1.137           282.938
        54   03 Jun 2027 08:20:29.275   03 Jun 2027 08:20:30.293             1.018           502.094
        55   03 Jun 2027 08:20:52.729   03 Jun 2027 08:20:55.084             2.355           631.094
        56   03 Jun 2027 08:21:51.063   03 Jun 2027 08:21:56.868             5.805          1706.500
        57   03 Jun 2027 09:54:37.125   03 Jun 2027 09:54:46.510             9.385          4028.469
        58   03 Jun 2027 09:56:09.230   03 Jun 2027 09:56:11.630             2.400            91.375
        59   03 Jun 2027 09:56:45.076   03 Jun 2027 09:56:45.860             0.784           265.094
        60   03 Jun 2027 09:57:34.664   03 Jun 2027 09:57:38.605             3.941          1506.250
        61   03 Jun 2027 11:32:52.051   03 Jun 2027 11:32:52.667             0.616           121.719
        62   04 Jun 2027 03:41:52.803   04 Jun 2027 03:42:13.413            20.610         10305.000
        63   04 Jun 2027 05:17:03.778   04 Jun 2027 05:19:04.832           121.054         60527.000
        64   04 Jun 2027 05:19:55.693   04 Jun 2027 05:20:51.204            55.511         27755.500
        65   04 Jun 2027 05:21:32.744   04 Jun 2027 05:22:40.322            67.578         33789.000
        66   04 Jun 2027 05:23:38.721   04 Jun 2027 05:23:40.843             2.122          1061.000
        67   04 Jun 2027 06:53:22.745   04 Jun 2027 06:54:05.434            42.689         21186.500
        68   04 Jun 2027 06:56:00.489   04 Jun 2027 06:56:02.235             1.746           482.063
        69   04 Jun 2027 06:58:34.729   04 Jun 2027 06:58:37.174             2.445           577.375
        70   04 Jun 2027 08:30:45.837   04 Jun 2027 08:30:53.516             7.679          3133.406
        71   04 Jun 2027 08:32:19.075   04 Jun 2027 08:32:30.926            11.851           176.781
        72   04 Jun 2027 08:32:42.094   04 Jun 2027 08:32:45.417             3.323           286.563
        73   04 Jun 2027 08:32:59.656   04 Jun 2027 08:33:03.285             3.629           121.125
        74   04 Jun 2027 08:33:04.532   04 Jun 2027 08:33:05.163             0.631            38.969
        75   04 Jun 2027 10:06:55.041   04 Jun 2027 10:07:09.122            14.081          6305.031
        76   04 Jun 2027 10:09:22.433   04 Jun 2027 10:09:25.480             3.047          1100.625
        77   05 Jun 2027 03:53:50.161   05 Jun 2027 03:54:21.226            31.065         15532.500
        78   05 Jun 2027 05:28:54.541   05 Jun 2027 05:31:57.359           182.818         91409.000
        79   05 Jun 2027 05:35:14.732   05 Jun 2027 05:35:47.630            32.898         16449.000
        80   05 Jun 2027 07:05:00.083   05 Jun 2027 07:06:05.907            65.824         32794.313
        81   05 Jun 2027 07:07:32.557   05 Jun 2027 07:07:33.848             1.291           128.219
        82   05 Jun 2027 07:09:48.536   05 Jun 2027 07:09:54.562             6.026          2090.125
        83   05 Jun 2027 07:10:22.986   05 Jun 2027 07:10:26.302             3.316           863.219
        84   05 Jun 2027 08:42:58.446   05 Jun 2027 08:43:08.460            10.014          4206.594
        85   05 Jun 2027 08:43:49.048   05 Jun 2027 08:43:49.488             0.440           212.219
        86   05 Jun 2027 08:44:43.371   05 Jun 2027 08:44:44.695             1.324           325.625
        87   05 Jun 2027 08:45:11.244   05 Jun 2027 08:45:15.384             4.140           330.781
        88   05 Jun 2027 08:46:20.131   05 Jun 2027 08:46:21.001             0.870            94.031
        89   05 Jun 2027 08:46:26.610   05 Jun 2027 08:46:28.864             2.254           175.281
        90   05 Jun 2027 10:18:49.621   05 Jun 2027 10:19:02.676            13.055          6365.625
        91   05 Jun 2027 10:21:09.891   05 Jun 2027 10:21:11.882             1.991           678.625
        92   06 Jun 2027 04:05:34.854   06 Jun 2027 04:05:57.451            22.597         11298.500
        93   06 Jun 2027 04:06:45.996   06 Jun 2027 04:06:47.895             1.899           949.500
        94   06 Jun 2027 04:08:48.730   06 Jun 2027 04:09:09.213            20.483         10241.500
        95   06 Jun 2027 05:40:20.667   06 Jun 2027 05:43:25.165           184.498         92249.000
        96   06 Jun 2027 05:47:12.301   06 Jun 2027 05:47:14.857             2.556          1278.000
        97   06 Jun 2027 05:47:49.235   06 Jun 2027 05:47:53.439             4.204          2102.000
        98   06 Jun 2027 07:17:10.179   06 Jun 2027 07:18:43.953            93.774         46288.000
        99   06 Jun 2027 07:20:56.010   06 Jun 2027 07:21:03.895             7.885          2574.031
       100   06 Jun 2027 07:21:44.321   06 Jun 2027 07:21:46.042             1.721           751.969
       101   06 Jun 2027 07:22:07.687   06 Jun 2027 07:22:12.352             4.665            80.969
       102   06 Jun 2027 08:55:20.623   06 Jun 2027 08:55:31.817            11.194          5216.719
       103   06 Jun 2027 08:56:30.811   06 Jun 2027 08:56:31.678             0.867           368.625
       104   06 Jun 2027 08:56:37.783   06 Jun 2027 08:56:42.575             4.792           162.375
       105   06 Jun 2027 08:57:31.295   06 Jun 2027 08:57:35.641             4.346           992.687
       106   06 Jun 2027 08:58:15.561   06 Jun 2027 08:58:16.969             1.408           480.625
       107   06 Jun 2027 08:58:42.951   06 Jun 2027 08:58:48.516             5.565           711.312
       108   06 Jun 2027 10:28:38.109   06 Jun 2027 10:28:51.364            13.255          5270.656
       109   07 Jun 2027 04:15:22.856   07 Jun 2027 04:16:06.118            43.262         21631.000
       110   07 Jun 2027 04:17:31.019   07 Jun 2027 04:17:52.575            21.556         10778.000
       111   07 Jun 2027 04:19:22.614   07 Jun 2027 04:19:33.726            11.112          5556.000
       112   07 Jun 2027 04:19:49.581   07 Jun 2027 04:19:52.006             2.425          1212.500
       113   07 Jun 2027 04:23:14.120   07 Jun 2027 04:23:17.000             2.880          1440.000
       114   07 Jun 2027 05:52:27.533   07 Jun 2027 05:55:24.391           176.858         88429.000
       115   07 Jun 2027 05:57:28.225   07 Jun 2027 05:57:30.500             2.275          1137.500
       116   07 Jun 2027 05:58:48.243   07 Jun 2027 05:59:40.239            51.996         25998.000
       117   07 Jun 2027 05:59:53.313   07 Jun 2027 05:59:53.839             0.526           263.000
       118   07 Jun 2027 07:29:25.652   07 Jun 2027 07:29:51.710            26.058         12604.187
       119   07 Jun 2027 07:32:50.913   07 Jun 2027 07:32:57.230             6.317          2408.781
       120   07 Jun 2027 07:33:42.133   07 Jun 2027 07:33:46.879             4.746           939.437
       121   07 Jun 2027 07:34:13.495   07 Jun 2027 07:34:16.791             3.296           831.750
       122   07 Jun 2027 07:35:32.234   07 Jun 2027 07:35:34.187             1.953           740.000
       123   07 Jun 2027 09:07:21.938   07 Jun 2027 09:07:34.831            12.893          5949.062
       124   07 Jun 2027 09:09:42.890   07 Jun 2027 09:09:48.577             5.687           276.531
       125   07 Jun 2027 10:40:43.489   07 Jun 2027 10:40:52.682             9.193          4150.781
       126   08 Jun 2027 04:26:50.628   08 Jun 2027 04:28:39.813           109.185         54592.500
       127   08 Jun 2027 04:29:12.035   08 Jun 2027 04:29:20.888             8.853          4426.500
       128   08 Jun 2027 04:29:38.869   08 Jun 2027 04:29:42.548             3.679          1839.500
       129   08 Jun 2027 04:30:14.085   08 Jun 2027 04:30:14.615             0.530           265.000
       130   08 Jun 2027 04:30:40.988   08 Jun 2027 04:30:57.323            16.335          8167.500
       131   08 Jun 2027 04:32:52.537   08 Jun 2027 04:33:13.401            20.864         10432.000
       132   08 Jun 2027 04:34:25.917   08 Jun 2027 04:34:25.917             0.000             0.000
       133   08 Jun 2027 04:35:01.289   08 Jun 2027 04:35:08.743             7.454          3727.000
       134   08 Jun 2027 04:35:20.581   08 Jun 2027 04:35:32.888            12.307          6153.500
       135   08 Jun 2027 06:04:35.733   08 Jun 2027 06:07:11.051           155.318         77659.000
       136   08 Jun 2027 06:07:27.252   08 Jun 2027 06:07:40.491            13.239          5268.656
       137   08 Jun 2027 06:09:38.256   08 Jun 2027 06:09:50.875            12.619          3680.156
       138   08 Jun 2027 06:10:35.797   08 Jun 2027 06:10:39.580             3.783           694.906
       139   08 Jun 2027 07:41:16.388   08 Jun 2027 07:41:23.996             7.608          3207.219
       140   08 Jun 2027 07:44:47.390   08 Jun 2027 07:44:51.966             4.576           568.437
       141   08 Jun 2027 07:44:54.401   08 Jun 2027 07:44:55.832             1.431            76.094
       142   08 Jun 2027 07:45:31.140   08 Jun 2027 07:45:35.346             4.206           636.219
       143   08 Jun 2027 07:46:20.802   08 Jun 2027 07:46:22.310             1.508            63.750
       144   08 Jun 2027 09:19:19.010   08 Jun 2027 09:19:27.054             8.044          3622.437
       145   08 Jun 2027 09:22:11.272   08 Jun 2027 09:22:13.200             1.928           881.781
       146   08 Jun 2027 10:53:09.747   08 Jun 2027 10:53:12.419             2.672          1009.844
       147   09 Jun 2027 03:03:31.739   09 Jun 2027 03:03:43.349            11.610          5805.000
       148   09 Jun 2027 03:06:25.162   09 Jun 2027 03:06:35.654            10.492          5246.000
       149   09 Jun 2027 04:38:24.567   09 Jun 2027 04:41:16.513           171.946         85973.000
       150   09 Jun 2027 04:41:44.003   09 Jun 2027 04:41:45.095             1.092           546.000
       151   09 Jun 2027 04:41:52.128   09 Jun 2027 04:41:56.784             4.656          2328.000
       152   09 Jun 2027 04:42:35.553   09 Jun 2027 04:42:55.699            20.146         10073.000
       153   09 Jun 2027 04:46:59.725   09 Jun 2027 04:47:15.037            15.312          7656.000
       154   09 Jun 2027 04:47:20.656   09 Jun 2027 04:47:33.464            12.808          6404.000
       155   09 Jun 2027 06:16:31.523   09 Jun 2027 06:17:40.061            68.538         33802.938
       156   09 Jun 2027 06:18:56.271   09 Jun 2027 06:19:00.315             4.044          1625.625
       157   09 Jun 2027 06:19:16.205   09 Jun 2027 06:19:19.709             3.504           496.563
       158   09 Jun 2027 06:20:09.854   09 Jun 2027 06:20:11.740             1.886           896.219
       159   09 Jun 2027 06:21:03.461   09 Jun 2027 06:21:03.959             0.498           124.687
       160   09 Jun 2027 06:21:34.696   09 Jun 2027 06:21:38.254             3.558           960.531
       161   09 Jun 2027 06:22:02.596   09 Jun 2027 06:22:04.651             2.055           534.750
       162   09 Jun 2027 07:53:26.545   09 Jun 2027 07:53:34.654             8.109           725.250
       163   09 Jun 2027 07:53:47.903   09 Jun 2027 07:53:51.126             3.223           162.469
       164   09 Jun 2027 07:56:28.997   09 Jun 2027 07:56:30.005             1.008           421.406
       165   09 Jun 2027 07:57:02.718   09 Jun 2027 07:57:06.786             4.068           440.781
       166   09 Jun 2027 07:57:49.991   09 Jun 2027 07:57:51.819             1.828           710.312
       167   09 Jun 2027 07:58:42.882   09 Jun 2027 07:58:47.939             5.057           698.594
       168   09 Jun 2027 07:59:44.774   09 Jun 2027 07:59:48.839             4.065           759.750
       169   09 Jun 2027 09:30:33.863   09 Jun 2027 09:30:45.459            11.596          3648.062
       170   09 Jun 2027 09:32:06.379   09 Jun 2027 09:32:10.395             4.016          1637.469
       171   09 Jun 2027 11:05:27.891   09 Jun 2027 11:05:31.221             3.330           238.188
       172   10 Jun 2027 03:17:53.538   10 Jun 2027 03:18:20.822            27.284         13642.000
       173   10 Jun 2027 03:18:56.493   10 Jun 2027 03:18:56.493             0.000             0.000
       174   10 Jun 2027 03:19:14.438   10 Jun 2027 03:19:18.162             3.724          1862.000
       175   10 Jun 2027 04:51:25.945   10 Jun 2027 04:53:43.789           137.844         68922.000
       176   10 Jun 2027 04:54:28.560   10 Jun 2027 04:54:53.477            24.917         12458.500
       177   10 Jun 2027 04:58:33.541   10 Jun 2027 04:59:37.792            64.251         32125.500
       178   10 Jun 2027 04:59:54.918   10 Jun 2027 04:59:54.918             0.000             0.000
       179   10 Jun 2027 04:59:57.343   10 Jun 2027 04:59:58.946             1.603           801.500
       180   10 Jun 2027 06:28:58.554   10 Jun 2027 06:29:57.768            59.214         29382.813
       181   10 Jun 2027 06:31:19.427   10 Jun 2027 06:31:21.569             2.142           647.687
       182   10 Jun 2027 06:32:48.632   10 Jun 2027 06:32:54.208             5.576          1822.594
       183   10 Jun 2027 08:05:53.153   10 Jun 2027 08:05:58.200             5.047          1645.000
       184   10 Jun 2027 08:08:53.912   10 Jun 2027 08:08:57.639             3.727           135.344
       185   10 Jun 2027 08:09:54.953   10 Jun 2027 08:10:02.285             7.332          1746.625
       186   10 Jun 2027 08:11:20.869   10 Jun 2027 08:11:24.477             3.608          1507.375
       187   10 Jun 2027 08:11:41.141   10 Jun 2027 08:11:43.509             2.368             8.469
       188   10 Jun 2027 09:42:46.843   10 Jun 2027 09:43:00.858            14.015          3353.219
       189   10 Jun 2027 09:45:17.184   10 Jun 2027 09:45:17.331             0.147            54.906
       190   10 Jun 2027 11:19:56.948   10 Jun 2027 11:19:59.799             2.851           881.063
       191   11 Jun 2027 03:30:14.981   11 Jun 2027 03:30:28.711            13.730          6865.000
       192   11 Jun 2027 05:02:05.640   11 Jun 2027 05:02:15.906            10.266          5133.000
       193   11 Jun 2027 05:04:04.598   11 Jun 2027 05:07:05.692           181.094         90547.000
       194   11 Jun 2027 05:10:10.673   11 Jun 2027 05:10:52.452            41.779         20889.500
       195   11 Jun 2027 05:10:55.621   11 Jun 2027 05:10:58.687             3.066          1533.000
       196   11 Jun 2027 05:11:04.076   11 Jun 2027 05:11:26.541            22.465         11232.500
       197   11 Jun 2027 05:11:46.909   11 Jun 2027 05:11:53.179             6.270          3135.000
       198   11 Jun 2027 06:41:03.027   11 Jun 2027 06:41:28.830            25.803         12229.437
       199   11 Jun 2027 08:18:34.762   11 Jun 2027 08:18:40.318             5.556          2231.063
       200   11 Jun 2027 08:20:12.249   11 Jun 2027 08:20:13.765             1.516           755.156
       201   11 Jun 2027 08:20:50.260   11 Jun 2027 08:20:51.150             0.890           184.000
       202   11 Jun 2027 08:21:21.308   11 Jun 2027 08:21:24.569             3.261           380.313
       203   11 Jun 2027 08:21:30.797   11 Jun 2027 08:21:32.834             2.037           194.625
       204   11 Jun 2027 08:23:01.175   11 Jun 2027 08:23:04.321             3.146           745.500
       205   11 Jun 2027 09:54:52.762   11 Jun 2027 09:55:02.766            10.004          4059.344
       206   11 Jun 2027 09:56:23.422   11 Jun 2027 09:56:24.521             1.099            76.813
       207   11 Jun 2027 09:57:01.117   11 Jun 2027 09:57:04.717             3.600          1143.625
       208   11 Jun 2027 11:33:06.728   11 Jun 2027 11:33:10.139             3.411            11.063
       209   12 Jun 2027 03:42:07.599   12 Jun 2027 03:42:28.457            20.858         10429.000
       210   12 Jun 2027 05:17:18.586   12 Jun 2027 05:19:20.577           121.991         60995.500
       211   12 Jun 2027 05:20:10.333   12 Jun 2027 05:21:06.452            56.119         28059.500
       212   12 Jun 2027 05:21:51.000   12 Jun 2027 05:22:30.227            39.227         19613.500
       213   12 Jun 2027 05:22:33.860   12 Jun 2027 05:22:34.389             0.529           264.500
       214   12 Jun 2027 05:22:55.041   12 Jun 2027 05:23:23.558            28.517         14258.500
       215   12 Jun 2027 05:23:36.049   12 Jun 2027 05:23:36.049             0.000             0.000
       216   12 Jun 2027 05:23:46.320   12 Jun 2027 05:23:55.479             9.159          4579.500
       217   12 Jun 2027 06:53:37.584   12 Jun 2027 06:54:13.997            36.413         18145.437
       218   12 Jun 2027 06:56:16.528   12 Jun 2027 06:56:17.974             1.446           362.969
       219   12 Jun 2027 06:58:49.220   12 Jun 2027 06:58:50.991             1.771           511.156
       220   12 Jun 2027 08:31:00.250   12 Jun 2027 08:31:06.942             6.692          2121.062
       221   12 Jun 2027 08:32:08.104   12 Jun 2027 08:32:12.555             4.451           550.844
       222   12 Jun 2027 08:33:13.062   12 Jun 2027 08:33:17.885             4.823          1714.813
       223   12 Jun 2027 08:33:33.842   12 Jun 2027 08:33:35.207             1.365           458.938
       224   12 Jun 2027 10:07:09.797   12 Jun 2027 10:07:23.541            13.744          5366.063
       225   12 Jun 2027 10:09:16.931   12 Jun 2027 10:09:21.708             4.777           470.719
       226   13 Jun 2027 03:54:04.541   13 Jun 2027 03:54:34.606            30.065         15032.500
       227   13 Jun 2027 05:29:08.735   13 Jun 2027 05:31:46.470           157.735         78867.500
       228   13 Jun 2027 05:34:40.852   13 Jun 2027 05:35:29.378            48.526         24263.000
       229   13 Jun 2027 05:35:59.095   13 Jun 2027 05:36:02.424             3.329          1664.500
       230   13 Jun 2027 07:05:14.429   13 Jun 2027 07:06:41.705            87.276         43464.250
       231   13 Jun 2027 07:08:11.453   13 Jun 2027 07:08:16.823             5.370           617.813
       232   13 Jun 2027 07:08:33.311   13 Jun 2027 07:08:35.121             1.810           218.531
       233   13 Jun 2027 07:09:45.691   13 Jun 2027 07:09:49.086             3.395          1417.437
       234   13 Jun 2027 07:10:04.316   13 Jun 2027 07:10:11.165             6.849            41.469
       235   13 Jun 2027 07:10:29.281   13 Jun 2027 07:10:32.896             3.615           566.125
       236   13 Jun 2027 08:43:13.174   13 Jun 2027 08:43:23.673            10.499          4408.750
       237   13 Jun 2027 08:44:03.597   13 Jun 2027 08:44:04.137             0.540           166.438
       238   13 Jun 2027 08:44:50.609   13 Jun 2027 08:44:51.230             0.621           108.500
       239   13 Jun 2027 08:45:17.498   13 Jun 2027 08:45:22.249             4.751           578.031
       240   13 Jun 2027 08:45:44.633   13 Jun 2027 08:45:46.919             2.286           647.281
       241   13 Jun 2027 08:46:32.198   13 Jun 2027 08:46:34.871             2.673           418.938
       242   13 Jun 2027 08:46:37.154   13 Jun 2027 08:46:39.395             2.241            71.344
       243   13 Jun 2027 08:47:23.288   13 Jun 2027 08:47:26.908             3.620          1307.812
       244   13 Jun 2027 10:19:04.107   13 Jun 2027 10:19:17.889            13.782          6431.719
       245   13 Jun 2027 10:21:45.491   13 Jun 2027 10:21:48.269             2.778          1333.125
