uniorb/output/strategy_4/Camera/Camera_KinoSat_111706.txt

KinoSat_111706
-------------------------
    Access    *     Start Time (UTCG)     *     Stop Time (UTCG)  *   Duration (s) *   Data (Mbytes)
         1   01 Jun 2027 03:00:00.000   01 Jun 2027 03:00:38.579            38.579         19289.500
         2   01 Jun 2027 03:01:48.909   01 Jun 2027 03:01:52.018             3.109          1554.500
         3   01 Jun 2027 03:03:23.219   01 Jun 2027 03:03:48.677            25.458         12729.000
         4   01 Jun 2027 03:05:47.471   01 Jun 2027 03:05:51.891             4.420          2210.000
         5   01 Jun 2027 04:38:26.544   01 Jun 2027 04:40:37.606           131.062         65531.000
         6   01 Jun 2027 04:43:21.241   01 Jun 2027 04:43:21.241             0.000             0.000
         7   01 Jun 2027 04:45:16.659   01 Jun 2027 04:45:44.390            27.731         13865.500
         8   01 Jun 2027 06:03:34.736   01 Jun 2027 06:04:55.525            80.789         40394.500
         9   01 Jun 2027 06:15:10.725   01 Jun 2027 06:15:36.845            26.120         13060.000
        10   01 Jun 2027 06:16:09.030   01 Jun 2027 06:16:11.793             2.763          1381.500
        11   01 Jun 2027 07:37:45.514   01 Jun 2027 07:38:44.445            58.931         29465.500
        12   01 Jun 2027 07:39:23.674   01 Jun 2027 07:40:28.436            64.762         32381.000
        13   01 Jun 2027 07:42:00.297   01 Jun 2027 07:42:15.051            14.754          7377.000
        14   01 Jun 2027 09:12:51.146   01 Jun 2027 09:14:09.327            78.181         39090.500
        15   01 Jun 2027 09:14:37.729   01 Jun 2027 09:14:58.932            21.203         10601.500
        16   01 Jun 2027 09:18:25.550   01 Jun 2027 09:18:55.109            29.559         14779.500
        17   01 Jun 2027 10:49:43.189   01 Jun 2027 10:49:51.985             8.796          4398.000
        18   01 Jun 2027 10:52:53.540   01 Jun 2027 10:54:20.651            87.111         43555.500
        19   01 Jun 2027 10:56:18.785   01 Jun 2027 10:57:08.609            49.824         24912.000
        20   02 Jun 2027 03:11:43.854   02 Jun 2027 03:13:07.424            83.570         41785.000
        21   02 Jun 2027 03:13:09.720   02 Jun 2027 03:13:20.193            10.473          5236.500
        22   02 Jun 2027 03:13:36.726   02 Jun 2027 03:13:42.989             6.263          3131.500
        23   02 Jun 2027 03:16:11.423   02 Jun 2027 03:16:28.630            17.207          8603.500
        24   02 Jun 2027 04:50:43.094   02 Jun 2027 04:54:20.858           217.764        108882.000
        25   02 Jun 2027 04:54:34.066   02 Jun 2027 04:55:25.327            51.261         25630.500
        26   02 Jun 2027 06:15:01.100   02 Jun 2027 06:15:25.538            24.438         12219.000
        27   02 Jun 2027 06:16:43.862   02 Jun 2027 06:16:55.299            11.437          5718.500
        28   02 Jun 2027 06:27:08.166   02 Jun 2027 06:28:03.538            55.372         27686.000
        29   02 Jun 2027 07:49:20.998   02 Jun 2027 07:50:30.223            69.225         34612.500
        30   02 Jun 2027 07:51:18.333   02 Jun 2027 07:52:11.374            53.041         26520.500
        31   02 Jun 2027 07:54:17.391   02 Jun 2027 07:54:20.750             3.359          1679.500
        32   02 Jun 2027 09:24:14.385   02 Jun 2027 09:26:20.954           126.569         62493.907
        33   02 Jun 2027 09:27:25.162   02 Jun 2027 09:27:29.043             3.881          1555.844
        34   02 Jun 2027 09:29:37.786   02 Jun 2027 09:29:52.808            15.022          3196.125
        35   02 Jun 2027 11:01:49.877   02 Jun 2027 11:02:05.140            15.263          5646.531
        36   02 Jun 2027 11:02:45.112   02 Jun 2027 11:02:48.004             2.892           297.000
        37   02 Jun 2027 11:03:54.659   02 Jun 2027 11:04:02.147             7.488           941.313
        38   02 Jun 2027 11:04:48.708   02 Jun 2027 11:04:52.915             4.207            91.375
        39   02 Jun 2027 11:05:14.495   02 Jun 2027 11:05:16.713             2.218           674.375
        40   02 Jun 2027 11:07:13.085   02 Jun 2027 11:07:19.296             6.211          3093.969
        41   02 Jun 2027 11:08:00.039   02 Jun 2027 11:08:02.736             2.697          1086.938
        42   02 Jun 2027 11:08:21.736   02 Jun 2027 11:08:30.672             8.936           457.031
        43   02 Jun 2027 11:08:56.109   02 Jun 2027 11:08:59.356             3.247           642.344
        44   02 Jun 2027 11:09:12.146   02 Jun 2027 11:09:12.355             0.209           104.500
        45   03 Jun 2027 03:24:03.099   03 Jun 2027 03:24:16.280            13.181          6590.500
        46   03 Jun 2027 03:24:30.472   03 Jun 2027 03:27:55.955           205.483        102741.500
        47   03 Jun 2027 03:29:52.649   03 Jun 2027 03:29:55.055             2.406          1203.000
        48   03 Jun 2027 05:02:49.794   03 Jun 2027 05:04:34.295           104.501         51382.594
        49   03 Jun 2027 05:05:19.567   03 Jun 2027 05:05:23.052             3.485          1397.719
        50   03 Jun 2027 05:05:56.322   03 Jun 2027 05:05:58.618             2.296            42.156
        51   03 Jun 2027 05:06:14.719   03 Jun 2027 05:06:17.433             2.714           503.156
        52   03 Jun 2027 05:07:27.512   03 Jun 2027 05:07:29.352             1.840           625.656
        53   03 Jun 2027 06:27:00.460   03 Jun 2027 06:27:14.515            14.055          6812.750
        54   03 Jun 2027 06:27:39.754   03 Jun 2027 06:27:39.754             0.000             0.000
        55   03 Jun 2027 06:27:47.826   03 Jun 2027 06:27:54.606             6.780           668.750
        56   03 Jun 2027 06:39:33.212   03 Jun 2027 06:39:34.842             1.630           815.000
        57   03 Jun 2027 08:00:50.594   03 Jun 2027 08:01:00.361             9.767          4807.687
        58   03 Jun 2027 08:01:49.174   03 Jun 2027 08:01:52.903             3.729           478.719
        59   03 Jun 2027 08:03:27.628   03 Jun 2027 08:03:34.366             6.738          2345.969
        60   03 Jun 2027 08:04:18.937   03 Jun 2027 08:04:21.662             2.725          1093.000
        61   03 Jun 2027 08:06:02.288   03 Jun 2027 08:06:13.709            11.421          2667.500
        62   03 Jun 2027 08:06:19.893   03 Jun 2027 08:06:30.502            10.609           146.000
        63   03 Jun 2027 09:35:45.053   03 Jun 2027 09:35:50.916             5.863          2753.531
        64   03 Jun 2027 09:38:00.032   03 Jun 2027 09:38:02.565             2.533           324.969
        65   03 Jun 2027 09:38:47.710   03 Jun 2027 09:38:54.302             6.592          1117.469
        66   03 Jun 2027 09:39:27.689   03 Jun 2027 09:39:27.689             0.000             0.000
        67   03 Jun 2027 09:40:10.462   03 Jun 2027 09:40:16.138             5.676          1525.125
        68   03 Jun 2027 09:42:48.140   03 Jun 2027 09:42:52.713             4.573          2197.719
        69   03 Jun 2027 09:43:14.084   03 Jun 2027 09:43:15.915             1.831           514.188
        70   03 Jun 2027 09:44:17.240   03 Jun 2027 09:44:20.666             3.426          1419.375
        71   03 Jun 2027 11:13:46.339   03 Jun 2027 11:14:10.016            23.677          6292.031
        72   03 Jun 2027 11:15:39.769   03 Jun 2027 11:15:41.682             1.913            32.125
        73   03 Jun 2027 11:17:22.151   03 Jun 2027 11:17:24.726             2.575          1224.594
        74   03 Jun 2027 11:19:29.765   03 Jun 2027 11:19:40.048            10.283          3457.125
        75   03 Jun 2027 11:20:17.118   03 Jun 2027 11:20:20.126             3.008           987.906
        76   03 Jun 2027 11:20:47.087   03 Jun 2027 11:20:50.414             3.327           746.500
        77   03 Jun 2027 11:21:13.381   03 Jun 2027 11:21:14.269             0.888           444.000
        78   04 Jun 2027 03:36:40.894   04 Jun 2027 03:36:48.182             7.288          3644.000
        79   04 Jun 2027 03:37:02.356   04 Jun 2027 03:38:03.659            61.303         30651.500
        80   04 Jun 2027 03:38:08.501   04 Jun 2027 03:41:15.121           186.620         93310.000
        81   04 Jun 2027 03:41:53.467   04 Jun 2027 03:41:53.933             0.466           233.000
        82   04 Jun 2027 05:15:27.214   04 Jun 2027 05:16:35.915            68.701         32177.219
        83   04 Jun 2027 05:17:14.955   04 Jun 2027 05:17:19.152             4.197          1032.594
        84   04 Jun 2027 06:38:57.326   04 Jun 2027 06:39:11.692            14.366          5701.656
        85   04 Jun 2027 06:40:07.991   04 Jun 2027 06:40:11.064             3.073          1469.094
        86   04 Jun 2027 06:40:17.695   04 Jun 2027 06:40:19.175             1.480           207.219
        87   04 Jun 2027 06:41:00.765   04 Jun 2027 06:41:03.517             2.752           829.250
        88   04 Jun 2027 08:15:09.151   04 Jun 2027 08:15:22.413            13.262          4497.375
        89   04 Jun 2027 08:15:41.352   04 Jun 2027 08:15:44.944             3.592           454.906
        90   04 Jun 2027 08:15:50.495   04 Jun 2027 08:15:50.495             0.000             0.000
        91   04 Jun 2027 08:16:17.715   04 Jun 2027 08:16:23.611             5.896          1024.094
        92   04 Jun 2027 08:17:09.175   04 Jun 2027 08:17:12.129             2.954          1247.406
        93   04 Jun 2027 08:17:46.104   04 Jun 2027 08:17:48.332             2.228           215.500
        94   04 Jun 2027 09:48:42.512   04 Jun 2027 09:48:48.022             5.510          2461.281
        95   04 Jun 2027 09:50:37.171   04 Jun 2027 09:50:39.841             2.670           231.156
        96   04 Jun 2027 09:51:07.401   04 Jun 2027 09:51:10.944             3.543           135.281
        97   04 Jun 2027 09:52:13.996   04 Jun 2027 09:52:18.184             4.188          1788.688
        98   04 Jun 2027 09:54:38.129   04 Jun 2027 09:54:43.661             5.532          1904.344
        99   04 Jun 2027 09:55:37.554   04 Jun 2027 09:55:38.277             0.723           175.531
       100   04 Jun 2027 09:56:26.130   04 Jun 2027 09:56:29.782             3.652          1445.750
       101   04 Jun 2027 09:57:06.029   04 Jun 2027 09:57:08.519             2.490           206.906
       102   04 Jun 2027 11:26:08.704   04 Jun 2027 11:26:21.526            12.822          6021.844
       103   04 Jun 2027 11:28:14.499   04 Jun 2027 11:28:19.324             4.825          1449.656
       104   04 Jun 2027 11:30:32.084   04 Jun 2027 11:30:42.195            10.111          3996.344
       105   04 Jun 2027 11:31:06.756   04 Jun 2027 11:31:09.414             2.658           264.531
       106   04 Jun 2027 11:31:28.792   04 Jun 2027 11:31:35.988             7.196           387.031
       107   04 Jun 2027 11:32:28.046   04 Jun 2027 11:32:32.335             4.289          1275.031
       108   04 Jun 2027 11:32:42.922   04 Jun 2027 11:32:44.971             2.049           169.937
       109   04 Jun 2027 11:32:51.010   04 Jun 2027 11:32:53.137             2.127           188.719
       110   05 Jun 2027 03:49:07.578   05 Jun 2027 03:49:35.183            27.605         13802.500
       111   05 Jun 2027 03:49:38.972   05 Jun 2027 03:51:29.725           110.753         55376.500
       112   05 Jun 2027 03:52:26.979   05 Jun 2027 03:52:57.071            30.092         15046.000
       113   05 Jun 2027 03:54:36.095   05 Jun 2027 03:55:02.889            26.794         13397.000
       114   05 Jun 2027 05:27:08.405   05 Jun 2027 05:29:08.340           119.935         59353.125
       115   05 Jun 2027 05:29:41.894   05 Jun 2027 05:29:43.758             1.864           831.563
       116   05 Jun 2027 05:30:35.663   05 Jun 2027 05:30:40.011             4.348          1456.406
       117   05 Jun 2027 05:31:23.243   05 Jun 2027 05:31:29.674             6.431           667.813
       118   05 Jun 2027 05:31:34.397   05 Jun 2027 05:31:36.973             2.576           134.938
       119   05 Jun 2027 06:50:48.358   05 Jun 2027 06:51:09.399            21.041          6405.937
       120   05 Jun 2027 06:51:27.356   05 Jun 2027 06:51:30.876             3.520           561.156
       121   05 Jun 2027 06:52:27.792   05 Jun 2027 06:52:27.792             0.000             0.000
       122   05 Jun 2027 06:53:01.232   05 Jun 2027 06:53:09.176             7.944          2312.875
       123   05 Jun 2027 08:27:15.963   05 Jun 2027 08:27:29.505            13.542          6683.156
       124   05 Jun 2027 08:28:04.927   05 Jun 2027 08:28:07.060             2.133           811.750
       125   05 Jun 2027 08:28:42.491   05 Jun 2027 08:28:47.361             4.870           348.156
       126   05 Jun 2027 09:59:26.067   05 Jun 2027 09:59:33.997             7.930          3965.000
       127   05 Jun 2027 10:01:50.832   05 Jun 2027 10:02:00.666             9.834          3964.563
       128   05 Jun 2027 10:03:10.086   05 Jun 2027 10:03:11.483             1.397           181.031
       129   05 Jun 2027 10:04:18.515   05 Jun 2027 10:04:23.615             5.100          1776.875
       130   05 Jun 2027 10:06:24.478   05 Jun 2027 10:06:33.090             8.612          1521.375
       131   05 Jun 2027 10:06:48.311   05 Jun 2027 10:06:54.865             6.554           475.656
       132   05 Jun 2027 10:07:30.746   05 Jun 2027 10:07:32.725             1.979           532.844
       133   05 Jun 2027 10:08:04.962   05 Jun 2027 10:08:11.093             6.131           993.406
       134   05 Jun 2027 10:08:39.458   05 Jun 2027 10:08:41.125             1.667           297.906
       135   05 Jun 2027 10:09:01.958   05 Jun 2027 10:09:03.016             1.058           186.406
       136   05 Jun 2027 10:09:12.135   05 Jun 2027 10:09:14.811             2.676           284.969
       137   05 Jun 2027 11:38:19.304   05 Jun 2027 11:38:31.495            12.191          4795.688
       138   05 Jun 2027 11:41:05.195   05 Jun 2027 11:41:06.584             1.389           414.125
       139   05 Jun 2027 11:42:21.898   05 Jun 2027 11:42:28.933             7.035          2317.438
       140   05 Jun 2027 11:42:39.206   05 Jun 2027 11:42:39.921             0.715           293.937
       141   05 Jun 2027 11:43:04.101   05 Jun 2027 11:43:05.451             1.350           529.656
       142   05 Jun 2027 11:43:25.412   05 Jun 2027 11:43:27.508             2.096           623.781
       143   05 Jun 2027 11:44:08.753   05 Jun 2027 11:44:10.744             1.991           162.625
       144   05 Jun 2027 11:44:14.370   05 Jun 2027 11:44:16.305             1.935            51.906
       145   05 Jun 2027 11:44:54.179   05 Jun 2027 11:44:56.562             2.383          1158.938
       146   06 Jun 2027 04:01:13.653   06 Jun 2027 04:02:16.772            63.119         31559.500
       147   06 Jun 2027 04:02:23.795   06 Jun 2027 04:03:59.876            96.081         48040.500
       148   06 Jun 2027 04:04:16.202   06 Jun 2027 04:04:16.202             0.000             0.000
       149   06 Jun 2027 04:04:48.293   06 Jun 2027 04:05:03.280            14.987          7493.500
       150   06 Jun 2027 04:05:21.827   06 Jun 2027 04:05:44.481            22.654         11327.000
       151   06 Jun 2027 05:40:21.972   06 Jun 2027 05:42:27.021           125.049         61554.406
       152   06 Jun 2027 07:02:55.670   06 Jun 2027 07:03:17.294            21.624          6122.344
       153   06 Jun 2027 07:03:50.020   06 Jun 2027 07:03:51.568             1.548           747.781
       154   06 Jun 2027 07:04:23.095   06 Jun 2027 07:04:27.155             4.060           840.156
       155   06 Jun 2027 07:05:10.814   06 Jun 2027 07:05:17.932             7.118           786.406
       156   06 Jun 2027 07:05:46.135   06 Jun 2027 07:05:47.181             1.046           470.062
       157   06 Jun 2027 08:39:23.876   06 Jun 2027 08:39:30.887             7.011          2815.750
       158   06 Jun 2027 08:39:51.357   06 Jun 2027 08:39:56.419             5.062           268.000
       159   06 Jun 2027 08:41:05.771   06 Jun 2027 08:41:09.083             3.312          1359.844
       160   06 Jun 2027 08:41:50.514   06 Jun 2027 08:41:51.700             1.186           548.156
       161   06 Jun 2027 10:14:34.015   06 Jun 2027 10:14:41.536             7.521          3599.313
       162   06 Jun 2027 10:15:43.706   06 Jun 2027 10:15:50.809             7.103          1332.375
       163   06 Jun 2027 10:17:33.470   06 Jun 2027 10:17:38.152             4.682          2014.875
       164   06 Jun 2027 10:18:25.795   06 Jun 2027 10:18:30.355             4.560           641.813
       165   06 Jun 2027 10:19:10.786   06 Jun 2027 10:19:17.571             6.785          1263.469
       166   06 Jun 2027 10:19:46.086   06 Jun 2027 10:19:48.115             2.029           891.094
       167   06 Jun 2027 10:20:55.876   06 Jun 2027 10:20:58.161             2.285           596.344
       168   06 Jun 2027 11:50:53.758   06 Jun 2027 11:51:05.725            11.967          4583.156
       169   06 Jun 2027 11:52:45.287   06 Jun 2027 11:52:49.833             4.546            19.781
       170   06 Jun 2027 11:53:30.990   06 Jun 2027 11:53:32.956             1.966           940.187
       171   06 Jun 2027 11:54:28.813   06 Jun 2027 11:54:31.436             2.623           148.219
       172   06 Jun 2027 11:54:51.451   06 Jun 2027 11:54:52.556             1.105           367.313
       173   06 Jun 2027 11:54:59.984   06 Jun 2027 11:55:01.734             1.750           196.406
       174   06 Jun 2027 11:56:09.257   06 Jun 2027 11:56:14.291             5.034          1798.656
       175   06 Jun 2027 11:56:28.633   06 Jun 2027 11:56:32.149             3.516           448.188
       176   07 Jun 2027 04:13:18.180   07 Jun 2027 04:13:59.622            41.442         20721.000
       177   07 Jun 2027 04:14:21.774   07 Jun 2027 04:14:44.302            22.528         11264.000
       178   07 Jun 2027 04:15:10.122   07 Jun 2027 04:15:32.889            22.767         11383.500
       179   07 Jun 2027 04:16:46.343   07 Jun 2027 04:16:59.435            13.092          6546.000
       180   07 Jun 2027 04:17:39.477   07 Jun 2027 04:17:47.507             8.030          4015.000
       181   07 Jun 2027 04:18:04.440   07 Jun 2027 04:18:05.361             0.921           460.500
       182   07 Jun 2027 04:18:54.186   07 Jun 2027 04:18:58.671             4.485          2242.500
       183   07 Jun 2027 05:51:31.009   07 Jun 2027 05:52:07.445            36.436         18218.000
       184   07 Jun 2027 05:52:36.069   07 Jun 2027 05:55:02.195           146.126         73063.000
       185   07 Jun 2027 07:14:57.891   07 Jun 2027 07:15:30.126            32.235         13376.656
       186   07 Jun 2027 07:15:52.659   07 Jun 2027 07:15:55.059             2.400           390.406
       187   07 Jun 2027 07:17:30.997   07 Jun 2027 07:17:31.730             0.733           366.500
       188   07 Jun 2027 07:17:49.367   07 Jun 2027 07:17:49.367             0.000             0.000
       189   07 Jun 2027 08:51:26.249   07 Jun 2027 08:51:36.401            10.152          3528.563
       190   07 Jun 2027 08:52:38.073   07 Jun 2027 08:52:42.736             4.663          1609.875
       191   07 Jun 2027 08:52:59.738   07 Jun 2027 08:52:59.757             0.019             9.500
       192   07 Jun 2027 08:53:20.038   07 Jun 2027 08:53:20.038             0.000             0.000
       193   07 Jun 2027 08:54:01.131   07 Jun 2027 08:54:10.347             9.216          2125.812
       194   07 Jun 2027 10:26:38.685   07 Jun 2027 10:26:43.461             4.776          2280.844
       195   07 Jun 2027 10:28:09.551   07 Jun 2027 10:28:15.796             6.245          2522.875
       196   07 Jun 2027 10:28:40.695   07 Jun 2027 10:28:41.782             1.087           278.750
       197   07 Jun 2027 10:29:36.098   07 Jun 2027 10:29:37.786             1.688           189.906
       198   07 Jun 2027 10:30:21.256   07 Jun 2027 10:30:24.146             2.890           121.031
       199   07 Jun 2027 10:30:54.022   07 Jun 2027 10:30:57.356             3.334           641.219
       200   07 Jun 2027 10:31:48.673   07 Jun 2027 10:31:52.853             4.180           874.906
       201   07 Jun 2027 10:32:50.756   07 Jun 2027 10:32:57.743             6.987          1530.187
       202   08 Jun 2027 04:26:22.774   08 Jun 2027 04:27:42.005            79.231         39615.500
       203   08 Jun 2027 04:27:49.238   08 Jun 2027 04:27:50.254             1.016           508.000
       204   08 Jun 2027 04:28:41.733   08 Jun 2027 04:29:24.888            43.155         21577.500
       205   08 Jun 2027 04:30:45.905   08 Jun 2027 04:31:28.871            42.966         21483.000
       206   08 Jun 2027 04:33:05.280   08 Jun 2027 04:33:11.501             6.221          3110.500
       207   08 Jun 2027 04:33:19.085   08 Jun 2027 04:33:55.586            36.501         18250.500
       208   08 Jun 2027 05:52:33.693   08 Jun 2027 05:52:45.902            12.209          6104.500
       209   08 Jun 2027 06:03:26.759   08 Jun 2027 06:05:31.313           124.554         62277.000
       210   08 Jun 2027 06:06:09.920   08 Jun 2027 06:06:12.847             2.927          1463.500
       211   08 Jun 2027 06:06:19.235   08 Jun 2027 06:06:20.349             1.114           417.468
       212   08 Jun 2027 07:27:24.802   08 Jun 2027 07:27:37.799            12.997          5503.000
       213   08 Jun 2027 07:27:55.106   08 Jun 2027 07:27:55.970             0.864           208.312
       214   08 Jun 2027 07:28:45.129   08 Jun 2027 07:28:45.129             0.000             0.000
       215   08 Jun 2027 07:29:25.814   08 Jun 2027 07:29:30.645             4.831          2326.156
       216   08 Jun 2027 07:29:52.513   08 Jun 2027 07:29:57.516             5.003           644.969
       217   08 Jun 2027 09:03:09.509   08 Jun 2027 09:03:13.801             4.292          2014.500
       218   08 Jun 2027 09:04:32.161   08 Jun 2027 09:04:42.836            10.675          1448.594
       219   08 Jun 2027 09:05:41.425   08 Jun 2027 09:05:46.138             4.713          1830.906
       220   08 Jun 2027 10:37:53.218   08 Jun 2027 10:38:02.378             9.160          4578.906
       221   08 Jun 2027 10:41:12.221   08 Jun 2027 10:41:17.080             4.859           525.813
       222   08 Jun 2027 10:43:33.846   08 Jun 2027 10:43:44.052            10.206          4021.531
       223   08 Jun 2027 10:44:15.467   08 Jun 2027 10:44:18.555             3.088           652.344
       224   08 Jun 2027 10:44:36.450   08 Jun 2027 10:44:41.261             4.811           559.219
       225   09 Jun 2027 03:00:01.696   09 Jun 2027 03:00:16.737            15.041          7520.500
       226   09 Jun 2027 03:00:27.845   09 Jun 2027 03:00:53.212            25.367         12683.500
       227   09 Jun 2027 03:03:27.197   09 Jun 2027 03:03:38.133            10.936          5468.000
       228   09 Jun 2027 03:04:24.285   09 Jun 2027 03:04:42.643            18.358          9179.000
       229   09 Jun 2027 03:04:56.851   09 Jun 2027 03:05:00.825             3.974          1987.000
       230   09 Jun 2027 03:05:22.694   09 Jun 2027 03:05:24.338             1.644           822.000
       231   09 Jun 2027 03:06:06.128   09 Jun 2027 03:06:06.128             0.000             0.000
       232   09 Jun 2027 04:38:45.039   09 Jun 2027 04:39:58.719            73.680         36840.000
       233   09 Jun 2027 04:40:42.385   09 Jun 2027 04:41:08.732            26.347         13173.500
       234   09 Jun 2027 04:42:41.473   09 Jun 2027 04:43:37.462            55.989         27994.500
       235   09 Jun 2027 04:43:41.199   09 Jun 2027 04:43:45.573             4.374          2187.000
       236   09 Jun 2027 04:44:35.461   09 Jun 2027 04:44:50.804            15.343          7671.500
       237   09 Jun 2027 04:44:54.368   09 Jun 2027 04:45:01.557             7.189          3594.500
       238   09 Jun 2027 06:03:48.479   09 Jun 2027 06:04:41.672            53.193         26596.500
       239   09 Jun 2027 06:04:52.387   09 Jun 2027 06:05:13.417            21.030         10515.000
       240   09 Jun 2027 06:15:28.007   09 Jun 2027 06:15:50.581            22.574         11285.687
       241   09 Jun 2027 07:38:00.392   09 Jun 2027 07:38:10.633            10.241          5056.219
       242   09 Jun 2027 07:38:27.200   09 Jun 2027 07:38:29.674             2.474           403.562
       243   09 Jun 2027 07:39:41.372   09 Jun 2027 07:39:44.799             3.427          1430.437
       244   09 Jun 2027 07:40:23.274   09 Jun 2027 07:40:25.638             2.364           811.000
       245   09 Jun 2027 07:41:18.629   09 Jun 2027 07:41:20.871             2.242          1002.031
       246   09 Jun 2027 07:41:55.558   09 Jun 2027 07:41:55.558             0.000             0.000
       247   09 Jun 2027 07:42:15.256   09 Jun 2027 07:42:17.829             2.573          1286.500
       248   09 Jun 2027 09:13:03.540   09 Jun 2027 09:13:10.638             7.098          3468.625
       249   09 Jun 2027 09:13:30.940   09 Jun 2027 09:13:33.604             2.664           526.063
       250   09 Jun 2027 09:14:54.103   09 Jun 2027 09:14:56.190             2.087           676.094
       251   09 Jun 2027 09:16:28.567   09 Jun 2027 09:16:31.816             3.249          1384.000
       252   09 Jun 2027 09:18:08.623   09 Jun 2027 09:18:12.135             3.512           434.812
       253   09 Jun 2027 09:18:55.933   09 Jun 2027 09:19:02.838             6.905           785.938
       254   09 Jun 2027 09:19:17.322   09 Jun 2027 09:19:17.322             0.000             0.000
       255   09 Jun 2027 09:19:44.213   09 Jun 2027 09:19:46.182             1.969           984.500
       256   09 Jun 2027 10:50:01.701   09 Jun 2027 10:50:06.717             5.016          2508.000
       257   09 Jun 2027 10:50:18.403   09 Jun 2027 10:50:20.811             2.408           733.219
       258   09 Jun 2027 10:53:08.568   09 Jun 2027 10:53:12.982             4.414          1931.906
       259   09 Jun 2027 10:55:09.473   09 Jun 2027 10:55:19.520            10.047          3631.313
       260   09 Jun 2027 10:55:21.609   09 Jun 2027 10:55:24.474             2.865            59.937
       261   09 Jun 2027 10:56:04.007   09 Jun 2027 10:56:07.238             3.231          1235.406
       262   09 Jun 2027 10:56:37.457   09 Jun 2027 10:56:39.277             1.820           527.250
       263   09 Jun 2027 10:57:25.684   09 Jun 2027 10:57:26.244             0.560           280.000
       264   10 Jun 2027 03:12:01.684   10 Jun 2027 03:14:29.683           147.999         73999.500
       265   10 Jun 2027 03:15:36.057   10 Jun 2027 03:15:56.257            20.200         10100.000
       266   10 Jun 2027 03:16:12.520   10 Jun 2027 03:16:17.990             5.470          2735.000
       267   10 Jun 2027 03:16:52.129   10 Jun 2027 03:17:00.129             8.000          4000.000
       268   10 Jun 2027 03:17:38.459   10 Jun 2027 03:17:46.949             8.490          4245.000
       269   10 Jun 2027 04:51:04.702   10 Jun 2027 04:53:01.349           116.647         57794.593
       270   10 Jun 2027 04:54:46.319   10 Jun 2027 04:54:51.998             5.679          2823.438
       271   10 Jun 2027 04:55:55.101   10 Jun 2027 04:56:00.584             5.483           395.656
       272   10 Jun 2027 04:56:09.242   10 Jun 2027 04:56:09.817             0.575           246.375
       273   10 Jun 2027 04:57:12.731   10 Jun 2027 04:57:16.643             3.912          1124.969
       274   10 Jun 2027 04:57:29.167   10 Jun 2027 04:57:30.073             0.906           237.219
       275   10 Jun 2027 06:15:09.747   10 Jun 2027 06:15:20.661            10.914          5405.219
       276   10 Jun 2027 06:17:01.029   10 Jun 2027 06:17:11.125            10.096          3076.062
       277   10 Jun 2027 06:27:25.351   10 Jun 2027 06:27:32.740             7.389          2962.062
       278   10 Jun 2027 06:28:18.968   10 Jun 2027 06:28:19.432             0.464           232.000
       279   10 Jun 2027 07:49:24.640   10 Jun 2027 07:49:38.332            13.692          4719.188
       280   10 Jun 2027 07:50:04.005   10 Jun 2027 07:50:05.055             1.050           429.594
       281   10 Jun 2027 07:50:28.860   10 Jun 2027 07:50:32.735             3.875           191.750
       282   10 Jun 2027 07:51:33.180   10 Jun 2027 07:51:36.967             3.787          1697.469
       283   10 Jun 2027 07:52:28.334   10 Jun 2027 07:52:34.580             6.246           907.906
       284   10 Jun 2027 07:53:30.341   10 Jun 2027 07:53:36.857             6.516          1666.875
       285   10 Jun 2027 07:53:58.463   10 Jun 2027 07:54:00.782             2.319            53.250
       286   10 Jun 2027 07:54:37.529   10 Jun 2027 07:54:40.061             2.532           776.906
       287   10 Jun 2027 09:24:28.109   10 Jun 2027 09:24:34.110             6.001          2459.531
       288   10 Jun 2027 09:26:13.389   10 Jun 2027 09:26:16.412             3.023           670.344
       289   10 Jun 2027 09:28:01.836   10 Jun 2027 09:28:07.992             6.156          2069.500
       290   10 Jun 2027 09:28:27.357   10 Jun 2027 09:28:29.557             2.200           529.594
       291   10 Jun 2027 09:29:38.353   10 Jun 2027 09:29:44.893             6.540          1949.000
       292   10 Jun 2027 09:30:40.071   10 Jun 2027 09:30:45.931             5.860          1401.000
       293   10 Jun 2027 09:31:31.305   10 Jun 2027 09:31:34.351             3.046           611.906
       294   10 Jun 2027 09:32:36.528   10 Jun 2027 09:32:40.145             3.617          1247.156
       295   10 Jun 2027 11:02:04.151   10 Jun 2027 11:02:20.005            15.854          4038.875
       296   10 Jun 2027 11:03:02.487   10 Jun 2027 11:03:03.767             1.280            32.406
       297   10 Jun 2027 11:04:59.739   10 Jun 2027 11:05:04.452             4.713          1503.437
       298   10 Jun 2027 11:05:34.937   10 Jun 2027 11:05:38.920             3.983           952.656
       299   10 Jun 2027 11:08:14.714   10 Jun 2027 11:08:24.028             9.314          4362.875
       300   10 Jun 2027 11:09:15.392   10 Jun 2027 11:09:19.252             3.860          1409.656
       301   11 Jun 2027 03:24:20.817   11 Jun 2027 03:24:33.433            12.616          6308.000
       302   11 Jun 2027 03:24:48.250   11 Jun 2027 03:27:17.301           149.051         74525.500
       303   11 Jun 2027 03:28:22.547   11 Jun 2027 03:29:34.001            71.454         35727.000
       304   11 Jun 2027 05:03:09.199   11 Jun 2027 05:04:34.160            84.961         41604.156
       305   11 Jun 2027 05:05:24.032   11 Jun 2027 05:05:27.306             3.274          1064.656
       306   11 Jun 2027 05:06:10.688   11 Jun 2027 05:06:10.851             0.163            38.500
       307   11 Jun 2027 05:06:32.088   11 Jun 2027 05:06:36.396             4.308           540.250
       308   11 Jun 2027 05:07:44.431   11 Jun 2027 05:07:46.873             2.442           707.063
       309   11 Jun 2027 06:27:17.354   11 Jun 2027 06:27:31.018            13.664          6684.188
       310   11 Jun 2027 06:28:04.814   11 Jun 2027 06:28:10.758             5.944           722.875
       311   11 Jun 2027 08:01:06.830   11 Jun 2027 08:01:15.222             8.392          3975.438
       312   11 Jun 2027 08:03:03.036   11 Jun 2027 08:03:03.591             0.555           185.563
       313   11 Jun 2027 08:03:46.393   11 Jun 2027 08:03:49.221             2.828          1337.563
       314   11 Jun 2027 08:04:36.060   11 Jun 2027 08:04:38.400             2.340          1097.625
       315   11 Jun 2027 08:06:19.765   11 Jun 2027 08:06:29.177             9.412          2671.656
       316   11 Jun 2027 08:06:40.585   11 Jun 2027 08:06:46.417             5.832           258.313
       317   11 Jun 2027 09:35:59.081   11 Jun 2027 09:36:07.242             8.161          3885.031
       318   11 Jun 2027 09:38:07.409   11 Jun 2027 09:38:15.712             8.303          2320.813
       319   11 Jun 2027 09:39:06.293   11 Jun 2027 09:39:08.649             2.356          1105.281
       320   11 Jun 2027 09:39:41.969   11 Jun 2027 09:39:43.209             1.240           117.031
       321   11 Jun 2027 09:41:55.212   11 Jun 2027 09:42:10.340            15.128          2706.812
       322   11 Jun 2027 09:43:16.592   11 Jun 2027 09:43:18.424             1.832           388.563
       323   11 Jun 2027 09:44:13.265   11 Jun 2027 09:44:14.102             0.837           418.500
       324   11 Jun 2027 09:44:33.754   11 Jun 2027 09:44:36.604             2.850          1229.032
       325   11 Jun 2027 11:14:04.725   11 Jun 2027 11:14:32.975            28.250          6109.688
       326   11 Jun 2027 11:16:57.145   11 Jun 2027 11:17:14.247            17.102          4505.312
       327   11 Jun 2027 11:17:57.499   11 Jun 2027 11:17:59.565             2.066           547.531
       328   11 Jun 2027 11:18:42.929   11 Jun 2027 11:18:42.929             0.000             0.000
       329   11 Jun 2027 11:19:27.674   11 Jun 2027 11:19:33.898             6.224          2753.406
       330   11 Jun 2027 11:20:24.562   11 Jun 2027 11:20:28.993             4.431          1463.750
       331   11 Jun 2027 11:20:56.294   11 Jun 2027 11:20:58.439             2.145           753.781
       332   12 Jun 2027 03:36:58.677   12 Jun 2027 03:37:01.876             3.199          1599.500
       333   12 Jun 2027 03:37:20.316   12 Jun 2027 03:38:20.206            59.890         29945.000
       334   12 Jun 2027 03:38:25.265   12 Jun 2027 03:40:29.601           124.336         62168.000
       335   12 Jun 2027 03:40:44.168   12 Jun 2027 03:40:59.436            15.268          7634.000
       336   12 Jun 2027 05:15:45.826   12 Jun 2027 05:17:07.987            82.161         41080.500
       337   12 Jun 2027 05:17:33.134   12 Jun 2027 05:17:58.241            25.107         10687.063
       338   12 Jun 2027 06:39:14.128   12 Jun 2027 06:39:26.492            12.364          6075.250
       339   12 Jun 2027 06:40:24.950   12 Jun 2027 06:40:28.189             3.239          1524.281
       340   12 Jun 2027 06:41:15.102   12 Jun 2027 06:41:18.165             3.063          1466.031
       341   12 Jun 2027 08:15:26.258   12 Jun 2027 08:15:39.255            12.997          4484.844
       342   12 Jun 2027 08:16:03.920   12 Jun 2027 08:16:03.920             0.000             0.000
       343   12 Jun 2027 08:16:07.160   12 Jun 2027 08:16:09.593             2.433           527.125
       344   12 Jun 2027 08:17:03.023   12 Jun 2027 08:17:05.123             2.100           958.500
       345   12 Jun 2027 08:17:53.543   12 Jun 2027 08:17:55.760             2.217           875.469
       346   12 Jun 2027 08:18:32.742   12 Jun 2027 08:18:37.898             5.156           906.094
       347   12 Jun 2027 09:48:59.635   12 Jun 2027 09:49:03.897             4.262          1752.500
       348   12 Jun 2027 09:51:21.906   12 Jun 2027 09:51:24.529             2.623          1033.219
       349   12 Jun 2027 09:51:33.212   12 Jun 2027 09:51:37.438             4.226           194.125
       350   12 Jun 2027 09:53:54.529   12 Jun 2027 09:54:01.421             6.892          2567.531
       351   12 Jun 2027 09:55:49.976   12 Jun 2027 09:55:53.489             3.513          1750.594
       352   12 Jun 2027 09:55:59.243   12 Jun 2027 09:56:02.144             2.901            81.250
       353   12 Jun 2027 09:57:33.051   12 Jun 2027 09:57:34.040             0.989           494.500
       354   12 Jun 2027 11:26:30.279   12 Jun 2027 11:26:45.348            15.069          6790.719
       355   12 Jun 2027 11:28:31.906   12 Jun 2027 11:28:35.089             3.183          1448.656
       356   12 Jun 2027 11:30:28.682   12 Jun 2027 11:30:36.152             7.470          3398.531
       357   12 Jun 2027 11:30:43.517   12 Jun 2027 11:30:51.539             8.022           230.156
       358   12 Jun 2027 11:31:25.899   12 Jun 2027 11:31:30.889             4.990           918.125
       359   12 Jun 2027 11:31:44.162   12 Jun 2027 11:31:50.622             6.460           331.906
       360   12 Jun 2027 11:32:44.640   12 Jun 2027 11:32:47.495             2.855          1326.563
       361   12 Jun 2027 11:32:59.697   12 Jun 2027 11:33:00.378             0.681           198.219
       362   13 Jun 2027 03:49:23.358   13 Jun 2027 03:49:30.113             6.755          3377.500
       363   13 Jun 2027 03:49:45.820   13 Jun 2027 03:49:51.348             5.528          2764.000
       364   13 Jun 2027 03:49:55.353   13 Jun 2027 03:52:40.955           165.602         82801.000
       365   13 Jun 2027 03:53:17.797   13 Jun 2027 03:53:37.779            19.982          9991.000
       366   13 Jun 2027 03:55:05.463   13 Jun 2027 03:55:08.465             3.002          1501.000
       367   13 Jun 2027 05:27:25.653   13 Jun 2027 05:29:34.256           128.603         63588.469
       368   13 Jun 2027 05:30:25.434   13 Jun 2027 05:30:29.033             3.599          1599.312
       369   13 Jun 2027 06:51:04.914   13 Jun 2027 06:51:25.352            20.438          6546.844
       370   13 Jun 2027 06:52:54.653   13 Jun 2027 06:53:01.539             6.886          2689.875
       371   13 Jun 2027 08:27:31.774   13 Jun 2027 08:27:44.013            12.239          5810.531
       372   13 Jun 2027 08:28:03.907   13 Jun 2027 08:28:04.870             0.963           370.188
       373   13 Jun 2027 08:28:24.131   13 Jun 2027 08:28:26.160             2.029           601.906
       374   13 Jun 2027 08:28:59.966   13 Jun 2027 08:29:04.540             4.574           355.438
       375   13 Jun 2027 08:29:13.472   13 Jun 2027 08:29:21.438             7.966            49.156
       376   13 Jun 2027 08:30:06.061   13 Jun 2027 08:30:10.888             4.827          1394.469
       377   13 Jun 2027 09:59:40.098   13 Jun 2027 09:59:50.993            10.895          5447.500
       378   13 Jun 2027 10:01:38.759   13 Jun 2027 10:01:39.999             1.240           571.094
       379   13 Jun 2027 10:03:23.716   13 Jun 2027 10:03:37.904            14.188          2350.188
       380   13 Jun 2027 10:05:53.059   13 Jun 2027 10:05:57.800             4.741          2321.875
       381   13 Jun 2027 10:07:51.168   13 Jun 2027 10:07:59.083             7.915          2223.156
       382   13 Jun 2027 10:08:02.895   13 Jun 2027 10:08:03.267             0.372            62.375
       383   13 Jun 2027 10:08:49.870   13 Jun 2027 10:08:52.078             2.208           797.094
       384   13 Jun 2027 10:08:54.354   13 Jun 2027 10:08:55.497             1.143            71.125
       385   13 Jun 2027 10:09:16.721   13 Jun 2027 10:09:19.722             3.001           570.437
       386   13 Jun 2027 10:09:25.055   13 Jun 2027 10:09:26.643             1.588            23.344
       387   13 Jun 2027 11:38:37.750   13 Jun 2027 11:38:46.638             8.888          4020.719
       388   13 Jun 2027 11:40:20.718   13 Jun 2027 11:40:24.348             3.630          1137.563
       389   13 Jun 2027 11:41:16.772   13 Jun 2027 11:41:20.173             3.401           907.812
       390   13 Jun 2027 11:41:23.383   13 Jun 2027 11:41:25.904             2.521            35.156
       391   13 Jun 2027 11:42:55.902   13 Jun 2027 11:43:01.949             6.047          2058.469
       392   13 Jun 2027 11:43:40.059   13 Jun 2027 11:43:42.197             2.138           501.969
       393   13 Jun 2027 11:44:18.489   13 Jun 2027 11:44:21.340             2.851           760.563
       394   13 Jun 2027 11:44:37.600   13 Jun 2027 11:44:43.671             6.071           311.875
       395   13 Jun 2027 11:45:13.411   13 Jun 2027 11:45:16.971             3.560           929.375
