uniorb/output/strategy_4/Camera/Camera_KinoSat_111808.txt

KinoSat_111808
-------------------------
    Access    *     Start Time (UTCG)     *     Stop Time (UTCG)  *   Duration (s) *   Data (Mbytes)
         1   01 Jun 2027 04:13:57.685   01 Jun 2027 04:14:25.867            28.182         14091.000
         2   01 Jun 2027 04:14:29.882   01 Jun 2027 04:15:56.668            86.786         43393.000
         3   01 Jun 2027 04:16:22.093   01 Jun 2027 04:16:28.153             6.060          3030.000
         4   01 Jun 2027 04:16:31.538   01 Jun 2027 04:16:43.470            11.932          5966.000
         5   01 Jun 2027 04:17:09.703   01 Jun 2027 04:17:24.485            14.782          7391.000
         6   01 Jun 2027 04:19:40.921   01 Jun 2027 04:19:46.389             5.468          2734.000
         7   01 Jun 2027 05:51:58.351   01 Jun 2027 05:53:58.534           120.183         60091.500
         8   01 Jun 2027 05:56:10.226   01 Jun 2027 05:56:16.060             5.834          2917.000
         9   01 Jun 2027 07:15:39.204   01 Jun 2027 07:17:41.779           122.575         61287.500
        10   01 Jun 2027 07:18:02.507   01 Jun 2027 07:18:02.507             0.000             0.000
        11   01 Jun 2027 08:52:03.266   01 Jun 2027 08:53:59.050           115.784         57892.000
        12   01 Jun 2027 08:54:34.924   01 Jun 2027 08:54:49.795            14.871          7435.500
        13   01 Jun 2027 10:24:15.457   01 Jun 2027 10:24:24.761             9.304          4652.000
        14   01 Jun 2027 10:26:10.226   01 Jun 2027 10:26:33.636            23.410         11705.000
        15   01 Jun 2027 10:27:56.304   01 Jun 2027 10:28:02.711             6.407          3203.500
        16   01 Jun 2027 10:30:22.967   01 Jun 2027 10:31:18.119            55.152         27576.000
        17   01 Jun 2027 10:32:53.153   01 Jun 2027 10:33:01.277             8.124          4062.000
        18   01 Jun 2027 10:33:03.666   01 Jun 2027 10:33:56.325            52.659         26329.500
        19   01 Jun 2027 10:34:02.634   01 Jun 2027 10:34:05.562             2.928          1464.000
        20   02 Jun 2027 04:26:03.754   02 Jun 2027 04:27:07.271            63.517         31758.500
        21   02 Jun 2027 04:27:14.544   02 Jun 2027 04:27:35.800            21.256         10628.000
        22   02 Jun 2027 04:28:31.096   02 Jun 2027 04:29:37.168            66.072         33036.000
        23   02 Jun 2027 04:30:44.515   02 Jun 2027 04:30:48.574             4.059          2029.500
        24   02 Jun 2027 06:05:12.148   02 Jun 2027 06:08:45.309           213.161        106580.500
        25   02 Jun 2027 07:27:44.666   02 Jun 2027 07:29:02.732            78.066         39033.000
        26   02 Jun 2027 09:04:13.832   02 Jun 2027 09:05:11.241            57.409         28704.500
        27   02 Jun 2027 09:06:49.429   02 Jun 2027 09:07:42.808            53.379         26689.500
        28   02 Jun 2027 10:39:21.325   02 Jun 2027 10:41:51.803           150.478         74927.250
        29   02 Jun 2027 10:42:31.922   02 Jun 2027 10:42:35.319             3.397           800.063
        30   02 Jun 2027 10:43:32.312   02 Jun 2027 10:43:39.982             7.670          1523.469
        31   02 Jun 2027 10:44:40.094   02 Jun 2027 10:44:44.749             4.655           900.125
        32   02 Jun 2027 10:45:25.169   02 Jun 2027 10:45:26.848             1.679           691.844
        33   02 Jun 2027 10:45:45.647   02 Jun 2027 10:45:48.698             3.051           581.187
        34   02 Jun 2027 10:46:02.553   02 Jun 2027 10:46:04.467             1.914           129.469
        35   03 Jun 2027 03:00:28.722   03 Jun 2027 03:01:02.149            33.427         16713.500
        36   03 Jun 2027 03:01:14.419   03 Jun 2027 03:01:20.142             5.723          2861.500
        37   03 Jun 2027 03:03:49.916   03 Jun 2027 03:03:49.916             0.000             0.000
        38   03 Jun 2027 03:04:23.617   03 Jun 2027 03:04:27.743             4.126          2063.000
        39   03 Jun 2027 03:05:07.086   03 Jun 2027 03:05:30.844            23.758         11879.000
        40   03 Jun 2027 03:06:18.171   03 Jun 2027 03:06:23.990             5.819          2909.500
        41   03 Jun 2027 04:38:07.970   03 Jun 2027 04:38:49.352            41.382         20691.000
        42   03 Jun 2027 04:39:11.908   03 Jun 2027 04:41:26.219           134.311         67155.500
        43   03 Jun 2027 04:42:14.227   03 Jun 2027 04:42:52.889            38.662         19331.000
        44   03 Jun 2027 04:44:10.434   03 Jun 2027 04:44:11.876             1.442           721.000
        45   03 Jun 2027 06:16:21.139   03 Jun 2027 06:16:57.654            36.515         18257.500
        46   03 Jun 2027 06:17:15.558   03 Jun 2027 06:17:30.192            14.634          6629.063
        47   03 Jun 2027 07:39:48.307   03 Jun 2027 07:40:01.740            13.433          4118.000
        48   03 Jun 2027 07:40:29.149   03 Jun 2027 07:40:32.542             3.393           502.281
        49   03 Jun 2027 07:41:09.423   03 Jun 2027 07:41:11.211             1.788           763.937
        50   03 Jun 2027 07:42:25.055   03 Jun 2027 07:42:30.247             5.192          2207.375
        51   03 Jun 2027 09:16:29.196   03 Jun 2027 09:16:42.946            13.750          5369.187
        52   03 Jun 2027 09:17:55.689   03 Jun 2027 09:18:00.913             5.224           592.812
        53   03 Jun 2027 09:18:38.953   03 Jun 2027 09:18:48.400             9.447           822.281
        54   03 Jun 2027 10:51:28.690   03 Jun 2027 10:51:37.156             8.466          3329.344
        55   03 Jun 2027 10:53:23.784   03 Jun 2027 10:53:32.073             8.289          3192.375
        56   03 Jun 2027 10:57:49.852   03 Jun 2027 10:58:03.777            13.925          6632.781
        57   04 Jun 2027 03:11:55.069   04 Jun 2027 03:12:11.291            16.222          8111.000
        58   04 Jun 2027 03:12:12.355   04 Jun 2027 03:13:17.447            65.092         32546.000
        59   04 Jun 2027 03:13:22.475   04 Jun 2027 03:13:44.310            21.835         10917.500
        60   04 Jun 2027 03:13:47.146   04 Jun 2027 03:13:50.337             3.191          1595.500
        61   04 Jun 2027 03:15:11.683   04 Jun 2027 03:15:30.161            18.478          9239.000
        62   04 Jun 2027 03:16:15.646   04 Jun 2027 03:16:31.619            15.973          7986.500
        63   04 Jun 2027 03:18:21.020   04 Jun 2027 03:18:40.717            19.697          9848.500
        64   04 Jun 2027 03:18:42.333   04 Jun 2027 03:18:56.099            13.766          6883.000
        65   04 Jun 2027 04:51:12.658   04 Jun 2027 04:53:19.039           126.381         63168.125
        66   04 Jun 2027 04:55:26.307   04 Jun 2027 04:55:33.604             7.297          3515.750
        67   04 Jun 2027 04:57:52.646   04 Jun 2027 04:58:03.480            10.834          4182.688
        68   04 Jun 2027 06:17:26.662   04 Jun 2027 06:17:39.503            12.841          5744.688
        69   04 Jun 2027 06:28:16.998   04 Jun 2027 06:28:21.196             4.198          2073.000
        70   04 Jun 2027 07:52:15.260   04 Jun 2027 07:52:30.348            15.088          6556.375
        71   04 Jun 2027 07:52:47.483   04 Jun 2027 07:52:48.371             0.888           192.156
        72   04 Jun 2027 07:54:19.382   04 Jun 2027 07:54:24.442             5.060          2357.281
        73   04 Jun 2027 07:54:38.888   04 Jun 2027 07:54:42.823             3.935           426.125
        74   04 Jun 2027 09:28:01.423   04 Jun 2027 09:28:11.653            10.230          3488.438
        75   04 Jun 2027 09:28:20.362   04 Jun 2027 09:28:22.914             2.552           129.531
        76   04 Jun 2027 09:29:36.316   04 Jun 2027 09:29:42.697             6.381          1811.219
        77   04 Jun 2027 09:30:35.947   04 Jun 2027 09:30:40.467             4.520            25.406
        78   04 Jun 2027 09:31:31.642   04 Jun 2027 09:31:35.197             3.555          1599.219
        79   04 Jun 2027 11:02:54.097   04 Jun 2027 11:03:04.963            10.866          3549.281
        80   04 Jun 2027 11:05:22.129   04 Jun 2027 11:05:22.129             0.000             0.000
        81   04 Jun 2027 11:05:33.029   04 Jun 2027 11:05:42.943             9.914          4010.094
        82   04 Jun 2027 11:09:39.851   04 Jun 2027 11:09:54.072            14.221          6516.875
        83   05 Jun 2027 03:24:35.416   05 Jun 2027 03:27:11.212           155.796         77898.000
        84   05 Jun 2027 03:28:14.095   05 Jun 2027 03:28:25.221            11.126          5563.000
        85   05 Jun 2027 03:29:10.935   05 Jun 2027 03:29:11.819             0.884           442.000
        86   05 Jun 2027 03:29:34.320   05 Jun 2027 03:29:35.842             1.522           761.000
        87   05 Jun 2027 03:30:41.981   05 Jun 2027 03:30:53.059            11.078          5539.000
        88   05 Jun 2027 05:03:34.475   05 Jun 2027 05:05:36.335           121.860         59608.375
        89   05 Jun 2027 05:06:21.502   05 Jun 2027 05:06:24.426             2.924          1175.500
        90   05 Jun 2027 05:06:30.592   05 Jun 2027 05:06:31.884             1.292           178.594
        91   05 Jun 2027 05:07:23.308   05 Jun 2027 05:07:26.905             3.597           738.094
        92   05 Jun 2027 05:09:27.067   05 Jun 2027 05:09:33.643             6.576          3079.313
        93   05 Jun 2027 05:09:43.895   05 Jun 2027 05:09:46.550             2.655           164.000
        94   05 Jun 2027 06:28:41.643   05 Jun 2027 06:28:49.633             7.990          3617.594
        95   05 Jun 2027 06:29:30.810   05 Jun 2027 06:29:35.152             4.342           564.594
        96   05 Jun 2027 06:40:18.120   05 Jun 2027 06:40:24.063             5.943          1974.000
        97   05 Jun 2027 08:02:52.430   05 Jun 2027 08:03:04.258            11.828          5243.781
        98   05 Jun 2027 08:03:22.349   05 Jun 2027 08:03:26.277             3.928           490.656
        99   05 Jun 2027 08:03:48.936   05 Jun 2027 08:03:49.811             0.875           297.656
       100   05 Jun 2027 08:05:03.923   05 Jun 2027 08:05:03.923             0.000             0.000
       101   05 Jun 2027 08:06:12.248   05 Jun 2027 08:06:22.654            10.406          4386.219
       102   05 Jun 2027 08:07:29.147   05 Jun 2027 08:07:34.785             5.638          2008.500
       103   05 Jun 2027 09:37:56.298   05 Jun 2027 09:38:06.108             9.810          3599.219
       104   05 Jun 2027 09:38:46.980   05 Jun 2027 09:38:56.317             9.337           739.031
       105   05 Jun 2027 09:40:07.747   05 Jun 2027 09:40:07.747             0.000             0.000
       106   05 Jun 2027 09:41:17.015   05 Jun 2027 09:41:22.835             5.820          2910.000
       107   05 Jun 2027 09:42:41.583   05 Jun 2027 09:42:43.666             2.083          1041.500
       108   05 Jun 2027 11:14:50.904   05 Jun 2027 11:14:59.808             8.904          4452.000
       109   05 Jun 2027 11:15:53.728   05 Jun 2027 11:16:07.582            13.854          6732.438
       110   05 Jun 2027 11:21:26.131   05 Jun 2027 11:21:41.811            15.680          6675.500
       111   05 Jun 2027 11:21:54.025   05 Jun 2027 11:21:55.145             1.120           141.500
       112   06 Jun 2027 03:36:51.507   06 Jun 2027 03:38:39.238           107.731         53865.500
       113   06 Jun 2027 03:41:14.702   06 Jun 2027 03:42:24.905            70.203         35101.500
       114   06 Jun 2027 05:15:51.833   06 Jun 2027 05:17:55.663           123.830         61915.000
       115   06 Jun 2027 05:18:02.177   06 Jun 2027 05:18:05.875             3.698          1309.281
       116   06 Jun 2027 05:18:15.330   06 Jun 2027 05:18:17.584             2.254           242.219
       117   06 Jun 2027 05:19:10.719   06 Jun 2027 05:19:14.307             3.588          1511.031
       118   06 Jun 2027 05:20:15.143   06 Jun 2027 05:20:21.060             5.917          1702.750
       119   06 Jun 2027 05:20:34.946   06 Jun 2027 05:20:36.059             1.113           240.469
       120   06 Jun 2027 05:21:03.173   06 Jun 2027 05:21:05.552             2.379           538.938
       121   06 Jun 2027 05:21:31.425   06 Jun 2027 05:21:32.601             1.176           343.219
       122   06 Jun 2027 06:40:02.069   06 Jun 2027 06:40:13.580            11.511          5589.219
       123   06 Jun 2027 06:40:47.570   06 Jun 2027 06:40:49.125             1.555           497.906
       124   06 Jun 2027 06:41:07.759   06 Jun 2027 06:41:09.260             1.501           513.531
       125   06 Jun 2027 06:41:55.118   06 Jun 2027 06:41:58.455             3.337          1270.188
       126   06 Jun 2027 06:52:15.487   06 Jun 2027 06:52:23.830             8.343          1784.406
       127   06 Jun 2027 08:14:27.619   06 Jun 2027 08:14:40.671            13.052          6054.094
       128   06 Jun 2027 08:15:11.444   06 Jun 2027 08:15:15.090             3.646           961.656
       129   06 Jun 2027 08:16:25.536   06 Jun 2027 08:16:29.903             4.367          1829.094
       130   06 Jun 2027 08:17:22.342   06 Jun 2027 08:17:28.388             6.046           955.156
       131   06 Jun 2027 08:19:05.871   06 Jun 2027 08:19:05.871             0.000             0.000
       132   06 Jun 2027 09:49:21.001   06 Jun 2027 09:49:31.141            10.140          4224.344
       133   06 Jun 2027 09:50:56.022   06 Jun 2027 09:51:00.365             4.343           525.625
       134   06 Jun 2027 09:52:34.491   06 Jun 2027 09:52:41.946             7.455          1727.312
       135   06 Jun 2027 09:53:16.342   06 Jun 2027 09:53:17.636             1.294           387.781
       136   06 Jun 2027 09:55:34.808   06 Jun 2027 09:55:39.036             4.228          1707.563
       137   06 Jun 2027 09:56:02.861   06 Jun 2027 09:56:05.609             2.748           342.531
       138   06 Jun 2027 09:56:25.327   06 Jun 2027 09:56:25.327             0.000             0.000
       139   06 Jun 2027 09:57:27.442   06 Jun 2027 09:57:31.879             4.437          1944.188
       140   06 Jun 2027 11:28:42.436   06 Jun 2027 11:28:58.130            15.694          7700.156
       141   06 Jun 2027 11:33:06.692   06 Jun 2027 11:33:22.238            15.546          6489.937
       142   06 Jun 2027 11:33:46.247   06 Jun 2027 11:33:47.753             1.506           750.281
       143   07 Jun 2027 03:49:10.758   07 Jun 2027 03:49:23.665            12.907          6453.500
       144   07 Jun 2027 03:49:38.188   07 Jun 2027 03:52:50.289           192.101         96050.500
       145   07 Jun 2027 05:27:58.635   07 Jun 2027 05:29:52.430           113.795         56852.500
       146   07 Jun 2027 05:30:26.208   07 Jun 2027 05:30:28.282             2.074          1006.125
       147   07 Jun 2027 05:32:13.171   07 Jun 2027 05:32:18.461             5.290          1688.625
       148   07 Jun 2027 05:33:29.397   07 Jun 2027 05:33:33.175             3.778          1859.938
       149   07 Jun 2027 06:52:07.730   07 Jun 2027 06:52:20.527            12.797          5683.563
       150   07 Jun 2027 06:52:58.491   07 Jun 2027 06:53:02.263             3.772           852.375
       151   07 Jun 2027 08:25:57.763   07 Jun 2027 08:26:20.045            22.282          8007.375
       152   07 Jun 2027 08:26:49.284   07 Jun 2027 08:26:50.687             1.403           154.500
       153   07 Jun 2027 08:27:59.077   07 Jun 2027 08:28:02.436             3.359          1438.969
       154   07 Jun 2027 08:28:53.491   07 Jun 2027 08:28:57.158             3.667          1208.187
       155   07 Jun 2027 08:29:47.989   07 Jun 2027 08:29:51.218             3.229          1434.125
       156   07 Jun 2027 08:31:06.786   07 Jun 2027 08:31:12.061             5.275          1773.469
       157   07 Jun 2027 10:00:51.518   07 Jun 2027 10:00:53.642             2.124          1062.000
       158   07 Jun 2027 10:01:47.177   07 Jun 2027 10:01:54.912             7.735          2961.813
       159   07 Jun 2027 10:03:11.276   07 Jun 2027 10:03:14.040             2.764           660.719
       160   07 Jun 2027 10:03:51.438   07 Jun 2027 10:03:53.278             1.840           773.125
       161   07 Jun 2027 10:04:35.459   07 Jun 2027 10:04:39.066             3.607           140.531
       162   07 Jun 2027 10:07:58.047   07 Jun 2027 10:08:04.443             6.396          2365.906
       163   07 Jun 2027 10:08:14.466   07 Jun 2027 10:08:15.546             1.080           230.406
       164   07 Jun 2027 10:09:24.679   07 Jun 2027 10:09:28.193             3.514          1662.750
       165   07 Jun 2027 10:09:48.793   07 Jun 2027 10:09:49.710             0.917           106.031
       166   07 Jun 2027 10:10:06.300   07 Jun 2027 10:10:15.944             9.644           485.406
       167   07 Jun 2027 11:38:54.151   07 Jun 2027 11:39:07.085            12.934          5573.750
       168   07 Jun 2027 11:43:35.021   07 Jun 2027 11:43:53.085            18.064          8012.281
       169   07 Jun 2027 11:45:13.316   07 Jun 2027 11:45:17.991             4.675          2000.750
       170   07 Jun 2027 11:45:50.196   07 Jun 2027 11:45:54.678             4.482           997.000
       171   08 Jun 2027 04:01:48.637   08 Jun 2027 04:01:55.109             6.472          3236.000
       172   08 Jun 2027 04:02:10.070   08 Jun 2027 04:03:10.743            60.673         30336.500
       173   08 Jun 2027 04:03:15.642   08 Jun 2027 04:05:16.897           121.255         60627.500
       174   08 Jun 2027 04:06:03.955   08 Jun 2027 04:07:02.951            58.996         29498.000
       175   08 Jun 2027 05:40:35.244   08 Jun 2027 05:41:22.705            47.461         23730.500
       176   08 Jun 2027 05:42:19.240   08 Jun 2027 05:43:01.782            42.542         19803.657
       177   08 Jun 2027 05:44:58.488   08 Jun 2027 05:45:07.369             8.881           409.594
       178   08 Jun 2027 07:04:04.909   08 Jun 2027 07:04:25.950            21.041          7484.125
       179   08 Jun 2027 07:06:19.456   08 Jun 2027 07:06:22.200             2.744          1372.000
       180   08 Jun 2027 08:40:16.499   08 Jun 2027 08:40:31.412            14.913          6808.406
       181   08 Jun 2027 08:40:42.505   08 Jun 2027 08:40:46.028             3.523           150.125
       182   08 Jun 2027 08:41:40.813   08 Jun 2027 08:41:50.325             9.512          1436.531
       183   08 Jun 2027 08:42:44.656   08 Jun 2027 08:42:49.300             4.644           798.656
       184   08 Jun 2027 08:43:22.922   08 Jun 2027 08:43:27.281             4.359          1015.781
       185   08 Jun 2027 10:13:49.882   08 Jun 2027 10:14:00.497            10.615          3338.969
       186   08 Jun 2027 10:15:41.370   08 Jun 2027 10:15:45.438             4.068          1571.062
       187   08 Jun 2027 10:16:23.198   08 Jun 2027 10:16:26.014             2.816           516.156
       188   08 Jun 2027 10:18:41.793   08 Jun 2027 10:18:50.577             8.784          4243.094
       189   08 Jun 2027 10:18:52.858   08 Jun 2027 10:18:54.574             1.716            63.562
       190   08 Jun 2027 10:19:49.069   08 Jun 2027 10:19:51.075             2.006           603.062
       191   08 Jun 2027 10:20:54.436   08 Jun 2027 10:20:58.157             3.721           279.969
       192   08 Jun 2027 10:22:01.100   08 Jun 2027 10:22:05.451             4.351          1879.594
       193   08 Jun 2027 10:22:23.835   08 Jun 2027 10:22:24.503             0.668           334.000
       194   08 Jun 2027 11:51:16.568   08 Jun 2027 11:51:30.807            14.239          6985.312
       195   08 Jun 2027 11:53:26.242   08 Jun 2027 11:53:29.985             3.743          1540.656
       196   08 Jun 2027 11:55:38.472   08 Jun 2027 11:55:46.556             8.084          4015.219
       197   08 Jun 2027 11:56:54.665   08 Jun 2027 11:57:02.845             8.180          1173.031
       198   08 Jun 2027 11:57:12.820   08 Jun 2027 11:57:15.255             2.435           114.375
       199   08 Jun 2027 11:57:31.731   08 Jun 2027 11:57:34.289             2.558           514.875
       200   08 Jun 2027 11:58:01.917   08 Jun 2027 11:58:05.411             3.494           859.125
       201   09 Jun 2027 04:14:14.302   09 Jun 2027 04:14:41.983            27.681         13840.500
       202   09 Jun 2027 04:14:45.904   09 Jun 2027 04:16:11.102            85.198         42599.000
       203   09 Jun 2027 04:17:43.475   09 Jun 2027 04:17:44.426             0.951           475.500
       204   09 Jun 2027 04:18:29.610   09 Jun 2027 04:19:24.462            54.852         27426.000
       205   09 Jun 2027 04:19:38.002   09 Jun 2027 04:19:50.780            12.778          6389.000
       206   09 Jun 2027 05:52:15.876   09 Jun 2027 05:52:48.285            32.409         16204.500
       207   09 Jun 2027 05:53:09.246   09 Jun 2027 05:53:44.318            35.072         17536.000
       208   09 Jun 2027 05:54:29.596   09 Jun 2027 05:54:34.492             4.896          2448.000
       209   09 Jun 2027 05:54:59.171   09 Jun 2027 05:56:16.552            77.381         38456.187
       210   09 Jun 2027 05:56:56.074   09 Jun 2027 05:56:59.660             3.586           246.531
       211   09 Jun 2027 07:15:55.726   09 Jun 2027 07:16:07.677            11.951          5718.594
       212   09 Jun 2027 07:17:48.518   09 Jun 2027 07:17:54.892             6.374          2808.000
       213   09 Jun 2027 08:52:23.495   09 Jun 2027 08:52:45.759            22.264          8551.125
       214   09 Jun 2027 08:53:04.460   09 Jun 2027 08:53:05.040             0.580           270.906
       215   09 Jun 2027 08:53:40.974   09 Jun 2027 08:53:43.887             2.913          1019.969
       216   09 Jun 2027 08:54:07.827   09 Jun 2027 08:54:09.761             1.934           420.656
       217   09 Jun 2027 08:54:52.814   09 Jun 2027 08:54:58.568             5.754          1180.094
       218   09 Jun 2027 10:24:32.693   09 Jun 2027 10:24:41.500             8.807          4403.500
       219   09 Jun 2027 10:26:29.036   09 Jun 2027 10:26:34.752             5.716           889.906
       220   09 Jun 2027 10:28:16.293   09 Jun 2027 10:28:25.139             8.846          2648.031
       221   09 Jun 2027 10:29:36.313   09 Jun 2027 10:29:41.719             5.406          2224.187
       222   09 Jun 2027 10:31:33.845   09 Jun 2027 10:31:37.269             3.424          1667.281
       223   09 Jun 2027 10:31:58.126   09 Jun 2027 10:31:59.228             1.102           507.375
       224   09 Jun 2027 10:32:37.779   09 Jun 2027 10:32:38.628             0.849           413.687
       225   09 Jun 2027 10:33:38.061   09 Jun 2027 10:33:40.620             2.559           782.531
       226   09 Jun 2027 10:33:51.527   09 Jun 2027 10:33:53.467             1.940           216.375
       227   09 Jun 2027 10:34:09.450   09 Jun 2027 10:34:09.935             0.485           188.219
       228   09 Jun 2027 10:34:19.666   09 Jun 2027 10:34:20.417             0.751           304.094
       229   10 Jun 2027 04:26:21.110   10 Jun 2027 04:27:23.445            62.335         31167.500
       230   10 Jun 2027 04:27:30.480   10 Jun 2027 04:29:40.933           130.453         65226.500
       231   10 Jun 2027 04:31:10.048   10 Jun 2027 04:31:10.369             0.321           160.500
       232   10 Jun 2027 06:05:29.332   10 Jun 2027 06:07:51.693           142.361         69701.094
       233   10 Jun 2027 07:28:03.354   10 Jun 2027 07:28:13.777            10.423          5058.844
       234   10 Jun 2027 07:28:59.658   10 Jun 2027 07:29:01.623             1.965           906.812
       235   10 Jun 2027 07:29:33.337   10 Jun 2027 07:29:35.563             2.226           991.063
       236   10 Jun 2027 07:30:40.686   10 Jun 2027 07:30:44.229             3.543          1771.500
       237   10 Jun 2027 07:30:53.629   10 Jun 2027 07:30:55.909             2.280           328.750
       238   10 Jun 2027 09:04:52.214   10 Jun 2027 09:05:13.195            20.981          6215.125
       239   10 Jun 2027 09:07:07.031   10 Jun 2027 09:07:14.823             7.792          2999.031
       240   10 Jun 2027 10:40:10.122   10 Jun 2027 10:40:22.439            12.317          5125.969
       241   10 Jun 2027 10:42:38.265   10 Jun 2027 10:42:48.488            10.223          3475.344
       242   10 Jun 2027 10:45:45.002   10 Jun 2027 10:45:54.059             9.057          4528.500
       243   10 Jun 2027 10:46:14.111   10 Jun 2027 10:46:16.742             2.631           815.406
       244   10 Jun 2027 10:46:21.856   10 Jun 2027 10:46:23.588             1.732           108.812
       245   11 Jun 2027 03:00:09.263   11 Jun 2027 03:00:20.157            10.894          5447.000
       246   11 Jun 2027 03:00:23.838   11 Jun 2027 03:00:29.545             5.707          2853.500
       247   11 Jun 2027 03:00:57.973   11 Jun 2027 03:01:16.979            19.006          9503.000
       248   11 Jun 2027 03:01:29.810   11 Jun 2027 03:01:30.104             0.294           147.000
       249   11 Jun 2027 03:03:57.191   11 Jun 2027 03:04:04.944             7.753          3876.500
       250   11 Jun 2027 03:04:42.660   11 Jun 2027 03:04:44.627             1.967           983.500
       251   11 Jun 2027 03:05:20.923   11 Jun 2027 03:05:41.606            20.683         10341.500
       252   11 Jun 2027 03:06:00.949   11 Jun 2027 03:06:00.949             0.000             0.000
       253   11 Jun 2027 03:06:05.779   11 Jun 2027 03:06:21.260            15.481          7740.500
       254   11 Jun 2027 04:38:26.097   11 Jun 2027 04:39:07.237            41.140         20570.000
       255   11 Jun 2027 04:39:29.164   11 Jun 2027 04:42:00.696           151.532         75766.000
       256   11 Jun 2027 04:42:27.333   11 Jun 2027 04:42:59.114            31.781         15890.500
       257   11 Jun 2027 04:44:01.618   11 Jun 2027 04:44:17.214            15.596          5599.595
       258   11 Jun 2027 06:16:38.353   11 Jun 2027 06:17:14.790            36.437         18218.500
       259   11 Jun 2027 06:17:43.404   11 Jun 2027 06:17:48.679             5.275           876.375
       260   11 Jun 2027 07:40:05.378   11 Jun 2027 07:40:17.450            12.072          4198.000
       261   11 Jun 2027 07:40:45.490   11 Jun 2027 07:40:47.410             1.920           525.813
       262   11 Jun 2027 07:41:31.224   11 Jun 2027 07:41:38.151             6.927           902.469
       263   11 Jun 2027 07:42:40.515   11 Jun 2027 07:42:44.739             4.224          1707.719
       264   11 Jun 2027 09:16:33.565   11 Jun 2027 09:16:41.670             8.105          2351.125
       265   11 Jun 2027 09:19:05.934   11 Jun 2027 09:19:19.570            13.636          4380.750
       266   11 Jun 2027 09:19:55.273   11 Jun 2027 09:19:59.181             3.908           501.969
       267   11 Jun 2027 10:51:45.851   11 Jun 2027 10:51:54.107             8.256          3010.531
       268   11 Jun 2027 10:53:12.750   11 Jun 2027 10:53:12.750             0.000             0.000
       269   11 Jun 2027 10:54:34.924   11 Jun 2027 10:54:43.673             8.749          4374.500
       270   11 Jun 2027 10:58:06.546   11 Jun 2027 10:58:21.757            15.211          6879.500
       271   12 Jun 2027 03:12:13.184   12 Jun 2027 03:12:26.588            13.404          6702.000
       272   12 Jun 2027 03:12:27.719   12 Jun 2027 03:13:49.717            81.998         40999.000
       273   12 Jun 2027 03:14:08.786   12 Jun 2027 03:14:12.526             3.740          1870.000
       274   12 Jun 2027 03:14:29.284   12 Jun 2027 03:14:59.408            30.124         15062.000
       275   12 Jun 2027 03:17:25.972   12 Jun 2027 03:17:32.366             6.394          3197.000
       276   12 Jun 2027 03:18:17.087   12 Jun 2027 03:18:17.689             0.602           301.000
       277   12 Jun 2027 04:51:30.619   12 Jun 2027 04:54:19.159           168.540         83491.157
       278   12 Jun 2027 04:55:05.906   12 Jun 2027 04:55:12.492             6.586           767.281
       279   12 Jun 2027 04:55:37.410   12 Jun 2027 04:55:39.442             2.032           778.688
       280   12 Jun 2027 04:55:44.593   12 Jun 2027 04:55:45.608             1.015           160.969
       281   12 Jun 2027 04:58:10.692   12 Jun 2027 04:58:21.481            10.789          4053.687
       282   12 Jun 2027 06:17:40.786   12 Jun 2027 06:17:48.746             7.960          3883.438
       283   12 Jun 2027 06:28:34.126   12 Jun 2027 06:28:38.469             4.343          2005.125
       284   12 Jun 2027 06:30:44.724   12 Jun 2027 06:30:47.188             2.464           963.781
       285   12 Jun 2027 07:52:32.150   12 Jun 2027 07:52:46.035            13.885          3982.562
       286   12 Jun 2027 07:53:31.522   12 Jun 2027 07:53:34.819             3.297           834.062
       287   12 Jun 2027 07:55:21.046   12 Jun 2027 07:55:22.519             1.473           736.500
       288   12 Jun 2027 09:28:16.937   12 Jun 2027 09:28:27.421            10.484          3436.219
       289   12 Jun 2027 09:30:25.866   12 Jun 2027 09:30:35.723             9.857          3551.094
       290   12 Jun 2027 09:30:58.265   12 Jun 2027 09:31:00.474             2.209           138.281
       291   12 Jun 2027 09:31:04.094   12 Jun 2027 09:31:05.041             0.947             3.062
       292   12 Jun 2027 11:03:10.515   12 Jun 2027 11:03:10.515             0.000             0.000
       293   12 Jun 2027 11:05:42.643   12 Jun 2027 11:05:58.563            15.920          7907.281
       294   12 Jun 2027 11:09:56.283   12 Jun 2027 11:10:11.021            14.738          6577.813
       295   12 Jun 2027 11:10:25.150   12 Jun 2027 11:10:28.620             3.470           441.531
       296   13 Jun 2027 03:24:53.359   13 Jun 2027 03:27:25.683           152.324         76162.000
       297   13 Jun 2027 03:28:28.751   13 Jun 2027 03:28:28.751             0.000             0.000
       298   13 Jun 2027 03:29:26.415   13 Jun 2027 03:30:07.426            41.011         20505.500
       299   13 Jun 2027 03:30:54.344   13 Jun 2027 03:30:56.392             2.048          1024.000
       300   13 Jun 2027 05:03:53.579   13 Jun 2027 05:05:42.331           108.752         51259.844
       301   13 Jun 2027 05:06:45.468   13 Jun 2027 05:06:46.915             1.447           240.031
       302   13 Jun 2027 05:07:40.729   13 Jun 2027 05:07:43.125             2.396           767.875
       303   13 Jun 2027 05:09:41.982   13 Jun 2027 05:09:50.333             8.351          3081.000
       304   13 Jun 2027 05:09:59.586   13 Jun 2027 05:10:02.416             2.830            45.094
       305   13 Jun 2027 06:28:55.916   13 Jun 2027 06:29:04.288             8.372          3700.875
       306   13 Jun 2027 06:29:45.146   13 Jun 2027 06:29:47.071             1.925           472.188
       307   13 Jun 2027 06:40:35.390   13 Jun 2027 06:40:41.085             5.695          2576.188
       308   13 Jun 2027 08:03:07.489   13 Jun 2027 08:03:18.798            11.309          5639.875
       309   13 Jun 2027 08:03:27.784   13 Jun 2027 08:03:28.431             0.647            73.469
       310   13 Jun 2027 08:05:21.042   13 Jun 2027 08:05:30.052             9.010          3124.094
       311   13 Jun 2027 08:06:41.099   13 Jun 2027 08:06:46.602             5.503          2087.125
       312   13 Jun 2027 08:07:46.130   13 Jun 2027 08:07:49.807             3.677          1442.531
       313   13 Jun 2027 09:38:10.397   13 Jun 2027 09:38:15.264             4.867          2433.500
       314   13 Jun 2027 09:39:01.098   13 Jun 2027 09:39:05.069             3.971          1985.500
       315   13 Jun 2027 09:40:01.412   13 Jun 2027 09:40:05.006             3.594          1662.094
       316   13 Jun 2027 09:42:58.543   13 Jun 2027 09:43:08.302             9.759          4839.250
       317   13 Jun 2027 09:43:43.823   13 Jun 2027 09:43:45.977             2.154           680.062
       318   13 Jun 2027 09:44:16.450   13 Jun 2027 09:44:16.450             0.000             0.000
       319   13 Jun 2027 09:44:27.710   13 Jun 2027 09:44:30.192             2.482           744.094
       320   13 Jun 2027 11:15:14.528   13 Jun 2027 11:15:25.438            10.910          3539.406
       321   13 Jun 2027 11:16:21.704   13 Jun 2027 11:16:26.124             4.420          1178.125
       322   13 Jun 2027 11:18:18.054   13 Jun 2027 11:18:23.679             5.625          1884.781
       323   13 Jun 2027 11:19:59.392   13 Jun 2027 11:20:07.435             8.043          2991.031
       324   13 Jun 2027 11:20:35.258   13 Jun 2027 11:20:37.028             1.770           511.219
       325   13 Jun 2027 11:21:15.740   13 Jun 2027 11:21:16.674             0.934            77.500
       326   13 Jun 2027 11:21:47.141   13 Jun 2027 11:21:59.017            11.876           692.000
       327   13 Jun 2027 11:22:10.935   13 Jun 2027 11:22:12.939             2.004           212.219
