uniorb/output/strategy_4/Camera/Camera_KinoSat_111504.txt

KinoSat_111504
-------------------------
    Access    *     Start Time (UTCG)     *     Stop Time (UTCG)  *   Duration (s) *   Data (Mbytes)
         1   01 Jun 2027 03:27:50.362   01 Jun 2027 03:28:04.085            13.723          6861.500
         2   01 Jun 2027 03:28:52.698   01 Jun 2027 03:30:47.189           114.491         57245.500
         3   01 Jun 2027 03:31:00.066   01 Jun 2027 03:31:07.748             7.682          3841.000
         4   01 Jun 2027 03:33:57.976   01 Jun 2027 03:33:58.932             0.956           478.000
         5   01 Jun 2027 03:35:59.479   01 Jun 2027 03:36:40.428            40.949         20474.500
         6   01 Jun 2027 05:06:01.420   01 Jun 2027 05:06:39.491            38.071         19035.500
         7   01 Jun 2027 05:07:08.816   01 Jun 2027 05:07:39.051            30.235         15117.500
         8   01 Jun 2027 05:08:14.968   01 Jun 2027 05:08:21.116             6.148          3074.000
         9   01 Jun 2027 05:08:52.352   01 Jun 2027 05:09:02.777            10.425          5212.500
        10   01 Jun 2027 06:30:07.416   01 Jun 2027 06:30:59.431            52.015         26007.500
        11   01 Jun 2027 06:31:31.589   01 Jun 2027 06:31:48.512            16.923          8461.500
        12   01 Jun 2027 06:31:55.895   01 Jun 2027 06:32:07.888            11.993          5996.500
        13   01 Jun 2027 08:05:52.859   01 Jun 2027 08:07:55.694           122.835         61417.500
        14   01 Jun 2027 08:07:58.234   01 Jun 2027 08:08:16.587            18.353          9176.500
        15   01 Jun 2027 09:40:50.165   01 Jun 2027 09:41:42.095            51.930         25965.000
        16   01 Jun 2027 09:42:03.022   01 Jun 2027 09:42:53.739            50.717         25358.500
        17   01 Jun 2027 09:43:15.036   01 Jun 2027 09:43:35.876            20.840         10420.000
        18   01 Jun 2027 09:46:20.433   01 Jun 2027 09:46:20.433             0.000             0.000
        19   01 Jun 2027 09:47:27.708   01 Jun 2027 09:47:34.275             6.567          3283.500
        20   01 Jun 2027 09:47:48.797   01 Jun 2027 09:47:51.956             3.159          1579.500
        21   01 Jun 2027 11:17:02.808   01 Jun 2027 11:19:52.976           170.168         85084.000
        22   02 Jun 2027 03:40:55.750   02 Jun 2027 03:43:24.374           148.624         74312.000
        23   02 Jun 2027 03:44:49.663   02 Jun 2027 03:45:09.975            20.312         10156.000
        24   02 Jun 2027 03:47:54.595   02 Jun 2027 03:48:34.605            40.010         20005.000
        25   02 Jun 2027 05:06:53.591   02 Jun 2027 05:07:34.416            40.825         20412.500
        26   02 Jun 2027 05:17:57.625   02 Jun 2027 05:19:39.776           102.151         51075.500
        27   02 Jun 2027 05:19:56.681   02 Jun 2027 05:21:16.734            80.053         40026.500
        28   02 Jun 2027 06:40:56.076   02 Jun 2027 06:41:46.344            50.268         25134.000
        29   02 Jun 2027 08:16:28.360   02 Jun 2027 08:16:38.897            10.537          5268.500
        30   02 Jun 2027 08:17:38.838   02 Jun 2027 08:20:32.383           173.545         86772.500
        31   02 Jun 2027 08:20:49.190   02 Jun 2027 08:21:16.985            27.795         13897.500
        32   02 Jun 2027 08:21:46.891   02 Jun 2027 08:21:51.539             4.648          2324.000
        33   02 Jun 2027 09:52:23.671   02 Jun 2027 09:52:56.420            32.749         16374.500
        34   02 Jun 2027 09:53:02.738   02 Jun 2027 09:53:03.638             0.900           345.062
        35   02 Jun 2027 09:53:08.882   02 Jun 2027 09:53:09.532             0.650           117.531
        36   02 Jun 2027 09:54:02.608   02 Jun 2027 09:54:06.726             4.118           972.344
        37   02 Jun 2027 09:54:36.676   02 Jun 2027 09:54:36.864             0.188            94.000
        38   02 Jun 2027 09:55:25.209   02 Jun 2027 09:55:30.653             5.444          2292.375
        39   02 Jun 2027 09:56:15.353   02 Jun 2027 09:56:22.217             6.864           716.656
        40   02 Jun 2027 09:57:08.893   02 Jun 2027 09:57:13.792             4.899           964.719
        41   02 Jun 2027 09:57:47.613   02 Jun 2027 09:57:50.417             2.804           515.562
        42   02 Jun 2027 09:57:54.859   02 Jun 2027 09:57:57.125             2.266           138.812
        43   02 Jun 2027 09:58:31.857   02 Jun 2027 09:58:35.587             3.730          1085.375
        44   02 Jun 2027 09:59:41.172   02 Jun 2027 09:59:44.582             3.410          1155.125
        45   02 Jun 2027 11:29:25.061   02 Jun 2027 11:29:43.262            18.201          7181.219
        46   02 Jun 2027 11:30:54.146   02 Jun 2027 11:30:55.189             1.043            70.250
        47   02 Jun 2027 11:32:10.495   02 Jun 2027 11:32:15.263             4.768          2061.844
        48   02 Jun 2027 11:33:03.416   02 Jun 2027 11:33:08.216             4.800          1287.844
        49   02 Jun 2027 11:33:22.549   02 Jun 2027 11:33:24.792             2.243           382.906
        50   02 Jun 2027 11:33:55.558   02 Jun 2027 11:33:58.005             2.447           559.344
        51   02 Jun 2027 11:34:10.669   02 Jun 2027 11:34:14.840             4.171            92.250
        52   02 Jun 2027 11:34:19.795   02 Jun 2027 11:34:31.967            12.172            97.125
        53   03 Jun 2027 03:53:21.974   03 Jun 2027 03:56:24.088           182.114         91057.000
        54   03 Jun 2027 03:56:50.962   03 Jun 2027 03:56:55.948             4.986          2493.000
        55   03 Jun 2027 03:57:09.921   03 Jun 2027 03:57:10.727             0.806           403.000
        56   03 Jun 2027 03:57:30.114   03 Jun 2027 03:57:30.575             0.461           230.500
        57   03 Jun 2027 03:58:20.273   03 Jun 2027 03:58:33.278            13.005          6502.500
        58   03 Jun 2027 03:58:39.310   03 Jun 2027 03:58:57.840            18.530          9265.000
        59   03 Jun 2027 03:59:50.493   03 Jun 2027 03:59:50.685             0.192            96.000
        60   03 Jun 2027 04:00:09.859   03 Jun 2027 04:00:32.746            22.887         11443.500
        61   03 Jun 2027 05:18:17.331   03 Jun 2027 05:18:23.522             6.191          3095.500
        62   03 Jun 2027 05:30:00.218   03 Jun 2027 05:31:18.185            77.967         38983.500
        63   03 Jun 2027 06:52:12.708   03 Jun 2027 06:52:36.651            23.943         11580.593
        64   03 Jun 2027 06:54:14.403   03 Jun 2027 06:54:21.523             7.120          1499.187
        65   03 Jun 2027 06:54:55.687   03 Jun 2027 06:54:58.862             3.175           859.313
        66   03 Jun 2027 06:55:34.802   03 Jun 2027 06:55:40.388             5.586           988.750
        67   03 Jun 2027 06:56:52.614   03 Jun 2027 06:56:52.614             0.000             0.000
        68   03 Jun 2027 08:27:20.077   03 Jun 2027 08:27:26.387             6.310          3076.188
        69   03 Jun 2027 08:28:21.674   03 Jun 2027 08:28:21.674             0.000             0.000
        70   03 Jun 2027 08:28:53.589   03 Jun 2027 08:28:59.853             6.264          2004.281
        71   03 Jun 2027 08:29:58.271   03 Jun 2027 08:30:07.100             8.829           560.344
        72   03 Jun 2027 08:30:18.024   03 Jun 2027 08:30:18.638             0.614           129.563
        73   03 Jun 2027 08:31:00.179   03 Jun 2027 08:31:04.714             4.535           667.281
        74   03 Jun 2027 08:32:28.732   03 Jun 2027 08:32:32.466             3.734          1572.500
        75   03 Jun 2027 08:33:40.664   03 Jun 2027 08:33:45.471             4.807          1834.937
        76   03 Jun 2027 10:04:33.425   03 Jun 2027 10:04:42.866             9.441          3547.156
        77   03 Jun 2027 10:06:55.428   03 Jun 2027 10:06:57.337             1.909           512.531
        78   03 Jun 2027 10:08:01.750   03 Jun 2027 10:08:04.841             3.091           369.656
        79   03 Jun 2027 10:08:59.110   03 Jun 2027 10:09:05.116             6.006          1665.313
        80   03 Jun 2027 10:09:36.969   03 Jun 2027 10:09:40.431             3.462           976.031
        81   03 Jun 2027 10:09:56.007   03 Jun 2027 10:09:58.938             2.931           427.219
        82   03 Jun 2027 10:10:29.786   03 Jun 2027 10:10:31.852             2.066           671.906
        83   03 Jun 2027 10:11:17.351   03 Jun 2027 10:11:20.052             2.701           287.906
        84   03 Jun 2027 10:11:58.290   03 Jun 2027 10:11:58.852             0.562           281.000
        85   03 Jun 2027 11:41:29.662   03 Jun 2027 11:41:41.444            11.782          5701.156
        86   03 Jun 2027 11:44:10.176   03 Jun 2027 11:44:16.771             6.595          2194.969
        87   03 Jun 2027 11:45:05.436   03 Jun 2027 11:45:09.329             3.893          1520.781
        88   03 Jun 2027 11:45:41.626   03 Jun 2027 11:45:45.932             4.306          1009.281
        89   03 Jun 2027 11:46:23.738   03 Jun 2027 11:46:26.543             2.805          1077.031
        90   04 Jun 2027 04:05:35.531   04 Jun 2027 04:08:44.335           188.804         94402.000
        91   04 Jun 2027 04:09:19.891   04 Jun 2027 04:09:32.065            12.174          6087.000
        92   04 Jun 2027 04:12:23.163   04 Jun 2027 04:12:34.984            11.821          5910.500
        93   04 Jun 2027 05:29:45.252   04 Jun 2027 05:30:26.548            41.296         20648.000
        94   04 Jun 2027 05:41:57.473   04 Jun 2027 05:42:34.259            36.786         18393.000
        95   04 Jun 2027 07:03:58.343   04 Jun 2027 07:04:45.124            46.781         21523.656
        96   04 Jun 2027 07:05:13.154   04 Jun 2027 07:05:14.179             1.025           131.063
        97   04 Jun 2027 07:06:01.547   04 Jun 2027 07:06:03.148             1.601           138.969
        98   04 Jun 2027 07:06:29.968   04 Jun 2027 07:06:33.966             3.998           768.813
        99   04 Jun 2027 07:07:01.350   04 Jun 2027 07:07:04.386             3.036           833.937
       100   04 Jun 2027 07:07:24.467   04 Jun 2027 07:07:27.654             3.187           606.281
       101   04 Jun 2027 07:08:53.534   04 Jun 2027 07:08:58.952             5.418          2316.656
       102   04 Jun 2027 08:38:49.534   04 Jun 2027 08:39:01.650            12.116          2176.844
       103   04 Jun 2027 08:39:35.322   04 Jun 2027 08:39:37.267             1.945           140.344
       104   04 Jun 2027 08:40:46.219   04 Jun 2027 08:40:50.539             4.320           388.969
       105   04 Jun 2027 08:41:18.740   04 Jun 2027 08:41:24.611             5.871           850.750
       106   04 Jun 2027 08:42:11.064   04 Jun 2027 08:42:16.485             5.421          1221.844
       107   04 Jun 2027 08:43:14.140   04 Jun 2027 08:43:19.827             5.687          1021.344
       108   04 Jun 2027 08:45:20.385   04 Jun 2027 08:45:25.394             5.009          1586.031
       109   04 Jun 2027 08:46:33.988   04 Jun 2027 08:46:40.913             6.925          2137.906
       110   04 Jun 2027 10:16:35.479   04 Jun 2027 10:16:44.049             8.570          3998.094
       111   04 Jun 2027 10:19:39.811   04 Jun 2027 10:19:44.143             4.332          2088.031
       112   04 Jun 2027 10:20:53.259   04 Jun 2027 10:20:54.050             0.791            26.250
       113   04 Jun 2027 10:21:16.127   04 Jun 2027 10:21:16.997             0.870           283.719
       114   04 Jun 2027 10:21:59.905   04 Jun 2027 10:22:00.947             1.042           295.469
       115   04 Jun 2027 10:22:38.739   04 Jun 2027 10:22:42.288             3.549           738.844
       116   04 Jun 2027 10:23:24.873   04 Jun 2027 10:23:29.701             4.828          1205.031
       117   04 Jun 2027 10:23:44.268   04 Jun 2027 10:23:46.880             2.612           348.969
       118   04 Jun 2027 11:53:23.092   04 Jun 2027 11:53:36.278            13.186          6159.875
       119   04 Jun 2027 11:53:46.130   04 Jun 2027 11:53:47.432             1.302           286.406
       120   04 Jun 2027 11:54:58.520   04 Jun 2027 11:55:05.634             7.114          1151.062
       121   04 Jun 2027 11:55:30.407   04 Jun 2027 11:55:33.729             3.322           258.156
       122   04 Jun 2027 11:55:38.385   04 Jun 2027 11:55:40.746             2.361           134.781
       123   04 Jun 2027 11:56:23.699   04 Jun 2027 11:56:28.296             4.597          1342.281
       124   04 Jun 2027 11:57:22.197   04 Jun 2027 11:57:24.468             2.271          1096.437
       125   04 Jun 2027 11:57:25.774   04 Jun 2027 11:57:27.111             1.337            40.813
       126   04 Jun 2027 11:57:45.097   04 Jun 2027 11:57:46.481             1.384           266.125
       127   04 Jun 2027 11:58:16.385   04 Jun 2027 11:58:29.208            12.823           908.562
       128   04 Jun 2027 11:59:25.348   04 Jun 2027 11:59:30.810             5.462           862.781
       129   05 Jun 2027 04:17:45.151   05 Jun 2027 04:19:27.546           102.395         51197.500
       130   05 Jun 2027 04:21:16.527   05 Jun 2027 04:21:17.294             0.767           383.500
       131   05 Jun 2027 04:22:14.695   05 Jun 2027 04:22:50.146            35.451         17725.500
       132   05 Jun 2027 05:41:48.220   05 Jun 2027 05:43:07.958            79.738         39869.000
       133   05 Jun 2027 07:17:45.422   05 Jun 2027 07:19:27.226           101.804         50323.250
       134   05 Jun 2027 07:20:54.135   05 Jun 2027 07:21:00.545             6.410          2126.687
       135   05 Jun 2027 08:51:35.293   05 Jun 2027 08:51:42.230             6.937          2236.625
       136   05 Jun 2027 08:53:56.096   05 Jun 2027 08:54:00.945             4.849          2084.719
       137   05 Jun 2027 08:54:07.050   05 Jun 2027 08:54:07.735             0.685           190.781
       138   05 Jun 2027 08:56:29.294   05 Jun 2027 08:56:37.442             8.148          3294.563
       139   05 Jun 2027 08:57:32.501   05 Jun 2027 08:57:38.798             6.297           445.844
       140   05 Jun 2027 08:58:08.602   05 Jun 2027 08:58:09.829             1.227           613.500
       141   05 Jun 2027 08:59:18.042   05 Jun 2027 08:59:22.944             4.902          2195.156
       142   05 Jun 2027 10:28:38.793   05 Jun 2027 10:29:00.625            21.832          6182.625
       143   05 Jun 2027 10:31:25.985   05 Jun 2027 10:31:29.933             3.948          1695.406
       144   05 Jun 2027 10:33:28.431   05 Jun 2027 10:33:31.240             2.809           792.063
       145   05 Jun 2027 10:34:03.146   05 Jun 2027 10:34:09.146             6.000           878.500
       146   05 Jun 2027 10:35:10.752   05 Jun 2027 10:35:15.071             4.319          1879.688
       147   05 Jun 2027 10:35:31.360   05 Jun 2027 10:35:32.921             1.561           509.031
       148   06 Jun 2027 04:30:18.993   06 Jun 2027 04:31:02.852            43.859         21929.500
       149   06 Jun 2027 04:31:32.858   06 Jun 2027 04:31:56.066            23.208         11604.000
       150   06 Jun 2027 04:33:08.847   06 Jun 2027 04:34:53.147           104.300         52150.000
       151   06 Jun 2027 05:53:42.449   06 Jun 2027 05:54:32.398            49.949         24974.500
       152   06 Jun 2027 07:30:04.093   06 Jun 2027 07:31:35.497            91.404         45137.250
       153   06 Jun 2027 07:32:02.789   06 Jun 2027 07:32:04.773             1.984           852.875
       154   06 Jun 2027 07:33:04.450   06 Jun 2027 07:33:08.453             4.003          1683.906
       155   06 Jun 2027 09:03:33.538   06 Jun 2027 09:03:40.805             7.267          2866.031
       156   06 Jun 2027 09:05:26.530   06 Jun 2027 09:05:29.745             3.215          1214.219
       157   06 Jun 2027 09:06:23.392   06 Jun 2027 09:06:27.146             3.754           682.750
       158   06 Jun 2027 09:06:58.231   06 Jun 2027 09:07:06.400             8.169           616.969
       159   06 Jun 2027 09:08:28.267   06 Jun 2027 09:08:32.453             4.186          2066.500
       160   06 Jun 2027 09:09:28.997   06 Jun 2027 09:09:33.520             4.523          1340.969
       161   06 Jun 2027 09:10:34.391   06 Jun 2027 09:10:36.901             2.510          1092.437
       162   06 Jun 2027 09:10:42.648   06 Jun 2027 09:10:43.312             0.664           179.594
       163   06 Jun 2027 09:12:03.033   06 Jun 2027 09:12:04.642             1.609           804.500
       164   06 Jun 2027 10:41:05.323   06 Jun 2027 10:41:18.321            12.998          5584.594
       165   06 Jun 2027 10:43:22.467   06 Jun 2027 10:43:28.052             5.585          1464.594
       166   06 Jun 2027 10:44:48.418   06 Jun 2027 10:44:52.294             3.876           892.719
       167   06 Jun 2027 10:45:32.891   06 Jun 2027 10:45:34.449             1.558           686.719
       168   06 Jun 2027 10:46:00.672   06 Jun 2027 10:46:02.542             1.870           765.688
       169   06 Jun 2027 10:46:10.464   06 Jun 2027 10:46:11.376             0.912           116.531
       170   06 Jun 2027 10:46:35.073   06 Jun 2027 10:46:37.462             2.389           680.156
       171   06 Jun 2027 10:47:10.416   06 Jun 2027 10:47:12.353             1.937           734.000
       172   06 Jun 2027 10:47:23.865   06 Jun 2027 10:47:27.700             3.835           154.844
       173   07 Jun 2027 03:03:53.951   07 Jun 2027 03:04:00.691             6.740          3370.000
       174   07 Jun 2027 03:04:10.150   07 Jun 2027 03:04:36.219            26.069         13034.500
       175   07 Jun 2027 03:05:14.007   07 Jun 2027 03:05:34.294            20.287         10143.500
       176   07 Jun 2027 03:08:46.826   07 Jun 2027 03:09:07.034            20.208         10104.000
       177   07 Jun 2027 03:09:33.032   07 Jun 2027 03:09:33.840             0.808           404.000
       178   07 Jun 2027 03:09:46.897   07 Jun 2027 03:09:50.792             3.895          1947.500
       179   07 Jun 2027 03:10:02.326   07 Jun 2027 03:10:10.101             7.775          3887.500
       180   07 Jun 2027 04:41:57.551   07 Jun 2027 04:45:25.220           207.669        103834.500
       181   07 Jun 2027 04:45:53.041   07 Jun 2027 04:46:04.448            11.407          5703.500
       182   07 Jun 2027 06:05:33.620   07 Jun 2027 06:06:10.538            36.918         18172.156
       183   07 Jun 2027 07:42:05.977   07 Jun 2027 07:42:18.760            12.783          6231.062
       184   07 Jun 2027 07:42:43.062   07 Jun 2027 07:42:43.889             0.827           329.687
       185   07 Jun 2027 07:43:03.474   07 Jun 2027 07:43:05.165             1.691           587.562
       186   07 Jun 2027 07:43:10.532   07 Jun 2027 07:43:12.250             1.718           156.250
       187   07 Jun 2027 07:43:53.171   07 Jun 2027 07:43:56.433             3.262           570.438
       188   07 Jun 2027 07:44:35.358   07 Jun 2027 07:44:37.998             2.640          1169.219
       189   07 Jun 2027 07:45:07.927   07 Jun 2027 07:45:11.552             3.625           840.375
       190   07 Jun 2027 09:16:35.439   07 Jun 2027 09:16:42.014             6.575          3092.562
       191   07 Jun 2027 09:18:02.503   07 Jun 2027 09:18:04.071             1.568           262.031
       192   07 Jun 2027 09:18:47.872   07 Jun 2027 09:18:57.168             9.296           814.344
       193   07 Jun 2027 09:19:45.377   07 Jun 2027 09:19:47.549             2.172           477.219
       194   07 Jun 2027 09:21:06.027   07 Jun 2027 09:21:10.087             4.060          1238.156
       195   07 Jun 2027 09:22:37.740   07 Jun 2027 09:22:43.428             5.688          2727.406
       196   07 Jun 2027 09:23:31.204   07 Jun 2027 09:23:35.727             4.523           878.094
       197   07 Jun 2027 09:23:58.419   07 Jun 2027 09:23:59.140             0.721           360.500
       198   07 Jun 2027 10:53:12.879   07 Jun 2027 10:53:26.393            13.514          6001.063
       199   07 Jun 2027 10:55:23.404   07 Jun 2027 10:55:24.374             0.970           330.781
       200   07 Jun 2027 10:56:22.971   07 Jun 2027 10:56:30.379             7.408           932.719
       201   07 Jun 2027 10:57:50.372   07 Jun 2027 10:57:57.539             7.167          1847.719
       202   07 Jun 2027 10:58:04.049   07 Jun 2027 10:58:07.003             2.954           119.188
       203   07 Jun 2027 10:58:14.140   07 Jun 2027 10:58:16.073             1.933           223.031
       204   07 Jun 2027 10:59:14.110   07 Jun 2027 10:59:18.215             4.105           839.687
       205   07 Jun 2027 10:59:24.801   07 Jun 2027 10:59:27.010             2.209           153.250
       206   08 Jun 2027 03:16:02.359   08 Jun 2027 03:17:02.095            59.736         29868.000
       207   08 Jun 2027 03:17:11.657   08 Jun 2027 03:17:55.042            43.385         21692.500
       208   08 Jun 2027 03:18:28.515   08 Jun 2027 03:18:39.689            11.174          5587.000
       209   08 Jun 2027 03:18:48.061   08 Jun 2027 03:19:14.585            26.524         13262.000
       210   08 Jun 2027 03:19:17.271   08 Jun 2027 03:19:20.482             3.211          1605.500
       211   08 Jun 2027 03:20:20.618   08 Jun 2027 03:20:33.846            13.228          6614.000
       212   08 Jun 2027 03:20:56.662   08 Jun 2027 03:21:30.986            34.324         17162.000
       213   08 Jun 2027 03:21:41.711   08 Jun 2027 03:21:44.213             2.502          1251.000
       214   08 Jun 2027 04:54:21.080   08 Jun 2027 04:54:50.919            29.839         14919.500
       215   08 Jun 2027 04:55:09.820   08 Jun 2027 04:56:29.910            80.090         39828.937
       216   08 Jun 2027 04:57:50.091   08 Jun 2027 04:57:53.439             3.348          1327.531
       217   08 Jun 2027 06:17:43.955   08 Jun 2027 06:17:53.536             9.581          4635.062
       218   08 Jun 2027 06:18:57.164   08 Jun 2027 06:19:03.080             5.916          1789.438
       219   08 Jun 2027 06:19:25.462   08 Jun 2027 06:19:27.592             2.130           494.562
       220   08 Jun 2027 06:20:26.505   08 Jun 2027 06:20:27.641             1.136           568.000
       221   08 Jun 2027 07:54:27.340   08 Jun 2027 07:54:38.568            11.228          5119.750
       222   08 Jun 2027 07:55:36.552   08 Jun 2027 07:55:43.566             7.014          1521.000
       223   08 Jun 2027 07:55:51.425   08 Jun 2027 07:55:52.131             0.706           223.094
       224   08 Jun 2027 07:56:42.887   08 Jun 2027 07:56:48.471             5.584          1586.125
       225   08 Jun 2027 07:57:46.931   08 Jun 2027 07:57:49.442             2.511          1255.500
       226   08 Jun 2027 09:29:24.627   08 Jun 2027 09:29:31.989             7.362          3436.125
       227   08 Jun 2027 09:30:44.485   08 Jun 2027 09:30:49.138             4.653          1886.094
       228   08 Jun 2027 09:31:40.860   08 Jun 2027 09:31:49.883             9.023          1609.125
       229   08 Jun 2027 09:32:44.149   08 Jun 2027 09:32:49.305             5.156           643.844
       230   08 Jun 2027 09:34:38.075   08 Jun 2027 09:34:55.189            17.114          2747.563
       231   08 Jun 2027 09:35:05.717   08 Jun 2027 09:35:10.080             4.363           280.094
       232   08 Jun 2027 09:35:53.693   08 Jun 2027 09:35:56.723             3.030          1124.750
       233   08 Jun 2027 11:05:48.251   08 Jun 2027 11:06:01.659            13.408          4427.719
       234   08 Jun 2027 11:07:44.957   08 Jun 2027 11:07:47.868             2.911           509.125
       235   08 Jun 2027 11:07:56.817   08 Jun 2027 11:08:05.324             8.507           193.813
       236   08 Jun 2027 11:08:25.293   08 Jun 2027 11:08:35.954            10.661           624.031
       237   08 Jun 2027 11:09:15.036   08 Jun 2027 11:09:17.002             1.966           687.938
       238   08 Jun 2027 11:09:45.634   08 Jun 2027 11:09:48.071             2.437           706.312
       239   08 Jun 2027 11:10:02.609   08 Jun 2027 11:10:03.653             1.044           111.688
       240   08 Jun 2027 11:10:55.672   08 Jun 2027 11:10:59.396             3.724          1124.406
       241   08 Jun 2027 11:11:45.805   08 Jun 2027 11:11:49.290             3.485          1328.062
       242   09 Jun 2027 03:28:07.331   09 Jun 2027 03:28:18.446            11.115          5557.500
       243   09 Jun 2027 03:29:09.207   09 Jun 2027 03:32:02.127           172.920         86460.000
       244   09 Jun 2027 03:32:05.429   09 Jun 2027 03:32:21.867            16.438          8219.000
       245   09 Jun 2027 03:32:55.964   09 Jun 2027 03:32:59.823             3.859          1929.500
       246   09 Jun 2027 03:33:25.502   09 Jun 2027 03:33:32.142             6.640          3320.000
       247   09 Jun 2027 03:35:54.958   09 Jun 2027 03:35:56.554             1.596           798.000
       248   09 Jun 2027 05:06:17.866   09 Jun 2027 05:06:56.521            38.655         19327.500
       249   09 Jun 2027 05:07:22.842   09 Jun 2027 05:08:13.053            50.211         24487.656
       250   09 Jun 2027 05:09:09.370   09 Jun 2027 05:09:11.493             2.123           956.375
       251   09 Jun 2027 05:09:23.028   09 Jun 2027 05:09:24.063             1.035            82.781
       252   09 Jun 2027 06:30:21.824   09 Jun 2027 06:30:40.275            18.451          7446.219
       253   09 Jun 2027 06:30:42.768   09 Jun 2027 06:30:47.598             4.830            77.906
       254   09 Jun 2027 06:30:58.551   09 Jun 2027 06:31:00.098             1.547           342.281
       255   09 Jun 2027 06:32:26.800   09 Jun 2027 06:32:32.877             6.077          2464.219
       256   09 Jun 2027 08:06:20.140   09 Jun 2027 08:06:30.217            10.077          3888.406
       257   09 Jun 2027 08:06:50.987   09 Jun 2027 08:06:53.025             2.038           562.469
       258   09 Jun 2027 08:08:35.437   09 Jun 2027 08:08:42.901             7.464          2558.500
       259   09 Jun 2027 08:09:22.758   09 Jun 2027 08:09:28.538             5.780          1198.281
       260   09 Jun 2027 08:09:40.633   09 Jun 2027 08:09:40.633             0.000             0.000
       261   09 Jun 2027 09:41:06.285   09 Jun 2027 09:41:20.540            14.255          2891.656
       262   09 Jun 2027 09:42:50.463   09 Jun 2027 09:42:56.400             5.937          2497.875
       263   09 Jun 2027 09:43:34.222   09 Jun 2027 09:43:38.667             4.445           675.125
       264   09 Jun 2027 09:44:09.562   09 Jun 2027 09:44:14.789             5.227           468.969
       265   09 Jun 2027 09:45:12.327   09 Jun 2027 09:45:16.998             4.671          1652.344
       266   09 Jun 2027 09:45:39.465   09 Jun 2027 09:45:39.804             0.339            62.281
       267   09 Jun 2027 09:45:56.457   09 Jun 2027 09:45:58.378             1.921           257.969
       268   09 Jun 2027 09:46:52.756   09 Jun 2027 09:46:57.732             4.976          1306.375
       269   09 Jun 2027 09:47:49.328   09 Jun 2027 09:47:56.128             6.800          1267.000
       270   09 Jun 2027 11:17:20.329   09 Jun 2027 11:17:33.141            12.812          6058.750
       271   09 Jun 2027 11:19:20.146   09 Jun 2027 11:19:26.493             6.347           868.500
       272   09 Jun 2027 11:19:28.999   09 Jun 2027 11:19:30.334             1.335            19.031
       273   09 Jun 2027 11:20:02.171   09 Jun 2027 11:20:04.139             1.968           399.406
       274   09 Jun 2027 11:20:26.788   09 Jun 2027 11:20:28.001             1.213           516.594
       275   09 Jun 2027 11:20:45.728   09 Jun 2027 11:20:47.279             1.551           538.656
       276   09 Jun 2027 11:21:07.108   09 Jun 2027 11:21:08.568             1.460            83.469
       277   09 Jun 2027 11:21:38.514   09 Jun 2027 11:21:50.416            11.902           668.656
       278   09 Jun 2027 11:22:02.481   09 Jun 2027 11:22:04.815             2.334           176.813
       279   09 Jun 2027 11:22:31.559   09 Jun 2027 11:22:35.968             4.409           222.469
       280   09 Jun 2027 11:22:43.046   09 Jun 2027 11:22:50.705             7.659           156.625
       281   09 Jun 2027 11:23:17.997   09 Jun 2027 11:23:19.843             1.846           754.594
       282   09 Jun 2027 11:23:39.115   09 Jun 2027 11:23:41.995             2.880           391.906
       283   10 Jun 2027 03:41:12.629   10 Jun 2027 03:44:50.476           217.847        108923.500
       284   10 Jun 2027 03:48:12.136   10 Jun 2027 03:48:51.961            39.825         19912.500
       285   10 Jun 2027 05:07:07.491   10 Jun 2027 05:07:15.180             7.689          3844.500
       286   10 Jun 2027 05:18:14.267   10 Jun 2027 05:19:29.417            75.150         35666.406
       287   10 Jun 2027 05:20:43.656   10 Jun 2027 05:20:44.636             0.980           272.500
       288   10 Jun 2027 05:21:11.696   10 Jun 2027 05:21:13.871             2.175           579.375
       289   10 Jun 2027 06:41:11.360   10 Jun 2027 06:41:23.115            11.755          5877.500
       290   10 Jun 2027 06:42:03.893   10 Jun 2027 06:42:08.504             4.611          1487.406
       291   10 Jun 2027 06:42:27.263   10 Jun 2027 06:42:29.231             1.968           456.531
       292   10 Jun 2027 06:42:42.537   10 Jun 2027 06:42:46.004             3.467           290.969
       293   10 Jun 2027 06:43:23.930   10 Jun 2027 06:43:29.508             5.578          1185.188
       294   10 Jun 2027 06:44:16.881   10 Jun 2027 06:44:18.713             1.832           846.188
       295   10 Jun 2027 06:44:45.434   10 Jun 2027 06:44:48.132             2.698           589.719
       296   10 Jun 2027 08:16:29.076   10 Jun 2027 08:16:33.481             4.405          1461.406
       297   10 Jun 2027 08:18:10.082   10 Jun 2027 08:18:15.431             5.349          1868.687
       298   10 Jun 2027 08:18:53.955   10 Jun 2027 08:18:56.339             2.384           688.969
       299   10 Jun 2027 08:20:27.005   10 Jun 2027 08:20:32.020             5.015          2257.781
       300   10 Jun 2027 08:20:45.561   10 Jun 2027 08:20:46.301             0.740           270.062
       301   10 Jun 2027 08:20:53.956   10 Jun 2027 08:20:53.956             0.000             0.000
       302   10 Jun 2027 08:21:03.482   10 Jun 2027 08:21:03.482             0.000             0.000
       303   10 Jun 2027 08:21:49.031   10 Jun 2027 08:21:55.607             6.576          1875.375
       304   10 Jun 2027 08:22:07.321   10 Jun 2027 08:22:07.602             0.281           116.156
       305   10 Jun 2027 09:52:39.364   10 Jun 2027 09:52:42.953             3.589          1794.500
       306   10 Jun 2027 09:53:11.440   10 Jun 2027 09:53:17.706             6.266          2187.281
       307   10 Jun 2027 09:54:42.736   10 Jun 2027 09:54:48.040             5.304          2252.031
       308   10 Jun 2027 09:55:44.410   10 Jun 2027 09:55:48.519             4.109          1666.281
       309   10 Jun 2027 09:56:16.854   10 Jun 2027 09:56:20.431             3.577           373.781
       310   10 Jun 2027 09:57:17.058   10 Jun 2027 09:57:20.037             2.979          1304.656
       311   10 Jun 2027 09:57:49.578   10 Jun 2027 09:57:52.631             3.053           774.563
       312   10 Jun 2027 09:58:05.207   10 Jun 2027 09:58:06.075             0.868            52.750
       313   10 Jun 2027 09:58:19.018   10 Jun 2027 09:58:20.771             1.753           253.312
       314   10 Jun 2027 09:58:32.811   10 Jun 2027 09:58:34.152             1.341           194.219
       315   10 Jun 2027 09:59:32.199   10 Jun 2027 09:59:36.418             4.219          1729.688
       316   10 Jun 2027 09:59:53.255   10 Jun 2027 09:59:55.893             2.638           313.250
       317   10 Jun 2027 11:29:42.071   10 Jun 2027 11:29:59.070            16.999          6689.656
       318   10 Jun 2027 11:31:21.461   10 Jun 2027 11:31:28.911             7.450          1602.594
       319   10 Jun 2027 11:31:34.710   10 Jun 2027 11:31:36.261             1.551           167.312
       320   10 Jun 2027 11:32:09.107   10 Jun 2027 11:32:13.333             4.226           639.969
       321   10 Jun 2027 11:33:29.891   10 Jun 2027 11:33:34.555             4.664          2086.719
       322   10 Jun 2027 11:34:09.755   10 Jun 2027 11:34:10.789             1.034           466.313
       323   10 Jun 2027 11:34:26.503   10 Jun 2027 11:34:28.410             1.907           491.063
       324   10 Jun 2027 11:35:00.252   10 Jun 2027 11:35:06.168             5.916           995.063
       325   10 Jun 2027 11:35:12.128   10 Jun 2027 11:35:13.572             1.444            40.156
       326   10 Jun 2027 11:35:27.236   10 Jun 2027 11:35:29.073             1.837           223.531
       327   10 Jun 2027 11:35:42.486   10 Jun 2027 11:35:42.944             0.458           112.344
       328   11 Jun 2027 03:53:42.335   11 Jun 2027 03:56:38.582           176.247         88123.500
       329   11 Jun 2027 03:58:26.584   11 Jun 2027 03:58:37.031            10.447          5223.500
       330   11 Jun 2027 03:59:14.209   11 Jun 2027 03:59:30.337            16.128          8064.000
       331   11 Jun 2027 03:59:51.805   11 Jun 2027 03:59:53.257             1.452           726.000
       332   11 Jun 2027 05:18:34.171   11 Jun 2027 05:18:39.985             5.814          2907.000
       333   11 Jun 2027 05:30:17.159   11 Jun 2027 05:31:30.724            73.565         36782.500
       334   11 Jun 2027 06:52:29.808   11 Jun 2027 06:52:59.118            29.310         12169.750
       335   11 Jun 2027 06:54:31.255   11 Jun 2027 06:54:36.273             5.018          1535.469
       336   11 Jun 2027 06:55:11.870   11 Jun 2027 06:55:16.091             4.221           853.187
       337   11 Jun 2027 06:55:52.542   11 Jun 2027 06:55:57.863             5.321           985.062
       338   11 Jun 2027 06:57:09.550   11 Jun 2027 06:57:21.820            12.270          1915.406
       339   11 Jun 2027 08:27:35.524   11 Jun 2027 08:27:39.942             4.418          2142.312
       340   11 Jun 2027 08:29:37.839   11 Jun 2027 08:29:43.382             5.543          1842.719
       341   11 Jun 2027 08:31:15.654   11 Jun 2027 08:31:21.897             6.243          2500.719
       342   11 Jun 2027 08:32:46.279   11 Jun 2027 08:32:51.629             5.350          2343.594
       343   11 Jun 2027 08:33:59.671   11 Jun 2027 08:34:02.691             3.020          1510.000
       344   11 Jun 2027 10:04:52.064   11 Jun 2027 10:05:00.676             8.612          3875.500
       345   11 Jun 2027 10:08:21.329   11 Jun 2027 10:08:22.366             1.037           473.813
       346   11 Jun 2027 10:09:24.454   11 Jun 2027 10:09:29.306             4.852          1654.844
       347   11 Jun 2027 10:10:00.651   11 Jun 2027 10:10:03.817             3.166           798.063
       348   11 Jun 2027 10:10:32.782   11 Jun 2027 10:10:34.619             1.837           648.938
       349   11 Jun 2027 10:11:16.403   11 Jun 2027 10:11:19.609             3.206          1292.344
       350   11 Jun 2027 10:11:32.382   11 Jun 2027 10:11:32.947             0.565           247.062
       351   11 Jun 2027 10:12:15.113   11 Jun 2027 10:12:15.669             0.556           278.000
       352   11 Jun 2027 11:41:45.177   11 Jun 2027 11:41:54.542             9.365          4624.031
       353   11 Jun 2027 11:44:26.984   11 Jun 2027 11:44:32.594             5.610          2182.656
       354   11 Jun 2027 11:45:37.878   11 Jun 2027 11:45:41.106             3.228           614.594
       355   11 Jun 2027 11:46:06.379   11 Jun 2027 11:46:10.747             4.368           585.625
       356   11 Jun 2027 11:46:31.756   11 Jun 2027 11:46:34.660             2.904           646.313
       357   11 Jun 2027 11:47:22.229   11 Jun 2027 11:47:25.070             2.841          1332.063
       358   11 Jun 2027 11:47:32.425   11 Jun 2027 11:47:34.074             1.649           155.813
       359   11 Jun 2027 11:47:48.596   11 Jun 2027 11:47:49.892             1.296           296.750
       360   12 Jun 2027 04:05:51.281   12 Jun 2027 04:08:58.774           187.493         93746.500
       361   12 Jun 2027 04:09:42.798   12 Jun 2027 04:09:48.089             5.291          2645.500
       362   12 Jun 2027 04:10:40.521   12 Jun 2027 04:10:57.194            16.673          8336.500
       363   12 Jun 2027 05:30:03.119   12 Jun 2027 05:30:43.002            39.883         19941.500
       364   12 Jun 2027 05:42:18.069   12 Jun 2027 05:42:50.015            31.946         15973.000
       365   12 Jun 2027 07:04:15.039   12 Jun 2027 07:05:21.507            66.468         31482.125
       366   12 Jun 2027 07:05:30.761   12 Jun 2027 07:05:32.931             2.170           141.844
       367   12 Jun 2027 07:06:21.200   12 Jun 2027 07:06:23.094             1.894           380.625
       368   12 Jun 2027 07:07:42.702   12 Jun 2027 07:07:48.957             6.255          2322.375
       369   12 Jun 2027 07:09:10.446   12 Jun 2027 07:09:21.360            10.914          2321.438
       370   12 Jun 2027 07:09:35.879   12 Jun 2027 07:09:35.879             0.000             0.000
       371   12 Jun 2027 08:39:04.487   12 Jun 2027 08:39:15.636            11.149          2747.656
       372   12 Jun 2027 08:40:46.498   12 Jun 2027 08:40:51.240             4.742          1823.969
       373   12 Jun 2027 08:41:49.661   12 Jun 2027 08:41:57.922             8.261          1443.594
       374   12 Jun 2027 08:43:31.705   12 Jun 2027 08:43:34.739             3.034          1010.312
       375   12 Jun 2027 08:45:20.573   12 Jun 2027 08:45:25.255             4.682          1268.844
       376   12 Jun 2027 08:45:42.697   12 Jun 2027 08:45:48.696             5.999           147.156
       377   12 Jun 2027 08:46:06.655   12 Jun 2027 08:46:06.655             0.000             0.000
       378   12 Jun 2027 08:46:51.573   12 Jun 2027 08:46:58.046             6.473          1723.531
       379   12 Jun 2027 08:47:22.790   12 Jun 2027 08:47:25.965             3.175           193.000
       380   12 Jun 2027 10:16:51.760   12 Jun 2027 10:17:01.838            10.078          4771.031
       381   12 Jun 2027 10:19:55.839   12 Jun 2027 10:19:59.959             4.120          2038.937
       382   12 Jun 2027 10:21:08.689   12 Jun 2027 10:21:11.984             3.295             1.188
       383   12 Jun 2027 10:21:46.569   12 Jun 2027 10:21:48.189             1.620           479.031
       384   12 Jun 2027 10:22:14.619   12 Jun 2027 10:22:16.532             1.913           264.375
       385   12 Jun 2027 10:23:25.691   12 Jun 2027 10:23:34.267             8.576          1675.219
       386   12 Jun 2027 10:23:42.089   12 Jun 2027 10:23:45.135             3.046           244.437
       387   12 Jun 2027 10:24:01.777   12 Jun 2027 10:24:02.818             1.041           393.656
       388   12 Jun 2027 11:53:36.715   12 Jun 2027 11:53:49.847            13.132          4971.750
       389   12 Jun 2027 11:54:04.168   12 Jun 2027 11:54:06.704             2.536           393.125
       390   12 Jun 2027 11:55:16.576   12 Jun 2027 11:55:21.924             5.348           641.781
       391   12 Jun 2027 11:55:38.845   12 Jun 2027 11:55:39.872             1.027           227.406
       392   12 Jun 2027 11:55:56.734   12 Jun 2027 11:56:01.385             4.651           262.125
       393   12 Jun 2027 11:56:29.766   12 Jun 2027 11:56:30.053             0.287            57.344
       394   12 Jun 2027 11:57:38.890   12 Jun 2027 11:57:41.472             2.582          1146.187
       395   12 Jun 2027 11:58:02.196   12 Jun 2027 11:58:03.913             1.717           299.844
       396   12 Jun 2027 11:58:33.988   12 Jun 2027 11:58:44.375            10.387           885.906
       397   12 Jun 2027 11:59:40.692   12 Jun 2027 11:59:47.681             6.989           736.281
       398   13 Jun 2027 04:18:01.878   13 Jun 2027 04:19:58.226           116.348         58174.000
       399   13 Jun 2027 04:21:43.096   13 Jun 2027 04:21:50.779             7.683          3841.500
       400   13 Jun 2027 05:42:04.245   13 Jun 2027 05:43:28.981            84.736         42368.000
       401   13 Jun 2027 07:18:02.306   13 Jun 2027 07:20:00.104           117.798         55673.812
       402   13 Jun 2027 07:21:11.020   13 Jun 2027 07:21:17.951             6.931          2089.312
       403   13 Jun 2027 08:51:51.448   13 Jun 2027 08:51:56.899             5.451          2218.500
       404   13 Jun 2027 08:53:13.366   13 Jun 2027 08:53:15.067             1.701           280.344
       405   13 Jun 2027 08:55:16.280   13 Jun 2027 08:55:22.449             6.169          2661.500
       406   13 Jun 2027 08:56:46.108   13 Jun 2027 08:56:52.002             5.894          2233.750
       407   13 Jun 2027 08:57:48.005   13 Jun 2027 08:57:50.557             2.552           388.688
       408   13 Jun 2027 08:58:28.067   13 Jun 2027 08:58:35.152             7.085           666.125
       409   13 Jun 2027 08:59:35.997   13 Jun 2027 08:59:39.440             3.443          1337.844
       410   13 Jun 2027 10:28:57.435   13 Jun 2027 10:29:14.132            16.697          5793.625
       411   13 Jun 2027 10:31:41.695   13 Jun 2027 10:31:48.868             7.173          1638.969
       412   13 Jun 2027 10:32:45.614   13 Jun 2027 10:32:47.829             2.215           390.188
       413   13 Jun 2027 10:33:29.163   13 Jun 2027 10:33:31.254             2.091           139.344
       414   13 Jun 2027 10:33:49.645   13 Jun 2027 10:33:50.004             0.359           151.625
       415   13 Jun 2027 10:34:16.685   13 Jun 2027 10:34:18.495             1.810           654.781
       416   13 Jun 2027 10:35:09.349   13 Jun 2027 10:35:12.738             3.389          1589.187
       417   13 Jun 2027 10:35:44.666   13 Jun 2027 10:35:47.477             2.811           817.594
       418   13 Jun 2027 10:35:51.227   13 Jun 2027 10:35:52.080             0.853           117.187
       419   13 Jun 2027 10:35:59.842   13 Jun 2027 10:36:00.344             0.502           242.563
