uniorb/output/strategy_4/Camera/Camera_KinoSat_111608.txt

KinoSat_111608
-------------------------
    Access    *     Start Time (UTCG)     *     Stop Time (UTCG)  *   Duration (s) *   Data (Mbytes)
         1   01 Jun 2027 04:23:12.039   01 Jun 2027 04:25:31.957           139.918         69959.000
         2   01 Jun 2027 04:27:10.351   01 Jun 2027 04:27:14.744             4.393          2196.500
         3   01 Jun 2027 04:27:40.358   01 Jun 2027 04:27:56.639            16.281          8140.500
         4   01 Jun 2027 05:48:01.693   01 Jun 2027 05:49:13.715            72.022         36011.000
         5   01 Jun 2027 05:59:41.574   01 Jun 2027 06:00:38.983            57.409         28704.500
         6   01 Jun 2027 07:21:59.387   01 Jun 2027 07:23:05.724            66.337         33168.500
         7   01 Jun 2027 07:23:53.309   01 Jun 2027 07:24:37.802            44.493         22246.500
         8   01 Jun 2027 07:25:14.175   01 Jun 2027 07:25:31.864            17.689          8844.500
         9   01 Jun 2027 08:56:53.815   01 Jun 2027 08:58:54.297           120.482         60241.000
        10   01 Jun 2027 08:59:01.380   01 Jun 2027 08:59:17.875            16.495          8247.500
        11   01 Jun 2027 10:34:25.515   01 Jun 2027 10:36:07.849           102.334         51167.000
        12   01 Jun 2027 10:39:55.596   01 Jun 2027 10:39:55.596             0.000             0.000
        13   01 Jun 2027 10:40:37.754   01 Jun 2027 10:41:45.328            67.574         33787.000
        14   02 Jun 2027 03:00:00.000   02 Jun 2027 03:00:23.434            23.434         11717.000
        15   02 Jun 2027 03:01:08.822   02 Jun 2027 03:01:11.758             2.936          1468.000
        16   02 Jun 2027 03:01:14.879   02 Jun 2027 03:01:19.333             4.454          2227.000
        17   02 Jun 2027 03:01:59.376   02 Jun 2027 03:02:01.732             2.356          1178.000
        18   02 Jun 2027 03:02:07.023   02 Jun 2027 03:02:19.281            12.258          6129.000
        19   02 Jun 2027 04:35:16.108   02 Jun 2027 04:37:29.703           133.595         66797.500
        20   02 Jun 2027 04:38:04.690   02 Jun 2027 04:38:22.989            18.299          9149.500
        21   02 Jun 2027 04:39:15.601   02 Jun 2027 04:39:51.148            35.547         17773.500
        22   02 Jun 2027 05:59:35.246   02 Jun 2027 06:00:08.241            32.995         16497.500
        23   02 Jun 2027 06:00:18.927   02 Jun 2027 06:00:38.448            19.521          9760.500
        24   02 Jun 2027 06:11:55.818   02 Jun 2027 06:12:15.840            20.022         10011.000
        25   02 Jun 2027 07:33:31.242   02 Jun 2027 07:34:51.410            80.168         40084.000
        26   02 Jun 2027 07:35:39.700   02 Jun 2027 07:37:16.873            97.173         48586.500
        27   02 Jun 2027 07:38:37.671   02 Jun 2027 07:39:26.345            48.674         24337.000
        28   02 Jun 2027 09:08:24.465   02 Jun 2027 09:10:25.337           120.872         60436.000
        29   02 Jun 2027 09:11:20.815   02 Jun 2027 09:11:20.815             0.000             0.000
        30   02 Jun 2027 09:12:52.975   02 Jun 2027 09:13:58.834            65.859         32728.532
        31   02 Jun 2027 09:17:21.407   02 Jun 2027 09:17:34.625            13.218          6138.625
        32   02 Jun 2027 10:46:20.528   02 Jun 2027 10:46:39.198            18.670          5361.344
        33   02 Jun 2027 10:49:18.763   02 Jun 2027 10:49:32.464            13.701          4761.688
        34   02 Jun 2027 10:51:52.616   02 Jun 2027 10:52:00.031             7.415          2855.594
        35   02 Jun 2027 10:52:50.852   02 Jun 2027 10:52:53.274             2.422          1177.156
        36   02 Jun 2027 10:53:03.422   02 Jun 2027 10:53:07.942             4.520             7.156
        37   03 Jun 2027 03:09:10.954   03 Jun 2027 03:09:24.244            13.290          6645.000
        38   03 Jun 2027 03:09:34.099   03 Jun 2027 03:10:32.151            58.052         29026.000
        39   03 Jun 2027 03:11:05.185   03 Jun 2027 03:11:05.714             0.529           264.500
        40   03 Jun 2027 03:13:51.909   03 Jun 2027 03:14:41.391            49.482         24741.000
        41   03 Jun 2027 04:47:42.370   03 Jun 2027 04:50:41.258           178.888         88093.344
        42   03 Jun 2027 04:51:14.510   03 Jun 2027 04:51:16.463             1.953           771.062
        43   03 Jun 2027 06:11:31.044   03 Jun 2027 06:11:53.486            22.442         10469.469
        44   03 Jun 2027 06:12:39.878   03 Jun 2027 06:12:39.878             0.000             0.000
        45   03 Jun 2027 06:12:41.559   03 Jun 2027 06:12:45.671             4.112          1211.906
        46   03 Jun 2027 06:13:36.229   03 Jun 2027 06:13:40.446             4.217          1579.938
        47   03 Jun 2027 07:47:30.752   03 Jun 2027 07:47:45.233            14.481          6910.562
        48   03 Jun 2027 07:48:12.872   03 Jun 2027 07:48:17.124             4.252           485.750
        49   03 Jun 2027 07:48:23.225   03 Jun 2027 07:48:23.225             0.000             0.000
        50   03 Jun 2027 07:48:41.676   03 Jun 2027 07:48:45.261             3.585           767.250
        51   03 Jun 2027 07:50:38.179   03 Jun 2027 07:50:48.633            10.454          3158.969
        52   03 Jun 2027 09:21:18.272   03 Jun 2027 09:21:25.641             7.369          3310.063
        53   03 Jun 2027 09:22:53.879   03 Jun 2027 09:22:55.496             1.617           777.500
        54   03 Jun 2027 09:23:35.558   03 Jun 2027 09:23:38.102             2.544           341.312
        55   03 Jun 2027 09:24:41.522   03 Jun 2027 09:24:45.456             3.934          1831.250
        56   03 Jun 2027 09:26:12.839   03 Jun 2027 09:26:17.905             5.066          2387.656
        57   03 Jun 2027 09:28:00.366   03 Jun 2027 09:28:04.100             3.734          1480.969
        58   03 Jun 2027 09:28:14.417   03 Jun 2027 09:28:21.246             6.829           290.281
        59   03 Jun 2027 09:29:01.068   03 Jun 2027 09:29:03.446             2.378          1189.000
        60   03 Jun 2027 10:58:32.848   03 Jun 2027 10:58:55.454            22.606          5824.750
        61   03 Jun 2027 11:01:03.020   03 Jun 2027 11:01:09.773             6.753          2219.000
        62   03 Jun 2027 11:01:28.932   03 Jun 2027 11:01:30.659             1.727           538.094
        63   03 Jun 2027 11:02:33.297   03 Jun 2027 11:02:37.095             3.798           965.281
        64   03 Jun 2027 11:02:52.338   03 Jun 2027 11:02:57.077             4.739           170.469
        65   03 Jun 2027 11:03:17.475   03 Jun 2027 11:03:19.151             1.676           580.375
        66   03 Jun 2027 11:03:40.781   03 Jun 2027 11:03:41.835             1.054            44.562
        67   03 Jun 2027 11:05:05.668   03 Jun 2027 11:05:08.106             2.438          1203.188
        68   03 Jun 2027 11:05:20.906   03 Jun 2027 11:05:22.027             1.121           400.000
        69   03 Jun 2027 11:05:43.106   03 Jun 2027 11:05:44.843             1.737           658.719
        70   04 Jun 2027 03:21:45.205   04 Jun 2027 03:22:12.340            27.135         13567.500
        71   04 Jun 2027 03:22:23.197   04 Jun 2027 03:24:13.828           110.631         55315.500
        72   04 Jun 2027 03:24:54.750   04 Jun 2027 03:25:18.166            23.416         11708.000
        73   04 Jun 2027 03:25:26.439   04 Jun 2027 03:25:31.764             5.325          2662.500
        74   04 Jun 2027 03:26:44.668   04 Jun 2027 03:27:05.538            20.870         10435.000
        75   04 Jun 2027 05:00:01.340   04 Jun 2027 05:01:46.745           105.405         52568.500
        76   04 Jun 2027 05:02:34.168   04 Jun 2027 05:02:42.641             8.473          1118.406
        77   04 Jun 2027 05:03:25.856   04 Jun 2027 05:03:30.035             4.179          1340.625
        78   04 Jun 2027 06:23:23.166   04 Jun 2027 06:23:37.445            14.279          5225.844
        79   04 Jun 2027 06:24:41.141   04 Jun 2027 06:24:44.627             3.486          1433.781
        80   04 Jun 2027 06:25:07.225   04 Jun 2027 06:25:10.649             3.424           631.500
        81   04 Jun 2027 06:25:41.750   04 Jun 2027 06:25:44.634             2.884           223.687
        82   04 Jun 2027 07:59:44.795   04 Jun 2027 07:59:58.690            13.895          6410.062
        83   04 Jun 2027 08:00:20.299   04 Jun 2027 08:00:22.973             2.674           351.750
        84   04 Jun 2027 08:01:10.869   04 Jun 2027 08:01:18.586             7.717          1496.750
        85   04 Jun 2027 08:02:38.255   04 Jun 2027 08:02:43.990             5.735          1939.250
        86   04 Jun 2027 09:32:03.312   04 Jun 2027 09:32:10.802             7.490          2709.125
        87   04 Jun 2027 09:35:53.472   04 Jun 2027 09:35:55.129             1.657           293.469
        88   04 Jun 2027 09:36:32.730   04 Jun 2027 09:36:35.563             2.833           373.437
        89   04 Jun 2027 09:39:00.343   04 Jun 2027 09:39:04.322             3.979          1524.844
        90   04 Jun 2027 09:40:31.514   04 Jun 2027 09:40:32.674             1.160           496.750
        91   04 Jun 2027 09:41:16.394   04 Jun 2027 09:41:19.429             3.035           884.875
        92   04 Jun 2027 09:41:46.454   04 Jun 2027 09:41:46.977             0.523            24.469
        93   04 Jun 2027 11:10:54.029   04 Jun 2027 11:11:03.573             9.544          4755.594
        94   04 Jun 2027 11:12:28.506   04 Jun 2027 11:12:30.863             2.357           814.375
        95   04 Jun 2027 11:13:01.713   04 Jun 2027 11:13:03.178             1.465           125.063
        96   04 Jun 2027 11:13:36.789   04 Jun 2027 11:13:42.201             5.412           721.688
        97   04 Jun 2027 11:14:04.997   04 Jun 2027 11:14:07.031             2.034           677.781
        98   04 Jun 2027 11:15:24.969   04 Jun 2027 11:15:28.784             3.815          1582.625
        99   04 Jun 2027 11:15:49.313   04 Jun 2027 11:15:50.635             1.322           641.531
       100   04 Jun 2027 11:16:54.401   04 Jun 2027 11:16:58.433             4.032          1890.906
       101   04 Jun 2027 11:17:03.092   04 Jun 2027 11:17:04.098             1.006           145.594
       102   04 Jun 2027 11:17:27.023   04 Jun 2027 11:17:29.879             2.856           378.656
       103   05 Jun 2027 03:33:52.246   05 Jun 2027 03:34:53.349            61.103         30551.500
       104   05 Jun 2027 03:34:58.950   05 Jun 2027 03:37:20.817           141.867         70933.500
       105   05 Jun 2027 03:37:50.446   05 Jun 2027 03:38:01.055            10.609          5304.500
       106   05 Jun 2027 03:38:31.516   05 Jun 2027 03:38:33.910             2.394          1197.000
       107   05 Jun 2027 03:38:39.215   05 Jun 2027 03:38:39.909             0.694           347.000
       108   05 Jun 2027 03:39:15.898   05 Jun 2027 03:39:15.918             0.020            10.000
       109   05 Jun 2027 05:12:53.796   05 Jun 2027 05:14:20.376            86.580         43233.594
       110   05 Jun 2027 05:15:46.920   05 Jun 2027 05:15:51.167             4.247          2123.500
       111   05 Jun 2027 06:35:26.617   05 Jun 2027 06:35:36.401             9.784          4029.437
       112   05 Jun 2027 06:37:30.447   05 Jun 2027 06:37:36.356             5.909          2954.500
       113   05 Jun 2027 08:11:52.029   05 Jun 2027 08:11:57.584             5.555          2115.969
       114   05 Jun 2027 08:12:44.493   05 Jun 2027 08:12:48.003             3.510           887.875
       115   05 Jun 2027 08:13:26.296   05 Jun 2027 08:13:28.891             2.595          1046.125
       116   05 Jun 2027 08:13:36.184   05 Jun 2027 08:13:37.439             1.255           227.906
       117   05 Jun 2027 09:47:00.175   05 Jun 2027 09:47:08.033             7.858          3468.750
       118   05 Jun 2027 09:48:05.548   05 Jun 2027 09:48:14.805             9.257           933.156
       119   05 Jun 2027 09:48:22.615   05 Jun 2027 09:48:23.187             0.572           244.063
       120   05 Jun 2027 09:50:09.360   05 Jun 2027 09:50:14.637             5.277          1815.531
       121   05 Jun 2027 09:52:16.371   05 Jun 2027 09:52:25.376             9.005          2924.719
       122   05 Jun 2027 09:53:02.186   05 Jun 2027 09:53:03.737             1.551           560.375
       123   05 Jun 2027 09:53:32.213   05 Jun 2027 09:53:32.409             0.196            98.000
       124   05 Jun 2027 09:53:41.223   05 Jun 2027 09:53:46.012             4.789           335.781
       125   05 Jun 2027 11:23:21.831   05 Jun 2027 11:23:34.436            12.605          4536.844
       126   05 Jun 2027 11:25:27.399   05 Jun 2027 11:25:28.778             1.379           495.313
       127   05 Jun 2027 11:27:33.232   05 Jun 2027 11:27:41.940             8.708          1705.688
       128   05 Jun 2027 11:28:48.563   05 Jun 2027 11:28:55.942             7.379          1701.187
       129   05 Jun 2027 11:29:00.303   05 Jun 2027 11:29:00.677             0.374           136.281
       130   05 Jun 2027 11:29:33.589   05 Jun 2027 11:29:35.569             1.980           611.250
       131   06 Jun 2027 03:45:49.290   06 Jun 2027 03:46:38.981            49.691         24845.500
       132   06 Jun 2027 03:46:55.992   06 Jun 2027 03:49:30.529           154.537         77268.500
       133   06 Jun 2027 05:24:03.617   06 Jun 2027 05:24:40.804            37.187         18593.500
       134   06 Jun 2027 05:24:53.404   06 Jun 2027 05:25:49.333            55.929         27401.219
       135   06 Jun 2027 05:26:52.137   06 Jun 2027 05:26:55.527             3.390          1139.500
       136   06 Jun 2027 05:27:42.833   06 Jun 2027 05:27:43.484             0.651           325.500
       137   06 Jun 2027 06:47:24.287   06 Jun 2027 06:47:34.253             9.966          4944.063
       138   06 Jun 2027 06:48:42.933   06 Jun 2027 06:48:50.254             7.321          2130.187
       139   06 Jun 2027 06:50:06.527   06 Jun 2027 06:50:17.849            11.322          2383.531
       140   06 Jun 2027 08:24:01.542   06 Jun 2027 08:24:09.566             8.024          2645.219
       141   06 Jun 2027 08:24:46.923   06 Jun 2027 08:24:50.805             3.882          1148.531
       142   06 Jun 2027 08:25:24.518   06 Jun 2027 08:25:25.707             1.189            15.531
       143   06 Jun 2027 08:25:29.121   06 Jun 2027 08:25:29.121             0.000             0.000
       144   06 Jun 2027 08:25:44.951   06 Jun 2027 08:25:47.040             2.089           545.875
       145   06 Jun 2027 08:26:36.708   06 Jun 2027 08:26:36.708             0.000             0.000
       146   06 Jun 2027 08:27:25.772   06 Jun 2027 08:27:28.592             2.820          1410.000
       147   06 Jun 2027 09:59:11.460   06 Jun 2027 09:59:19.511             8.051          2974.156
       148   06 Jun 2027 10:00:24.085   06 Jun 2027 10:00:28.157             4.072          1867.250
       149   06 Jun 2027 10:00:50.723   06 Jun 2027 10:00:53.834             3.111           339.375
       150   06 Jun 2027 10:02:06.087   06 Jun 2027 10:02:09.111             3.024          1350.500
       151   06 Jun 2027 10:04:16.595   06 Jun 2027 10:04:25.715             9.120          3742.156
       152   06 Jun 2027 10:05:29.057   06 Jun 2027 10:05:34.120             5.063          1378.500
       153   06 Jun 2027 11:35:28.979   06 Jun 2027 11:35:40.825            11.846          5772.125
       154   06 Jun 2027 11:36:54.352   06 Jun 2027 11:36:59.475             5.123          1052.563
       155   06 Jun 2027 11:37:21.973   06 Jun 2027 11:37:25.002             3.029           703.062
       156   06 Jun 2027 11:38:12.687   06 Jun 2027 11:38:15.177             2.490           306.469
       157   06 Jun 2027 11:38:46.401   06 Jun 2027 11:38:47.104             0.703            10.937
       158   06 Jun 2027 11:39:19.391   06 Jun 2027 11:39:21.145             1.754           648.375
       159   06 Jun 2027 11:40:24.346   06 Jun 2027 11:40:31.952             7.606          1656.469
       160   06 Jun 2027 11:40:50.903   06 Jun 2027 11:40:53.620             2.717           549.406
       161   06 Jun 2027 11:41:02.304   06 Jun 2027 11:41:05.289             2.985           157.656
       162   06 Jun 2027 11:41:21.744   06 Jun 2027 11:41:28.529             6.785           407.781
       163   07 Jun 2027 03:58:54.833   07 Jun 2027 04:01:43.471           168.638         84319.000
       164   07 Jun 2027 04:02:19.028   07 Jun 2027 04:02:54.140            35.112         17556.000
       165   07 Jun 2027 04:05:45.611   07 Jun 2027 04:05:59.096            13.485          6742.500
       166   07 Jun 2027 05:36:00.860   07 Jun 2027 05:36:42.998            42.138         21069.000
       167   07 Jun 2027 05:36:48.743   07 Jun 2027 05:37:58.269            69.526         34726.312
       168   07 Jun 2027 05:39:26.752   07 Jun 2027 05:39:30.767             4.015          2006.031
       169   07 Jun 2027 07:00:00.586   07 Jun 2027 07:00:12.516            11.930          5787.531
       170   07 Jun 2027 07:00:26.508   07 Jun 2027 07:00:26.508             0.000             0.000
       171   07 Jun 2027 07:00:52.557   07 Jun 2027 07:00:56.995             4.438          1092.125
       172   07 Jun 2027 07:02:01.601   07 Jun 2027 07:02:01.601             0.000             0.000
       173   07 Jun 2027 08:35:45.440   07 Jun 2027 08:35:52.674             7.234          3444.875
       174   07 Jun 2027 08:37:52.501   07 Jun 2027 08:37:59.706             7.205          3455.750
       175   07 Jun 2027 08:38:07.875   07 Jun 2027 08:38:10.132             2.257            25.094
       176   07 Jun 2027 08:38:34.791   07 Jun 2027 08:38:36.287             1.496           497.594
       177   07 Jun 2027 10:10:37.308   07 Jun 2027 10:10:45.135             7.827          2987.656
       178   07 Jun 2027 10:12:25.142   07 Jun 2027 10:12:30.880             5.738          2388.719
       179   07 Jun 2027 10:13:37.470   07 Jun 2027 10:13:37.955             0.485           170.969
       180   07 Jun 2027 10:14:01.459   07 Jun 2027 10:14:01.459             0.000             0.000
       181   07 Jun 2027 10:16:16.199   07 Jun 2027 10:16:25.806             9.607          4728.750
       182   07 Jun 2027 10:17:24.395   07 Jun 2027 10:17:27.594             3.199          1125.313
       183   07 Jun 2027 11:47:12.223   07 Jun 2027 11:47:27.079            14.856          6410.937
       184   07 Jun 2027 11:49:04.982   07 Jun 2027 11:49:12.472             7.490          1869.250
       185   07 Jun 2027 11:51:00.776   07 Jun 2027 11:51:05.972             5.196          2197.000
       186   07 Jun 2027 11:51:20.361   07 Jun 2027 11:51:22.060             1.699           449.656
       187   07 Jun 2027 11:52:41.510   07 Jun 2027 11:52:45.202             3.692          1169.531
       188   07 Jun 2027 11:53:04.397   07 Jun 2027 11:53:06.661             2.264           190.938
       189   07 Jun 2027 11:53:15.249   07 Jun 2027 11:53:15.411             0.162            53.187
       190   07 Jun 2027 11:53:16.025   07 Jun 2027 11:53:17.308             1.283            17.719
       191   08 Jun 2027 04:11:15.446   08 Jun 2027 04:14:29.234           193.788         96894.000
       192   08 Jun 2027 04:16:12.279   08 Jun 2027 04:16:22.154             9.875          4937.500
       193   08 Jun 2027 04:17:12.041   08 Jun 2027 04:17:15.703             3.662          1831.000
       194   08 Jun 2027 05:36:32.880   08 Jun 2027 05:36:51.928            19.048          9524.000
       195   08 Jun 2027 05:47:59.222   08 Jun 2027 05:49:27.692            88.470         44235.000
       196   08 Jun 2027 07:10:38.625   08 Jun 2027 07:10:57.337            18.712          7875.156
       197   08 Jun 2027 07:12:43.332   08 Jun 2027 07:12:49.164             5.832          2653.750
       198   08 Jun 2027 07:13:28.900   08 Jun 2027 07:13:28.900             0.000             0.000
       199   08 Jun 2027 07:13:54.779   08 Jun 2027 07:14:02.516             7.737          1900.500
       200   08 Jun 2027 07:14:58.022   08 Jun 2027 07:15:13.312            15.290          1613.437
       201   08 Jun 2027 08:45:59.734   08 Jun 2027 08:46:03.035             3.301          1650.500
       202   08 Jun 2027 08:46:53.396   08 Jun 2027 08:46:56.639             3.243          1621.500
       203   08 Jun 2027 08:48:16.764   08 Jun 2027 08:48:21.864             5.100          1972.719
       204   08 Jun 2027 08:49:06.876   08 Jun 2027 08:49:09.602             2.726          1185.500
       205   08 Jun 2027 08:50:29.916   08 Jun 2027 08:50:38.189             8.273          2466.125
       206   08 Jun 2027 08:51:03.168   08 Jun 2027 08:51:06.161             2.993           780.594
       207   08 Jun 2027 08:51:50.369   08 Jun 2027 08:51:52.494             2.125           773.156
       208   08 Jun 2027 10:22:27.799   08 Jun 2027 10:22:33.175             5.376          2158.125
       209   08 Jun 2027 10:24:25.715   08 Jun 2027 10:24:34.010             8.295          3110.938
       210   08 Jun 2027 10:25:17.175   08 Jun 2027 10:25:19.853             2.678          1224.063
       211   08 Jun 2027 10:25:55.122   08 Jun 2027 10:25:55.239             0.117            58.500
       212   08 Jun 2027 10:26:53.488   08 Jun 2027 10:27:02.787             9.299          2143.781
       213   08 Jun 2027 10:27:31.200   08 Jun 2027 10:27:34.229             3.029           806.594
       214   08 Jun 2027 10:27:45.462   08 Jun 2027 10:27:50.019             4.557           330.812
       215   08 Jun 2027 10:28:34.312   08 Jun 2027 10:28:38.229             3.917          1192.688
       216   08 Jun 2027 10:29:17.923   08 Jun 2027 10:29:18.843             0.920            24.031
       217   08 Jun 2027 10:29:25.598   08 Jun 2027 10:29:28.600             3.002           209.875
       218   08 Jun 2027 11:59:33.759   08 Jun 2027 11:59:48.357            14.598          6981.187
       219   09 Jun 2027 04:23:29.648   09 Jun 2027 04:25:56.149           146.501         73250.500
       220   09 Jun 2027 04:26:46.459   09 Jun 2027 04:26:48.361             1.902           951.000
       221   09 Jun 2027 04:28:31.464   09 Jun 2027 04:29:08.775            37.311         18655.500
       222   09 Jun 2027 05:47:46.878   09 Jun 2027 05:48:24.570            37.692         18846.000
       223   09 Jun 2027 05:59:58.522   09 Jun 2027 06:00:56.938            58.416         29208.000
       224   09 Jun 2027 07:22:14.981   09 Jun 2027 07:22:59.296            44.315         21768.532
       225   09 Jun 2027 07:24:10.460   09 Jun 2027 07:24:15.384             4.924          1918.250
       226   09 Jun 2027 07:24:30.877   09 Jun 2027 07:24:32.963             2.086           205.437
       227   09 Jun 2027 07:25:32.240   09 Jun 2027 07:25:36.433             4.193          1545.188
       228   09 Jun 2027 07:26:54.043   09 Jun 2027 07:26:54.043             0.000             0.000
       229   09 Jun 2027 08:57:08.785   09 Jun 2027 08:57:16.945             8.160          3783.312
       230   09 Jun 2027 08:58:18.809   09 Jun 2027 08:58:25.844             7.035           362.750
       231   09 Jun 2027 08:59:27.019   09 Jun 2027 08:59:30.233             3.214          1331.469
       232   09 Jun 2027 09:00:50.414   09 Jun 2027 09:00:50.414             0.000             0.000
       233   09 Jun 2027 09:01:15.766   09 Jun 2027 09:01:22.744             6.978          3207.781
       234   09 Jun 2027 09:04:07.838   09 Jun 2027 09:04:16.967             9.129          3132.906
       235   09 Jun 2027 09:05:12.599   09 Jun 2027 09:05:15.821             3.222          1102.750
       236   09 Jun 2027 10:34:42.271   09 Jun 2027 10:34:54.595            12.324          4660.656
       237   09 Jun 2027 10:37:46.541   09 Jun 2027 10:37:52.527             5.986          2525.625
       238   09 Jun 2027 10:38:22.272   09 Jun 2027 10:38:29.666             7.394           183.250
       239   09 Jun 2027 10:39:05.828   09 Jun 2027 10:39:06.879             1.051           269.875
       240   09 Jun 2027 10:39:56.932   09 Jun 2027 10:40:00.768             3.836           470.531
       241   09 Jun 2027 10:40:43.023   09 Jun 2027 10:40:45.133             2.110           936.719
       242   09 Jun 2027 10:41:09.192   09 Jun 2027 10:41:10.656             1.464           710.937
       243   09 Jun 2027 10:41:44.534   09 Jun 2027 10:41:50.749             6.215           662.687
       244   09 Jun 2027 10:42:01.986   09 Jun 2027 10:42:02.283             0.297           148.500
       245   10 Jun 2027 03:00:00.000   10 Jun 2027 03:00:16.515            16.515          8257.500
       246   10 Jun 2027 03:01:39.182   10 Jun 2027 03:01:43.942             4.760          2380.000
       247   10 Jun 2027 04:35:34.697   10 Jun 2027 04:38:11.924           157.227         78613.500
       248   10 Jun 2027 04:38:37.657   10 Jun 2027 04:39:15.997            38.340         19170.000
       249   10 Jun 2027 04:39:34.857   10 Jun 2027 04:40:05.427            30.570         15285.000
       250   10 Jun 2027 04:41:35.505   10 Jun 2027 04:41:58.167            22.662         11331.000
       251   10 Jun 2027 05:59:52.294   10 Jun 2027 06:00:22.426            30.132         15066.000
       252   10 Jun 2027 06:01:34.632   10 Jun 2027 06:01:45.890            11.258          5629.000
       253   10 Jun 2027 06:12:14.357   10 Jun 2027 06:12:31.350            16.993          8496.500
       254   10 Jun 2027 07:33:44.556   10 Jun 2027 07:34:11.949            27.393         12232.156
       255   10 Jun 2027 07:34:45.284   10 Jun 2027 07:34:47.082             1.798           697.344
       256   10 Jun 2027 07:36:18.673   10 Jun 2027 07:36:23.018             4.345          1642.906
       257   10 Jun 2027 07:36:32.562   10 Jun 2027 07:36:37.240             4.678           151.531
       258   10 Jun 2027 07:37:31.893   10 Jun 2027 07:37:37.625             5.732          1571.156
       259   10 Jun 2027 07:37:44.975   10 Jun 2027 07:37:45.730             0.755           229.688
       260   10 Jun 2027 07:38:22.923   10 Jun 2027 07:38:25.478             2.555           604.781
       261   10 Jun 2027 07:39:02.808   10 Jun 2027 07:39:04.624             1.816           835.062
       262   10 Jun 2027 09:08:39.510   10 Jun 2027 09:08:45.244             5.734          2842.531
       263   10 Jun 2027 09:09:29.002   10 Jun 2027 09:09:33.185             4.183           220.344
       264   10 Jun 2027 09:10:51.754   10 Jun 2027 09:11:01.388             9.634           190.437
       265   10 Jun 2027 09:12:50.922   10 Jun 2027 09:12:58.724             7.802          3302.219
       266   10 Jun 2027 09:14:30.528   10 Jun 2027 09:14:36.680             6.152          2489.438
       267   10 Jun 2027 09:16:40.461   10 Jun 2027 09:16:47.106             6.645          2345.437
       268   10 Jun 2027 09:17:11.559   10 Jun 2027 09:17:14.377             2.818            58.313
       269   10 Jun 2027 10:46:36.423   10 Jun 2027 10:46:48.339            11.916          4250.844
       270   10 Jun 2027 10:47:03.864   10 Jun 2027 10:47:03.864             0.000             0.000
       271   10 Jun 2027 10:48:25.061   10 Jun 2027 10:48:32.415             7.354          3022.563
       272   10 Jun 2027 10:48:49.281   10 Jun 2027 10:48:51.331             2.050           406.687
       273   10 Jun 2027 10:50:14.479   10 Jun 2027 10:50:17.236             2.757          1246.031
       274   10 Jun 2027 10:50:52.095   10 Jun 2027 10:50:52.997             0.902           366.781
       275   10 Jun 2027 10:51:03.514   10 Jun 2027 10:51:05.584             2.070           328.656
       276   10 Jun 2027 10:51:34.696   10 Jun 2027 10:51:38.721             4.025           883.344
       277   10 Jun 2027 10:51:56.758   10 Jun 2027 10:51:58.167             1.409           176.719
       278   10 Jun 2027 10:52:47.112   10 Jun 2027 10:52:52.932             5.820          1244.250
       279   10 Jun 2027 10:53:02.447   10 Jun 2027 10:53:06.094             3.647           152.844
       280   10 Jun 2027 10:53:19.066   10 Jun 2027 10:53:22.651             3.585            31.187
       281   10 Jun 2027 10:53:49.848   10 Jun 2027 10:53:54.048             4.200           704.813
       282   11 Jun 2027 03:09:28.488   11 Jun 2027 03:10:42.777            74.289         37144.500
       283   11 Jun 2027 03:11:23.785   11 Jun 2027 03:11:29.113             5.328          2664.000
       284   11 Jun 2027 03:11:38.810   11 Jun 2027 03:11:41.763             2.953          1476.500
       285   11 Jun 2027 03:14:08.504   11 Jun 2027 03:14:31.400            22.896         11448.000
       286   11 Jun 2027 04:47:59.407   11 Jun 2027 04:51:11.512           192.105         95960.000
       287   11 Jun 2027 04:52:16.082   11 Jun 2027 04:52:19.060             2.978          1480.062
       288   11 Jun 2027 04:52:44.173   11 Jun 2027 04:52:46.173             2.000           783.938
       289   11 Jun 2027 06:11:48.798   11 Jun 2027 06:12:07.107            18.309          8036.250
       290   11 Jun 2027 06:12:56.529   11 Jun 2027 06:13:02.911             6.382          1210.969
       291   11 Jun 2027 06:13:53.237   11 Jun 2027 06:13:57.548             4.311          1547.750
       292   11 Jun 2027 07:47:47.849   11 Jun 2027 07:48:01.320            13.471          4121.000
       293   11 Jun 2027 07:48:39.625   11 Jun 2027 07:48:46.580             6.955           888.062
       294   11 Jun 2027 07:49:45.127   11 Jun 2027 07:49:49.008             3.881          1417.688
       295   11 Jun 2027 07:50:08.417   11 Jun 2027 07:50:10.116             1.699           237.156
       296   11 Jun 2027 07:50:38.614   11 Jun 2027 07:50:41.040             2.426            54.125
       297   11 Jun 2027 09:21:33.521   11 Jun 2027 09:21:41.225             7.704          3329.156
       298   11 Jun 2027 09:23:12.333   11 Jun 2027 09:23:18.788             6.455           807.969
       299   11 Jun 2027 09:23:45.076   11 Jun 2027 09:23:46.289             1.213           229.250
       300   11 Jun 2027 09:24:06.530   11 Jun 2027 09:24:07.621             1.091           392.844
       301   11 Jun 2027 09:26:29.921   11 Jun 2027 09:26:38.277             8.356          3536.281
       302   11 Jun 2027 09:28:18.991   11 Jun 2027 09:28:23.001             4.010          1573.563
       303   11 Jun 2027 09:28:32.224   11 Jun 2027 09:28:37.253             5.029           267.125
       304   11 Jun 2027 09:29:16.077   11 Jun 2027 09:29:21.835             5.758          1167.594
       305   11 Jun 2027 09:30:06.860   11 Jun 2027 09:30:06.948             0.088            44.000
       306   11 Jun 2027 10:58:57.035   11 Jun 2027 10:59:10.049            13.014          6009.063
       307   11 Jun 2027 11:03:10.259   11 Jun 2027 11:03:24.227            13.968          5425.750
       308   11 Jun 2027 11:03:55.816   11 Jun 2027 11:03:58.579             2.763           761.031
       309   11 Jun 2027 11:04:09.545   11 Jun 2027 11:04:11.900             2.355           342.687
       310   11 Jun 2027 11:04:59.438   11 Jun 2027 11:05:07.330             7.892          1326.750
       311   11 Jun 2027 11:05:11.836   11 Jun 2027 11:05:13.174             1.338           122.250
       312   11 Jun 2027 11:05:34.028   11 Jun 2027 11:05:35.395             1.367           645.250
       313   12 Jun 2027 03:22:01.552   12 Jun 2027 03:22:28.172            26.620         13310.000
       314   12 Jun 2027 03:22:39.207   12 Jun 2027 03:24:57.467           138.260         69130.000
       315   12 Jun 2027 03:27:02.568   12 Jun 2027 03:27:05.786             3.218          1609.000
       316   12 Jun 2027 03:27:23.928   12 Jun 2027 03:27:27.446             3.518          1759.000
       317   12 Jun 2027 03:27:43.968   12 Jun 2027 03:28:08.308            24.340         12170.000
       318   12 Jun 2027 05:00:18.064   12 Jun 2027 05:01:53.501            95.437         47451.937
       319   12 Jun 2027 05:02:24.305   12 Jun 2027 05:02:27.801             3.496           250.312
       320   12 Jun 2027 05:02:58.851   12 Jun 2027 05:03:01.978             3.127           324.656
       321   12 Jun 2027 05:03:40.082   12 Jun 2027 05:03:43.571             3.489          1031.063
       322   12 Jun 2027 06:23:40.247   12 Jun 2027 06:23:52.833            12.586          6172.250
       323   12 Jun 2027 06:24:57.776   12 Jun 2027 06:24:57.776             0.000             0.000
       324   12 Jun 2027 06:25:05.069   12 Jun 2027 06:25:09.048             3.979          1715.031
       325   12 Jun 2027 06:25:17.494   12 Jun 2027 06:25:19.264             1.770           263.938
       326   12 Jun 2027 06:26:07.616   12 Jun 2027 06:26:15.161             7.545          1511.000
       327   12 Jun 2027 08:00:02.397   12 Jun 2027 08:00:19.286            16.889          6527.625
       328   12 Jun 2027 08:00:36.626   12 Jun 2027 08:00:36.754             0.128            64.000
       329   12 Jun 2027 08:01:01.618   12 Jun 2027 08:01:04.994             3.376           993.156
       330   12 Jun 2027 08:01:28.789   12 Jun 2027 08:01:33.672             4.883            28.187
       331   12 Jun 2027 08:02:55.384   12 Jun 2027 08:03:02.266             6.882          1892.062
       332   12 Jun 2027 09:34:06.426   12 Jun 2027 09:34:14.297             7.871          3606.250
       333   12 Jun 2027 09:36:12.124   12 Jun 2027 09:36:13.877             1.753           373.094
       334   12 Jun 2027 09:36:52.291   12 Jun 2027 09:37:02.030             9.739           419.281
       335   12 Jun 2027 09:38:28.567   12 Jun 2027 09:38:34.597             6.030          2116.344
       336   12 Jun 2027 09:39:40.596   12 Jun 2027 09:39:44.617             4.021          1672.219
       337   12 Jun 2027 09:40:38.141   12 Jun 2027 09:40:42.159             4.018           391.094
       338   12 Jun 2027 09:41:07.158   12 Jun 2027 09:41:09.621             2.463           525.625
       339   12 Jun 2027 09:41:59.744   12 Jun 2027 09:41:59.744             0.000             0.000
       340   12 Jun 2027 09:42:02.999   12 Jun 2027 09:42:05.759             2.760           874.094
       341   12 Jun 2027 11:11:11.015   12 Jun 2027 11:11:23.325            12.310          5676.125
       342   12 Jun 2027 11:13:16.938   12 Jun 2027 11:13:18.924             1.986           904.250
       343   12 Jun 2027 11:14:22.408   12 Jun 2027 11:14:30.565             8.157           717.094
       344   12 Jun 2027 11:15:10.462   12 Jun 2027 11:15:11.214             0.752           330.406
       345   12 Jun 2027 11:15:35.287   12 Jun 2027 11:15:37.420             2.133           415.625
       346   12 Jun 2027 11:16:06.270   12 Jun 2027 11:16:08.443             2.173           690.250
       347   12 Jun 2027 11:17:13.425   12 Jun 2027 11:17:17.856             4.431          1647.469
       348   12 Jun 2027 11:17:43.612   12 Jun 2027 11:17:44.361             0.749           340.250
       349   12 Jun 2027 11:17:49.603   12 Jun 2027 11:17:53.507             3.904            63.375
       350   13 Jun 2027 03:34:07.818   13 Jun 2027 03:35:09.256            61.438         30719.000
       351   13 Jun 2027 03:35:15.404   13 Jun 2027 03:37:38.201           142.797         71398.500
       352   13 Jun 2027 03:39:08.699   13 Jun 2027 03:39:33.460            24.761         12380.500
       353   13 Jun 2027 05:13:11.298   13 Jun 2027 05:14:41.603            90.305         44534.875
       354   13 Jun 2027 05:16:01.712   13 Jun 2027 05:16:06.547             4.835          2009.594
       355   13 Jun 2027 06:35:44.008   13 Jun 2027 06:35:54.855            10.847          5316.625
       356   13 Jun 2027 06:37:06.627   13 Jun 2027 06:37:12.282             5.655          2092.812
       357   13 Jun 2027 06:37:38.274   13 Jun 2027 06:37:40.085             1.811           812.250
       358   13 Jun 2027 08:12:13.190   13 Jun 2027 08:12:21.157             7.967          2745.656
       359   13 Jun 2027 08:13:03.361   13 Jun 2027 08:13:03.372             0.011             5.500
       360   13 Jun 2027 08:13:17.751   13 Jun 2027 08:13:23.849             6.098          1414.000
       361   13 Jun 2027 08:13:45.758   13 Jun 2027 08:13:47.540             1.782            71.188
       362   13 Jun 2027 08:14:30.481   13 Jun 2027 08:14:33.850             3.369          1214.469
       363   13 Jun 2027 08:15:12.652   13 Jun 2027 08:15:16.395             3.743           927.438
       364   13 Jun 2027 09:47:18.189   13 Jun 2027 09:47:24.457             6.268          2718.438
       365   13 Jun 2027 09:48:24.667   13 Jun 2027 09:48:24.667             0.000             0.000
       366   13 Jun 2027 09:48:33.722   13 Jun 2027 09:48:37.889             4.167          1315.281
       367   13 Jun 2027 09:49:29.858   13 Jun 2027 09:49:33.864             4.006          1537.000
       368   13 Jun 2027 09:50:35.911   13 Jun 2027 09:50:37.985             2.074           300.437
       369   13 Jun 2027 09:52:34.091   13 Jun 2027 09:52:40.617             6.526          3006.656
       370   13 Jun 2027 09:53:57.650   13 Jun 2027 09:54:04.046             6.396          1961.187
       371   13 Jun 2027 11:23:40.254   13 Jun 2027 11:23:52.305            12.051          4695.219
       372   13 Jun 2027 11:25:16.415   13 Jun 2027 11:25:21.051             4.636          1533.906
       373   13 Jun 2027 11:25:56.644   13 Jun 2027 11:25:58.294             1.650           763.312
       374   13 Jun 2027 11:26:51.196   13 Jun 2027 11:26:55.940             4.744          1653.187
       375   13 Jun 2027 11:27:49.247   13 Jun 2027 11:27:56.953             7.706          1665.844
       376   13 Jun 2027 11:29:05.463   13 Jun 2027 11:29:11.159             5.696          1660.500
       377   13 Jun 2027 11:29:16.992   13 Jun 2027 11:29:18.913             1.921           182.281
       378   13 Jun 2027 11:29:36.197   13 Jun 2027 11:29:37.424             1.227           537.219
