uniorb/output/strategy_4/Camera/Camera_KinoSat_110208.txt

KinoSat_110208
-------------------------
    Access    *     Start Time (UTCG)     *     Stop Time (UTCG)  *   Duration (s) *   Data (Mbytes)
         1   01 Jun 2027 03:32:21.437   01 Jun 2027 03:33:16.715            55.278         27639.000
         2   01 Jun 2027 03:33:48.593   01 Jun 2027 03:34:21.621            33.028         16514.000
         3   01 Jun 2027 03:34:47.828   01 Jun 2027 03:34:49.839             2.011          1005.500
         4   01 Jun 2027 03:35:04.107   01 Jun 2027 03:35:21.319            17.212          8606.000
         5   01 Jun 2027 03:36:14.764   01 Jun 2027 03:36:31.282            16.518          8259.000
         6   01 Jun 2027 03:38:29.226   01 Jun 2027 03:39:41.163            71.937         35968.500
         7   01 Jun 2027 05:09:06.656   01 Jun 2027 05:11:36.621           149.965         74982.500
         8   01 Jun 2027 05:13:20.536   01 Jun 2027 05:13:39.798            19.262          9631.000
         9   01 Jun 2027 05:13:59.529   01 Jun 2027 05:14:26.574            27.045         13522.500
        10   01 Jun 2027 05:15:35.585   01 Jun 2027 05:15:47.972            12.387          6193.500
        11   01 Jun 2027 06:47:11.416   01 Jun 2027 06:49:37.709           146.293         73146.500
        12   01 Jun 2027 06:49:59.933   01 Jun 2027 06:50:06.559             6.626          3313.000
        13   01 Jun 2027 06:50:17.831   01 Jun 2027 06:50:23.524             5.693          2846.500
        14   01 Jun 2027 06:51:19.902   01 Jun 2027 06:51:20.472             0.570           285.000
        15   01 Jun 2027 08:20:57.610   01 Jun 2027 08:22:49.429           111.819         55909.500
        16   01 Jun 2027 08:23:35.318   01 Jun 2027 08:24:33.005            57.687         28843.500
        17   01 Jun 2027 08:27:22.248   01 Jun 2027 08:27:42.410            20.162         10081.000
        18   02 Jun 2027 03:44:21.533   02 Jun 2027 03:51:48.278           446.745        223372.500
        19   02 Jun 2027 05:21:14.910   02 Jun 2027 05:24:39.574           204.664        102332.000
        20   02 Jun 2027 05:25:45.015   02 Jun 2027 05:26:22.737            37.722         18861.000
        21   02 Jun 2027 05:26:33.981   02 Jun 2027 05:27:26.817            52.836         26418.000
        22   02 Jun 2027 06:58:24.514   02 Jun 2027 07:03:18.741           294.227        147113.500
        23   02 Jun 2027 08:33:12.118   02 Jun 2027 08:34:23.596            71.478         35739.000
        24   02 Jun 2027 08:35:24.305   02 Jun 2027 08:38:28.543           184.238         92119.000
        25   03 Jun 2027 03:56:44.199   03 Jun 2027 04:03:33.313           409.114        204557.000
        26   03 Jun 2027 05:33:43.079   03 Jun 2027 05:38:13.023           269.944        134972.000
        27   03 Jun 2027 05:38:45.524   03 Jun 2027 05:39:34.751            49.227         24613.500
        28   03 Jun 2027 07:11:05.056   03 Jun 2027 07:15:13.626           248.570        124285.000
        29   03 Jun 2027 08:47:46.741   03 Jun 2027 08:50:15.428           148.687         74343.500
        30   04 Jun 2027 04:08:53.208   04 Jun 2027 04:15:37.851           404.643        202321.500
        31   04 Jun 2027 05:46:12.383   04 Jun 2027 05:50:18.645           246.262        123131.000
        32   04 Jun 2027 05:50:20.901   04 Jun 2027 05:50:59.798            38.897         19448.500
        33   04 Jun 2027 07:22:59.762   04 Jun 2027 07:27:44.716           284.954        142477.000
        34   04 Jun 2027 09:00:54.874   04 Jun 2027 09:01:36.752            41.878         20939.000
        35   05 Jun 2027 04:21:27.065   05 Jun 2027 04:27:43.862           376.797        188398.500
        36   05 Jun 2027 05:58:50.305   05 Jun 2027 06:03:22.638           272.333        136166.500
        37   05 Jun 2027 07:35:29.773   05 Jun 2027 07:39:15.463           225.690        112845.000
        38   06 Jun 2027 03:00:00.000   06 Jun 2027 03:03:51.631           231.631        115815.500
        39   06 Jun 2027 04:33:05.824   06 Jun 2027 04:39:25.255           379.431        189715.500
        40   06 Jun 2027 06:11:05.196   06 Jun 2027 06:15:29.219           264.023        132011.500
        41   06 Jun 2027 07:46:56.849   06 Jun 2027 07:51:09.630           252.781        126390.500
        42   06 Jun 2027 07:51:57.345   06 Jun 2027 07:52:06.951             9.606          4803.000
        43   07 Jun 2027 03:08:25.606   07 Jun 2027 03:15:58.678           453.072        226536.000
        44   07 Jun 2027 04:45:15.232   07 Jun 2027 04:51:34.657           379.425        189712.500
        45   07 Jun 2027 06:23:27.417   07 Jun 2027 06:27:23.601           236.184        118092.000
        46   07 Jun 2027 07:56:53.571   07 Jun 2027 07:58:17.685            84.114         42057.000
        47   07 Jun 2027 07:58:44.749   07 Jun 2027 08:03:06.979           262.230        131115.000
        48   07 Jun 2027 08:03:50.043   07 Jun 2027 08:04:29.570            39.527         19763.500
        49   08 Jun 2027 03:20:33.654   08 Jun 2027 03:27:57.877           444.223        222111.500
        50   08 Jun 2027 04:57:31.724   08 Jun 2027 05:03:25.133           353.409        176704.500
        51   08 Jun 2027 06:35:27.156   08 Jun 2027 06:39:26.189           239.033        119516.500
        52   08 Jun 2027 08:08:46.979   08 Jun 2027 08:15:02.823           375.844        187922.000
        53   08 Jun 2027 08:15:04.996   08 Jun 2027 08:16:30.930            85.934         42967.000
        54   09 Jun 2027 03:32:35.605   09 Jun 2027 03:40:01.580           445.975        222987.500
        55   09 Jun 2027 05:09:21.425   09 Jun 2027 05:15:23.940           362.515        181257.500
        56   09 Jun 2027 05:15:53.242   09 Jun 2027 05:16:02.902             9.660          4830.000
        57   09 Jun 2027 06:47:26.385   09 Jun 2027 06:51:35.253           248.868        124434.000
        58   09 Jun 2027 08:21:26.693   09 Jun 2027 08:28:01.193           394.500        197250.000
        59   10 Jun 2027 03:44:36.194   10 Jun 2027 03:52:03.031           446.837        223418.500
        60   10 Jun 2027 05:21:30.127   10 Jun 2027 05:26:37.394           307.267        153633.500
        61   10 Jun 2027 05:26:48.693   10 Jun 2027 05:27:57.137            68.444         34222.000
        62   10 Jun 2027 06:58:56.035   10 Jun 2027 07:03:33.532           277.497        138748.500
        63   10 Jun 2027 08:33:28.815   10 Jun 2027 08:34:26.261            57.446         28723.000
        64   10 Jun 2027 08:35:26.209   10 Jun 2027 08:38:43.169           196.960         98480.000
        65   11 Jun 2027 03:57:01.260   11 Jun 2027 04:03:48.201           406.941        203470.500
        66   11 Jun 2027 05:33:57.959   11 Jun 2027 05:38:27.887           269.928        134964.000
        67   11 Jun 2027 05:39:06.689   11 Jun 2027 05:39:49.602            42.913         21456.500
        68   11 Jun 2027 07:11:08.432   11 Jun 2027 07:15:28.127           259.695        129847.500
        69   11 Jun 2027 08:48:01.988   11 Jun 2027 08:50:30.021           148.033         74016.500
        70   12 Jun 2027 04:09:08.382   12 Jun 2027 04:15:52.771           404.389        202194.500
        71   12 Jun 2027 05:46:29.458   12 Jun 2027 05:50:33.653           244.195        122097.500
        72   12 Jun 2027 05:51:05.504   12 Jun 2027 05:51:14.901             9.397          4698.500
        73   12 Jun 2027 07:22:53.679   12 Jun 2027 07:27:59.433           305.754        152877.000
        74   12 Jun 2027 09:01:13.253   12 Jun 2027 09:01:51.185            37.932         18966.000
        75   13 Jun 2027 04:21:42.062   13 Jun 2027 04:27:58.740           376.678        188339.000
        76   13 Jun 2027 05:59:05.025   13 Jun 2027 06:03:37.632           272.607        136303.500
        77   13 Jun 2027 07:35:46.950   13 Jun 2027 07:39:51.039           244.089        122044.500
