uniorb/output/strategy_4/Camera/Camera_KinoSat_112004.txt

KinoSat_112004
-------------------------
    Access    *     Start Time (UTCG)     *     Stop Time (UTCG)  *   Duration (s) *   Data (Mbytes)
         1   01 Jun 2027 03:06:25.068   01 Jun 2027 03:07:21.090            56.022         28011.000
         2   01 Jun 2027 03:07:42.902   01 Jun 2027 03:07:58.223            15.321          7660.500
         3   01 Jun 2027 03:08:41.671   01 Jun 2027 03:08:41.859             0.188            94.000
         4   01 Jun 2027 03:09:05.916   01 Jun 2027 03:09:15.695             9.779          4889.500
         5   01 Jun 2027 03:10:20.492   01 Jun 2027 03:10:30.815            10.323          5161.500
         6   01 Jun 2027 03:11:08.389   01 Jun 2027 03:11:16.529             8.140          4070.000
         7   01 Jun 2027 03:12:02.781   01 Jun 2027 03:12:07.537             4.756          2378.000
         8   01 Jun 2027 03:12:13.803   01 Jun 2027 03:12:14.092             0.289           144.500
         9   01 Jun 2027 03:12:36.341   01 Jun 2027 03:12:48.451            12.110          6055.000
        10   01 Jun 2027 04:43:39.164   01 Jun 2027 04:43:43.879             4.715          2357.500
        11   01 Jun 2027 04:44:00.277   01 Jun 2027 04:45:24.001            83.724         41862.000
        12   01 Jun 2027 04:46:09.682   01 Jun 2027 04:46:27.377            17.695          8847.500
        13   01 Jun 2027 04:48:06.159   01 Jun 2027 04:48:18.692            12.533          6266.500
        14   01 Jun 2027 06:22:21.282   01 Jun 2027 06:24:17.861           116.579         58289.500
        15   01 Jun 2027 06:24:37.607   01 Jun 2027 06:24:40.637             3.030          1515.000
        16   01 Jun 2027 06:25:17.280   01 Jun 2027 06:25:24.808             7.528          3764.000
        17   01 Jun 2027 06:25:58.655   01 Jun 2027 06:26:02.298             3.643          1821.500
        18   01 Jun 2027 06:26:37.166   01 Jun 2027 06:27:03.226            26.060         13030.000
        19   01 Jun 2027 07:46:28.819   01 Jun 2027 07:47:05.865            37.046         18523.000
        20   01 Jun 2027 07:47:31.040   01 Jun 2027 07:47:44.931            13.891          6945.500
        21   01 Jun 2027 09:20:18.412   01 Jun 2027 09:22:25.887           127.475         63737.500
        22   01 Jun 2027 09:23:03.984   01 Jun 2027 09:23:30.517            26.533         13266.500
        23   01 Jun 2027 09:25:26.894   01 Jun 2027 09:26:23.133            56.239         28119.500
        24   01 Jun 2027 10:55:10.886   01 Jun 2027 10:56:18.785            67.899         33949.500
        25   01 Jun 2027 10:57:45.829   01 Jun 2027 10:57:45.829             0.000             0.000
        26   01 Jun 2027 10:58:26.824   01 Jun 2027 10:58:58.765            31.941         15970.500
        27   02 Jun 2027 03:18:24.893   02 Jun 2027 03:18:59.795            34.902         17451.000
        28   02 Jun 2027 03:20:41.743   02 Jun 2027 03:21:43.302            61.559         30779.500
        29   02 Jun 2027 03:22:08.633   02 Jun 2027 03:22:58.240            49.607         24803.500
        30   02 Jun 2027 03:24:36.375   02 Jun 2027 03:24:56.182            19.807          9903.500
        31   02 Jun 2027 04:56:32.638   02 Jun 2027 04:57:30.858            58.220         29110.000
        32   02 Jun 2027 04:57:36.632   02 Jun 2027 04:58:49.921            73.289         36644.500
        33   02 Jun 2027 05:01:29.674   02 Jun 2027 05:01:50.418            20.744         10372.000
        34   02 Jun 2027 06:34:58.086   02 Jun 2027 06:37:48.691           170.605         85302.500
        35   02 Jun 2027 06:37:57.348   02 Jun 2027 06:39:03.873            66.525         33262.500
        36   02 Jun 2027 06:39:27.848   02 Jun 2027 06:39:39.432            11.584          5792.000
        37   02 Jun 2027 07:58:26.696   02 Jun 2027 08:00:12.936           106.240         53120.000
        38   02 Jun 2027 09:34:27.375   02 Jun 2027 09:35:47.084            79.709         39335.000
        39   02 Jun 2027 09:37:06.379   02 Jun 2027 09:37:14.386             8.007          2331.375
        40   02 Jun 2027 11:08:11.155   02 Jun 2027 11:08:21.341            10.186          4993.937
        41   02 Jun 2027 11:10:46.625   02 Jun 2027 11:10:53.503             6.878           925.344
        42   02 Jun 2027 11:11:29.144   02 Jun 2027 11:11:54.330            25.186          1111.594
        43   02 Jun 2027 11:13:32.972   02 Jun 2027 11:13:35.156             2.184           988.969
        44   02 Jun 2027 11:14:18.703   02 Jun 2027 11:14:21.743             3.040          1360.844
        45   02 Jun 2027 11:15:02.878   02 Jun 2027 11:15:05.100             2.222           811.344
        46   02 Jun 2027 11:16:45.056   02 Jun 2027 11:16:45.860             0.804           402.000
        47   03 Jun 2027 03:30:30.393   03 Jun 2027 03:30:43.150            12.757          6378.500
        48   03 Jun 2027 03:30:55.851   03 Jun 2027 03:31:10.752            14.901          7450.500
        49   03 Jun 2027 03:32:16.866   03 Jun 2027 03:34:23.871           127.005         63502.500
        50   03 Jun 2027 03:35:17.256   03 Jun 2027 03:35:25.649             8.393          4196.500
        51   03 Jun 2027 03:37:28.496   03 Jun 2027 03:38:02.682            34.186         17093.000
        52   03 Jun 2027 05:09:56.303   03 Jun 2027 05:11:11.873            75.570         37785.000
        53   03 Jun 2027 05:11:32.170   03 Jun 2027 05:11:48.086            15.916          7958.000
        54   03 Jun 2027 05:12:17.285   03 Jun 2027 05:13:13.377            56.092         27098.843
        55   03 Jun 2027 05:13:44.609   03 Jun 2027 05:13:47.081             2.472           923.906
        56   03 Jun 2027 05:13:58.897   03 Jun 2027 05:14:00.428             1.531           346.406
        57   03 Jun 2027 06:46:37.215   03 Jun 2027 06:47:02.931            25.716         10413.031
        58   03 Jun 2027 06:47:08.454   03 Jun 2027 06:47:11.132             2.678           133.344
        59   03 Jun 2027 06:47:33.849   03 Jun 2027 06:47:35.026             1.177           349.375
        60   03 Jun 2027 06:48:14.095   03 Jun 2027 06:48:19.028             4.933          1126.656
        61   03 Jun 2027 06:49:35.080   03 Jun 2027 06:49:37.164             2.084           946.187
        62   03 Jun 2027 06:50:44.062   03 Jun 2027 06:50:47.620             3.558          1640.312
        63   03 Jun 2027 08:10:16.790   03 Jun 2027 08:10:32.933            16.143          6850.750
        64   03 Jun 2027 08:12:41.143   03 Jun 2027 08:12:47.990             6.847          3412.313
        65   03 Jun 2027 09:46:43.661   03 Jun 2027 09:46:52.040             8.379          4037.937
        66   03 Jun 2027 09:47:57.565   03 Jun 2027 09:48:03.022             5.457          1030.781
        67   03 Jun 2027 09:48:29.413   03 Jun 2027 09:48:32.921             3.508           117.500
        68   03 Jun 2027 09:48:52.216   03 Jun 2027 09:48:55.029             2.813           573.437
        69   03 Jun 2027 11:22:46.470   03 Jun 2027 11:23:10.358            23.888         10312.063
        70   03 Jun 2027 11:24:39.444   03 Jun 2027 11:24:41.406             1.962           521.563
        71   03 Jun 2027 11:26:02.451   03 Jun 2027 11:26:06.963             4.512          2091.312
        72   03 Jun 2027 11:26:37.249   03 Jun 2027 11:26:38.671             1.422           168.219
        73   03 Jun 2027 11:26:59.897   03 Jun 2027 11:27:00.428             0.531            55.375
        74   03 Jun 2027 11:27:36.104   03 Jun 2027 11:27:39.833             3.729           211.938
        75   03 Jun 2027 11:28:02.889   03 Jun 2027 11:28:10.353             7.464           286.594
        76   03 Jun 2027 11:28:41.617   03 Jun 2027 11:28:43.781             2.164           894.656
        77   04 Jun 2027 03:42:33.263   04 Jun 2027 03:43:19.466            46.203         23101.500
        78   04 Jun 2027 03:43:44.890   04 Jun 2027 03:45:48.240           123.350         61675.000
        79   04 Jun 2027 03:46:11.326   04 Jun 2027 03:46:17.523             6.197          3098.500
        80   04 Jun 2027 03:48:46.250   04 Jun 2027 03:49:12.970            26.720         13360.000
        81   04 Jun 2027 05:20:42.454   04 Jun 2027 05:21:32.744            50.290         25145.000
        82   04 Jun 2027 05:22:40.322   04 Jun 2027 05:23:59.233            78.911         39078.594
        83   04 Jun 2027 05:25:04.975   04 Jun 2027 05:25:11.483             6.508          1947.563
        84   04 Jun 2027 05:25:47.134   04 Jun 2027 05:25:48.714             1.580           790.000
        85   04 Jun 2027 05:26:57.271   04 Jun 2027 05:26:58.125             0.854           427.000
        86   04 Jun 2027 06:59:50.607   04 Jun 2027 07:00:01.590            10.983          4963.219
        87   04 Jun 2027 07:00:28.601   04 Jun 2027 07:00:30.425             1.824           586.812
        88   04 Jun 2027 07:01:24.159   04 Jun 2027 07:01:25.532             1.373           534.031
        89   04 Jun 2027 07:02:03.828   04 Jun 2027 07:02:04.634             0.806           287.250
        90   04 Jun 2027 07:02:20.032   04 Jun 2027 07:02:21.200             1.168           325.250
        91   04 Jun 2027 07:02:28.343   04 Jun 2027 07:02:30.618             2.275             0.062
        92   04 Jun 2027 08:22:24.983   04 Jun 2027 08:22:35.403            10.420          4952.188
        93   04 Jun 2027 08:23:48.945   04 Jun 2027 08:23:55.427             6.482          2137.031
        94   04 Jun 2027 08:24:06.401   04 Jun 2027 08:24:09.462             3.061           159.437
        95   04 Jun 2027 08:25:22.402   04 Jun 2027 08:25:22.402             0.000             0.000
        96   04 Jun 2027 08:25:24.018   04 Jun 2027 08:25:26.455             2.437           347.781
        97   04 Jun 2027 09:58:53.175   04 Jun 2027 09:58:58.999             5.824          2634.563
        98   04 Jun 2027 10:00:31.041   04 Jun 2027 10:00:35.343             4.302          2062.688
        99   04 Jun 2027 10:00:51.765   04 Jun 2027 10:00:52.432             0.667           181.781
       100   04 Jun 2027 10:01:52.836   04 Jun 2027 10:01:55.193             2.357           515.000
       101   04 Jun 2027 11:34:04.367   04 Jun 2027 11:34:26.579            22.212          9740.625
       102   04 Jun 2027 11:37:39.932   04 Jun 2027 11:37:53.781            13.849          3995.594
       103   04 Jun 2027 11:38:38.415   04 Jun 2027 11:38:43.693             5.278          1155.969
       104   04 Jun 2027 11:39:35.281   04 Jun 2027 11:39:37.370             2.089           989.719
       105   04 Jun 2027 11:40:38.235   04 Jun 2027 11:40:43.447             5.212          1599.063
       106   05 Jun 2027 03:54:30.715   05 Jun 2027 03:55:14.185            43.470         21735.000
       107   05 Jun 2027 03:55:14.284   05 Jun 2027 03:57:25.127           130.843         65421.500
       108   05 Jun 2027 05:32:47.357   05 Jun 2027 05:33:04.340            16.983          8491.500
       109   05 Jun 2027 05:33:50.132   05 Jun 2027 05:35:41.677           111.545         55772.500
       110   05 Jun 2027 05:36:06.014   05 Jun 2027 05:36:17.042            11.028          5514.000
       111   05 Jun 2027 05:36:39.677   05 Jun 2027 05:36:46.837             7.160          3580.000
       112   05 Jun 2027 05:41:06.350   05 Jun 2027 05:41:29.575            23.225         11612.500
       113   05 Jun 2027 07:10:59.121   05 Jun 2027 07:11:30.103            30.982         15037.593
       114   05 Jun 2027 07:12:05.109   05 Jun 2027 07:12:07.069             1.960           601.188
       115   05 Jun 2027 07:12:55.647   05 Jun 2027 07:13:01.864             6.217           814.938
       116   05 Jun 2027 07:14:01.604   05 Jun 2027 07:14:07.051             5.447           689.250
       117   05 Jun 2027 08:34:26.516   05 Jun 2027 08:34:51.556            25.040         11117.156
       118   05 Jun 2027 08:35:43.068   05 Jun 2027 08:35:44.746             1.678           361.906
       119   05 Jun 2027 08:37:09.085   05 Jun 2027 08:37:18.174             9.089          2479.688
       120   05 Jun 2027 10:10:54.057   05 Jun 2027 10:11:01.230             7.173          3029.688
       121   05 Jun 2027 10:12:37.479   05 Jun 2027 10:12:42.153             4.674          2267.750
       122   05 Jun 2027 10:13:13.069   05 Jun 2027 10:13:26.997            13.928            97.281
       123   05 Jun 2027 11:46:06.539   05 Jun 2027 11:46:21.621            15.082          5882.156
       124   05 Jun 2027 11:52:27.978   05 Jun 2027 11:52:43.956            15.978          6983.812
       125   06 Jun 2027 04:07:00.747   06 Jun 2027 04:09:44.917           164.170         82085.000
       126   06 Jun 2027 04:10:54.212   06 Jun 2027 04:11:33.588            39.376         19688.000
       127   06 Jun 2027 05:45:52.826   06 Jun 2027 05:47:05.639            72.813         36406.500
       128   06 Jun 2027 05:51:23.298   06 Jun 2027 05:51:31.061             7.763          3881.500
       129   06 Jun 2027 05:52:02.054   06 Jun 2027 05:53:38.463            96.409         47767.969
       130   06 Jun 2027 07:12:01.114   06 Jun 2027 07:12:16.078            14.964          7319.313
       131   06 Jun 2027 07:22:55.257   06 Jun 2027 07:23:02.738             7.481          2777.812
       132   06 Jun 2027 07:24:03.083   06 Jun 2027 07:24:04.595             1.512           748.437
       133   06 Jun 2027 07:25:15.689   06 Jun 2027 07:25:17.023             1.334           432.188
       134   06 Jun 2027 07:26:03.400   06 Jun 2027 07:26:05.867             2.467           730.500
       135   06 Jun 2027 08:46:15.219   06 Jun 2027 08:46:39.505            24.286         10355.281
       136   06 Jun 2027 08:47:16.034   06 Jun 2027 08:47:17.493             1.459           475.219
       137   06 Jun 2027 08:48:06.450   06 Jun 2027 08:48:10.527             4.077          1012.937
       138   06 Jun 2027 10:22:38.549   06 Jun 2027 10:22:43.545             4.996          2175.188
       139   06 Jun 2027 10:24:25.994   06 Jun 2027 10:24:30.792             4.798          1934.031
       140   06 Jun 2027 10:25:55.613   06 Jun 2027 10:25:58.943             3.330           547.344
       141   06 Jun 2027 11:58:04.889   06 Jun 2027 11:58:20.773            15.884          7879.437
       142   06 Jun 2027 11:59:04.944   06 Jun 2027 11:59:11.293             6.349          1293.250
       143   06 Jun 2027 11:59:50.363   06 Jun 2027 11:59:52.628             2.265          1109.594
       144   07 Jun 2027 04:19:15.484   07 Jun 2027 04:21:28.548           133.064         66532.000
       145   07 Jun 2027 04:23:26.572   07 Jun 2027 04:23:31.559             4.987          2493.500
       146   07 Jun 2027 04:23:33.289   07 Jun 2027 04:23:48.378            15.089          7544.500
       147   07 Jun 2027 04:24:30.017   07 Jun 2027 04:24:35.520             5.503          2751.500
       148   07 Jun 2027 04:24:41.765   07 Jun 2027 04:24:44.918             3.153          1576.500
       149   07 Jun 2027 05:58:16.813   07 Jun 2027 06:00:46.838           150.025         75012.500
       150   07 Jun 2027 06:03:41.875   07 Jun 2027 06:03:54.529            12.654          6327.000
       151   07 Jun 2027 06:04:28.988   07 Jun 2027 06:05:11.779            42.791         19676.312
       152   07 Jun 2027 07:23:17.401   07 Jun 2027 07:23:29.044            11.643          5821.500
       153   07 Jun 2027 07:24:05.167   07 Jun 2027 07:24:08.951             3.784          1668.063
       154   07 Jun 2027 07:34:57.207   07 Jun 2027 07:35:05.059             7.852          3613.719
       155   07 Jun 2027 07:35:19.655   07 Jun 2027 07:35:20.014             0.359            42.813
       156   07 Jun 2027 07:36:00.553   07 Jun 2027 07:36:03.758             3.205           610.781
       157   07 Jun 2027 08:57:14.111   07 Jun 2027 08:57:45.122            31.011         14015.687
       158   07 Jun 2027 08:58:28.268   07 Jun 2027 08:58:29.550             1.282           641.000
       159   07 Jun 2027 08:59:10.505   07 Jun 2027 08:59:14.631             4.126           274.500
       160   07 Jun 2027 09:00:10.227   07 Jun 2027 09:00:12.717             2.490          1059.031
       161   07 Jun 2027 10:32:26.592   07 Jun 2027 10:32:35.722             9.130          3337.656
       162   07 Jun 2027 10:33:13.751   07 Jun 2027 10:33:14.860             1.109           461.281
       163   07 Jun 2027 10:34:56.115   07 Jun 2027 10:35:05.249             9.134          3141.094
       164   07 Jun 2027 10:36:10.135   07 Jun 2027 10:36:16.133             5.998          1489.375
       165   07 Jun 2027 10:38:26.266   07 Jun 2027 10:38:27.472             1.206           594.656
       166   07 Jun 2027 10:39:00.559   07 Jun 2027 10:39:08.659             8.100           921.469
       167   08 Jun 2027 03:00:00.000   08 Jun 2027 03:00:09.757             9.757          4878.500
       168   08 Jun 2027 03:00:28.086   08 Jun 2027 03:00:53.628            25.542         12771.000
       169   08 Jun 2027 03:01:13.763   08 Jun 2027 03:01:14.961             1.198           599.000
       170   08 Jun 2027 03:01:58.086   08 Jun 2027 03:02:01.333             3.247          1623.500
       171   08 Jun 2027 04:31:33.433   08 Jun 2027 04:32:12.307            38.874         19437.000
       172   08 Jun 2027 04:32:21.655   08 Jun 2027 04:33:43.092            81.437         40718.500
       173   08 Jun 2027 04:34:39.947   08 Jun 2027 04:34:56.809            16.862          8431.000
       174   08 Jun 2027 04:35:23.503   08 Jun 2027 04:35:29.409             5.906          2953.000
       175   08 Jun 2027 06:10:35.662   08 Jun 2027 06:13:40.043           184.381         91304.687
       176   08 Jun 2027 06:13:59.947   08 Jun 2027 06:14:02.298             2.351           407.344
       177   08 Jun 2027 06:15:34.469   08 Jun 2027 06:15:37.194             2.725          1096.531
       178   08 Jun 2027 06:17:11.151   08 Jun 2027 06:17:19.325             8.174          1623.844
       179   08 Jun 2027 07:34:38.656   08 Jun 2027 07:34:50.795            12.139          5985.969
       180   08 Jun 2027 07:35:28.209   08 Jun 2027 07:35:31.160             2.951           442.656
       181   08 Jun 2027 07:35:37.151   08 Jun 2027 07:35:39.317             2.166            88.938
       182   08 Jun 2027 07:35:55.654   08 Jun 2027 07:36:00.170             4.516           356.563
       183   08 Jun 2027 07:36:50.772   08 Jun 2027 07:36:54.145             3.373          1553.094
       184   08 Jun 2027 07:46:54.326   08 Jun 2027 07:47:02.039             7.713          1877.656
       185   08 Jun 2027 07:47:19.517   08 Jun 2027 07:47:23.486             3.969           407.750
       186   08 Jun 2027 09:08:53.794   08 Jun 2027 09:09:19.636            25.842         12433.844
       187   08 Jun 2027 09:11:01.250   08 Jun 2027 09:11:05.808             4.558          1648.656
       188   08 Jun 2027 09:11:44.133   08 Jun 2027 09:11:49.409             5.276           180.125
       189   08 Jun 2027 09:12:04.957   08 Jun 2027 09:12:06.712             1.755           485.875
       190   08 Jun 2027 09:13:18.977   08 Jun 2027 09:13:23.263             4.286          1948.781
       191   08 Jun 2027 09:14:06.857   08 Jun 2027 09:14:10.491             3.634           110.094
       192   08 Jun 2027 10:43:53.815   08 Jun 2027 10:44:00.993             7.178          3380.281
       193   08 Jun 2027 10:45:56.925   08 Jun 2027 10:46:02.450             5.525          2130.875
       194   08 Jun 2027 10:47:47.156   08 Jun 2027 10:47:49.650             2.494           852.937
       195   08 Jun 2027 10:50:54.316   08 Jun 2027 10:50:54.316             0.000             0.000
       196   08 Jun 2027 10:52:05.724   08 Jun 2027 10:52:11.083             5.359          2474.031
       197   08 Jun 2027 10:52:31.885   08 Jun 2027 10:52:33.404             1.519           547.344
       198   09 Jun 2027 03:06:42.609   09 Jun 2027 03:06:54.262            11.653          5826.500
       199   09 Jun 2027 03:08:50.567   09 Jun 2027 03:08:58.008             7.441          3720.500
       200   09 Jun 2027 03:09:11.373   09 Jun 2027 03:10:01.146            49.773         24886.500
       201   09 Jun 2027 03:11:30.140   09 Jun 2027 03:11:49.101            18.961          9480.500
       202   09 Jun 2027 03:12:51.293   09 Jun 2027 03:13:45.025            53.732         26866.000
       203   09 Jun 2027 04:44:19.499   09 Jun 2027 04:44:44.577            25.078         12539.000
       204   09 Jun 2027 04:44:46.988   09 Jun 2027 04:46:45.557           118.569         59284.500
       205   09 Jun 2027 04:46:55.749   09 Jun 2027 04:46:59.725             3.976          1988.000
       206   09 Jun 2027 06:22:41.629   09 Jun 2027 06:23:57.140            75.511         36774.937
       207   09 Jun 2027 06:24:01.175   09 Jun 2027 06:24:02.957             1.782           126.094
       208   09 Jun 2027 06:25:54.152   09 Jun 2027 06:25:58.778             4.626          1829.969
       209   09 Jun 2027 06:26:48.712   09 Jun 2027 06:26:51.563             2.851          1293.375
       210   09 Jun 2027 06:27:21.771   09 Jun 2027 06:27:22.143             0.372           180.781
       211   09 Jun 2027 07:46:46.804   09 Jun 2027 07:46:54.463             7.659          3599.500
       212   09 Jun 2027 07:47:49.315   09 Jun 2027 07:47:53.713             4.398           858.625
       213   09 Jun 2027 07:48:06.443   09 Jun 2027 07:48:06.748             0.305           115.156
       214   09 Jun 2027 07:48:32.763   09 Jun 2027 07:48:35.054             2.291           792.187
       215   09 Jun 2027 09:20:35.612   09 Jun 2027 09:20:54.258            18.646          7497.875
       216   09 Jun 2027 09:22:41.623   09 Jun 2027 09:22:45.632             4.009          1962.375
       217   09 Jun 2027 09:23:48.019   09 Jun 2027 09:23:51.840             3.821          1814.406
       218   09 Jun 2027 09:25:16.726   09 Jun 2027 09:25:23.345             6.619          1593.875
       219   09 Jun 2027 09:25:49.272   09 Jun 2027 09:25:51.656             2.384           691.094
       220   09 Jun 2027 10:55:27.820   09 Jun 2027 10:55:32.738             4.918          2459.000
       221   09 Jun 2027 10:58:06.094   09 Jun 2027 10:58:16.390            10.296          5077.438
       222   09 Jun 2027 11:03:04.013   09 Jun 2027 11:03:20.375            16.362          7993.406
       223   10 Jun 2027 03:18:42.487   10 Jun 2027 03:19:18.162            35.675         17837.500
       224   10 Jun 2027 03:20:58.123   10 Jun 2027 03:21:08.075             9.952          4976.000
       225   10 Jun 2027 03:22:47.359   10 Jun 2027 03:23:13.130            25.771         12885.500
       226   10 Jun 2027 03:24:07.141   10 Jun 2027 03:26:00.947           113.806         56903.000
       227   10 Jun 2027 04:56:52.516   10 Jun 2027 04:57:44.141            51.625         25812.500
       228   10 Jun 2027 04:57:54.166   10 Jun 2027 04:58:33.541            39.375         19687.500
       229   10 Jun 2027 05:01:42.414   10 Jun 2027 05:02:06.826            24.412         12206.000
       230   10 Jun 2027 06:35:16.383   10 Jun 2027 06:36:17.108            60.725         29615.656
       231   10 Jun 2027 06:37:55.847   10 Jun 2027 06:38:00.638             4.791          1077.937
       232   10 Jun 2027 06:38:11.662   10 Jun 2027 06:38:12.883             1.221           344.500
       233   10 Jun 2027 06:39:21.298   10 Jun 2027 06:39:27.359             6.061          2137.969
       234   10 Jun 2027 07:58:43.064   10 Jun 2027 07:58:56.520            13.456          6270.750
       235   10 Jun 2027 08:00:04.296   10 Jun 2027 08:00:07.556             3.260          1511.938
       236   10 Jun 2027 08:00:31.634   10 Jun 2027 08:00:32.729             1.095            77.937
       237   10 Jun 2027 08:00:39.267   10 Jun 2027 08:00:41.702             2.435           204.313
       238   10 Jun 2027 08:00:51.326   10 Jun 2027 08:00:52.097             0.771           273.750
       239   10 Jun 2027 09:34:56.341   10 Jun 2027 09:35:02.129             5.788          2542.906
       240   10 Jun 2027 09:36:06.996   10 Jun 2027 09:36:11.726             4.730          1458.750
       241   10 Jun 2027 09:37:13.389   10 Jun 2027 09:37:16.533             3.144          1115.781
       242   10 Jun 2027 09:38:02.337   10 Jun 2027 09:38:05.442             3.105          1218.375
       243   10 Jun 2027 11:10:37.692   10 Jun 2027 11:10:58.181            20.489          7841.156
       244   10 Jun 2027 11:11:51.728   10 Jun 2027 11:12:09.607            17.879          1580.063
       245   10 Jun 2027 11:13:45.909   10 Jun 2027 11:13:52.295             6.386           852.625
       246   10 Jun 2027 11:14:34.372   10 Jun 2027 11:14:38.975             4.603          1314.906
       247   10 Jun 2027 11:15:53.062   10 Jun 2027 11:15:59.667             6.605          1244.031
       248   10 Jun 2027 11:17:02.627   10 Jun 2027 11:17:03.621             0.994           497.000
       249   11 Jun 2027 03:30:49.389   11 Jun 2027 03:31:06.193            16.804          8402.000
       250   11 Jun 2027 03:32:31.837   11 Jun 2027 03:35:13.134           161.297         80648.500
       251   11 Jun 2027 03:37:42.974   11 Jun 2027 03:38:08.353            25.379         12689.500
       252   11 Jun 2027 05:08:52.076   11 Jun 2027 05:08:59.759             7.683          3841.500
       253   11 Jun 2027 05:09:07.398   11 Jun 2027 05:10:10.673            63.275         31637.500
       254   11 Jun 2027 05:12:38.232   11 Jun 2027 05:13:49.241            71.009         33899.531
       255   11 Jun 2027 06:46:55.358   11 Jun 2027 06:47:25.043            29.685         12706.969
       256   11 Jun 2027 06:47:28.088   11 Jun 2027 06:47:29.743             1.655            54.031
       257   11 Jun 2027 06:47:48.485   11 Jun 2027 06:47:52.238             3.753           304.125
       258   11 Jun 2027 06:48:29.636   11 Jun 2027 06:48:35.775             6.139          1062.969
       259   11 Jun 2027 06:49:32.934   11 Jun 2027 06:49:33.957             1.023           420.281
       260   11 Jun 2027 06:50:19.021   11 Jun 2027 06:50:26.281             7.260           392.000
       261   11 Jun 2027 06:50:30.431   11 Jun 2027 06:50:35.922             5.491           129.687
       262   11 Jun 2027 06:50:54.481   11 Jun 2027 06:50:56.037             1.556           579.969
       263   11 Jun 2027 08:10:34.395   11 Jun 2027 08:10:46.228            11.833          5169.750
       264   11 Jun 2027 08:12:05.629   11 Jun 2027 08:12:13.781             8.152          1811.375
       265   11 Jun 2027 08:12:29.460   11 Jun 2027 08:12:30.012             0.552            75.906
       266   11 Jun 2027 09:47:01.608   11 Jun 2027 09:47:06.145             4.537          1410.688
       267   11 Jun 2027 09:47:54.458   11 Jun 2027 09:47:55.652             1.194           381.188
       268   11 Jun 2027 09:48:38.648   11 Jun 2027 09:48:41.434             2.786           689.969
       269   11 Jun 2027 09:48:52.656   11 Jun 2027 09:48:54.289             1.633           118.688
       270   11 Jun 2027 09:50:05.575   11 Jun 2027 09:50:09.606             4.031          1777.469
       271   11 Jun 2027 11:19:12.033   11 Jun 2027 11:19:17.325             5.292          2120.000
       272   11 Jun 2027 11:21:08.688   11 Jun 2027 11:21:17.615             8.927          2990.250
       273   11 Jun 2027 11:22:44.875   11 Jun 2027 11:22:53.109             8.234          2710.219
       274   11 Jun 2027 11:25:21.445   11 Jun 2027 11:25:30.704             9.259          4314.344
       275   11 Jun 2027 11:26:09.100   11 Jun 2027 11:26:11.020             1.920           868.469
       276   11 Jun 2027 11:27:59.695   11 Jun 2027 11:28:06.435             6.740          3066.469
       277   11 Jun 2027 11:28:30.702   11 Jun 2027 11:28:32.115             1.413           400.594
       278   11 Jun 2027 11:28:58.523   11 Jun 2027 11:29:00.815             2.292           737.281
       279   12 Jun 2027 03:42:51.435   12 Jun 2027 03:43:36.255            44.820         22410.000
       280   12 Jun 2027 03:43:59.964   12 Jun 2027 03:45:57.149           117.185         58592.500
       281   12 Jun 2027 03:47:34.541   12 Jun 2027 03:48:32.430            57.889         28944.500
       282   12 Jun 2027 03:48:42.676   12 Jun 2027 03:48:49.801             7.125          3562.500
       283   12 Jun 2027 05:21:00.582   12 Jun 2027 05:22:00.627            60.045         30022.500
       284   12 Jun 2027 05:22:09.672   12 Jun 2027 05:22:15.817             6.145          3072.500
       285   12 Jun 2027 05:22:34.389   12 Jun 2027 05:23:26.105            51.716         25772.250
       286   12 Jun 2027 05:24:49.420   12 Jun 2027 05:24:53.289             3.869          1851.938
       287   12 Jun 2027 05:25:05.451   12 Jun 2027 05:25:06.971             1.520           380.063
       288   12 Jun 2027 05:27:16.814   12 Jun 2027 05:27:21.192             4.378          2189.000
       289   12 Jun 2027 06:59:20.405   12 Jun 2027 06:59:30.480            10.075          4549.469
       290   12 Jun 2027 07:00:13.941   12 Jun 2027 07:00:18.873             4.932          1315.688
       291   12 Jun 2027 07:02:19.304   12 Jun 2027 07:02:20.005             0.701           315.750
       292   12 Jun 2027 07:02:38.151   12 Jun 2027 07:02:42.875             4.724           374.375
       293   12 Jun 2027 07:02:43.227   12 Jun 2027 07:02:44.570             1.343            11.000
       294   12 Jun 2027 08:22:42.902   12 Jun 2027 08:22:53.334            10.432          4945.719
       295   12 Jun 2027 08:24:16.198   12 Jun 2027 08:24:18.537             2.339           922.188
       296   12 Jun 2027 08:25:37.287   12 Jun 2027 08:25:42.071             4.784          2301.187
       297   12 Jun 2027 09:59:11.811   12 Jun 2027 09:59:15.982             4.171          1936.000
       298   12 Jun 2027 10:00:50.387   12 Jun 2027 10:00:54.739             4.352          2114.406
       299   12 Jun 2027 10:01:10.818   12 Jun 2027 10:01:12.451             1.633           266.406
       300   12 Jun 2027 10:02:11.405   12 Jun 2027 10:02:15.404             3.999           455.500
       301   12 Jun 2027 11:34:23.074   12 Jun 2027 11:34:30.731             7.657          3026.125
       302   12 Jun 2027 11:37:55.001   12 Jun 2027 11:38:09.561            14.560          5673.062
       303   12 Jun 2027 11:38:54.637   12 Jun 2027 11:38:58.713             4.076          1130.094
       304   12 Jun 2027 11:40:07.315   12 Jun 2027 11:40:08.363             1.048           457.844
       305   12 Jun 2027 11:40:12.211   12 Jun 2027 11:40:13.391             1.180            31.000
       306   12 Jun 2027 11:40:18.372   12 Jun 2027 11:40:18.839             0.467           142.031
       307   12 Jun 2027 11:40:52.818   12 Jun 2027 11:40:55.477             2.659           738.625
       308   12 Jun 2027 11:40:56.798   12 Jun 2027 11:40:58.611             1.813            41.281
       309   13 Jun 2027 03:54:49.210   13 Jun 2027 03:57:46.962           177.752         88876.000
       310   13 Jun 2027 03:58:06.622   13 Jun 2027 03:58:33.490            26.868         13434.000
       311   13 Jun 2027 03:59:18.294   13 Jun 2027 03:59:19.857             1.563           781.500
       312   13 Jun 2027 05:33:05.589   13 Jun 2027 05:33:18.272            12.683          6341.500
       313   13 Jun 2027 05:34:07.806   13 Jun 2027 05:35:56.301           108.495         54247.500
       314   13 Jun 2027 05:36:23.879   13 Jun 2027 05:36:33.635             9.756          4878.000
       315   13 Jun 2027 05:36:55.595   13 Jun 2027 05:37:01.128             5.533          2766.500
       316   13 Jun 2027 05:41:19.605   13 Jun 2027 05:41:49.542            29.937         14840.625
       317   13 Jun 2027 07:11:16.549   13 Jun 2027 07:11:27.993            11.444          5353.031
       318   13 Jun 2027 07:11:47.237   13 Jun 2027 07:11:50.900             3.663           574.687
       319   13 Jun 2027 07:12:24.098   13 Jun 2027 07:12:30.004             5.906           351.188
       320   13 Jun 2027 07:13:11.293   13 Jun 2027 07:13:14.256             2.963           843.500
       321   13 Jun 2027 07:13:39.650   13 Jun 2027 07:13:41.225             1.575           703.937
       322   13 Jun 2027 07:14:16.500   13 Jun 2027 07:14:23.400             6.900           693.562
       323   13 Jun 2027 07:14:30.614   13 Jun 2027 07:14:31.884             1.270           154.500
       324   13 Jun 2027 08:35:25.713   13 Jun 2027 08:35:44.249            18.536          9227.844
       325   13 Jun 2027 08:35:57.747   13 Jun 2027 08:35:59.490             1.743           260.469
       326   13 Jun 2027 08:37:25.937   13 Jun 2027 08:37:30.892             4.955          2452.500
       327   13 Jun 2027 10:11:09.741   13 Jun 2027 10:11:17.332             7.591          3160.625
       328   13 Jun 2027 10:12:53.642   13 Jun 2027 10:12:58.331             4.689          2221.844
       329   13 Jun 2027 10:13:32.416   13 Jun 2027 10:13:41.630             9.214            84.437
       330   13 Jun 2027 11:46:24.108   13 Jun 2027 11:46:42.280            18.172          8914.375
       331   13 Jun 2027 11:52:45.021   13 Jun 2027 11:53:01.325            16.304          7409.562
