uniorb/output/strategy_4/Camera/Camera_KinoSat_110907.txt

KinoSat_110907
-------------------------
    Access    *     Start Time (UTCG)     *     Stop Time (UTCG)  *   Duration (s) *   Data (Mbytes)
         1   01 Jun 2027 03:11:59.260   01 Jun 2027 03:13:02.893            63.633         31816.500
         2   01 Jun 2027 03:13:27.124   01 Jun 2027 03:13:34.003             6.879          3439.500
         3   01 Jun 2027 03:13:49.494   01 Jun 2027 03:13:52.608             3.114          1557.000
         4   01 Jun 2027 04:47:58.350   01 Jun 2027 04:49:32.374            94.024         47012.000
         5   01 Jun 2027 04:50:35.429   01 Jun 2027 04:50:35.429             0.000             0.000
         6   01 Jun 2027 04:50:51.728   01 Jun 2027 04:51:02.895            11.167          5583.500
         7   01 Jun 2027 04:51:20.420   01 Jun 2027 04:51:38.627            18.207          9103.500
         8   01 Jun 2027 06:21:44.833   01 Jun 2027 06:23:29.352           104.519         52259.500
         9   01 Jun 2027 06:24:24.561   01 Jun 2027 06:24:27.212             2.651          1325.500
        10   01 Jun 2027 06:24:48.567   01 Jun 2027 06:24:48.857             0.290           145.000
        11   01 Jun 2027 06:26:58.713   01 Jun 2027 06:27:04.081             5.368          2684.000
        12   01 Jun 2027 06:27:50.718   01 Jun 2027 06:28:02.916            12.198          6099.000
        13   01 Jun 2027 06:28:37.322   01 Jun 2027 06:28:42.304             4.982          2491.000
        14   01 Jun 2027 06:29:45.024   01 Jun 2027 06:29:49.743             4.719          2359.500
        15   01 Jun 2027 06:29:55.202   01 Jun 2027 06:30:08.554            13.352          6676.000
        16   01 Jun 2027 06:30:16.562   01 Jun 2027 06:30:17.491             0.929           464.500
        17   01 Jun 2027 07:59:02.572   01 Jun 2027 08:01:20.342           137.770         68885.000
        18   01 Jun 2027 08:02:33.635   01 Jun 2027 08:02:33.635             0.000             0.000
        19   01 Jun 2027 08:02:45.864   01 Jun 2027 08:03:00.690            14.826          7413.000
        20   01 Jun 2027 08:04:08.412   01 Jun 2027 08:04:24.369            15.957          7978.500
        21   01 Jun 2027 09:36:12.035   01 Jun 2027 09:38:09.792           117.757         58878.500
        22   01 Jun 2027 09:39:09.905   01 Jun 2027 09:40:05.194            55.289         27644.500
        23   01 Jun 2027 09:41:42.095   01 Jun 2027 09:42:00.782            18.687          9343.500
        24   01 Jun 2027 11:12:55.994   01 Jun 2027 11:15:30.107           154.113         77056.500
        25   02 Jun 2027 03:23:50.552   02 Jun 2027 03:24:00.478             9.926          4963.000
        26   02 Jun 2027 03:26:08.077   02 Jun 2027 03:26:15.942             7.865          3932.500
        27   02 Jun 2027 05:00:12.645   02 Jun 2027 05:03:18.017           185.372         92686.000
        28   02 Jun 2027 06:32:29.702   02 Jun 2027 06:32:49.037            19.335          9667.500
        29   02 Jun 2027 06:34:16.705   02 Jun 2027 06:36:41.785           145.080         72540.000
        30   02 Jun 2027 06:37:07.158   02 Jun 2027 06:37:41.760            34.602         17301.000
        31   02 Jun 2027 06:38:17.616   02 Jun 2027 06:38:39.450            21.834         10917.000
        32   02 Jun 2027 06:38:49.129   02 Jun 2027 06:38:59.706            10.577          5288.500
        33   02 Jun 2027 06:40:44.508   02 Jun 2027 06:40:59.572            15.064          7532.000
        34   02 Jun 2027 06:42:12.384   02 Jun 2027 06:42:15.041             2.657          1328.500
        35   02 Jun 2027 08:11:21.084   02 Jun 2027 08:14:59.097           218.013        108715.969
        36   02 Jun 2027 08:15:54.598   02 Jun 2027 08:15:57.740             3.142           533.875
        37   02 Jun 2027 09:48:17.457   02 Jun 2027 09:48:38.596            21.139         10547.375
        38   02 Jun 2027 09:49:58.720   02 Jun 2027 09:50:02.063             3.343          1512.500
        39   02 Jun 2027 09:52:03.883   02 Jun 2027 09:52:05.741             1.858           611.375
        40   02 Jun 2027 09:53:04.193   02 Jun 2027 09:53:08.882             4.689          1826.625
        41   02 Jun 2027 11:25:04.035   02 Jun 2027 11:25:16.948            12.913          5511.969
        42   02 Jun 2027 11:29:35.608   02 Jun 2027 11:29:37.754             2.146           659.594
        43   03 Jun 2027 03:35:54.012   03 Jun 2027 03:36:04.940            10.928          5464.000
        44   03 Jun 2027 05:12:23.185   03 Jun 2027 05:12:27.069             3.884          1942.000
        45   03 Jun 2027 05:12:40.705   03 Jun 2027 05:15:48.261           187.556         93778.000
        46   03 Jun 2027 06:47:28.057   03 Jun 2027 06:49:04.136            96.079         47769.438
        47   03 Jun 2027 06:49:55.202   03 Jun 2027 06:49:56.474             1.272           636.000
        48   03 Jun 2027 06:50:21.579   03 Jun 2027 06:50:29.244             7.665          1491.031
        49   03 Jun 2027 06:50:33.032   03 Jun 2027 06:50:34.980             1.948            40.375
        50   03 Jun 2027 06:51:07.370   03 Jun 2027 06:51:07.370             0.000             0.000
        51   03 Jun 2027 06:52:24.360   03 Jun 2027 06:52:32.956             8.596          3197.281
        52   03 Jun 2027 06:53:30.005   03 Jun 2027 06:53:41.822            11.817          1499.187
        53   03 Jun 2027 06:53:53.927   03 Jun 2027 06:53:54.567             0.640           266.437
        54   03 Jun 2027 08:23:49.638   03 Jun 2027 08:23:52.926             3.288          1599.937
        55   03 Jun 2027 08:25:14.354   03 Jun 2027 08:25:16.299             1.945           505.781
        56   03 Jun 2027 08:26:54.699   03 Jun 2027 08:26:58.215             3.516          1047.844
        57   03 Jun 2027 08:28:01.581   03 Jun 2027 08:28:04.753             3.172           669.125
        58   03 Jun 2027 08:28:17.507   03 Jun 2027 08:28:18.719             1.212           368.250
        59   03 Jun 2027 08:28:59.853   03 Jun 2027 08:29:01.981             2.128           668.125
        60   03 Jun 2027 08:29:38.344   03 Jun 2027 08:29:40.340             1.996           586.000
        61   03 Jun 2027 10:01:20.399   03 Jun 2027 10:01:32.983            12.584          5735.312
        62   03 Jun 2027 10:04:13.769   03 Jun 2027 10:04:19.400             5.631           933.844
        63   03 Jun 2027 10:04:32.475   03 Jun 2027 10:04:33.425             0.950           408.594
        64   03 Jun 2027 10:05:04.802   03 Jun 2027 10:05:07.019             2.217           380.781
        65   03 Jun 2027 10:05:36.685   03 Jun 2027 10:05:37.529             0.844           269.688
        66   03 Jun 2027 11:37:24.958   03 Jun 2027 11:37:39.398            14.440          6565.437
        67   03 Jun 2027 11:41:31.243   03 Jun 2027 11:41:36.597             5.354          1323.094
        68   03 Jun 2027 11:41:37.293   03 Jun 2027 11:41:38.109             0.816            21.750
        69   04 Jun 2027 03:47:50.189   04 Jun 2027 03:48:05.626            15.437          7718.500
        70   04 Jun 2027 03:51:01.135   04 Jun 2027 03:51:03.071             1.936           968.000
        71   04 Jun 2027 05:24:28.002   04 Jun 2027 05:27:46.780           198.778         99389.000
        72   04 Jun 2027 06:59:38.133   04 Jun 2027 07:01:07.070            88.937         42779.906
        73   04 Jun 2027 07:02:03.226   04 Jun 2027 07:02:03.409             0.183            91.500
        74   04 Jun 2027 07:02:30.618   04 Jun 2027 07:02:34.961             4.343          1936.719
        75   04 Jun 2027 07:02:40.986   04 Jun 2027 07:02:41.552             0.566           188.281
        76   04 Jun 2027 07:04:24.456   04 Jun 2027 07:04:37.099            12.643          3125.031
        77   04 Jun 2027 07:05:31.914   04 Jun 2027 07:05:36.361             4.447          1462.187
        78   04 Jun 2027 07:05:49.842   04 Jun 2027 07:05:50.863             1.021           421.281
        79   04 Jun 2027 08:35:54.194   04 Jun 2027 08:36:02.389             8.195          3709.750
        80   04 Jun 2027 08:37:42.034   04 Jun 2027 08:37:43.633             1.599           421.687
        81   04 Jun 2027 08:38:27.637   04 Jun 2027 08:38:28.549             0.912           142.500
        82   04 Jun 2027 08:40:13.492   04 Jun 2027 08:40:14.813             1.321           215.594
        83   04 Jun 2027 08:40:52.430   04 Jun 2027 08:40:58.888             6.458           686.969
        84   04 Jun 2027 10:13:25.943   04 Jun 2027 10:13:39.213            13.270          6055.094
        85   04 Jun 2027 10:14:06.144   04 Jun 2027 10:14:11.990             5.846           579.531
        86   04 Jun 2027 10:14:54.713   04 Jun 2027 10:15:01.867             7.154           858.375
        87   04 Jun 2027 10:15:25.882   04 Jun 2027 10:15:27.922             2.040           101.250
        88   04 Jun 2027 10:15:43.829   04 Jun 2027 10:15:46.566             2.737           497.094
        89   04 Jun 2027 10:16:54.619   04 Jun 2027 10:17:03.607             8.988          1984.219
        90   04 Jun 2027 10:17:25.341   04 Jun 2027 10:17:31.759             6.418           279.000
        91   04 Jun 2027 10:17:39.978   04 Jun 2027 10:17:40.787             0.809           160.563
        92   04 Jun 2027 11:49:27.183   04 Jun 2027 11:49:43.874            16.691          6151.000
        93   04 Jun 2027 11:51:56.015   04 Jun 2027 11:52:00.750             4.735          1041.156
        94   04 Jun 2027 11:52:15.753   04 Jun 2027 11:52:17.273             1.520           379.969
        95   04 Jun 2027 11:53:47.432   04 Jun 2027 11:53:51.025             3.593           221.375
        96   04 Jun 2027 11:54:19.704   04 Jun 2027 11:54:21.686             1.982           504.563
        97   05 Jun 2027 04:00:26.147   05 Jun 2027 04:00:50.955            24.808         12404.000
        98   05 Jun 2027 04:02:28.671   05 Jun 2027 04:02:40.856            12.185          6092.500
        99   05 Jun 2027 05:36:11.567   05 Jun 2027 05:39:18.137           186.570         93285.000
       100   05 Jun 2027 05:39:22.418   05 Jun 2027 05:39:24.266             1.848           924.000
       101   05 Jun 2027 07:11:02.965   05 Jun 2027 07:12:33.476            90.511         44623.312
       102   05 Jun 2027 07:12:56.537   05 Jun 2027 07:13:01.864             5.327           506.500
       103   05 Jun 2027 07:13:59.142   05 Jun 2027 07:14:01.604             2.462           283.094
       104   05 Jun 2027 07:14:16.225   05 Jun 2027 07:14:16.284             0.059            28.125
       105   05 Jun 2027 07:15:12.435   05 Jun 2027 07:15:15.017             2.582           806.094
       106   05 Jun 2027 07:16:48.117   05 Jun 2027 07:16:52.432             4.315           754.313
       107   05 Jun 2027 07:17:47.575   05 Jun 2027 07:17:50.258             2.683          1209.406
       108   05 Jun 2027 07:18:18.160   05 Jun 2027 07:18:20.218             2.058           346.719
       109   05 Jun 2027 08:47:38.497   05 Jun 2027 08:47:49.643            11.146          4724.094
       110   05 Jun 2027 08:49:53.807   05 Jun 2027 08:49:58.421             4.614           170.219
       111   05 Jun 2027 08:51:00.930   05 Jun 2027 08:51:03.433             2.503          1148.937
       112   05 Jun 2027 08:51:57.583   05 Jun 2027 08:51:59.900             2.317          1042.000
       113   05 Jun 2027 08:52:47.137   05 Jun 2027 08:52:49.977             2.840          1157.719
       114   05 Jun 2027 08:53:18.867   05 Jun 2027 08:53:21.777             2.910           864.594
       115   05 Jun 2027 10:25:56.098   05 Jun 2027 10:26:09.162            13.064          6193.375
       116   05 Jun 2027 10:27:11.856   05 Jun 2027 10:27:16.727             4.871          1946.063
       117   05 Jun 2027 10:27:51.297   05 Jun 2027 10:27:52.724             1.427           227.312
       118   05 Jun 2027 10:29:18.451   05 Jun 2027 10:29:20.709             2.258           268.781
       119   05 Jun 2027 10:29:42.385   05 Jun 2027 10:29:45.425             3.040           501.250
       120   05 Jun 2027 11:59:55.891   05 Jun 2027 12:00:00.000             4.109          2054.500
       121   06 Jun 2027 04:11:04.748   06 Jun 2027 04:11:32.234            27.486         13743.000
       122   06 Jun 2027 04:11:37.191   06 Jun 2027 04:11:56.775            19.584          9792.000
       123   06 Jun 2027 04:15:05.313   06 Jun 2027 04:15:05.313             0.000             0.000
       124   06 Jun 2027 05:46:25.141   06 Jun 2027 05:47:23.391            58.250         29125.000
       125   06 Jun 2027 05:47:56.679   06 Jun 2027 05:48:26.877            30.198         15099.000
       126   06 Jun 2027 05:48:46.811   06 Jun 2027 05:49:03.757            16.946          8473.000
       127   06 Jun 2027 05:49:23.791   06 Jun 2027 05:49:38.362            14.571          7285.500
       128   06 Jun 2027 05:52:20.065   06 Jun 2027 05:52:42.815            22.750         11375.000
       129   06 Jun 2027 07:22:54.596   06 Jun 2027 07:24:59.726           125.130         62565.000
       130   06 Jun 2027 07:25:44.908   06 Jun 2027 07:25:53.199             8.291          2200.062
       131   06 Jun 2027 07:25:57.271   06 Jun 2027 07:26:03.400             6.129            92.969
       132   06 Jun 2027 07:27:17.223   06 Jun 2027 07:27:19.996             2.773          1110.688
       133   06 Jun 2027 07:28:26.262   06 Jun 2027 07:28:27.768             1.506           423.187
       134   06 Jun 2027 07:28:53.541   06 Jun 2027 07:28:58.802             5.261            80.312
       135   06 Jun 2027 07:29:35.566   06 Jun 2027 07:29:37.336             1.770           329.750
       136   06 Jun 2027 08:59:59.608   06 Jun 2027 09:00:15.990            16.382          5426.687
       137   06 Jun 2027 09:01:09.054   06 Jun 2027 09:01:11.618             2.564          1183.688
       138   06 Jun 2027 09:01:42.398   06 Jun 2027 09:01:43.468             1.070           451.531
       139   06 Jun 2027 09:02:03.870   06 Jun 2027 09:02:06.696             2.826           599.031
       140   06 Jun 2027 09:03:23.409   06 Jun 2027 09:03:28.567             5.158          1845.719
       141   06 Jun 2027 09:04:05.598   06 Jun 2027 09:04:07.274             1.676           828.469
       142   06 Jun 2027 09:04:39.391   06 Jun 2027 09:04:41.187             1.796           782.719
       143   06 Jun 2027 09:05:43.960   06 Jun 2027 09:05:49.830             5.870          1722.844
       144   06 Jun 2027 10:37:53.788   06 Jun 2027 10:38:04.916            11.128          5427.562
       145   06 Jun 2027 10:39:18.922   06 Jun 2027 10:39:25.641             6.719          1590.437
       146   06 Jun 2027 10:39:44.740   06 Jun 2027 10:39:45.900             1.160           565.719
       147   06 Jun 2027 10:39:50.705   06 Jun 2027 10:39:54.448             3.743            32.812
       148   06 Jun 2027 10:41:22.486   06 Jun 2027 10:41:27.274             4.788          1003.500
       149   06 Jun 2027 10:41:28.816   06 Jun 2027 10:41:31.338             2.522            48.188
       150   06 Jun 2027 10:41:43.969   06 Jun 2027 10:41:44.856             0.887           279.094
       151   07 Jun 2027 03:00:25.065   07 Jun 2027 03:00:46.798            21.733         10866.500
       152   07 Jun 2027 03:01:21.090   07 Jun 2027 03:01:25.939             4.849          2424.500
       153   07 Jun 2027 04:22:40.626   07 Jun 2027 04:23:12.863            32.237         16118.500
       154   07 Jun 2027 04:24:36.145   07 Jun 2027 04:25:02.302            26.157         13078.500
       155   07 Jun 2027 04:26:17.994   07 Jun 2027 04:26:40.600            22.606         11303.000
       156   07 Jun 2027 05:57:34.563   07 Jun 2027 05:59:37.196           122.633         61316.500
       157   07 Jun 2027 05:59:43.651   07 Jun 2027 06:00:36.012            52.361         26180.500
       158   07 Jun 2027 06:05:36.057   07 Jun 2027 06:06:03.664            27.607         13803.500
       159   07 Jun 2027 07:35:08.093   07 Jun 2027 07:35:21.868            13.775          6440.031
       160   07 Jun 2027 07:37:02.816   07 Jun 2027 07:37:07.154             4.338           697.188
       161   07 Jun 2027 07:38:21.144   07 Jun 2027 07:38:22.025             0.881           440.500
       162   07 Jun 2027 07:38:45.096   07 Jun 2027 07:38:50.195             5.099           889.656
       163   07 Jun 2027 07:39:24.660   07 Jun 2027 07:39:27.333             2.673          1077.031
       164   07 Jun 2027 07:40:53.662   07 Jun 2027 07:40:56.573             2.911          1024.813
       165   07 Jun 2027 07:42:03.950   07 Jun 2027 07:42:05.977             2.027           511.969
       166   07 Jun 2027 09:11:50.563   07 Jun 2027 09:12:02.670            12.107          6030.500
       167   07 Jun 2027 09:13:03.919   07 Jun 2027 09:13:05.642             1.723           272.219
       168   07 Jun 2027 09:14:23.547   07 Jun 2027 09:14:24.244             0.697           343.031
       169   07 Jun 2027 09:15:10.494   07 Jun 2027 09:15:20.710            10.216          1327.438
       170   07 Jun 2027 09:15:50.926   07 Jun 2027 09:15:53.463             2.537           139.812
       171   07 Jun 2027 09:16:17.333   07 Jun 2027 09:16:25.403             8.070           602.969
       172   07 Jun 2027 09:17:03.566   07 Jun 2027 09:17:05.900             2.334           377.219
       173   07 Jun 2027 09:18:09.528   07 Jun 2027 09:18:13.950             4.422          1200.656
       174   07 Jun 2027 10:49:53.699   07 Jun 2027 10:50:07.897            14.198          7000.594
       175   07 Jun 2027 10:50:43.803   07 Jun 2027 10:50:46.722             2.919           499.813
       176   07 Jun 2027 10:51:28.677   07 Jun 2027 10:51:33.102             4.425           874.156
       177   07 Jun 2027 10:53:06.510   07 Jun 2027 10:53:08.782             2.272           400.594
       178   07 Jun 2027 10:53:24.392   07 Jun 2027 10:53:26.393             2.001           450.906
       179   07 Jun 2027 10:53:46.769   07 Jun 2027 10:53:48.716             1.947           125.031
       180   07 Jun 2027 10:53:52.935   07 Jun 2027 10:53:55.209             2.274            31.250
       181   08 Jun 2027 03:00:17.862   08 Jun 2027 03:00:29.191            11.329          5664.500
       182   08 Jun 2027 03:12:33.501   08 Jun 2027 03:13:00.278            26.777         13388.500
       183   08 Jun 2027 04:34:09.920   08 Jun 2027 04:35:33.037            83.117         41558.500
       184   08 Jun 2027 04:36:09.805   08 Jun 2027 04:36:43.089            33.284         16642.000
       185   08 Jun 2027 04:38:27.737   08 Jun 2027 04:38:48.408            20.671         10335.500
       186   08 Jun 2027 04:39:20.358   08 Jun 2027 04:39:40.197            19.839          9919.500
       187   08 Jun 2027 06:09:05.197   08 Jun 2027 06:10:51.486           106.289         52937.375
       188   08 Jun 2027 06:12:48.901   08 Jun 2027 06:12:53.528             4.627          2313.500
       189   08 Jun 2027 06:14:25.661   08 Jun 2027 06:14:34.454             8.793          4234.875
       190   08 Jun 2027 06:15:14.139   08 Jun 2027 06:15:18.118             3.979          1240.156
       191   08 Jun 2027 06:15:40.762   08 Jun 2027 06:15:40.762             0.000             0.000
       192   08 Jun 2027 06:16:13.218   08 Jun 2027 06:16:19.012             5.794          1649.188
       193   08 Jun 2027 06:16:37.164   08 Jun 2027 06:16:37.849             0.685           332.156
       194   08 Jun 2027 06:17:48.418   08 Jun 2027 06:17:53.536             5.118          1914.437
       195   08 Jun 2027 07:47:02.039   08 Jun 2027 07:47:04.914             2.875           705.563
       196   08 Jun 2027 07:48:39.690   08 Jun 2027 07:48:45.369             5.679          2033.563
       197   08 Jun 2027 07:50:26.121   08 Jun 2027 07:50:28.055             1.934           420.281
       198   08 Jun 2027 07:50:51.469   08 Jun 2027 07:50:55.940             4.471            92.656
       199   08 Jun 2027 07:51:34.848   08 Jun 2027 07:51:37.083             2.235           917.938
       200   08 Jun 2027 07:53:06.185   08 Jun 2027 07:53:11.850             5.665          2210.969
       201   08 Jun 2027 07:53:53.447   08 Jun 2027 07:53:57.949             4.502          1189.906
       202   08 Jun 2027 07:54:22.609   08 Jun 2027 07:54:26.262             3.653           611.219
       203   08 Jun 2027 09:23:55.217   08 Jun 2027 09:24:09.491            14.274          5216.875
       204   08 Jun 2027 09:25:00.370   08 Jun 2027 09:25:01.900             1.530           213.937
       205   08 Jun 2027 09:26:28.317   08 Jun 2027 09:26:33.453             5.136          1438.469
       206   08 Jun 2027 09:27:36.755   08 Jun 2027 09:27:38.778             2.023           537.844
       207   08 Jun 2027 09:28:21.513   08 Jun 2027 09:28:24.231             2.718            61.687
       208   08 Jun 2027 09:28:27.873   08 Jun 2027 09:28:28.523             0.650            53.000
       209   08 Jun 2027 09:28:55.570   08 Jun 2027 09:28:57.060             1.490           250.813
       210   08 Jun 2027 09:30:04.896   08 Jun 2027 09:30:10.932             6.036          2106.531
       211   08 Jun 2027 11:01:40.134   08 Jun 2027 11:01:55.390            15.256          5120.875
       212   08 Jun 2027 11:03:59.335   08 Jun 2027 11:04:03.295             3.960           393.500
       213   08 Jun 2027 11:05:24.018   08 Jun 2027 11:05:31.842             7.824          1669.562
       214   08 Jun 2027 11:05:51.994   08 Jun 2027 11:05:53.556             1.562           440.594
       215   09 Jun 2027 03:12:13.682   09 Jun 2027 03:12:17.147             3.465          1732.500
       216   09 Jun 2027 03:12:41.705   09 Jun 2027 03:13:05.642            23.937         11968.500
       217   09 Jun 2027 04:48:13.414   09 Jun 2027 04:51:19.577           186.163         93081.500
       218   09 Jun 2027 04:51:44.528   09 Jun 2027 04:51:53.677             9.149          4574.500
       219   09 Jun 2027 06:21:58.901   09 Jun 2027 06:23:26.354            87.453         42849.000
       220   09 Jun 2027 06:24:12.956   09 Jun 2027 06:24:13.428             0.472             5.438
       221   09 Jun 2027 06:24:34.329   09 Jun 2027 06:24:34.329             0.000             0.000
       222   09 Jun 2027 06:25:04.798   09 Jun 2027 06:25:08.431             3.633          1048.344
       223   09 Jun 2027 06:26:42.075   09 Jun 2027 06:26:42.075             0.000             0.000
       224   09 Jun 2027 06:26:44.092   09 Jun 2027 06:26:49.394             5.302          2641.844
       225   09 Jun 2027 06:27:22.944   09 Jun 2027 06:27:22.944             0.000             0.000
       226   09 Jun 2027 06:27:33.887   09 Jun 2027 06:27:37.618             3.731          1263.375
       227   09 Jun 2027 06:28:07.991   09 Jun 2027 06:28:09.862             1.871           661.562
       228   09 Jun 2027 06:28:23.618   09 Jun 2027 06:28:24.940             1.322           125.219
       229   09 Jun 2027 06:28:28.611   09 Jun 2027 06:28:32.580             3.969           114.719
       230   09 Jun 2027 06:28:48.942   09 Jun 2027 06:28:50.647             1.705           325.844
       231   09 Jun 2027 06:29:22.684   09 Jun 2027 06:29:30.384             7.700           925.844
       232   09 Jun 2027 06:30:25.840   09 Jun 2027 06:30:25.840             0.000             0.000
       233   09 Jun 2027 06:30:31.475   09 Jun 2027 06:30:32.457             0.982           231.500
       234   09 Jun 2027 07:59:22.735   09 Jun 2027 07:59:25.829             3.094           453.500
       235   09 Jun 2027 07:59:54.820   09 Jun 2027 07:59:57.006             2.186           676.750
       236   09 Jun 2027 08:02:28.929   09 Jun 2027 08:02:33.077             4.148          1897.688
       237   09 Jun 2027 08:03:02.680   09 Jun 2027 08:03:03.639             0.959           322.969
       238   09 Jun 2027 08:03:15.677   09 Jun 2027 08:03:17.079             1.402           225.812
       239   09 Jun 2027 08:05:03.334   09 Jun 2027 08:05:06.346             3.012           795.625
       240   09 Jun 2027 08:05:37.566   09 Jun 2027 08:05:39.548             1.982           198.281
       241   09 Jun 2027 09:36:26.719   09 Jun 2027 09:36:41.325            14.606          6244.281
       242   09 Jun 2027 09:38:37.946   09 Jun 2027 09:38:40.085             2.139           349.531
       243   09 Jun 2027 09:39:31.773   09 Jun 2027 09:39:32.460             0.687           194.031
       244   09 Jun 2027 09:40:21.647   09 Jun 2027 09:40:22.477             0.830           138.563
       245   09 Jun 2027 09:40:44.069   09 Jun 2027 09:40:45.389             1.320           463.156
       246   09 Jun 2027 09:41:44.535   09 Jun 2027 09:41:53.685             9.150          1666.313
       247   09 Jun 2027 11:13:11.271   09 Jun 2027 11:13:24.088            12.817          4888.250
       248   09 Jun 2027 11:15:07.219   09 Jun 2027 11:15:12.694             5.475           659.219
       249   09 Jun 2027 11:16:03.427   09 Jun 2027 11:16:10.249             6.822           617.313
       250   09 Jun 2027 11:16:39.741   09 Jun 2027 11:16:41.893             2.152           341.438
       251   09 Jun 2027 11:17:56.009   09 Jun 2027 11:17:58.587             2.578           240.000
       252   10 Jun 2027 03:24:05.243   10 Jun 2027 03:24:18.534            13.291          6645.500
       253   10 Jun 2027 05:00:27.698   10 Jun 2027 05:01:58.245            90.547         45273.500
       254   10 Jun 2027 05:03:24.646   10 Jun 2027 05:04:02.233            37.587         18793.500
       255   10 Jun 2027 06:34:31.691   10 Jun 2027 06:36:56.729           145.038         72519.000
       256   10 Jun 2027 06:37:21.912   10 Jun 2027 06:37:31.414             9.502          4191.469
       257   10 Jun 2027 06:38:15.155   10 Jun 2027 06:38:18.822             3.667           724.906
       258   10 Jun 2027 06:38:46.919   10 Jun 2027 06:38:46.919             0.000             0.000
       259   10 Jun 2027 06:38:56.201   10 Jun 2027 06:39:02.615             6.414           487.063
       260   10 Jun 2027 06:39:50.477   10 Jun 2027 06:39:53.510             3.033          1420.906
       261   10 Jun 2027 06:40:16.566   10 Jun 2027 06:40:19.862             3.296           383.812
       262   10 Jun 2027 06:40:56.283   10 Jun 2027 06:40:57.942             1.659           524.531
       263   10 Jun 2027 06:41:34.072   10 Jun 2027 06:41:41.189             7.117           590.063
       264   10 Jun 2027 06:42:27.263   10 Jun 2027 06:42:29.231             1.968           456.531
       265   10 Jun 2027 08:11:36.273   10 Jun 2027 08:11:40.439             4.166          1077.562
       266   10 Jun 2027 08:13:28.939   10 Jun 2027 08:13:37.222             8.283           876.531
       267   10 Jun 2027 08:15:05.930   10 Jun 2027 08:15:10.577             4.647          1043.938
       268   10 Jun 2027 08:16:10.569   10 Jun 2027 08:16:12.305             1.736           597.938
       269   10 Jun 2027 08:17:24.764   10 Jun 2027 08:17:27.757             2.993           803.406
       270   10 Jun 2027 08:18:04.922   10 Jun 2027 08:18:08.457             3.535           647.031
       271   10 Jun 2027 09:48:32.232   10 Jun 2027 09:48:46.115            13.883          6202.781
       272   10 Jun 2027 09:52:40.211   10 Jun 2027 09:52:42.568             2.357          1130.531
       273   10 Jun 2027 09:53:09.097   10 Jun 2027 09:53:10.792             1.695           611.750
       274   10 Jun 2027 09:53:24.653   10 Jun 2027 09:53:25.739             1.086           141.719
       275   10 Jun 2027 11:25:18.788   10 Jun 2027 11:25:32.164            13.376          5149.500
       276   10 Jun 2027 11:27:37.875   10 Jun 2027 11:27:40.388             2.513           538.969
       277   10 Jun 2027 11:28:07.038   10 Jun 2027 11:28:09.247             2.209           686.969
       278   10 Jun 2027 11:28:36.902   10 Jun 2027 11:28:38.880             1.978           864.219
       279   10 Jun 2027 11:29:30.570   10 Jun 2027 11:29:33.075             2.505           746.031
       280   11 Jun 2027 03:36:09.198   11 Jun 2027 03:36:19.593            10.395          5197.500
       281   11 Jun 2027 05:13:37.992   11 Jun 2027 05:14:06.046            28.054         14027.000
       282   11 Jun 2027 05:15:11.481   11 Jun 2027 05:16:02.959            51.478         25739.000
       283   11 Jun 2027 06:47:43.216   11 Jun 2027 06:51:11.925           208.709        104053.937
       284   11 Jun 2027 06:51:26.607   11 Jun 2027 06:51:30.138             3.531           121.563
       285   11 Jun 2027 06:52:40.065   11 Jun 2027 06:52:45.270             5.205          1993.625
       286   11 Jun 2027 06:53:45.722   11 Jun 2027 06:53:48.918             3.196          1446.000
       287   11 Jun 2027 06:54:09.587   11 Jun 2027 06:54:10.163             0.576           249.938
       288   11 Jun 2027 08:24:05.183   11 Jun 2027 08:24:13.442             8.259          2266.844
       289   11 Jun 2027 08:25:24.200   11 Jun 2027 08:25:28.795             4.595           325.969
       290   11 Jun 2027 08:26:35.637   11 Jun 2027 08:26:42.377             6.740           680.719
       291   11 Jun 2027 08:27:20.799   11 Jun 2027 08:27:22.049             1.250           311.594
       292   11 Jun 2027 08:28:16.728   11 Jun 2027 08:28:18.649             1.921           680.594
       293   11 Jun 2027 08:28:34.113   11 Jun 2027 08:28:35.396             1.283           429.281
       294   11 Jun 2027 08:29:15.021   11 Jun 2027 08:29:16.436             1.415           685.656
       295   11 Jun 2027 08:29:55.191   11 Jun 2027 08:29:58.582             3.391           651.969
       296   11 Jun 2027 10:01:35.406   11 Jun 2027 10:01:46.009            10.603          5199.000
       297   11 Jun 2027 10:03:55.887   11 Jun 2027 10:03:56.678             0.791           116.469
       298   11 Jun 2027 10:04:29.229   11 Jun 2027 10:04:35.674             6.445           889.687
       299   11 Jun 2027 10:04:47.506   11 Jun 2027 10:04:50.037             2.531           369.750
       300   11 Jun 2027 10:05:33.647   11 Jun 2027 10:05:37.226             3.579          1231.406
       301   11 Jun 2027 11:37:40.104   11 Jun 2027 11:37:52.012            11.908          5831.000
       302   11 Jun 2027 11:40:10.148   11 Jun 2027 11:40:13.608             3.460           555.219
       303   11 Jun 2027 11:41:32.709   11 Jun 2027 11:41:36.397             3.688          1055.500
       304   12 Jun 2027 03:48:05.101   12 Jun 2027 03:48:20.273            15.172          7586.000
       305   12 Jun 2027 03:50:29.867   12 Jun 2027 03:50:29.867             0.000             0.000
       306   12 Jun 2027 03:51:15.741   12 Jun 2027 03:51:18.302             2.561          1280.500
       307   12 Jun 2027 05:24:42.841   12 Jun 2027 05:27:51.519           188.678         94339.000
       308   12 Jun 2027 06:59:53.301   12 Jun 2027 07:01:33.364           100.063         48776.031
       309   12 Jun 2027 07:02:34.971   12 Jun 2027 07:02:42.875             7.904          1665.469
       310   12 Jun 2027 07:02:53.212   12 Jun 2027 07:02:54.603             1.391           270.062
       311   12 Jun 2027 07:03:01.175   12 Jun 2027 07:03:02.282             1.107           146.563
       312   12 Jun 2027 07:04:40.138   12 Jun 2027 07:04:51.813            11.675          2300.656
       313   12 Jun 2027 07:05:47.737   12 Jun 2027 07:05:51.563             3.826          1412.656
       314   12 Jun 2027 07:06:05.899   12 Jun 2027 07:06:07.234             1.335           412.500
       315   12 Jun 2027 08:36:07.719   12 Jun 2027 08:36:13.037             5.318          2644.531
       316   12 Jun 2027 08:38:30.008   12 Jun 2027 08:38:32.559             2.551          1078.781
       317   12 Jun 2027 08:39:02.173   12 Jun 2027 08:39:04.487             2.314           747.500
       318   12 Jun 2027 08:41:07.353   12 Jun 2027 08:41:13.612             6.259           697.906
       319   12 Jun 2027 10:13:41.026   12 Jun 2027 10:13:55.777            14.751          6619.375
       320   12 Jun 2027 10:14:20.900   12 Jun 2027 10:14:27.312             6.412           546.281
       321   12 Jun 2027 10:15:10.973   12 Jun 2027 10:15:12.949             1.976           876.187
       322   12 Jun 2027 10:16:00.724   12 Jun 2027 10:16:03.365             2.641           572.344
       323   12 Jun 2027 10:17:09.916   12 Jun 2027 10:17:18.671             8.755          1986.906
       324   12 Jun 2027 10:17:40.583   12 Jun 2027 10:17:41.149             0.566           192.344
       325   12 Jun 2027 10:17:55.801   12 Jun 2027 10:17:56.676             0.875           175.875
       326   12 Jun 2027 11:49:42.347   12 Jun 2027 11:49:53.772            11.425          5613.344
       327   12 Jun 2027 11:51:41.496   12 Jun 2027 11:51:42.123             0.627           102.812
       328   12 Jun 2027 11:54:20.098   12 Jun 2027 11:54:21.362             1.264           549.500
       329   13 Jun 2027 04:00:40.813   13 Jun 2027 04:00:50.577             9.764          4882.000
       330   13 Jun 2027 04:01:28.955   13 Jun 2027 04:01:43.490            14.535          7267.500
       331   13 Jun 2027 04:03:19.496   13 Jun 2027 04:03:25.011             5.515          2757.500
       332   13 Jun 2027 05:36:26.585   13 Jun 2027 05:39:26.263           179.678         89839.000
       333   13 Jun 2027 07:11:17.564   13 Jun 2027 07:12:56.328            98.764         49382.000
       334   13 Jun 2027 07:13:14.256   13 Jun 2027 07:13:17.124             2.868           906.032
       335   13 Jun 2027 07:13:54.649   13 Jun 2027 07:13:59.388             4.739           802.344
       336   13 Jun 2027 07:14:14.047   13 Jun 2027 07:14:16.500             2.453           287.875
       337   13 Jun 2027 07:14:31.884   13 Jun 2027 07:14:33.341             1.457            47.531
       338   13 Jun 2027 07:15:28.900   13 Jun 2027 07:15:34.356             5.456           798.687
       339   13 Jun 2027 07:17:15.608   13 Jun 2027 07:17:21.699             6.091          1484.312
       340   13 Jun 2027 07:17:46.037   13 Jun 2027 07:17:53.465             7.428           571.313
       341   13 Jun 2027 08:47:53.381   13 Jun 2027 08:48:04.985            11.604          4803.781
       342   13 Jun 2027 08:48:45.043   13 Jun 2027 08:48:46.488             1.445           449.531
       343   13 Jun 2027 08:50:28.073   13 Jun 2027 08:50:32.449             4.376          1509.562
       344   13 Jun 2027 08:51:39.519   13 Jun 2027 08:51:41.829             2.310           606.281
       345   13 Jun 2027 08:52:26.451   13 Jun 2027 08:52:29.937             3.486           424.844
       346   13 Jun 2027 08:52:43.786   13 Jun 2027 08:52:52.156             8.370           296.344
       347   13 Jun 2027 08:53:38.210   13 Jun 2027 08:53:40.474             2.264          1045.562
       348   13 Jun 2027 10:26:11.044   13 Jun 2027 10:26:23.989            12.945          5575.656
       349   13 Jun 2027 10:28:00.978   13 Jun 2027 10:28:05.473             4.495          1698.625
       350   13 Jun 2027 10:28:11.612   13 Jun 2027 10:28:12.088             0.476           160.031
       351   13 Jun 2027 10:29:33.926   13 Jun 2027 10:29:36.522             2.596           272.156
       352   13 Jun 2027 10:29:56.894   13 Jun 2027 10:29:58.570             1.676           395.375
       353   13 Jun 2027 11:59:31.692   13 Jun 2027 11:59:41.435             9.743          4871.500
