uniorb/output/strategy_4/Camera/Camera_KinoSat_110205.txt

KinoSat_110205
-------------------------
    Access    *     Start Time (UTCG)     *     Stop Time (UTCG)  *   Duration (s) *   Data (Mbytes)
         1   01 Jun 2027 04:01:36.465   01 Jun 2027 04:03:56.980           140.515         70257.500
         2   01 Jun 2027 04:04:17.094   01 Jun 2027 04:04:22.881             5.787          2893.500
         3   01 Jun 2027 04:04:57.183   01 Jun 2027 04:04:58.733             1.550           775.000
         4   01 Jun 2027 04:05:18.842   01 Jun 2027 04:05:33.103            14.261          7130.500
         5   01 Jun 2027 04:06:57.442   01 Jun 2027 04:07:16.458            19.016          9508.000
         6   01 Jun 2027 04:07:49.102   01 Jun 2027 04:08:04.106            15.004          7502.000
         7   01 Jun 2027 05:38:33.527   01 Jun 2027 05:41:42.375           188.848         94424.000
         8   01 Jun 2027 05:43:52.014   01 Jun 2027 05:44:05.003            12.989          6494.500
         9   01 Jun 2027 07:15:23.935   01 Jun 2027 07:18:07.894           163.959         81979.500
        10   01 Jun 2027 07:18:42.370   01 Jun 2027 07:18:54.173            11.803          5901.500
        11   01 Jun 2027 07:19:48.350   01 Jun 2027 07:19:52.136             3.786          1893.000
        12   01 Jun 2027 08:53:03.932   01 Jun 2027 08:54:40.589            96.657         48328.500
        13   02 Jun 2027 04:13:43.893   02 Jun 2027 04:19:43.544           359.651        179825.500
        14   02 Jun 2027 04:20:10.026   02 Jun 2027 04:20:24.045            14.019          7009.500
        15   02 Jun 2027 05:51:27.585   02 Jun 2027 05:54:51.939           204.354        102177.000
        16   02 Jun 2027 05:55:21.500   02 Jun 2027 05:55:51.942            30.442         15221.000
        17   02 Jun 2027 07:27:33.849   02 Jun 2027 07:31:55.012           261.163        130581.500
        18   03 Jun 2027 04:26:18.325   03 Jun 2027 04:32:26.403           368.078        184039.000
        19   03 Jun 2027 06:03:33.891   03 Jun 2027 06:08:10.480           276.589        138294.500
        20   03 Jun 2027 07:39:48.172   03 Jun 2027 07:44:29.922           281.750        140875.000
        21   04 Jun 2027 03:01:32.423   04 Jun 2027 03:08:38.773           426.350        213175.000
        22   04 Jun 2027 04:37:51.664   04 Jun 2027 04:44:16.218           384.554        192277.000
        23   04 Jun 2027 06:16:11.256   04 Jun 2027 06:19:59.833           228.577        114288.500
        24   04 Jun 2027 07:51:41.125   04 Jun 2027 07:55:38.475           237.350        118675.000
        25   04 Jun 2027 07:56:17.082   04 Jun 2027 07:56:58.068            40.986         20493.000
        26   05 Jun 2027 03:13:05.812   05 Jun 2027 03:20:40.531           454.719        227359.500
        27   05 Jun 2027 04:50:11.114   05 Jun 2027 04:56:33.396           382.282        191141.000
        28   05 Jun 2027 06:28:12.292   05 Jun 2027 06:32:04.824           232.532        116266.000
        29   05 Jun 2027 08:01:28.253   05 Jun 2027 08:07:32.941           364.688        182344.000
        30   05 Jun 2027 08:07:38.344   05 Jun 2027 08:09:14.582            96.238         48119.000
        31   06 Jun 2027 03:25:24.317   06 Jun 2027 03:32:43.683           439.366        219683.000
        32   06 Jun 2027 05:02:12.488   06 Jun 2027 05:08:40.624           388.136        194068.000
        33   06 Jun 2027 06:40:09.621   06 Jun 2027 06:44:08.443           238.822        119411.000
        34   06 Jun 2027 08:13:45.704   06 Jun 2027 08:20:09.908           384.204        192102.000
        35   06 Jun 2027 08:20:48.354   06 Jun 2027 08:21:13.673            25.319         12659.500
        36   07 Jun 2027 03:37:18.840   07 Jun 2027 03:44:44.435           445.595        222797.500
        37   07 Jun 2027 05:14:03.240   07 Jun 2027 05:19:58.462           355.222        177611.000
        38   07 Jun 2027 05:20:05.662   07 Jun 2027 05:20:48.900            43.238         21619.000
        39   07 Jun 2027 06:52:18.293   07 Jun 2027 06:56:17.936           239.643        119821.500
        40   07 Jun 2027 08:26:02.199   07 Jun 2027 08:32:19.475           377.276        188638.000
        41   08 Jun 2027 03:49:25.280   08 Jun 2027 03:56:44.731           439.451        219725.500
        42   08 Jun 2027 05:26:28.226   08 Jun 2027 05:31:17.471           289.245        144622.500
        43   08 Jun 2027 05:32:16.284   08 Jun 2027 05:32:35.045            18.761          9380.500
        44   08 Jun 2027 07:03:39.094   08 Jun 2027 07:08:17.646           278.552        139276.000
        45   08 Jun 2027 08:38:32.753   08 Jun 2027 08:38:54.667            21.914         10957.000
        46   08 Jun 2027 08:40:16.049   08 Jun 2027 08:43:21.235           185.186         92593.000
        47   09 Jun 2027 04:01:51.515   09 Jun 2027 04:08:33.270           401.755        200877.500
        48   09 Jun 2027 05:38:48.357   09 Jun 2027 05:43:09.715           261.358        130679.000
        49   09 Jun 2027 05:43:11.938   09 Jun 2027 05:44:19.564            67.626         33813.000
        50   09 Jun 2027 07:15:54.161   09 Jun 2027 07:20:06.972           252.811        126405.500
        51   09 Jun 2027 08:53:19.397   09 Jun 2027 08:55:08.556           109.159         54579.500
        52   10 Jun 2027 04:13:58.937   10 Jun 2027 04:20:38.999           400.062        200031.000
        53   10 Jun 2027 05:51:43.090   10 Jun 2027 05:56:07.101           264.011        132005.500
        54   10 Jun 2027 07:28:06.891   10 Jun 2027 07:32:09.374           242.483        121241.500
        55   11 Jun 2027 04:26:32.536   11 Jun 2027 04:32:41.208           368.672        184336.000
        56   11 Jun 2027 06:03:48.965   11 Jun 2027 06:08:25.451           276.486        138243.000
        57   11 Jun 2027 07:40:02.659   11 Jun 2027 07:44:45.227           282.568        141284.000
        58   12 Jun 2027 03:01:47.120   12 Jun 2027 03:08:53.717           426.597        213298.500
        59   12 Jun 2027 04:38:06.368   12 Jun 2027 04:44:31.171           384.803        192401.500
        60   12 Jun 2027 06:16:27.113   12 Jun 2027 06:20:14.853           227.740        113870.000
        61   12 Jun 2027 07:51:43.951   12 Jun 2027 07:55:53.398           249.447        124723.500
        62   12 Jun 2027 07:56:31.390   12 Jun 2027 07:57:12.932            41.542         20771.000
        63   13 Jun 2027 03:13:20.434   13 Jun 2027 03:20:55.005           454.571        227285.500
        64   13 Jun 2027 04:50:26.126   13 Jun 2027 04:56:48.358           382.232        191116.000
        65   13 Jun 2027 06:28:28.688   13 Jun 2027 06:32:19.713           231.025        115512.500
        66   13 Jun 2027 08:01:44.022   13 Jun 2027 08:07:47.557           363.535        181767.500
        67   13 Jun 2027 08:07:53.610   13 Jun 2027 08:09:02.851            69.241         34620.500
        68   13 Jun 2027 08:09:28.096   13 Jun 2027 08:09:29.005             0.909           454.500
