uniorb/output/strategy_4/Camera/Camera_KinoSat_111101.txt

KinoSat_111101
-------------------------
    Access    *     Start Time (UTCG)     *     Stop Time (UTCG)  *   Duration (s) *   Data (Mbytes)
         1   01 Jun 2027 04:01:40.967   01 Jun 2027 04:02:58.843            77.876         38938.000
         2   01 Jun 2027 04:03:28.971   01 Jun 2027 04:03:45.417            16.446          8223.000
         3   01 Jun 2027 05:37:38.356   01 Jun 2027 05:40:07.460           149.104         74552.000
         4   01 Jun 2027 05:40:23.503   01 Jun 2027 05:40:23.503             0.000             0.000
         5   01 Jun 2027 07:11:28.093   01 Jun 2027 07:13:30.260           122.167         61083.500
         6   01 Jun 2027 07:13:58.880   01 Jun 2027 07:14:02.138             3.258          1629.000
         7   01 Jun 2027 07:15:37.272   01 Jun 2027 07:15:53.140            15.868          7934.000
         8   01 Jun 2027 07:16:03.513   01 Jun 2027 07:16:06.375             2.862          1431.000
         9   01 Jun 2027 07:17:01.543   01 Jun 2027 07:17:03.685             2.142          1071.000
        10   01 Jun 2027 07:17:54.797   01 Jun 2027 07:17:58.497             3.700          1850.000
        11   01 Jun 2027 07:18:36.567   01 Jun 2027 07:18:36.706             0.139            69.500
        12   01 Jun 2027 07:18:57.940   01 Jun 2027 07:18:58.029             0.089            44.500
        13   01 Jun 2027 07:19:16.411   01 Jun 2027 07:19:22.045             5.634          2817.000
        14   01 Jun 2027 08:48:31.629   01 Jun 2027 08:51:14.257           162.628         81314.000
        15   01 Jun 2027 08:53:54.050   01 Jun 2027 08:53:58.342             4.292          2146.000
        16   01 Jun 2027 08:55:09.159   01 Jun 2027 08:55:19.046             9.887          4943.500
        17   01 Jun 2027 10:25:26.335   01 Jun 2027 10:27:35.537           129.202         64601.000
        18   01 Jun 2027 10:29:02.162   01 Jun 2027 10:29:24.192            22.030         11015.000
        19   01 Jun 2027 10:29:26.869   01 Jun 2027 10:29:28.749             1.880           940.000
        20   02 Jun 2027 04:13:34.999   02 Jun 2027 04:14:19.653            44.654         22327.000
        21   02 Jun 2027 04:15:26.660   02 Jun 2027 04:15:26.660             0.000             0.000
        22   02 Jun 2027 04:15:32.087   02 Jun 2027 04:15:37.772             5.685          2842.500
        23   02 Jun 2027 05:49:57.045   02 Jun 2027 05:52:34.651           157.606         78803.000
        24   02 Jun 2027 07:23:26.248   02 Jun 2027 07:26:51.768           205.520        102760.000
        25   02 Jun 2027 07:27:40.859   02 Jun 2027 07:27:52.360            11.501          5750.500
        26   02 Jun 2027 07:28:04.276   02 Jun 2027 07:28:15.013            10.737          5368.500
        27   02 Jun 2027 07:28:45.463   02 Jun 2027 07:29:01.037            15.574          7787.000
        28   02 Jun 2027 07:30:27.327   02 Jun 2027 07:30:28.144             0.817           408.500
        29   02 Jun 2027 07:30:48.365   02 Jun 2027 07:30:54.822             6.457          3228.500
        30   02 Jun 2027 09:00:57.990   02 Jun 2027 09:04:41.092           223.102        111551.000
        31   02 Jun 2027 09:05:37.013   02 Jun 2027 09:06:00.104            23.091         11533.717
        32   02 Jun 2027 10:37:53.123   02 Jun 2027 10:38:22.396            29.273         14557.781
        33   02 Jun 2027 10:39:49.224   02 Jun 2027 10:39:53.782             4.558           189.937
        34   02 Jun 2027 10:41:05.110   02 Jun 2027 10:41:09.507             4.397          1453.406
        35   02 Jun 2027 10:41:21.087   02 Jun 2027 10:41:21.160             0.073            32.469
        36   02 Jun 2027 10:41:37.155   02 Jun 2027 10:41:39.088             1.933            20.563
        37   02 Jun 2027 10:41:44.534   02 Jun 2027 10:41:45.842             1.308            30.781
        38   02 Jun 2027 10:42:06.790   02 Jun 2027 10:42:11.773             4.983           468.344
        39   02 Jun 2027 10:42:41.971   02 Jun 2027 10:42:49.315             7.344           943.688
        40   02 Jun 2027 10:43:33.301   02 Jun 2027 10:43:33.900             0.599            30.906
        41   03 Jun 2027 03:01:49.769   03 Jun 2027 03:02:07.225            17.456          8728.000
        42   03 Jun 2027 03:03:34.949   03 Jun 2027 03:03:40.814             5.865          2932.500
        43   03 Jun 2027 03:04:23.617   03 Jun 2027 03:04:51.182            27.565         13782.500
        44   03 Jun 2027 04:25:25.966   03 Jun 2027 04:26:32.210            66.244         33122.000
        45   03 Jun 2027 04:27:47.494   03 Jun 2027 04:28:09.071            21.577         10788.500
        46   03 Jun 2027 06:01:58.772   03 Jun 2027 06:04:12.004           133.232         66616.000
        47   03 Jun 2027 06:04:40.345   03 Jun 2027 06:05:09.150            28.805         14402.500
        48   03 Jun 2027 07:36:27.870   03 Jun 2027 07:37:11.545            43.675         19117.438
        49   03 Jun 2027 07:37:41.365   03 Jun 2027 07:37:42.462             1.097           542.688
        50   03 Jun 2027 07:38:05.205   03 Jun 2027 07:38:06.663             1.458           365.469
        51   03 Jun 2027 07:38:35.967   03 Jun 2027 07:38:41.862             5.895           690.031
        52   03 Jun 2027 07:39:16.288   03 Jun 2027 07:39:19.423             3.135          1075.813
        53   03 Jun 2027 07:40:29.149   03 Jun 2027 07:40:32.542             3.393           502.281
        54   03 Jun 2027 07:41:09.423   03 Jun 2027 07:41:11.211             1.788           763.937
        55   03 Jun 2027 07:42:25.055   03 Jun 2027 07:42:30.247             5.192          2207.375
        56   03 Jun 2027 07:42:55.255   03 Jun 2027 07:42:57.889             2.634           611.906
        57   03 Jun 2027 07:43:44.864   03 Jun 2027 07:43:46.013             1.149           571.781
        58   03 Jun 2027 09:13:05.376   03 Jun 2027 09:13:16.166            10.790          5041.219
        59   03 Jun 2027 09:15:35.649   03 Jun 2027 09:15:37.933             2.284          1058.000
        60   03 Jun 2027 09:16:54.896   03 Jun 2027 09:16:55.130             0.234            34.281
        61   03 Jun 2027 09:18:03.377   03 Jun 2027 09:18:06.305             2.928            67.219
        62   03 Jun 2027 09:19:20.613   03 Jun 2027 09:19:23.993             3.380           754.781
        63   03 Jun 2027 10:50:46.990   03 Jun 2027 10:50:57.389            10.399          4895.562
        64   03 Jun 2027 10:52:23.637   03 Jun 2027 10:52:27.476             3.839          1257.500
        65   03 Jun 2027 10:52:59.338   03 Jun 2027 10:53:00.447             1.109           422.719
        66   03 Jun 2027 10:54:00.194   03 Jun 2027 10:54:06.000             5.806          1867.094
        67   03 Jun 2027 10:55:05.340   03 Jun 2027 10:55:10.091             4.751          1854.375
        68   04 Jun 2027 03:14:15.355   04 Jun 2027 03:14:41.329            25.974         12987.000
        69   04 Jun 2027 03:15:02.889   04 Jun 2027 03:17:11.529           128.640         64320.000
        70   04 Jun 2027 04:37:36.302   04 Jun 2027 04:38:20.296            43.994         21997.000
        71   04 Jun 2027 04:39:19.191   04 Jun 2027 04:40:04.044            44.853         22426.500
        72   04 Jun 2027 06:14:07.853   04 Jun 2027 06:15:27.027            79.174         38832.593
        73   04 Jun 2027 06:16:39.343   04 Jun 2027 06:16:44.061             4.718          2085.625
        74   04 Jun 2027 06:17:27.539   04 Jun 2027 06:17:31.392             3.853           664.562
        75   04 Jun 2027 07:49:16.995   04 Jun 2027 07:49:26.144             9.149          2234.812
        76   04 Jun 2027 07:50:27.808   04 Jun 2027 07:50:31.128             3.320          1413.625
        77   04 Jun 2027 07:50:43.149   04 Jun 2027 07:50:46.653             3.504           117.813
        78   04 Jun 2027 07:51:26.401   04 Jun 2027 07:51:28.534             2.133           911.344
        79   04 Jun 2027 07:52:14.892   04 Jun 2027 07:52:14.892             0.000             0.000
        80   04 Jun 2027 07:52:41.334   04 Jun 2027 07:52:43.294             1.960           974.156
        81   04 Jun 2027 07:53:14.549   04 Jun 2027 07:53:20.292             5.743           845.812
        82   04 Jun 2027 07:54:38.888   04 Jun 2027 07:54:42.823             3.935           426.125
        83   04 Jun 2027 07:55:35.888   04 Jun 2027 07:55:36.667             0.779           238.625
        84   04 Jun 2027 07:55:43.839   04 Jun 2027 07:55:44.422             0.583             4.063
        85   04 Jun 2027 09:25:40.533   04 Jun 2027 09:25:56.072            15.539          6840.875
        86   04 Jun 2027 09:27:34.483   04 Jun 2027 09:27:38.209             3.726           660.875
        87   04 Jun 2027 09:29:57.476   04 Jun 2027 09:30:03.540             6.064          2119.844
        88   04 Jun 2027 09:30:30.503   04 Jun 2027 09:30:35.134             4.631           745.313
        89   04 Jun 2027 09:31:13.321   04 Jun 2027 09:31:15.457             2.136           872.437
        90   04 Jun 2027 11:02:54.487   04 Jun 2027 11:03:08.186            13.699          6025.531
        91   04 Jun 2027 11:03:50.903   04 Jun 2027 11:03:55.523             4.620           366.094
        92   04 Jun 2027 11:04:43.402   04 Jun 2027 11:04:58.075            14.673           187.656
        93   04 Jun 2027 11:05:18.352   04 Jun 2027 11:05:22.129             3.777            68.406
        94   04 Jun 2027 11:06:11.656   04 Jun 2027 11:06:14.236             2.580           961.906
        95   04 Jun 2027 11:07:08.827   04 Jun 2027 11:07:11.942             3.115           866.250
        96   05 Jun 2027 03:26:10.542   05 Jun 2027 03:26:48.281            37.739         18869.500
        97   05 Jun 2027 03:27:18.061   05 Jun 2027 03:29:46.606           148.545         74272.500
        98   05 Jun 2027 04:50:13.206   05 Jun 2027 04:50:32.882            19.676          9838.000
        99   05 Jun 2027 06:26:01.081   05 Jun 2027 06:27:38.424            97.343         48671.500
       100   05 Jun 2027 06:27:59.351   05 Jun 2027 06:27:59.351             0.000             0.000
       101   05 Jun 2027 06:28:37.615   05 Jun 2027 06:28:43.993             6.378          2562.844
       102   05 Jun 2027 06:29:14.804   05 Jun 2027 06:29:21.718             6.914           951.844
       103   05 Jun 2027 08:00:58.658   05 Jun 2027 08:01:07.733             9.075          2460.313
       104   05 Jun 2027 08:01:32.913   05 Jun 2027 08:01:36.973             4.060           163.063
       105   05 Jun 2027 08:02:54.272   05 Jun 2027 08:02:55.939             1.667           359.844
       106   05 Jun 2027 08:03:50.394   05 Jun 2027 08:03:51.660             1.266            45.562
       107   05 Jun 2027 08:04:49.759   05 Jun 2027 08:04:55.484             5.725          1469.219
       108   05 Jun 2027 08:06:24.875   05 Jun 2027 08:06:32.291             7.416          2115.875
       109   05 Jun 2027 08:07:29.147   05 Jun 2027 08:07:32.817             3.670          1473.281
       110   05 Jun 2027 09:37:12.311   05 Jun 2027 09:37:23.842            11.531          5037.062
       111   05 Jun 2027 09:40:42.263   05 Jun 2027 09:40:45.623             3.360           912.500
       112   05 Jun 2027 09:40:59.057   05 Jun 2027 09:41:03.090             4.033           244.000
       113   05 Jun 2027 09:42:20.697   05 Jun 2027 09:42:27.753             7.056          1378.281
       114   05 Jun 2027 09:42:45.485   05 Jun 2027 09:42:47.569             2.084           468.656
       115   05 Jun 2027 11:15:32.425   05 Jun 2027 11:15:46.033            13.608          5967.031
       116   05 Jun 2027 11:17:40.480   05 Jun 2027 11:17:46.309             5.829          2148.875
       117   05 Jun 2027 11:18:14.481   05 Jun 2027 11:18:16.542             2.061           433.375
       118   05 Jun 2027 11:18:44.465   05 Jun 2027 11:18:52.800             8.335            55.281
       119   05 Jun 2027 11:19:20.248   05 Jun 2027 11:19:22.930             2.682           451.656
       120   06 Jun 2027 03:26:58.821   06 Jun 2027 03:27:02.054             3.233          1616.500
       121   06 Jun 2027 03:27:43.514   06 Jun 2027 03:27:43.514             0.000             0.000
       122   06 Jun 2027 03:38:06.656   06 Jun 2027 03:39:49.285           102.629         51314.500
       123   06 Jun 2027 03:40:03.473   06 Jun 2027 03:41:25.836            82.363         41181.500
       124   06 Jun 2027 05:01:03.512   06 Jun 2027 05:01:29.942            26.430         13215.000
       125   06 Jun 2027 05:03:56.334   06 Jun 2027 05:04:24.904            28.570         14285.000
       126   06 Jun 2027 06:36:23.265   06 Jun 2027 06:36:48.903            25.638         12819.000
       127   06 Jun 2027 06:37:46.036   06 Jun 2027 06:38:26.200            40.164         20071.531
       128   06 Jun 2027 06:38:37.805   06 Jun 2027 06:38:47.827            10.022           148.813
       129   06 Jun 2027 06:39:21.045   06 Jun 2027 06:39:31.621            10.576          1038.063
       130   06 Jun 2027 06:39:57.446   06 Jun 2027 06:39:57.446             0.000             0.000
       131   06 Jun 2027 06:40:31.637   06 Jun 2027 06:40:34.992             3.355          1523.937
       132   06 Jun 2027 06:40:51.326   06 Jun 2027 06:40:52.581             1.255           510.437
       133   06 Jun 2027 06:41:26.146   06 Jun 2027 06:41:31.810             5.664           586.375
       134   06 Jun 2027 08:12:31.678   06 Jun 2027 08:12:36.663             4.985          1705.156
       135   06 Jun 2027 08:13:32.232   06 Jun 2027 08:13:39.414             7.182           799.656
       136   06 Jun 2027 08:15:25.043   06 Jun 2027 08:15:27.873             2.830          1268.156
       137   06 Jun 2027 08:15:55.483   06 Jun 2027 08:16:00.474             4.991            85.250
       138   06 Jun 2027 08:16:51.777   06 Jun 2027 08:17:03.354            11.577          1603.219
       139   06 Jun 2027 08:18:23.819   06 Jun 2027 08:18:30.100             6.281          1921.156
       140   06 Jun 2027 08:19:23.530   06 Jun 2027 08:19:27.517             3.987          1204.750
       141   06 Jun 2027 09:49:34.065   06 Jun 2027 09:49:45.813            11.748          5026.063
       142   06 Jun 2027 09:52:32.668   06 Jun 2027 09:52:36.289             3.621          1133.094
       143   06 Jun 2027 09:52:59.897   06 Jun 2027 09:53:02.904             3.007           560.969
       144   06 Jun 2027 09:53:16.795   06 Jun 2027 09:53:17.636             0.841            59.344
       145   06 Jun 2027 09:54:10.416   06 Jun 2027 09:54:14.059             3.643           986.250
       146   06 Jun 2027 09:54:15.142   06 Jun 2027 09:54:15.949             0.807            33.844
       147   06 Jun 2027 09:54:23.174   06 Jun 2027 09:54:25.515             2.341           225.781
       148   06 Jun 2027 09:55:29.321   06 Jun 2027 09:55:33.234             3.913          1907.000
       149   06 Jun 2027 11:27:33.728   06 Jun 2027 11:27:46.249            12.521          6255.156
       150   06 Jun 2027 11:28:28.804   06 Jun 2027 11:28:34.061             5.257           857.844
       151   06 Jun 2027 11:29:52.910   06 Jun 2027 11:29:55.434             2.524           397.437
       152   06 Jun 2027 11:30:12.591   06 Jun 2027 11:30:15.147             2.556           463.125
       153   06 Jun 2027 11:31:21.747   06 Jun 2027 11:31:24.755             3.008          1442.500
       154   07 Jun 2027 03:38:26.194   07 Jun 2027 03:38:42.700            16.506          8253.000
       155   07 Jun 2027 03:50:08.584   07 Jun 2027 03:51:27.693            79.109         39554.500
       156   07 Jun 2027 05:12:21.526   07 Jun 2027 05:13:34.038            72.512         36256.000
       157   07 Jun 2027 05:14:23.210   07 Jun 2027 05:15:12.322            49.112         24556.000
       158   07 Jun 2027 05:16:34.414   07 Jun 2027 05:16:40.546             6.132          3066.000
       159   07 Jun 2027 06:47:27.814   07 Jun 2027 06:48:57.293            89.479         44739.500
       160   07 Jun 2027 06:49:29.928   07 Jun 2027 06:49:41.274            11.346          2042.750
       161   07 Jun 2027 06:51:08.708   07 Jun 2027 06:51:13.734             5.026          2409.250
       162   07 Jun 2027 06:51:18.506   07 Jun 2027 06:51:18.506             0.000             0.000
       163   07 Jun 2027 06:51:29.191   07 Jun 2027 06:51:30.195             1.004           442.156
       164   07 Jun 2027 06:52:31.215   07 Jun 2027 06:52:31.215             0.000             0.000
       165   07 Jun 2027 06:52:58.491   07 Jun 2027 06:53:05.423             6.932          2028.750
       166   07 Jun 2027 06:53:40.440   07 Jun 2027 06:53:40.440             0.000             0.000
       167   07 Jun 2027 06:53:53.495   07 Jun 2027 06:53:54.792             1.297           488.469
       168   07 Jun 2027 06:54:14.155   07 Jun 2027 06:54:15.823             1.668           387.500
       169   07 Jun 2027 08:24:43.304   07 Jun 2027 08:24:49.848             6.544          1820.750
       170   07 Jun 2027 08:25:34.012   07 Jun 2027 08:25:36.362             2.350           912.156
       171   07 Jun 2027 08:27:52.975   07 Jun 2027 08:27:53.643             0.668           249.750
       172   07 Jun 2027 08:28:14.829   07 Jun 2027 08:28:18.503             3.674           438.813
       173   07 Jun 2027 08:29:07.438   07 Jun 2027 08:29:09.209             1.771           676.875
       174   07 Jun 2027 08:29:46.770   07 Jun 2027 08:29:50.629             3.859           619.063
       175   07 Jun 2027 08:30:27.389   07 Jun 2027 08:30:28.508             1.119           170.062
       176   07 Jun 2027 08:30:46.772   07 Jun 2027 08:30:47.707             0.935           182.531
       177   07 Jun 2027 08:31:02.834   07 Jun 2027 08:31:05.228             2.394           472.719
       178   07 Jun 2027 10:01:37.439   07 Jun 2027 10:01:47.177             9.738          4745.250
       179   07 Jun 2027 10:03:04.708   07 Jun 2027 10:03:06.642             1.934           263.500
       180   07 Jun 2027 10:05:10.113   07 Jun 2027 10:05:13.891             3.778          1687.594
       181   07 Jun 2027 10:05:44.609   07 Jun 2027 10:05:47.438             2.829           959.938
       182   07 Jun 2027 10:05:54.986   07 Jun 2027 10:05:58.072             3.086            92.375
       183   07 Jun 2027 10:06:18.230   07 Jun 2027 10:06:23.819             5.589           609.781
       184   07 Jun 2027 10:07:32.751   07 Jun 2027 10:07:38.295             5.544          2154.125
       185   07 Jun 2027 11:39:33.628   07 Jun 2027 11:39:46.967            13.339          5969.469
       186   07 Jun 2027 11:40:56.104   07 Jun 2027 11:40:57.213             1.109           537.406
       187   07 Jun 2027 11:41:39.058   07 Jun 2027 11:41:44.686             5.628          1307.656
       188   07 Jun 2027 11:42:11.986   07 Jun 2027 11:42:15.789             3.803           831.875
       189   07 Jun 2027 11:42:51.022   07 Jun 2027 11:42:57.024             6.002           913.688
       190   07 Jun 2027 11:43:23.010   07 Jun 2027 11:43:28.386             5.376           416.469
       191   08 Jun 2027 03:49:54.873   08 Jun 2027 03:50:12.019            17.146          8573.000
       192   08 Jun 2027 03:52:03.819   08 Jun 2027 03:52:05.386             1.567           783.500
       193   08 Jun 2027 04:02:05.300   08 Jun 2027 04:02:43.606            38.306         19153.000
       194   08 Jun 2027 05:24:06.918   08 Jun 2027 05:25:27.464            80.546         40273.000
       195   08 Jun 2027 05:26:09.535   08 Jun 2027 05:27:16.250            66.715         33357.500
       196   08 Jun 2027 05:28:18.568   08 Jun 2027 05:28:36.941            18.373          9186.500
       197   08 Jun 2027 06:58:57.079   08 Jun 2027 07:00:36.311            99.232         49463.938
       198   08 Jun 2027 07:00:52.581   08 Jun 2027 07:00:53.445             0.864           182.188
       199   08 Jun 2027 07:01:02.142   08 Jun 2027 07:01:02.919             0.777           271.781
       200   08 Jun 2027 07:02:09.908   08 Jun 2027 07:02:17.142             7.234          1364.406
       201   08 Jun 2027 07:02:27.433   08 Jun 2027 07:02:27.433             0.000             0.000
       202   08 Jun 2027 07:02:37.827   08 Jun 2027 07:02:43.630             5.803           335.750
       203   08 Jun 2027 07:02:48.734   08 Jun 2027 07:02:49.125             0.391           145.188
       204   08 Jun 2027 07:04:32.298   08 Jun 2027 07:04:44.457            12.159          3108.781
       205   08 Jun 2027 07:05:39.825   08 Jun 2027 07:05:44.530             4.705          1437.344
       206   08 Jun 2027 07:05:57.871   08 Jun 2027 07:05:59.683             1.812           416.906
       207   08 Jun 2027 07:06:13.283   08 Jun 2027 07:06:15.209             1.926           209.156
       208   08 Jun 2027 07:07:48.354   08 Jun 2027 07:07:48.523             0.169            84.500
       209   08 Jun 2027 08:36:43.682   08 Jun 2027 08:36:50.090             6.408          2693.563
       210   08 Jun 2027 08:37:38.330   08 Jun 2027 08:37:42.245             3.915           979.062
       211   08 Jun 2027 08:39:19.491   08 Jun 2027 08:39:21.371             1.880           863.656
       212   08 Jun 2027 08:40:37.701   08 Jun 2027 08:40:42.505             4.804          1711.594
       213   08 Jun 2027 08:41:00.711   08 Jun 2027 08:41:06.435             5.724            25.625
       214   08 Jun 2027 08:42:19.099   08 Jun 2027 08:42:24.818             5.719          1196.438
       215   08 Jun 2027 08:43:21.249   08 Jun 2027 08:43:27.281             6.032          1698.031
       216   08 Jun 2027 08:43:51.205   08 Jun 2027 08:43:55.753             4.548           635.219
       217   08 Jun 2027 08:44:04.400   08 Jun 2027 08:44:05.707             1.307            46.625
       218   08 Jun 2027 10:13:28.843   08 Jun 2027 10:13:42.148            13.305          5617.531
       219   08 Jun 2027 10:14:33.157   08 Jun 2027 10:14:36.526             3.369          1315.375
       220   08 Jun 2027 10:16:18.486   08 Jun 2027 10:16:19.891             1.405            91.938
       221   08 Jun 2027 10:17:05.559   08 Jun 2027 10:17:11.139             5.580          1306.750
       222   08 Jun 2027 10:17:32.964   08 Jun 2027 10:17:39.781             6.817           235.594
       223   08 Jun 2027 10:17:47.239   08 Jun 2027 10:17:47.891             0.652           233.062
       224   08 Jun 2027 10:18:13.718   08 Jun 2027 10:18:14.906             1.188           398.469
       225   08 Jun 2027 10:18:26.326   08 Jun 2027 10:18:28.663             2.337           181.125
       226   08 Jun 2027 10:18:50.824   08 Jun 2027 10:18:52.858             2.034             7.719
       227   08 Jun 2027 10:19:48.780   08 Jun 2027 10:19:52.771             3.991          1747.562
       228   08 Jun 2027 11:51:34.339   08 Jun 2027 11:51:58.406            24.067          6438.063
       229   08 Jun 2027 11:53:36.945   08 Jun 2027 11:53:42.472             5.527          2043.125
       230   08 Jun 2027 11:54:25.664   08 Jun 2027 11:54:30.710             5.046           715.750
       231   08 Jun 2027 11:55:08.368   08 Jun 2027 11:55:13.776             5.408           634.344
       232   08 Jun 2027 11:55:30.497   08 Jun 2027 11:55:32.442             1.945           203.937
       233   09 Jun 2027 04:01:56.026   09 Jun 2027 04:02:13.620            17.594          8797.000
       234   09 Jun 2027 04:02:35.978   09 Jun 2027 04:02:44.739             8.761          4380.500
       235   09 Jun 2027 04:02:48.499   09 Jun 2027 04:02:48.499             0.000             0.000
       236   09 Jun 2027 04:03:43.795   09 Jun 2027 04:03:52.932             9.137          4568.500
       237   09 Jun 2027 05:37:54.063   09 Jun 2027 05:40:39.297           165.234         82617.000
       238   09 Jun 2027 07:11:43.293   09 Jun 2027 07:13:53.675           130.382         62695.156
       239   09 Jun 2027 07:14:22.846   09 Jun 2027 07:14:23.548             0.702           238.156
       240   09 Jun 2027 07:14:47.416   09 Jun 2027 07:14:49.382             1.966           730.063
       241   09 Jun 2027 07:15:20.668   09 Jun 2027 07:15:26.765             6.097           802.344
       242   09 Jun 2027 07:17:18.894   09 Jun 2027 07:17:25.840             6.946          2615.531
       243   09 Jun 2027 07:17:56.505   09 Jun 2027 07:18:01.891             5.386           584.781
       244   09 Jun 2027 07:18:46.779   09 Jun 2027 07:18:46.779             0.000             0.000
       245   09 Jun 2027 07:19:15.882   09 Jun 2027 07:19:17.902             2.020          1010.000
       246   09 Jun 2027 08:48:47.906   09 Jun 2027 08:49:01.721            13.815          5684.594
       247   09 Jun 2027 08:49:45.287   09 Jun 2027 08:49:47.620             2.333           260.188
       248   09 Jun 2027 08:51:29.300   09 Jun 2027 08:51:31.841             2.541          1061.219
       249   09 Jun 2027 08:52:55.791   09 Jun 2027 08:53:04.460             8.669          2483.969
       250   09 Jun 2027 08:54:25.315   09 Jun 2027 08:54:32.722             7.407           652.062
       251   09 Jun 2027 08:55:35.065   09 Jun 2027 08:55:39.645             4.580          1818.500
       252   09 Jun 2027 10:25:46.974   09 Jun 2027 10:26:02.759            15.785          6663.969
       253   09 Jun 2027 10:28:30.403   09 Jun 2027 10:28:36.251             5.848           671.906
       254   09 Jun 2027 10:29:29.127   09 Jun 2027 10:29:35.296             6.169          1577.812
       255   09 Jun 2027 10:29:49.641   09 Jun 2027 10:29:50.671             1.030           448.281
       256   09 Jun 2027 10:30:11.996   09 Jun 2027 10:30:16.222             4.226           666.406
       257   09 Jun 2027 10:31:02.089   09 Jun 2027 10:31:05.485             3.396          1252.406
       258   09 Jun 2027 10:31:50.570   09 Jun 2027 10:31:53.036             2.466           159.531
       259   10 Jun 2027 04:13:50.347   10 Jun 2027 04:14:34.544            44.197         22098.500
       260   10 Jun 2027 05:50:13.170   10 Jun 2027 05:52:37.580           144.410         72205.000
       261   10 Jun 2027 07:23:41.449   10 Jun 2027 07:25:46.760           125.311         58862.438
       262   10 Jun 2027 07:26:01.112   10 Jun 2027 07:26:02.486             1.374           254.437
       263   10 Jun 2027 07:26:05.527   10 Jun 2027 07:26:10.851             5.324            95.031
       264   10 Jun 2027 07:26:50.809   10 Jun 2027 07:26:55.141             4.332          1066.875
       265   10 Jun 2027 07:28:30.640   10 Jun 2027 07:28:36.653             6.013          2929.187
       266   10 Jun 2027 07:29:01.623   10 Jun 2027 07:29:06.211             4.588            61.406
       267   10 Jun 2027 07:30:18.460   10 Jun 2027 07:30:18.460             0.000             0.000
       268   10 Jun 2027 07:30:44.229   10 Jun 2027 07:30:50.380             6.151          2633.531
       269   10 Jun 2027 07:31:29.106   10 Jun 2027 07:31:32.327             3.221          1210.188
       270   10 Jun 2027 07:32:10.430   10 Jun 2027 07:32:12.461             2.031           838.906
       271   10 Jun 2027 09:01:14.934   10 Jun 2027 09:01:25.505            10.571          4894.156
       272   10 Jun 2027 09:04:15.852   10 Jun 2027 09:04:17.110             1.258            94.563
       273   10 Jun 2027 09:04:56.563   10 Jun 2027 09:04:57.297             0.734           296.062
       274   10 Jun 2027 09:06:11.602   10 Jun 2027 09:06:14.177             2.575           646.406
       275   10 Jun 2027 09:06:51.596   10 Jun 2027 09:06:54.952             3.356           909.156
       276   10 Jun 2027 09:07:49.848   10 Jun 2027 09:07:51.995             2.147           869.531
       277   10 Jun 2027 10:38:08.726   10 Jun 2027 10:38:31.240            22.514          7337.844
       278   10 Jun 2027 10:40:31.385   10 Jun 2027 10:40:35.382             3.997          1034.281
       279   10 Jun 2027 10:41:34.495   10 Jun 2027 10:41:36.527             2.032           686.094
       280   10 Jun 2027 10:41:43.940   10 Jun 2027 10:41:45.868             1.928           231.156
       281   10 Jun 2027 10:41:52.934   10 Jun 2027 10:41:53.307             0.373            46.500
       282   10 Jun 2027 10:42:07.799   10 Jun 2027 10:42:09.682             1.883           213.719
       283   10 Jun 2027 10:42:48.488   10 Jun 2027 10:42:51.490             3.002           808.844
       284   10 Jun 2027 10:43:01.183   10 Jun 2027 10:43:03.527             2.344            66.844
       285   10 Jun 2027 10:43:32.629   10 Jun 2027 10:43:36.382             3.753           551.219
       286   10 Jun 2027 10:43:49.810   10 Jun 2027 10:43:50.450             0.640            81.094
       287   11 Jun 2027 03:02:42.416   11 Jun 2027 03:03:19.134            36.718         18359.000
       288   11 Jun 2027 03:03:46.837   11 Jun 2027 03:03:49.076             2.239          1119.500
       289   11 Jun 2027 03:04:19.855   11 Jun 2027 03:04:24.594             4.739          2369.500
       290   11 Jun 2027 03:05:03.255   11 Jun 2027 03:05:41.606            38.351         19175.500
       291   11 Jun 2027 04:25:39.574   11 Jun 2027 04:26:25.413            45.839         22919.500
       292   11 Jun 2027 04:26:48.986   11 Jun 2027 04:26:59.156            10.170          5085.000
       293   11 Jun 2027 04:28:23.719   11 Jun 2027 04:28:24.460             0.741           370.500
       294   11 Jun 2027 06:02:14.625   11 Jun 2027 06:04:54.680           160.055         80027.500
       295   11 Jun 2027 06:05:01.627   11 Jun 2027 06:05:11.007             9.380          4690.000
       296   11 Jun 2027 07:36:57.425   11 Jun 2027 07:37:29.137            31.712         13799.875
       297   11 Jun 2027 07:37:58.043   11 Jun 2027 07:37:59.800             1.757           563.938
       298   11 Jun 2027 07:38:30.164   11 Jun 2027 07:38:31.727             1.563           264.094
       299   11 Jun 2027 07:38:58.525   11 Jun 2027 07:38:58.840             0.315           134.406
       300   11 Jun 2027 07:40:28.664   11 Jun 2027 07:40:32.978             4.314          1738.500
       301   11 Jun 2027 07:41:02.345   11 Jun 2027 07:41:03.860             1.515           526.719
       302   11 Jun 2027 07:41:45.868   11 Jun 2027 07:41:50.393             4.525           786.031
       303   11 Jun 2027 07:42:53.667   11 Jun 2027 07:42:58.822             5.155           384.969
       304   11 Jun 2027 07:43:43.266   11 Jun 2027 07:43:45.379             2.113           986.688
       305   11 Jun 2027 07:44:05.558   11 Jun 2027 07:44:07.708             2.150           127.437
       306   11 Jun 2027 09:13:21.165   11 Jun 2027 09:13:35.886            14.721          5622.687
       307   11 Jun 2027 09:15:19.189   11 Jun 2027 09:15:20.317             1.128           503.125
       308   11 Jun 2027 09:15:58.646   11 Jun 2027 09:15:59.385             0.739           156.719
       309   11 Jun 2027 09:16:59.283   11 Jun 2027 09:17:02.408             3.125          1064.031
       310   11 Jun 2027 09:17:09.993   11 Jun 2027 09:17:10.292             0.299            53.813
       311   11 Jun 2027 09:18:18.258   11 Jun 2027 09:18:21.598             3.340            13.500
       312   11 Jun 2027 09:19:35.548   11 Jun 2027 09:19:39.210             3.662           734.312
       313   11 Jun 2027 10:51:03.737   11 Jun 2027 10:51:16.464            12.727          5722.937
       314   11 Jun 2027 10:52:41.158   11 Jun 2027 10:52:45.706             4.548          1323.281
       315   11 Jun 2027 10:53:17.621   11 Jun 2027 10:53:19.243             1.622           111.469
       316   11 Jun 2027 10:53:51.640   11 Jun 2027 10:53:54.434             2.794           872.875
       317   11 Jun 2027 10:54:16.239   11 Jun 2027 10:54:18.646             2.407           487.031
       318   11 Jun 2027 10:54:22.223   11 Jun 2027 10:54:26.802             4.579           111.781
       319   11 Jun 2027 10:55:02.247   11 Jun 2027 10:55:04.276             2.029           736.531
       320   12 Jun 2027 03:15:18.136   12 Jun 2027 03:16:20.155            62.019         31009.500
       321   12 Jun 2027 03:16:51.847   12 Jun 2027 03:17:01.365             9.518          4759.000
       322   12 Jun 2027 03:17:34.518   12 Jun 2027 03:17:48.105            13.587          6793.500
       323   12 Jun 2027 03:17:58.262   12 Jun 2027 03:18:06.407             8.145          4072.500
       324   12 Jun 2027 03:18:19.033   12 Jun 2027 03:18:39.842            20.809         10404.500
       325   12 Jun 2027 04:37:51.551   12 Jun 2027 04:38:35.176            43.625         21812.500
       326   12 Jun 2027 04:39:27.854   12 Jun 2027 04:39:49.055            21.201         10600.500
       327   12 Jun 2027 04:39:54.074   12 Jun 2027 04:40:18.585            24.511         12255.500
       328   12 Jun 2027 06:14:23.409   12 Jun 2027 06:16:14.290           110.881         54882.437
       329   12 Jun 2027 06:16:54.966   12 Jun 2027 06:16:54.966             0.000             0.000
       330   12 Jun 2027 06:17:28.256   12 Jun 2027 06:17:36.988             8.732          2078.844
       331   12 Jun 2027 07:49:32.705   12 Jun 2027 07:49:45.524            12.819          1845.250
       332   12 Jun 2027 07:50:44.464   12 Jun 2027 07:50:48.242             3.778          1470.656
       333   12 Jun 2027 07:50:59.787   12 Jun 2027 07:51:04.751             4.964            67.500
       334   12 Jun 2027 07:51:43.294   12 Jun 2027 07:51:43.294             0.000             0.000
       335   12 Jun 2027 07:52:25.703   12 Jun 2027 07:52:30.434             4.731          2249.813
       336   12 Jun 2027 07:52:55.512   12 Jun 2027 07:52:57.183             1.671           752.969
       337   12 Jun 2027 07:53:31.522   12 Jun 2027 07:53:34.819             3.297           834.062
       338   12 Jun 2027 07:54:56.869   12 Jun 2027 07:55:03.530             6.661           479.781
       339   12 Jun 2027 07:55:52.685   12 Jun 2027 07:55:53.398             0.713           244.812
       340   12 Jun 2027 09:25:57.026   12 Jun 2027 09:26:11.322            14.296          5392.594
       341   12 Jun 2027 09:28:03.636   12 Jun 2027 09:28:05.772             2.136           596.219
       342   12 Jun 2027 09:28:35.188   12 Jun 2027 09:28:36.676             1.488           184.187
       343   12 Jun 2027 09:29:05.330   12 Jun 2027 09:29:12.305             6.975           882.281
       344   12 Jun 2027 09:30:38.750   12 Jun 2027 09:30:42.222             3.472          1593.531
       345   12 Jun 2027 09:31:05.157   12 Jun 2027 09:31:07.419             2.262           586.406
       346   12 Jun 2027 11:03:10.140   12 Jun 2027 11:03:23.008            12.868          5350.000
       347   12 Jun 2027 11:04:07.760   12 Jun 2027 11:04:11.064             3.304           420.750
       348   12 Jun 2027 11:05:15.818   12 Jun 2027 11:05:18.340             2.522           952.031
       349   12 Jun 2027 11:07:03.746   12 Jun 2027 11:07:26.542            22.796          1164.656
       350   12 Jun 2027 11:07:36.075   12 Jun 2027 11:07:38.234             2.159           267.125
       351   13 Jun 2027 03:26:25.896   13 Jun 2027 03:27:03.873            37.977         18988.500
       352   13 Jun 2027 03:27:33.257   13 Jun 2027 03:29:09.875            96.618         48309.000
       353   13 Jun 2027 04:50:27.684   13 Jun 2027 04:51:07.290            39.606         19803.000
       354   13 Jun 2027 04:51:38.615   13 Jun 2027 04:51:47.092             8.477          4238.500
       355   13 Jun 2027 04:51:52.648   13 Jun 2027 04:52:01.204             8.556          4278.000
       356   13 Jun 2027 04:52:43.470   13 Jun 2027 04:52:43.470             0.000             0.000
       357   13 Jun 2027 06:26:16.288   13 Jun 2027 06:28:06.026           109.738         53527.219
       358   13 Jun 2027 06:28:27.155   13 Jun 2027 06:28:28.688             1.533           556.094
       359   13 Jun 2027 06:28:46.384   13 Jun 2027 06:28:46.384             0.000             0.000
       360   13 Jun 2027 06:28:56.706   13 Jun 2027 06:29:00.021             3.315           808.094
       361   13 Jun 2027 06:29:30.562   13 Jun 2027 06:29:30.562             0.000             0.000
       362   13 Jun 2027 08:01:13.588   13 Jun 2027 08:01:20.834             7.246          2814.188
       363   13 Jun 2027 08:03:00.647   13 Jun 2027 08:03:05.541             4.894          2209.562
       364   13 Jun 2027 08:04:05.680   13 Jun 2027 08:04:07.629             1.949            65.438
       365   13 Jun 2027 08:04:21.548   13 Jun 2027 08:04:22.031             0.483            65.344
       366   13 Jun 2027 08:05:34.311   13 Jun 2027 08:05:39.756             5.445           850.781
       367   13 Jun 2027 08:06:59.969   13 Jun 2027 08:07:02.646             2.677           589.687
       368   13 Jun 2027 08:07:50.252   13 Jun 2027 08:07:53.610             3.358           128.813
       369   13 Jun 2027 09:37:28.702   13 Jun 2027 09:37:42.111            13.409          5860.531
       370   13 Jun 2027 09:40:55.635   13 Jun 2027 09:40:57.945             2.310          1064.563
       371   13 Jun 2027 09:41:11.430   13 Jun 2027 09:41:12.339             0.909           421.406
       372   13 Jun 2027 09:42:04.277   13 Jun 2027 09:42:09.864             5.587          1544.375
       373   13 Jun 2027 09:42:45.890   13 Jun 2027 09:42:47.067             1.177           565.625
       374   13 Jun 2027 11:15:47.628   13 Jun 2027 11:16:07.645            20.017          7790.438
       375   13 Jun 2027 11:19:00.244   13 Jun 2027 11:19:02.008             1.764            50.375
       376   13 Jun 2027 11:19:35.471   13 Jun 2027 11:19:36.938             1.467           552.125
       377   13 Jun 2027 11:19:37.670   13 Jun 2027 11:19:37.741             0.071            22.875
