uniorb/output/strategy_4/Camera/Camera_KinoSat_110910.txt

KinoSat_110910
-------------------------
    Access    *     Start Time (UTCG)     *     Stop Time (UTCG)  *   Duration (s) *   Data (Mbytes)
         1   01 Jun 2027 04:17:42.882   01 Jun 2027 04:18:53.979            71.097         35548.500
         2   01 Jun 2027 04:19:43.659   01 Jun 2027 04:20:10.865            27.206         13603.000
         3   01 Jun 2027 04:22:07.181   01 Jun 2027 04:22:07.181             0.000             0.000
         4   01 Jun 2027 04:22:16.414   01 Jun 2027 04:22:20.927             4.513          2256.500
         5   01 Jun 2027 04:22:43.954   01 Jun 2027 04:22:54.804            10.850          5425.000
         6   01 Jun 2027 05:52:47.587   01 Jun 2027 05:54:27.596           100.009         50004.500
         7   01 Jun 2027 05:54:55.793   01 Jun 2027 05:55:15.658            19.865          9932.500
         8   01 Jun 2027 05:56:28.503   01 Jun 2027 05:56:28.503             0.000             0.000
         9   01 Jun 2027 05:56:59.516   01 Jun 2027 05:57:38.171            38.655         19327.500
        10   01 Jun 2027 05:59:35.708   01 Jun 2027 05:59:37.124             1.416           708.000
        11   01 Jun 2027 06:00:42.180   01 Jun 2027 06:01:00.087            17.907          8953.500
        12   01 Jun 2027 07:30:07.526   01 Jun 2027 07:32:21.491           133.965         66982.500
        13   01 Jun 2027 07:33:20.169   01 Jun 2027 07:33:42.946            22.777         11388.500
        14   01 Jun 2027 07:36:26.853   01 Jun 2027 07:36:44.941            18.088          9044.000
        15   01 Jun 2027 09:06:57.502   01 Jun 2027 09:09:25.369           147.867         73933.500
        16   01 Jun 2027 09:09:52.551   01 Jun 2027 09:10:05.038            12.487          6243.500
        17   01 Jun 2027 09:10:39.583   01 Jun 2027 09:10:56.335            16.752          8376.000
        18   01 Jun 2027 09:11:11.042   01 Jun 2027 09:11:17.153             6.111          3055.500
        19   01 Jun 2027 09:13:14.268   01 Jun 2027 09:13:23.665             9.397          4698.500
        20   01 Jun 2027 10:44:54.274   01 Jun 2027 10:47:17.666           143.392         71696.000
        21   01 Jun 2027 10:48:28.544   01 Jun 2027 10:48:36.882             8.338          4169.000
        22   02 Jun 2027 03:07:26.362   02 Jun 2027 03:08:04.060            37.698         18849.000
        23   02 Jun 2027 04:29:27.300   02 Jun 2027 04:30:36.848            69.548         34774.000
        24   02 Jun 2027 04:32:12.452   02 Jun 2027 04:32:27.504            15.052          7526.000
        25   02 Jun 2027 04:32:41.176   02 Jun 2027 04:32:45.402             4.226          2113.000
        26   02 Jun 2027 04:34:00.748   02 Jun 2027 04:34:09.894             9.146          4573.000
        27   02 Jun 2027 06:04:15.785   02 Jun 2027 06:07:42.395           206.610        103305.000
        28   02 Jun 2027 06:12:08.412   02 Jun 2027 06:12:11.934             3.522          1761.000
        29   02 Jun 2027 06:12:34.746   02 Jun 2027 06:13:16.452            41.706         20853.000
        30   02 Jun 2027 07:42:04.193   02 Jun 2027 07:44:02.183           117.990         58995.000
        31   02 Jun 2027 07:45:09.401   02 Jun 2027 07:45:46.366            36.965         18482.500
        32   02 Jun 2027 07:47:29.057   02 Jun 2027 07:47:55.029            25.972         12986.000
        33   02 Jun 2027 07:48:03.261   02 Jun 2027 07:48:51.074            47.813         23906.500
        34   02 Jun 2027 09:18:48.782   02 Jun 2027 09:20:06.524            77.742         38621.656
        35   02 Jun 2027 09:21:29.889   02 Jun 2027 09:21:37.993             8.104          1378.094
        36   02 Jun 2027 09:22:33.515   02 Jun 2027 09:22:40.575             7.060          1705.844
        37   02 Jun 2027 09:22:48.523   02 Jun 2027 09:22:50.771             2.248           167.094
        38   02 Jun 2027 09:22:53.321   02 Jun 2027 09:22:56.023             2.702            78.062
        39   02 Jun 2027 09:23:12.680   02 Jun 2027 09:23:14.898             2.218           439.500
        40   02 Jun 2027 09:23:43.490   02 Jun 2027 09:23:46.148             2.658           743.406
        41   02 Jun 2027 09:24:12.022   02 Jun 2027 09:24:14.385             2.363           522.469
        42   02 Jun 2027 09:25:34.164   02 Jun 2027 09:25:34.673             0.509           254.500
        43   02 Jun 2027 10:56:55.833   02 Jun 2027 10:57:11.056            15.223          7362.312
        44   02 Jun 2027 10:57:29.996   02 Jun 2027 10:57:32.594             2.598           128.313
        45   02 Jun 2027 10:58:49.287   02 Jun 2027 10:58:57.748             8.461          2171.719
        46   02 Jun 2027 10:59:34.287   02 Jun 2027 10:59:39.492             5.205           778.688
        47   02 Jun 2027 10:59:51.918   02 Jun 2027 11:00:02.067            10.149            82.813
        48   02 Jun 2027 11:00:26.329   02 Jun 2027 11:00:27.691             1.362           270.094
        49   02 Jun 2027 11:00:51.706   02 Jun 2027 11:00:54.806             3.100           750.469
        50   03 Jun 2027 03:07:16.159   03 Jun 2027 03:07:19.616             3.457          1728.500
        51   03 Jun 2027 03:08:04.742   03 Jun 2027 03:08:19.404            14.662          7331.000
        52   03 Jun 2027 04:43:13.199   03 Jun 2027 04:46:32.508           199.309         99654.500
        53   03 Jun 2027 04:47:09.277   03 Jun 2027 04:47:09.277             0.000             0.000
        54   03 Jun 2027 06:17:03.953   03 Jun 2027 06:18:27.338            83.385         41509.781
        55   03 Jun 2027 06:19:11.549   03 Jun 2027 06:19:14.535             2.986           168.562
        56   03 Jun 2027 06:19:40.374   03 Jun 2027 06:19:43.094             2.720           685.313
        57   03 Jun 2027 06:19:59.389   03 Jun 2027 06:20:00.211             0.822           264.656
        58   03 Jun 2027 06:20:59.713   03 Jun 2027 06:21:05.213             5.500          1685.906
        59   03 Jun 2027 06:22:15.241   03 Jun 2027 06:22:20.925             5.684          1367.875
        60   03 Jun 2027 06:22:37.309   03 Jun 2027 06:22:44.926             7.617           175.469
        61   03 Jun 2027 06:23:09.910   03 Jun 2027 06:23:10.536             0.626            89.219
        62   03 Jun 2027 06:24:20.573   03 Jun 2027 06:24:23.264             2.691          1345.500
        63   03 Jun 2027 06:24:33.920   03 Jun 2027 06:24:41.495             7.575           479.500
        64   03 Jun 2027 06:25:32.610   03 Jun 2027 06:25:33.845             1.235           617.500
        65   03 Jun 2027 07:54:10.618   03 Jun 2027 07:54:13.935             3.317          1206.406
        66   03 Jun 2027 07:54:53.949   03 Jun 2027 07:54:56.471             2.522           481.813
        67   03 Jun 2027 07:55:39.721   03 Jun 2027 07:55:42.899             3.178          1146.531
        68   03 Jun 2027 07:57:49.763   03 Jun 2027 07:57:55.342             5.579          2077.781
        69   03 Jun 2027 07:59:01.199   03 Jun 2027 07:59:04.822             3.623          1358.656
        70   03 Jun 2027 07:59:24.940   03 Jun 2027 07:59:25.938             0.998           255.625
        71   03 Jun 2027 08:00:06.364   03 Jun 2027 08:00:06.906             0.542           160.281
        72   03 Jun 2027 08:00:34.028   03 Jun 2027 08:00:37.637             3.609           273.250
        73   03 Jun 2027 09:31:12.612   03 Jun 2027 09:31:24.696            12.084          5926.625
        74   03 Jun 2027 09:33:21.320   03 Jun 2027 09:33:23.548             2.228           865.875
        75   03 Jun 2027 09:34:33.267   03 Jun 2027 09:34:34.267             1.000           165.406
        76   03 Jun 2027 09:35:10.090   03 Jun 2027 09:35:10.677             0.587           278.813
        77   03 Jun 2027 09:35:36.677   03 Jun 2027 09:35:39.045             2.368           812.500
        78   03 Jun 2027 09:36:10.298   03 Jun 2027 09:36:18.221             7.923           770.281
        79   03 Jun 2027 11:08:09.807   03 Jun 2027 11:08:21.540            11.733          5533.312
        80   03 Jun 2027 11:09:59.306   03 Jun 2027 11:10:01.092             1.786           778.781
        81   03 Jun 2027 11:11:10.684   03 Jun 2027 11:11:21.262            10.578           717.844
        82   03 Jun 2027 11:12:28.372   03 Jun 2027 11:12:31.038             2.666           293.750
        83   03 Jun 2027 11:12:51.958   03 Jun 2027 11:12:53.206             1.248           479.063
        84   04 Jun 2027 03:19:10.508   04 Jun 2027 03:19:19.755             9.247          4623.500
        85   04 Jun 2027 04:55:34.645   04 Jun 2027 04:59:00.627           205.982        102991.000
        86   04 Jun 2027 06:29:02.361   04 Jun 2027 06:30:17.939            75.578         36845.188
        87   04 Jun 2027 06:31:17.113   04 Jun 2027 06:31:20.927             3.814           168.500
        88   04 Jun 2027 06:31:45.165   04 Jun 2027 06:31:48.462             3.297           329.156
        89   04 Jun 2027 06:32:02.667   04 Jun 2027 06:32:04.192             1.525           306.281
        90   04 Jun 2027 06:33:02.717   04 Jun 2027 06:33:09.265             6.548          1465.406
        91   04 Jun 2027 06:35:04.430   04 Jun 2027 06:35:12.190             7.760          3209.531
        92   04 Jun 2027 06:35:54.798   04 Jun 2027 06:35:59.266             4.468          1245.187
        93   04 Jun 2027 06:36:30.098   04 Jun 2027 06:36:31.011             0.913           456.500
        94   04 Jun 2027 06:36:31.799   04 Jun 2027 06:36:36.120             4.321           318.563
        95   04 Jun 2027 06:37:30.685   04 Jun 2027 06:37:31.567             0.882           381.156
        96   04 Jun 2027 08:06:36.331   04 Jun 2027 08:06:38.954             2.623          1089.906
        97   04 Jun 2027 08:08:19.595   04 Jun 2027 08:08:23.110             3.515           526.719
        98   04 Jun 2027 08:09:32.711   04 Jun 2027 08:09:39.799             7.088          1945.125
        99   04 Jun 2027 08:09:44.339   04 Jun 2027 08:09:45.828             1.489           141.875
       100   04 Jun 2027 08:10:01.643   04 Jun 2027 08:10:07.516             5.873           494.219
       101   04 Jun 2027 08:12:02.702   04 Jun 2027 08:12:10.805             8.103          1597.563
       102   04 Jun 2027 08:12:21.778   04 Jun 2027 08:12:23.764             1.986           342.906
       103   04 Jun 2027 08:12:39.401   04 Jun 2027 08:12:41.192             1.791           262.625
       104   04 Jun 2027 09:43:30.099   04 Jun 2027 09:43:44.254            14.155          6993.906
       105   04 Jun 2027 09:44:13.927   04 Jun 2027 09:44:20.636             6.709           241.156
       106   04 Jun 2027 09:46:21.392   04 Jun 2027 09:46:27.507             6.115          1592.000
       107   04 Jun 2027 09:47:04.608   04 Jun 2027 09:47:06.286             1.678             4.313
       108   04 Jun 2027 09:47:31.950   04 Jun 2027 09:47:38.050             6.100           470.750
       109   04 Jun 2027 09:48:01.582   04 Jun 2027 09:48:03.782             2.200           412.219
       110   04 Jun 2027 09:48:14.379   04 Jun 2027 09:48:14.767             0.388           104.406
       111   04 Jun 2027 09:48:52.525   04 Jun 2027 09:48:56.313             3.788          1163.750
       112   04 Jun 2027 11:20:23.976   04 Jun 2027 11:20:40.303            16.327          6124.688
       113   04 Jun 2027 11:22:14.142   04 Jun 2027 11:22:18.754             4.612          1009.344
       114   04 Jun 2027 11:22:41.603   04 Jun 2027 11:22:42.930             1.327           656.969
       115   04 Jun 2027 11:23:38.403   04 Jun 2027 11:23:40.481             2.078           645.250
       116   05 Jun 2027 03:30:57.883   05 Jun 2027 03:31:20.953            23.070         11535.000
       117   05 Jun 2027 05:07:36.009   05 Jun 2027 05:08:09.698            33.689         16844.500
       118   05 Jun 2027 05:10:18.899   05 Jun 2027 05:11:04.965            46.066         23033.000
       119   05 Jun 2027 06:42:31.064   05 Jun 2027 06:45:55.558           204.494        101562.563
       120   05 Jun 2027 06:45:58.054   05 Jun 2027 06:46:00.793             2.739            63.719
       121   05 Jun 2027 06:46:34.942   05 Jun 2027 06:46:37.443             2.501           216.687
       122   05 Jun 2027 06:47:40.894   05 Jun 2027 06:47:44.362             3.468          1552.688
       123   05 Jun 2027 06:48:33.985   05 Jun 2027 06:48:39.258             5.273          1124.656
       124   05 Jun 2027 06:49:06.466   05 Jun 2027 06:49:09.911             3.445           728.000
       125   05 Jun 2027 06:49:25.653   05 Jun 2027 06:49:28.304             2.651           179.250
       126   05 Jun 2027 08:18:43.621   05 Jun 2027 08:18:46.634             3.013          1227.438
       127   05 Jun 2027 08:21:06.007   05 Jun 2027 08:21:08.231             2.224           855.094
       128   05 Jun 2027 08:21:36.020   05 Jun 2027 08:21:43.296             7.276           385.250
       129   05 Jun 2027 08:22:28.578   05 Jun 2027 08:22:31.443             2.865           263.063
       130   05 Jun 2027 08:22:53.807   05 Jun 2027 08:22:56.419             2.612           698.875
       131   05 Jun 2027 08:23:57.464   05 Jun 2027 08:24:00.259             2.795          1321.312
       132   05 Jun 2027 08:24:47.855   05 Jun 2027 08:24:49.843             1.988           871.656
       133   05 Jun 2027 09:56:26.673   05 Jun 2027 09:56:42.052            15.379          5309.250
       134   05 Jun 2027 09:59:37.249   05 Jun 2027 09:59:38.056             0.807           329.562
       135   05 Jun 2027 09:59:55.869   05 Jun 2027 09:59:57.538             1.669           547.312
       136   05 Jun 2027 10:00:17.001   05 Jun 2027 10:00:22.461             5.460           607.094
       137   05 Jun 2027 10:00:34.281   05 Jun 2027 10:00:36.611             2.330           112.406
       138   05 Jun 2027 11:32:31.198   05 Jun 2027 11:32:45.831            14.633          6834.219
       139   05 Jun 2027 11:35:29.955   05 Jun 2027 11:35:33.980             4.025           647.750
       140   05 Jun 2027 11:36:32.608   05 Jun 2027 11:36:35.904             3.296           959.281
       141   05 Jun 2027 11:36:54.312   05 Jun 2027 11:36:54.898             0.586            27.625
       142   06 Jun 2027 03:43:11.945   06 Jun 2027 03:43:21.794             9.849          4924.500
       143   06 Jun 2027 03:45:51.647   06 Jun 2027 03:45:53.610             1.963           981.500
       144   06 Jun 2027 05:19:43.805   06 Jun 2027 05:23:03.914           200.109        100054.500
       145   06 Jun 2027 06:54:53.776   06 Jun 2027 06:56:26.523            92.747         44662.312
       146   06 Jun 2027 06:56:39.942   06 Jun 2027 06:56:41.044             1.102           364.219
       147   06 Jun 2027 06:57:17.218   06 Jun 2027 06:57:19.687             2.469           698.813
       148   06 Jun 2027 06:57:58.067   06 Jun 2027 06:58:00.532             2.465          1134.625
       149   06 Jun 2027 06:58:07.980   06 Jun 2027 06:58:09.455             1.475           232.750
       150   06 Jun 2027 06:59:41.190   06 Jun 2027 06:59:49.098             7.908          2768.469
       151   06 Jun 2027 07:00:56.596   06 Jun 2027 07:01:01.360             4.764          1733.469
       152   06 Jun 2027 07:01:13.124   06 Jun 2027 07:01:18.915             5.791           367.625
       153   06 Jun 2027 08:31:19.226   06 Jun 2027 08:31:30.131            10.905          4124.781
       154   06 Jun 2027 08:32:53.961   06 Jun 2027 08:32:58.376             4.415           109.531
       155   06 Jun 2027 08:33:11.935   06 Jun 2027 08:33:16.386             4.451           241.188
       156   06 Jun 2027 08:33:38.985   06 Jun 2027 08:33:40.712             1.727           415.406
       157   06 Jun 2027 08:34:32.681   06 Jun 2027 08:34:35.446             2.765           435.875
       158   06 Jun 2027 08:36:11.990   06 Jun 2027 08:36:14.771             2.781           677.188
       159   06 Jun 2027 08:37:01.258   06 Jun 2027 08:37:04.512             3.254          1310.281
       160   06 Jun 2027 08:37:24.514   06 Jun 2027 08:37:26.723             2.209           625.062
       161   06 Jun 2027 10:08:33.675   06 Jun 2027 10:08:46.716            13.041          5147.937
       162   06 Jun 2027 10:10:08.785   06 Jun 2027 10:10:11.971             3.186           381.937
       163   06 Jun 2027 10:11:07.425   06 Jun 2027 10:11:08.390             0.965           474.531
       164   06 Jun 2027 10:11:33.504   06 Jun 2027 10:11:36.468             2.964           780.563
       165   06 Jun 2027 10:11:56.047   06 Jun 2027 10:11:58.042             1.995           611.844
       166   06 Jun 2027 10:12:28.128   06 Jun 2027 10:12:35.029             6.901           688.625
       167   06 Jun 2027 10:12:58.727   06 Jun 2027 10:12:59.492             0.765           101.781
       168   06 Jun 2027 11:44:48.254   06 Jun 2027 11:45:01.540            13.286          6142.656
       169   06 Jun 2027 11:46:49.648   06 Jun 2027 11:46:52.753             3.105           231.469
       170   06 Jun 2027 11:48:46.797   06 Jun 2027 11:48:52.547             5.750          2125.312
       171   07 Jun 2027 03:55:41.972   07 Jun 2027 03:55:44.030             2.058          1029.000
       172   07 Jun 2027 03:56:17.993   07 Jun 2027 03:56:23.888             5.895          2947.500
       173   07 Jun 2027 03:58:20.377   07 Jun 2027 03:58:24.616             4.239          2119.500
       174   07 Jun 2027 05:31:36.788   07 Jun 2027 05:34:51.609           194.821         97410.500
       175   07 Jun 2027 05:34:53.851   07 Jun 2027 05:34:55.451             1.600           800.000
       176   07 Jun 2027 07:06:33.033   07 Jun 2027 07:08:09.055            96.022         47710.156
       177   07 Jun 2027 07:08:18.271   07 Jun 2027 07:08:19.173             0.902           178.531
       178   07 Jun 2027 07:09:28.456   07 Jun 2027 07:09:31.801             3.345          1209.281
       179   07 Jun 2027 07:09:54.380   07 Jun 2027 07:09:57.207             2.827           367.875
       180   07 Jun 2027 07:10:28.156   07 Jun 2027 07:10:28.156             0.000             0.000
       181   07 Jun 2027 07:11:40.950   07 Jun 2027 07:11:53.287            12.337          3067.031
       182   07 Jun 2027 07:12:36.373   07 Jun 2027 07:12:45.964             9.591          1006.750
       183   07 Jun 2027 07:13:09.945   07 Jun 2027 07:13:11.413             1.468           656.719
       184   07 Jun 2027 08:42:51.544   07 Jun 2027 08:43:01.106             9.562          4405.344
       185   07 Jun 2027 08:45:06.526   07 Jun 2027 08:45:09.064             2.538           891.813
       186   07 Jun 2027 08:45:40.402   07 Jun 2027 08:45:42.462             2.060           727.656
       187   07 Jun 2027 08:46:35.947   07 Jun 2027 08:46:38.339             2.392           892.813
       188   07 Jun 2027 08:47:25.638   07 Jun 2027 08:47:27.687             2.049           814.125
       189   07 Jun 2027 08:47:54.292   07 Jun 2027 08:47:55.470             1.178           422.375
       190   07 Jun 2027 08:49:09.951   07 Jun 2027 08:49:16.274             6.323          1964.500
       191   07 Jun 2027 10:21:07.107   07 Jun 2027 10:21:19.892            12.785          6193.344
       192   07 Jun 2027 10:21:40.200   07 Jun 2027 10:21:41.712             1.512           634.625
       193   07 Jun 2027 10:21:49.706   07 Jun 2027 10:21:53.267             3.561           143.281
       194   07 Jun 2027 10:23:07.878   07 Jun 2027 10:23:08.902             1.024           286.750
       195   07 Jun 2027 10:24:19.926   07 Jun 2027 10:24:27.374             7.448          1553.156
       196   07 Jun 2027 10:24:41.312   07 Jun 2027 10:24:41.788             0.476            43.406
       197   07 Jun 2027 11:56:27.197   07 Jun 2027 11:56:47.677            20.480          6873.344
       198   07 Jun 2027 11:59:13.393   07 Jun 2027 11:59:21.589             8.196           790.688
       199   08 Jun 2027 04:06:38.809   08 Jun 2027 04:07:14.922            36.113         18056.500
       200   08 Jun 2027 04:10:21.488   08 Jun 2027 04:10:31.900            10.412          5206.000
       201   08 Jun 2027 04:10:52.566   08 Jun 2027 04:10:52.566             0.000             0.000
       202   08 Jun 2027 05:41:55.505   08 Jun 2027 05:42:29.044            33.539         16769.500
       203   08 Jun 2027 05:43:20.652   08 Jun 2027 05:45:46.246           145.594         72797.000
       204   08 Jun 2027 05:46:27.577   08 Jun 2027 05:46:27.577             0.000             0.000
       205   08 Jun 2027 05:47:50.078   08 Jun 2027 05:47:54.140             4.062          2031.000
       206   08 Jun 2027 07:18:06.347   08 Jun 2027 07:19:45.607            99.260         49099.406
       207   08 Jun 2027 07:20:15.776   08 Jun 2027 07:20:15.776             0.000             0.000
       208   08 Jun 2027 07:20:48.378   08 Jun 2027 07:20:51.953             3.575          1593.094
       209   08 Jun 2027 07:21:17.855   08 Jun 2027 07:21:18.865             1.010           418.594
       210   08 Jun 2027 07:21:57.797   08 Jun 2027 07:22:04.706             6.909          1214.812
       211   08 Jun 2027 07:22:31.959   08 Jun 2027 07:22:36.042             4.083           847.625
       212   08 Jun 2027 07:23:40.073   08 Jun 2027 07:23:40.073             0.000             0.000
       213   08 Jun 2027 07:24:07.060   08 Jun 2027 07:24:12.514             5.454          1933.094
       214   08 Jun 2027 07:24:43.525   08 Jun 2027 07:24:47.354             3.829           815.750
       215   08 Jun 2027 08:55:10.841   08 Jun 2027 08:55:25.161            14.320          5826.094
       216   08 Jun 2027 08:56:27.984   08 Jun 2027 08:56:33.206             5.222          1180.250
       217   08 Jun 2027 08:57:10.895   08 Jun 2027 08:57:15.676             4.781           726.812
       218   08 Jun 2027 08:57:40.949   08 Jun 2027 08:57:42.952             2.003           742.594
       219   08 Jun 2027 08:59:28.113   08 Jun 2027 08:59:32.579             4.466          1213.594
       220   08 Jun 2027 08:59:38.258   08 Jun 2027 08:59:39.322             1.064           177.469
       221   08 Jun 2027 09:00:05.298   08 Jun 2027 09:00:08.662             3.364           481.562
       222   08 Jun 2027 10:33:09.997   08 Jun 2027 10:33:24.022            14.025          5618.031
       223   08 Jun 2027 10:33:45.586   08 Jun 2027 10:33:51.123             5.537           669.437
       224   08 Jun 2027 10:34:57.160   08 Jun 2027 10:35:01.533             4.373           217.594
       225   08 Jun 2027 10:35:07.594   08 Jun 2027 10:35:09.674             2.080            95.281
       226   08 Jun 2027 10:36:49.043   08 Jun 2027 10:36:50.212             1.169           364.219
       227   08 Jun 2027 10:37:00.937   08 Jun 2027 10:37:02.823             1.886           335.156
       228   09 Jun 2027 04:17:57.877   09 Jun 2027 04:18:27.807            29.930         14965.000
       229   09 Jun 2027 04:19:58.630   09 Jun 2027 04:20:20.812            22.182         11091.000
       230   09 Jun 2027 04:21:31.312   09 Jun 2027 04:22:22.402            51.090         25545.000
       231   09 Jun 2027 05:53:02.131   09 Jun 2027 05:54:44.587           102.456         51228.000
       232   09 Jun 2027 05:55:12.724   09 Jun 2027 05:55:30.055            17.331          8665.500
       233   09 Jun 2027 05:57:16.555   09 Jun 2027 05:57:56.292            39.737         19868.500
       234   09 Jun 2027 05:59:55.790   09 Jun 2027 06:00:02.520             6.730          3365.000
       235   09 Jun 2027 06:01:01.093   09 Jun 2027 06:01:18.105            17.012          8506.000
       236   09 Jun 2027 07:30:23.786   09 Jun 2027 07:30:58.983            35.197         16954.031
       237   09 Jun 2027 07:33:09.445   09 Jun 2027 07:33:11.615             2.170           387.937
       238   09 Jun 2027 07:33:22.326   09 Jun 2027 07:33:23.355             1.029            40.625
       239   09 Jun 2027 07:34:01.204   09 Jun 2027 07:34:03.907             2.703          1182.781
       240   09 Jun 2027 07:34:38.369   09 Jun 2027 07:34:41.274             2.905           993.250
       241   09 Jun 2027 07:36:09.820   09 Jun 2027 07:36:14.967             5.147           980.563
       242   09 Jun 2027 07:37:20.810   09 Jun 2027 07:37:23.150             2.340           511.219
       243   09 Jun 2027 09:07:12.535   09 Jun 2027 09:07:25.917            13.382          4857.375
       244   09 Jun 2027 09:09:26.373   09 Jun 2027 09:09:30.987             4.614          2003.719
       245   09 Jun 2027 09:10:51.736   09 Jun 2027 09:10:54.478             2.742          1333.344
       246   09 Jun 2027 09:11:11.161   09 Jun 2027 09:11:11.615             0.454           143.594
       247   09 Jun 2027 09:11:32.975   09 Jun 2027 09:11:44.466            11.491           590.563
       248   09 Jun 2027 09:12:25.633   09 Jun 2027 09:12:30.898             5.265           591.719
       249   09 Jun 2027 09:13:13.177   09 Jun 2027 09:13:16.701             3.524          1181.687
       250   09 Jun 2027 09:13:29.167   09 Jun 2027 09:13:30.940             1.773           157.750
       251   09 Jun 2027 10:45:09.564   09 Jun 2027 10:45:24.109            14.545          7205.281
       252   09 Jun 2027 10:47:06.481   09 Jun 2027 10:47:11.894             5.413          2569.281
       253   09 Jun 2027 10:48:31.990   09 Jun 2027 10:48:36.024             4.034           546.687
       254   10 Jun 2027 03:07:41.589   10 Jun 2027 03:08:18.763            37.174         18587.000
       255   10 Jun 2027 04:29:41.989   10 Jun 2027 04:30:56.268            74.279         37139.500
       256   10 Jun 2027 04:31:44.616   10 Jun 2027 04:32:22.277            37.661         18830.500
       257   10 Jun 2027 04:33:13.876   10 Jun 2027 04:33:34.761            20.885         10442.500
       258   10 Jun 2027 06:04:30.334   10 Jun 2027 06:06:18.426           108.092         54046.000
       259   10 Jun 2027 06:06:47.779   10 Jun 2027 06:06:59.291            11.512          5756.000
       260   10 Jun 2027 06:09:53.528   10 Jun 2027 06:09:59.504             5.976          2988.000
       261   10 Jun 2027 06:10:06.438   10 Jun 2027 06:10:18.237            11.799          3460.032
       262   10 Jun 2027 06:10:30.593   10 Jun 2027 06:10:30.593             0.000             0.000
       263   10 Jun 2027 06:10:37.660   10 Jun 2027 06:10:40.377             2.717           309.500
       264   10 Jun 2027 06:11:33.180   10 Jun 2027 06:11:35.192             2.012          1006.000
       265   10 Jun 2027 06:11:53.259   10 Jun 2027 06:11:58.041             4.782          1172.719
       266   10 Jun 2027 06:12:18.891   10 Jun 2027 06:12:18.891             0.000             0.000
       267   10 Jun 2027 06:13:22.725   10 Jun 2027 06:13:27.911             5.186          2397.812
       268   10 Jun 2027 07:42:19.139   10 Jun 2027 07:42:21.794             2.655           402.719
       269   10 Jun 2027 07:43:05.121   10 Jun 2027 07:43:09.900             4.779           223.500
       270   10 Jun 2027 07:44:17.041   10 Jun 2027 07:44:18.471             1.430           612.344
       271   10 Jun 2027 07:44:37.013   10 Jun 2027 07:44:42.546             5.533           471.812
       272   10 Jun 2027 07:45:40.824   10 Jun 2027 07:45:42.176             1.352           516.812
       273   10 Jun 2027 07:46:04.147   10 Jun 2027 07:46:05.689             1.542           642.031
       274   10 Jun 2027 07:46:47.482   10 Jun 2027 07:46:51.075             3.593          1233.781
       275   10 Jun 2027 07:47:45.506   10 Jun 2027 07:47:47.083             1.577           300.031
       276   10 Jun 2027 07:48:17.590   10 Jun 2027 07:48:18.174             0.584           162.562
       277   10 Jun 2027 07:49:19.750   10 Jun 2027 07:49:24.640             4.890           451.656
       278   10 Jun 2027 09:19:03.539   10 Jun 2027 09:19:14.819            11.280          5327.250
       279   10 Jun 2027 09:21:34.355   10 Jun 2027 09:21:39.085             4.730          2354.250
       280   10 Jun 2027 09:21:52.369   10 Jun 2027 09:21:56.036             3.667           415.125
       281   10 Jun 2027 09:22:34.810   10 Jun 2027 09:22:36.100             1.290           499.781
       282   10 Jun 2027 09:22:58.713   10 Jun 2027 09:23:00.918             2.205           340.750
       283   10 Jun 2027 09:23:08.266   10 Jun 2027 09:23:12.205             3.939            77.500
       284   10 Jun 2027 09:23:28.200   10 Jun 2027 09:23:30.812             2.612           169.156
       285   10 Jun 2027 09:23:57.982   10 Jun 2027 09:24:00.612             2.630           703.031
       286   10 Jun 2027 09:24:26.337   10 Jun 2027 09:24:28.109             1.772           518.344
       287   10 Jun 2027 09:25:48.842   10 Jun 2027 09:25:49.498             0.656           328.000
       288   10 Jun 2027 10:57:11.162   10 Jun 2027 10:57:22.982            11.820          5020.875
       289   10 Jun 2027 10:57:59.923   10 Jun 2027 10:58:04.354             4.431           441.063
       290   10 Jun 2027 10:58:46.539   10 Jun 2027 10:58:49.492             2.953          1027.938
       291   10 Jun 2027 10:59:25.983   10 Jun 2027 10:59:27.455             1.472           706.219
       292   10 Jun 2027 11:00:33.369   10 Jun 2027 11:00:38.081             4.712          1390.969
       293   10 Jun 2027 11:00:43.035   10 Jun 2027 11:00:45.528             2.493            19.969
       294   10 Jun 2027 11:01:04.341   10 Jun 2027 11:01:06.059             1.718             3.344
       295   11 Jun 2027 03:07:31.133   11 Jun 2027 03:07:45.265            14.132          7066.000
       296   11 Jun 2027 04:43:27.872   11 Jun 2027 04:46:47.503           199.631         99815.500
       297   11 Jun 2027 04:47:23.806   11 Jun 2027 04:47:24.360             0.554           277.000
       298   11 Jun 2027 06:17:18.842   11 Jun 2027 06:18:37.726            78.884         37092.968
       299   11 Jun 2027 06:19:16.609   11 Jun 2027 06:19:17.886             1.277           146.937
       300   11 Jun 2027 06:19:28.744   11 Jun 2027 06:19:30.477             1.733           194.750
       301   11 Jun 2027 06:19:55.820   11 Jun 2027 06:19:58.360             2.540           672.625
       302   11 Jun 2027 06:20:56.762   11 Jun 2027 06:21:00.600             3.838          1801.812
       303   11 Jun 2027 06:21:07.463   11 Jun 2027 06:21:09.635             2.172           214.469
       304   11 Jun 2027 06:22:31.881   11 Jun 2027 06:22:37.091             5.210          2338.844
       305   11 Jun 2027 06:22:53.219   11 Jun 2027 06:22:59.518             6.299           182.969
       306   11 Jun 2027 06:23:39.283   11 Jun 2027 06:23:45.942             6.659           379.906
       307   11 Jun 2027 06:23:48.130   11 Jun 2027 06:23:48.130             0.000             0.000
       308   11 Jun 2027 06:23:54.739   11 Jun 2027 06:23:56.187             1.448           274.906
       309   11 Jun 2027 06:24:08.993   11 Jun 2027 06:24:13.025             4.032           400.188
       310   11 Jun 2027 06:25:20.096   11 Jun 2027 06:25:23.744             3.648          1389.156
       311   11 Jun 2027 07:54:25.590   11 Jun 2027 07:54:26.432             0.842           240.563
       312   11 Jun 2027 07:55:55.612   11 Jun 2027 07:56:04.901             9.289          1111.906
       313   11 Jun 2027 07:58:08.008   11 Jun 2027 07:58:16.692             8.684          2143.469
       314   11 Jun 2027 07:58:32.680   11 Jun 2027 07:58:33.478             0.798            14.969
       315   11 Jun 2027 07:59:38.739   11 Jun 2027 07:59:39.316             0.577           202.062
       316   11 Jun 2027 08:00:21.033   11 Jun 2027 08:00:21.802             0.769           203.344
       317   11 Jun 2027 08:00:47.409   11 Jun 2027 08:00:53.685             6.276           155.656
       318   11 Jun 2027 09:31:28.104   11 Jun 2027 09:31:38.991            10.887          5031.812
       319   11 Jun 2027 09:33:36.424   11 Jun 2027 09:33:38.769             2.345           901.406
       320   11 Jun 2027 09:34:13.432   11 Jun 2027 09:34:24.815            11.383          1003.500
       321   11 Jun 2027 09:35:19.235   11 Jun 2027 09:35:23.277             4.042          1024.531
       322   11 Jun 2027 09:35:37.201   11 Jun 2027 09:35:38.259             1.058           384.594
       323   11 Jun 2027 09:35:53.587   11 Jun 2027 09:35:54.697             1.110            74.719
       324   11 Jun 2027 09:36:07.586   11 Jun 2027 09:36:08.558             0.972           402.781
       325   11 Jun 2027 11:08:25.431   11 Jun 2027 11:08:37.409            11.978          5813.281
       326   11 Jun 2027 11:09:18.488   11 Jun 2027 11:09:19.178             0.690           245.688
       327   11 Jun 2027 11:11:54.050   11 Jun 2027 11:11:56.013             1.963           895.531
       328   11 Jun 2027 11:12:44.440   11 Jun 2027 11:12:45.239             0.799           263.531
       329   11 Jun 2027 11:13:09.443   11 Jun 2027 11:13:10.676             1.233           533.594
       330   12 Jun 2027 03:19:25.355   12 Jun 2027 03:19:31.525             6.170          3085.000
       331   12 Jun 2027 03:21:09.094   12 Jun 2027 03:21:16.374             7.280          3640.000
       332   12 Jun 2027 04:55:49.647   12 Jun 2027 04:59:15.577           205.930        102965.000
       333   12 Jun 2027 06:27:58.079   12 Jun 2027 06:29:16.916            78.837         37270.281
       334   12 Jun 2027 06:31:23.517   12 Jun 2027 06:31:27.377             3.860          1838.844
       335   12 Jun 2027 06:31:59.845   12 Jun 2027 06:31:59.845             0.000             0.000
       336   12 Jun 2027 06:32:08.930   12 Jun 2027 06:32:10.938             2.008           588.281
       337   12 Jun 2027 06:32:38.829   12 Jun 2027 06:32:38.829             0.000             0.000
       338   12 Jun 2027 06:33:57.836   12 Jun 2027 06:34:03.224             5.388          2694.000
       339   12 Jun 2027 06:34:47.539   12 Jun 2027 06:34:58.820            11.281          1735.719
       340   12 Jun 2027 06:35:29.359   12 Jun 2027 06:35:29.359             0.000             0.000
       341   12 Jun 2027 06:35:55.869   12 Jun 2027 06:35:56.238             0.369           184.500
       342   12 Jun 2027 06:36:34.044   12 Jun 2027 06:36:39.622             5.578          2163.969
       343   12 Jun 2027 06:37:34.475   12 Jun 2027 06:37:37.982             3.507          1517.594
       344   12 Jun 2027 08:06:51.563   12 Jun 2027 08:06:54.686             3.123          1079.156
       345   12 Jun 2027 08:09:39.592   12 Jun 2027 08:09:47.611             8.019          1939.000
       346   12 Jun 2027 08:09:54.799   12 Jun 2027 08:09:55.185             0.386           179.281
       347   12 Jun 2027 08:10:11.660   12 Jun 2027 08:10:15.827             4.167           490.250
       348   12 Jun 2027 08:12:17.348   12 Jun 2027 08:12:26.949             9.601          1624.750
       349   12 Jun 2027 08:12:56.391   12 Jun 2027 08:12:57.100             0.709           323.938
       350   12 Jun 2027 09:43:46.248   12 Jun 2027 09:44:03.251            17.003          7182.281
       351   12 Jun 2027 09:44:28.306   12 Jun 2027 09:44:36.934             8.628           194.188
       352   12 Jun 2027 09:46:55.639   12 Jun 2027 09:46:58.624             2.985           574.469
       353   12 Jun 2027 09:47:19.863   12 Jun 2027 09:47:21.892             2.029            21.469
       354   12 Jun 2027 09:47:47.016   12 Jun 2027 09:47:52.904             5.888           495.094
       355   12 Jun 2027 09:48:20.126   12 Jun 2027 09:48:26.026             5.900           519.094
       356   12 Jun 2027 09:48:31.158   12 Jun 2027 09:48:31.553             0.395           136.125
       357   12 Jun 2027 09:49:07.270   12 Jun 2027 09:49:10.971             3.701          1036.250
       358   12 Jun 2027 11:20:39.081   12 Jun 2027 11:20:55.937            16.856          7993.187
       359   12 Jun 2027 11:23:33.460   12 Jun 2027 11:23:35.038             1.578           336.437
       360   13 Jun 2027 03:31:12.606   13 Jun 2027 03:31:35.608            23.002         11501.000
       361   13 Jun 2027 05:07:51.504   13 Jun 2027 05:08:21.621            30.117         15058.500
       362   13 Jun 2027 05:10:30.155   13 Jun 2027 05:11:19.668            49.513         24756.500
       363   13 Jun 2027 06:42:46.535   13 Jun 2027 06:46:08.380           201.845        100700.250
       364   13 Jun 2027 06:46:14.793   13 Jun 2027 06:46:15.336             0.543            87.625
       365   13 Jun 2027 06:47:05.465   13 Jun 2027 06:47:06.875             1.410           665.781
       366   13 Jun 2027 06:48:15.416   13 Jun 2027 06:48:20.551             5.135           587.813
       367   13 Jun 2027 06:48:59.080   13 Jun 2027 06:49:03.928             4.848           294.406
       368   13 Jun 2027 06:49:35.512   13 Jun 2027 06:49:37.388             1.876           403.594
       369   13 Jun 2027 08:18:59.028   13 Jun 2027 08:19:08.061             9.033          4022.844
       370   13 Jun 2027 08:20:45.449   13 Jun 2027 08:20:51.585             6.136           589.375
       371   13 Jun 2027 08:21:42.401   13 Jun 2027 08:21:49.288             6.887           667.563
       372   13 Jun 2027 08:22:46.156   13 Jun 2027 08:22:50.321             4.165          1726.281
       373   13 Jun 2027 08:24:35.089   13 Jun 2027 08:24:36.541             1.452           718.969
       374   13 Jun 2027 08:25:08.072   13 Jun 2027 08:25:09.649             1.577           173.750
       375   13 Jun 2027 08:25:28.981   13 Jun 2027 08:25:31.380             2.399            28.813
       376   13 Jun 2027 09:56:42.615   13 Jun 2027 09:56:56.797            14.182          4962.219
       377   13 Jun 2027 10:00:46.686   13 Jun 2027 10:00:53.540             6.854          2114.594
       378   13 Jun 2027 10:00:54.587   13 Jun 2027 10:00:55.388             0.801            32.719
       379   13 Jun 2027 11:32:48.905   13 Jun 2027 11:33:02.210            13.305          6294.531
       380   13 Jun 2027 11:36:19.090   13 Jun 2027 11:36:24.547             5.457          1392.031
