uniorb/output/strategy_4/Camera/Camera_KinoSat_111506.txt

KinoSat_111506
-------------------------
    Access    *     Start Time (UTCG)     *     Stop Time (UTCG)  *   Duration (s) *   Data (Mbytes)
         1   01 Jun 2027 03:08:47.024   01 Jun 2027 03:09:43.412            56.388         28194.000
         2   01 Jun 2027 03:09:49.132   01 Jun 2027 03:10:14.907            25.775         12887.500
         3   01 Jun 2027 03:10:31.949   01 Jun 2027 03:10:36.989             5.040          2520.000
         4   01 Jun 2027 03:11:38.048   01 Jun 2027 03:11:48.417            10.369          5184.500
         5   01 Jun 2027 03:12:53.762   01 Jun 2027 03:13:15.174            21.412         10706.000
         6   01 Jun 2027 04:47:15.235   01 Jun 2027 04:48:54.442            99.207         49603.500
         7   01 Jun 2027 04:49:13.247   01 Jun 2027 04:49:15.883             2.636          1318.000
         8   01 Jun 2027 04:50:40.111   01 Jun 2027 04:50:41.264             1.153           576.500
         9   01 Jun 2027 06:10:13.832   01 Jun 2027 06:11:26.676            72.844         36422.000
        10   01 Jun 2027 06:12:41.550   01 Jun 2027 06:12:41.550             0.000             0.000
        11   01 Jun 2027 07:46:40.596   01 Jun 2027 07:48:44.326           123.730         61865.000
        12   01 Jun 2027 09:21:49.191   01 Jun 2027 09:23:22.257            93.066         46533.000
        13   01 Jun 2027 09:24:07.433   01 Jun 2027 09:25:00.055            52.622         26311.000
        14   01 Jun 2027 09:25:34.290   01 Jun 2027 09:25:34.290             0.000             0.000
        15   01 Jun 2027 09:28:31.183   01 Jun 2027 09:28:36.590             5.407          2703.500
        16   01 Jun 2027 10:58:09.691   01 Jun 2027 11:01:27.762           198.071         99035.500
        17   01 Jun 2027 11:02:50.122   01 Jun 2027 11:03:03.916            13.794          6897.000
        18   01 Jun 2027 11:03:49.747   01 Jun 2027 11:03:52.635             2.888          1444.000
        19   02 Jun 2027 03:20:37.885   02 Jun 2027 03:21:36.462            58.577         29288.500
        20   02 Jun 2027 03:21:45.205   02 Jun 2027 03:23:16.097            90.892         45446.000
        21   02 Jun 2027 03:23:23.391   02 Jun 2027 03:23:45.844            22.453         11226.500
        22   02 Jun 2027 04:58:54.684   02 Jun 2027 05:02:40.313           225.629        112814.500
        23   02 Jun 2027 06:22:15.222   02 Jun 2027 06:22:29.377            14.155          7077.500
        24   02 Jun 2027 06:23:09.475   02 Jun 2027 06:23:32.376            22.901         11450.500
        25   02 Jun 2027 06:25:17.836   02 Jun 2027 06:25:27.755             9.919          4959.500
        26   02 Jun 2027 07:58:51.160   02 Jun 2027 08:01:51.499           180.339         90169.500
        27   02 Jun 2027 09:34:01.369   02 Jun 2027 09:34:59.791            58.422         29154.749
        28   02 Jun 2027 09:36:19.152   02 Jun 2027 09:36:25.416             6.264          1735.094
        29   02 Jun 2027 09:37:08.898   02 Jun 2027 09:37:09.919             1.021           378.000
        30   02 Jun 2027 09:39:12.111   02 Jun 2027 09:39:12.111             0.000             0.000
        31   02 Jun 2027 09:40:24.061   02 Jun 2027 09:40:35.336            11.275          4993.937
        32   02 Jun 2027 11:10:19.578   02 Jun 2027 11:10:31.468            11.890          5540.469
        33   02 Jun 2027 11:12:09.631   02 Jun 2027 11:12:13.087             3.456          1412.375
        34   02 Jun 2027 11:12:24.889   02 Jun 2027 11:12:28.448             3.559           351.531
        35   02 Jun 2027 11:13:00.403   02 Jun 2027 11:13:06.857             6.454           998.594
        36   02 Jun 2027 11:14:09.402   02 Jun 2027 11:14:17.996             8.594          1643.125
        37   02 Jun 2027 11:14:55.407   02 Jun 2027 11:14:59.636             4.229          1147.000
        38   02 Jun 2027 11:15:51.686   02 Jun 2027 11:15:54.427             2.741          1019.750
        39   02 Jun 2027 11:16:13.013   02 Jun 2027 11:16:14.138             1.125           344.281
        40   02 Jun 2027 11:16:31.904   02 Jun 2027 11:16:32.152             0.248           124.000
        41   03 Jun 2027 03:33:44.168   03 Jun 2027 03:37:16.361           212.193        106096.500
        42   03 Jun 2027 03:38:41.944   03 Jun 2027 03:38:47.124             5.180          2590.000
        43   03 Jun 2027 03:40:35.988   03 Jun 2027 03:41:33.190            57.202         28601.000
        44   03 Jun 2027 05:10:50.964   03 Jun 2027 05:11:32.554            41.590         20795.000
        45   03 Jun 2027 05:11:40.313   03 Jun 2027 05:12:20.757            40.444         18932.156
        46   03 Jun 2027 05:13:15.044   03 Jun 2027 05:13:23.206             8.162           485.500
        47   03 Jun 2027 05:13:47.812   03 Jun 2027 05:13:50.299             2.487           100.094
        48   03 Jun 2027 05:14:22.536   03 Jun 2027 05:14:25.696             3.160           738.719
        49   03 Jun 2027 06:34:49.606   03 Jun 2027 06:35:00.024            10.418          3656.031
        50   03 Jun 2027 06:35:16.079   03 Jun 2027 06:35:17.640             1.561           314.000
        51   03 Jun 2027 06:35:21.920   03 Jun 2027 06:35:21.920             0.000             0.000
        52   03 Jun 2027 06:35:23.892   03 Jun 2027 06:35:26.187             2.295           195.375
        53   03 Jun 2027 06:36:23.113   03 Jun 2027 06:36:27.198             4.085          1573.406
        54   03 Jun 2027 08:10:36.999   03 Jun 2027 08:10:50.742            13.743          2669.469
        55   03 Jun 2027 08:11:47.839   03 Jun 2027 08:11:51.962             4.123          1746.562
        56   03 Jun 2027 08:12:14.420   03 Jun 2027 08:12:15.183             0.763           139.031
        57   03 Jun 2027 08:13:15.379   03 Jun 2027 08:13:19.358             3.979          1069.875
        58   03 Jun 2027 08:14:01.240   03 Jun 2027 08:14:05.649             4.409          1308.813
        59   03 Jun 2027 09:45:30.388   03 Jun 2027 09:45:37.284             6.896          2881.688
        60   03 Jun 2027 09:47:24.580   03 Jun 2027 09:47:33.577             8.997          2658.875
        61   03 Jun 2027 09:48:25.653   03 Jun 2027 09:48:27.515             1.862           877.750
        62   03 Jun 2027 09:48:33.866   03 Jun 2027 09:48:36.661             2.795           139.156
        63   03 Jun 2027 09:49:47.254   03 Jun 2027 09:49:50.840             3.586          1719.937
        64   03 Jun 2027 09:51:01.452   03 Jun 2027 09:51:06.100             4.648           514.656
        65   03 Jun 2027 09:52:14.796   03 Jun 2027 09:52:19.416             4.620          1973.906
        66   03 Jun 2027 09:52:42.328   03 Jun 2027 09:52:46.295             3.967           601.156
        67   03 Jun 2027 11:22:01.064   03 Jun 2027 11:22:14.072            13.008          5741.281
        68   03 Jun 2027 11:23:10.358   03 Jun 2027 11:23:11.319             0.961           421.219
        69   03 Jun 2027 11:24:27.590   03 Jun 2027 11:24:29.205             1.615           697.375
        70   03 Jun 2027 11:25:17.383   03 Jun 2027 11:25:21.189             3.806          1185.594
        71   03 Jun 2027 11:25:53.334   03 Jun 2027 11:25:58.003             4.669           856.406
        72   03 Jun 2027 11:26:11.328   03 Jun 2027 11:26:11.804             0.476           136.406
        73   03 Jun 2027 11:27:04.592   03 Jun 2027 11:27:07.258             2.666          1190.812
        74   03 Jun 2027 11:27:21.935   03 Jun 2027 11:27:26.105             4.170           216.563
        75   03 Jun 2027 11:27:36.104   03 Jun 2027 11:27:39.833             3.729           211.938
        76   03 Jun 2027 11:28:02.889   03 Jun 2027 11:28:10.353             7.464           286.594
        77   03 Jun 2027 11:28:13.605   03 Jun 2027 11:28:14.097             0.492            47.031
        78   04 Jun 2027 03:45:49.045   04 Jun 2027 03:48:30.145           161.100         80550.000
        79   04 Jun 2027 03:48:59.753   04 Jun 2027 03:49:36.162            36.409         18204.500
        80   04 Jun 2027 03:51:28.984   04 Jun 2027 03:51:29.085             0.101            50.500
        81   04 Jun 2027 03:52:25.212   04 Jun 2027 03:52:28.777             3.565          1782.500
        82   04 Jun 2027 03:52:39.634   04 Jun 2027 03:53:26.937            47.303         23651.500
        83   04 Jun 2027 05:11:26.261   04 Jun 2027 05:12:00.750            34.489         17244.500
        84   04 Jun 2027 05:22:48.560   04 Jun 2027 05:23:47.335            58.775         28599.938
        85   04 Jun 2027 06:45:24.502   04 Jun 2027 06:45:33.697             9.195          3979.844
        86   04 Jun 2027 06:46:13.732   04 Jun 2027 06:46:14.727             0.995           493.031
        87   04 Jun 2027 06:46:58.764   04 Jun 2027 06:47:01.294             2.530           886.375
        88   04 Jun 2027 06:47:18.271   04 Jun 2027 06:47:20.910             2.639           530.531
        89   04 Jun 2027 06:48:27.966   04 Jun 2027 06:48:32.272             4.306          2095.500
        90   04 Jun 2027 06:50:06.134   04 Jun 2027 06:50:06.233             0.099            49.500
        91   04 Jun 2027 08:20:54.310   04 Jun 2027 08:21:00.235             5.925          2340.313
        92   04 Jun 2027 08:21:43.306   04 Jun 2027 08:21:45.727             2.421          1210.500
        93   04 Jun 2027 08:22:40.560   04 Jun 2027 08:22:48.317             7.757          1715.219
        94   04 Jun 2027 08:23:28.743   04 Jun 2027 08:23:31.679             2.936           700.594
        95   04 Jun 2027 08:25:12.889   04 Jun 2027 08:25:20.366             7.477          2623.250
        96   04 Jun 2027 08:25:21.908   04 Jun 2027 08:25:22.402             0.494            48.188
        97   04 Jun 2027 08:25:24.018   04 Jun 2027 08:25:24.018             0.000             0.000
        98   04 Jun 2027 08:25:34.798   04 Jun 2027 08:25:36.158             1.360           387.375
        99   04 Jun 2027 08:26:25.910   04 Jun 2027 08:26:28.560             2.650          1187.656
       100   04 Jun 2027 08:26:41.038   04 Jun 2027 08:26:43.402             2.364           242.063
       101   04 Jun 2027 09:57:15.390   04 Jun 2027 09:57:21.693             6.303          2585.000
       102   04 Jun 2027 09:59:25.035   04 Jun 2027 09:59:33.080             8.045          3356.219
       103   04 Jun 2027 10:00:45.948   04 Jun 2027 10:00:51.765             5.817           465.844
       104   04 Jun 2027 10:01:36.356   04 Jun 2027 10:01:41.961             5.605          1393.469
       105   04 Jun 2027 10:03:10.411   04 Jun 2027 10:03:16.958             6.547          2424.219
       106   04 Jun 2027 10:03:58.796   04 Jun 2027 10:04:02.010             3.214          1307.438
       107   04 Jun 2027 10:04:22.705   04 Jun 2027 10:04:30.543             7.838           484.563
       108   04 Jun 2027 11:34:21.359   04 Jun 2027 11:34:36.819            15.460          5171.344
       109   04 Jun 2027 11:35:51.066   04 Jun 2027 11:35:53.715             2.649           150.063
       110   04 Jun 2027 11:37:01.862   04 Jun 2027 11:37:07.470             5.608          2129.594
       111   04 Jun 2027 11:38:01.424   04 Jun 2027 11:38:01.974             0.550            17.125
       112   04 Jun 2027 11:38:27.771   04 Jun 2027 11:38:29.787             2.016             5.844
       113   04 Jun 2027 11:38:31.118   04 Jun 2027 11:38:31.760             0.642            11.969
       114   04 Jun 2027 11:39:03.610   04 Jun 2027 11:39:05.789             2.179           787.344
       115   04 Jun 2027 11:40:14.274   04 Jun 2027 11:40:18.628             4.354          2041.406
       116   05 Jun 2027 03:58:18.383   05 Jun 2027 04:01:28.483           190.100         95050.000
       117   05 Jun 2027 04:02:22.228   05 Jun 2027 04:02:24.096             1.868           934.000
       118   05 Jun 2027 04:03:37.420   05 Jun 2027 04:04:10.874            33.454         16727.000
       119   05 Jun 2027 04:04:37.184   05 Jun 2027 04:04:40.860             3.676          1838.000
       120   05 Jun 2027 04:05:06.888   05 Jun 2027 04:05:25.882            18.994          9497.000
       121   05 Jun 2027 05:23:07.916   05 Jun 2027 05:23:16.029             8.113          4056.500
       122   05 Jun 2027 05:24:37.758   05 Jun 2027 05:24:43.560             5.802          2901.000
       123   05 Jun 2027 05:34:48.050   05 Jun 2027 05:35:49.002            60.952         30476.000
       124   05 Jun 2027 06:57:05.978   05 Jun 2027 06:57:34.764            28.786         13485.375
       125   05 Jun 2027 06:57:50.269   05 Jun 2027 06:57:51.048             0.779           356.125
       126   05 Jun 2027 06:58:59.788   05 Jun 2027 06:59:04.327             4.539          1696.781
       127   05 Jun 2027 06:59:24.249   05 Jun 2027 06:59:24.249             0.000             0.000
       128   05 Jun 2027 07:01:00.868   05 Jun 2027 07:01:09.682             8.814          3145.562
       129   05 Jun 2027 07:01:58.217   05 Jun 2027 07:02:01.340             3.123          1076.719
       130   05 Jun 2027 08:32:25.352   05 Jun 2027 08:32:37.052            11.700          3913.875
       131   05 Jun 2027 08:33:44.267   05 Jun 2027 08:33:47.460             3.193          1406.875
       132   05 Jun 2027 08:35:04.103   05 Jun 2027 08:35:09.937             5.834          1477.531
       133   05 Jun 2027 08:35:43.068   05 Jun 2027 08:35:44.746             1.678           361.906
       134   05 Jun 2027 08:37:20.921   05 Jun 2027 08:37:30.644             9.723          2366.187
       135   05 Jun 2027 08:38:37.298   05 Jun 2027 08:38:37.298             0.000             0.000
       136   05 Jun 2027 08:40:02.701   05 Jun 2027 08:40:10.289             7.588          3378.188
       137   05 Jun 2027 10:09:32.201   05 Jun 2027 10:09:39.329             7.128          3072.469
       138   05 Jun 2027 10:11:32.132   05 Jun 2027 10:11:33.273             1.141            29.000
       139   05 Jun 2027 10:12:59.556   05 Jun 2027 10:13:02.961             3.405           754.813
       140   05 Jun 2027 10:13:13.069   05 Jun 2027 10:13:26.997            13.928            97.281
       141   05 Jun 2027 10:14:38.026   05 Jun 2027 10:14:42.584             4.558          1190.562
       142   05 Jun 2027 10:15:21.243   05 Jun 2027 10:15:24.368             3.125          1057.156
       143   05 Jun 2027 10:16:13.695   05 Jun 2027 10:16:16.890             3.195          1405.594
       144   05 Jun 2027 10:16:37.212   05 Jun 2027 10:16:38.103             0.891           434.937
       145   05 Jun 2027 10:16:51.177   05 Jun 2027 10:16:51.651             0.474            69.719
       146   05 Jun 2027 11:46:17.444   05 Jun 2027 11:46:30.798            13.354          6092.188
       147   05 Jun 2027 11:47:46.641   05 Jun 2027 11:47:50.448             3.807           313.156
       148   05 Jun 2027 11:49:01.105   05 Jun 2027 11:49:06.350             5.245          2208.031
       149   05 Jun 2027 11:49:28.044   05 Jun 2027 11:49:28.883             0.839           392.094
       150   05 Jun 2027 11:50:10.326   05 Jun 2027 11:50:13.355             3.029           691.812
       151   05 Jun 2027 11:50:42.138   05 Jun 2027 11:50:44.923             2.785           661.031
       152   05 Jun 2027 11:52:14.210   05 Jun 2027 11:52:21.813             7.603          2142.187
       153   06 Jun 2027 04:10:21.538   06 Jun 2027 04:12:44.650           143.112         71556.000
       154   06 Jun 2027 04:14:11.226   06 Jun 2027 04:14:21.865            10.639          5319.500
       155   06 Jun 2027 04:14:29.360   06 Jun 2027 04:15:11.563            42.203         21101.500
       156   06 Jun 2027 04:16:28.114   06 Jun 2027 04:16:35.799             7.685          3842.500
       157   06 Jun 2027 05:34:41.523   06 Jun 2027 05:35:26.209            44.686         22343.000
       158   06 Jun 2027 05:46:57.118   06 Jun 2027 05:47:23.179            26.061         13030.500
       159   06 Jun 2027 07:08:38.190   06 Jun 2027 07:09:52.600            74.410         36189.563
       160   06 Jun 2027 07:11:08.088   06 Jun 2027 07:11:12.273             4.185          2092.500
       161   06 Jun 2027 07:11:21.867   06 Jun 2027 07:11:27.586             5.719           305.031
       162   06 Jun 2027 07:11:55.630   06 Jun 2027 07:11:57.402             1.772           875.437
       163   06 Jun 2027 07:12:26.060   06 Jun 2027 07:12:27.878             1.818           895.562
       164   06 Jun 2027 07:13:14.737   06 Jun 2027 07:13:17.594             2.857          1291.312
       165   06 Jun 2027 07:13:26.440   06 Jun 2027 07:13:26.440             0.000             0.000
       166   06 Jun 2027 07:13:55.367   06 Jun 2027 07:13:58.982             3.615          1180.406
       167   06 Jun 2027 08:43:31.359   06 Jun 2027 08:43:40.702             9.343          2542.438
       168   06 Jun 2027 08:45:30.611   06 Jun 2027 08:45:36.995             6.384          2184.344
       169   06 Jun 2027 08:46:28.545   06 Jun 2027 08:46:31.505             2.960          1394.094
       170   06 Jun 2027 08:47:34.036   06 Jun 2027 08:47:39.624             5.588           562.563
       171   06 Jun 2027 08:49:12.220   06 Jun 2027 08:49:18.019             5.799          2565.031
       172   06 Jun 2027 08:50:13.809   06 Jun 2027 08:50:18.637             4.828          1652.188
       173   06 Jun 2027 08:50:28.981   06 Jun 2027 08:50:37.179             8.198           223.594
       174   06 Jun 2027 08:51:26.204   06 Jun 2027 08:51:35.701             9.497          1180.562
       175   06 Jun 2027 08:52:20.855   06 Jun 2027 08:52:27.582             6.727          1411.062
       176   06 Jun 2027 10:21:26.904   06 Jun 2027 10:21:39.641            12.737          5862.656
       177   06 Jun 2027 10:25:41.880   06 Jun 2027 10:25:43.314             1.434           226.563
       178   06 Jun 2027 10:26:14.570   06 Jun 2027 10:26:17.041             2.471           558.500
       179   06 Jun 2027 10:26:47.247   06 Jun 2027 10:26:49.572             2.325             3.750
       180   06 Jun 2027 10:28:17.626   06 Jun 2027 10:28:20.744             3.118          1063.281
       181   06 Jun 2027 10:28:41.162   06 Jun 2027 10:28:42.182             1.020           483.031
       182   06 Jun 2027 11:58:14.139   06 Jun 2027 11:58:27.274            13.135          5707.281
       183   07 Jun 2027 04:22:47.642   07 Jun 2027 04:25:17.476           149.834         74917.000
       184   07 Jun 2027 04:26:03.470   07 Jun 2027 04:26:17.062            13.592          6796.000
       185   07 Jun 2027 05:46:37.244   07 Jun 2027 05:47:21.968            44.724         22362.000
       186   07 Jun 2027 05:47:29.246   07 Jun 2027 05:47:45.767            16.521          8260.500
       187   07 Jun 2027 07:22:37.025   07 Jun 2027 07:24:13.988            96.963         48151.188
       188   07 Jun 2027 07:25:45.649   07 Jun 2027 07:25:49.927             4.278          2020.688
       189   07 Jun 2027 08:56:24.901   07 Jun 2027 08:56:30.618             5.717          2231.031
       190   07 Jun 2027 08:57:58.972   07 Jun 2027 08:58:00.506             1.534           627.781
       191   07 Jun 2027 08:58:37.116   07 Jun 2027 08:58:40.284             3.168           276.500
       192   07 Jun 2027 08:58:56.241   07 Jun 2027 08:58:58.068             1.827           405.875
       193   07 Jun 2027 09:00:10.227   07 Jun 2027 09:00:12.717             2.490          1059.031
       194   07 Jun 2027 09:02:50.693   07 Jun 2027 09:02:57.580             6.887          3337.656
       195   07 Jun 2027 09:03:10.819   07 Jun 2027 09:03:12.851             2.032           127.344
       196   07 Jun 2027 09:03:18.763   07 Jun 2027 09:03:21.679             2.916           117.781
       197   07 Jun 2027 09:04:14.043   07 Jun 2027 09:04:17.554             3.511          1448.250
       198   07 Jun 2027 09:04:31.425   07 Jun 2027 09:04:32.059             0.634            56.750
       199   07 Jun 2027 10:33:38.433   07 Jun 2027 10:33:58.688            20.255          6237.750
       200   07 Jun 2027 10:35:22.475   07 Jun 2027 10:35:24.349             1.874           823.750
       201   07 Jun 2027 10:38:07.237   07 Jun 2027 10:38:14.603             7.366          3659.438
       202   07 Jun 2027 10:38:31.072   07 Jun 2027 10:38:33.057             1.985           150.187
       203   07 Jun 2027 10:38:55.068   07 Jun 2027 10:38:58.006             2.938           282.313
       204   07 Jun 2027 10:40:02.642   07 Jun 2027 10:40:07.621             4.979          1950.094
       205   07 Jun 2027 10:40:14.951   07 Jun 2027 10:40:17.247             2.296           229.063
       206   07 Jun 2027 10:40:45.856   07 Jun 2027 10:40:49.749             3.893           894.031
       207   08 Jun 2027 03:00:00.000   08 Jun 2027 03:00:07.806             7.806          3903.000
       208   08 Jun 2027 03:01:03.644   08 Jun 2027 03:01:14.961            11.317          5658.500
       209   08 Jun 2027 03:01:22.202   08 Jun 2027 03:01:38.757            16.555          8277.500
       210   08 Jun 2027 03:02:30.973   08 Jun 2027 03:02:44.434            13.461          6730.500
       211   08 Jun 2027 04:35:07.685   08 Jun 2027 04:37:24.825           137.140         68570.000
       212   08 Jun 2027 05:58:29.393   08 Jun 2027 05:59:24.813            55.420         27710.000
       213   08 Jun 2027 06:01:02.491   08 Jun 2027 06:01:04.829             2.338          1169.000
       214   08 Jun 2027 07:34:50.795   08 Jun 2027 07:36:07.238            76.443         38056.344
       215   08 Jun 2027 07:36:27.398   08 Jun 2027 07:36:28.919             1.521           311.781
       216   08 Jun 2027 07:36:50.857   08 Jun 2027 07:36:52.078             1.221            55.750
       217   08 Jun 2027 07:37:31.198   08 Jun 2027 07:37:34.812             3.614          1222.500
       218   08 Jun 2027 07:38:20.311   08 Jun 2027 07:38:20.311             0.000             0.000
       219   08 Jun 2027 09:08:56.250   08 Jun 2027 09:09:04.765             8.515          3906.406
       220   08 Jun 2027 09:11:01.132   08 Jun 2027 09:11:04.520             3.388           347.625
       221   08 Jun 2027 09:11:44.133   08 Jun 2027 09:11:49.409             5.276           180.125
       222   08 Jun 2027 09:13:18.977   08 Jun 2027 09:13:23.263             4.286          1948.781
       223   08 Jun 2027 09:15:28.793   08 Jun 2027 09:15:34.211             5.418          2560.500
       224   08 Jun 2027 09:15:54.332   08 Jun 2027 09:15:58.635             4.303           540.156
       225   08 Jun 2027 09:16:52.218   08 Jun 2027 09:16:53.814             1.596           784.188
       226   08 Jun 2027 10:46:00.486   08 Jun 2027 10:46:09.955             9.469          4638.219
       227   08 Jun 2027 10:50:43.629   08 Jun 2027 10:50:47.639             4.010          1972.844
       228   08 Jun 2027 10:50:56.852   08 Jun 2027 10:51:02.002             5.150           166.750
       229   08 Jun 2027 10:51:15.888   08 Jun 2027 10:51:17.172             1.284           433.938
       230   08 Jun 2027 10:52:04.312   08 Jun 2027 10:52:09.754             5.442          1442.250
       231   08 Jun 2027 10:52:24.023   08 Jun 2027 10:52:26.757             2.734           445.906
       232   08 Jun 2027 10:52:33.663   08 Jun 2027 10:52:34.491             0.828            55.563
       233   09 Jun 2027 03:08:59.251   09 Jun 2027 03:09:59.850            60.599         30299.500
       234   09 Jun 2027 03:10:33.351   09 Jun 2027 03:10:45.291            11.940          5970.000
       235   09 Jun 2027 03:11:30.140   09 Jun 2027 03:11:32.572             2.432          1216.000
       236   09 Jun 2027 03:11:49.101   09 Jun 2027 03:12:08.971            19.870          9935.000
       237   09 Jun 2027 03:12:52.483   09 Jun 2027 03:12:52.483             0.000             0.000
       238   09 Jun 2027 03:12:59.211   09 Jun 2027 03:13:32.497            33.286         16643.000
       239   09 Jun 2027 04:47:35.089   09 Jun 2027 04:50:34.163           179.074         89479.656
       240   09 Jun 2027 06:10:32.205   09 Jun 2027 06:10:54.459            22.254         10546.313
       241   09 Jun 2027 07:46:57.623   09 Jun 2027 07:47:13.432            15.809          4394.938
       242   09 Jun 2027 07:47:37.565   09 Jun 2027 07:47:38.873             1.308           405.313
       243   09 Jun 2027 07:48:02.758   09 Jun 2027 07:48:06.443             3.685           420.094
       244   09 Jun 2027 07:48:59.160   09 Jun 2027 07:49:02.845             3.685          1647.406
       245   09 Jun 2027 07:49:45.153   09 Jun 2027 07:49:45.153             0.000             0.000
       246   09 Jun 2027 07:50:23.300   09 Jun 2027 07:50:28.471             5.171          2514.219
       247   09 Jun 2027 09:22:05.793   09 Jun 2027 09:22:14.694             8.901          3282.313
       248   09 Jun 2027 09:23:10.199   09 Jun 2027 09:23:12.929             2.730           893.000
       249   09 Jun 2027 09:23:40.081   09 Jun 2027 09:23:41.977             1.896           551.687
       250   09 Jun 2027 09:25:16.726   09 Jun 2027 09:25:23.345             6.619          1593.875
       251   09 Jun 2027 09:25:49.272   09 Jun 2027 09:25:51.656             2.384           691.094
       252   09 Jun 2027 09:27:29.429   09 Jun 2027 09:27:34.997             5.568          2744.062
       253   09 Jun 2027 09:28:07.543   09 Jun 2027 09:28:09.190             1.647           616.875
       254   09 Jun 2027 09:28:34.564   09 Jun 2027 09:28:35.160             0.596           220.469
       255   09 Jun 2027 09:28:47.367   09 Jun 2027 09:28:48.211             0.844           127.875
       256   09 Jun 2027 10:58:26.868   09 Jun 2027 10:58:35.289             8.421          4008.281
       257   09 Jun 2027 11:00:22.664   09 Jun 2027 11:00:25.756             3.092           777.031
       258   09 Jun 2027 11:01:15.406   09 Jun 2027 11:01:20.654             5.248          1152.094
       259   09 Jun 2027 11:02:39.826   09 Jun 2027 11:02:44.737             4.911          1723.031
       260   09 Jun 2027 11:02:54.232   09 Jun 2027 11:02:54.673             0.441           107.375
       261   09 Jun 2027 11:03:19.820   09 Jun 2027 11:03:21.768             1.948           785.844
       262   09 Jun 2027 11:03:57.687   09 Jun 2027 11:04:00.229             2.542           206.187
       263   09 Jun 2027 11:04:31.681   09 Jun 2027 11:04:35.631             3.950           900.563
       264   10 Jun 2027 03:20:55.107   10 Jun 2027 03:21:50.438            55.331         27665.500
       265   10 Jun 2027 03:22:01.988   10 Jun 2027 03:24:00.320           118.332         59166.000
       266   10 Jun 2027 03:25:51.086   10 Jun 2027 03:25:59.248             8.162          4081.000
       267   10 Jun 2027 03:26:27.873   10 Jun 2027 03:26:28.182             0.309           154.500
       268   10 Jun 2027 03:26:29.043   10 Jun 2027 03:26:30.054             1.011           505.500
       269   10 Jun 2027 03:26:45.954   10 Jun 2027 03:26:52.009             6.055          3027.500
       270   10 Jun 2027 04:59:10.819   10 Jun 2027 04:59:46.750            35.931         17965.500
       271   10 Jun 2027 04:59:59.630   10 Jun 2027 05:01:09.871            70.241         34495.687
       272   10 Jun 2027 05:02:27.169   10 Jun 2027 05:02:30.217             3.048           860.187
       273   10 Jun 2027 06:22:30.771   10 Jun 2027 06:22:39.447             8.676          4129.969
       274   10 Jun 2027 06:23:48.669   10 Jun 2027 06:23:52.921             4.252          2045.187
       275   10 Jun 2027 06:24:18.710   10 Jun 2027 06:24:23.666             4.956           410.656
       276   10 Jun 2027 06:25:17.060   10 Jun 2027 06:25:17.770             0.710           355.000
       277   10 Jun 2027 06:25:32.025   10 Jun 2027 06:25:34.795             2.770          1220.188
       278   10 Jun 2027 07:59:07.705   10 Jun 2027 07:59:14.605             6.900          3005.125
       279   10 Jun 2027 07:59:40.731   10 Jun 2027 07:59:43.003             2.272           505.625
       280   10 Jun 2027 08:00:29.140   10 Jun 2027 08:00:31.086             1.946           776.375
       281   10 Jun 2027 08:01:17.319   10 Jun 2027 08:01:20.819             3.500          1427.656
       282   10 Jun 2027 08:02:08.589   10 Jun 2027 08:02:11.339             2.750          1051.687
       283   10 Jun 2027 09:34:17.687   10 Jun 2027 09:34:24.386             6.699          3132.937
       284   10 Jun 2027 09:35:41.414   10 Jun 2027 09:35:46.527             5.113          2222.125
       285   10 Jun 2027 09:35:55.086   10 Jun 2027 09:35:55.824             0.738           238.844
       286   10 Jun 2027 09:37:13.389   10 Jun 2027 09:37:16.533             3.144          1115.781
       287   10 Jun 2027 09:38:02.337   10 Jun 2027 09:38:05.442             3.105          1218.375
       288   10 Jun 2027 09:39:09.105   10 Jun 2027 09:39:10.415             1.310           326.938
       289   10 Jun 2027 09:39:52.580   10 Jun 2027 09:39:58.658             6.078           728.562
       290   10 Jun 2027 09:40:53.169   10 Jun 2027 09:40:53.668             0.499           249.500
       291   10 Jun 2027 11:10:34.978   10 Jun 2027 11:10:46.879            11.901          5170.094
       292   10 Jun 2027 11:12:26.175   10 Jun 2027 11:12:29.405             3.230          1470.031
       293   10 Jun 2027 11:12:48.072   10 Jun 2027 11:12:49.118             1.046           201.313
       294   10 Jun 2027 11:12:50.085   10 Jun 2027 11:12:59.406             9.321            30.219
       295   10 Jun 2027 11:13:31.444   10 Jun 2027 11:13:37.440             5.996           686.125
       296   10 Jun 2027 11:14:07.023   10 Jun 2027 11:14:08.927             1.904           800.625
       297   10 Jun 2027 11:14:38.975   10 Jun 2027 11:14:45.840             6.865           443.563
       298   10 Jun 2027 11:15:39.761   10 Jun 2027 11:15:44.838             5.077          1685.031
       299   10 Jun 2027 11:16:41.223   10 Jun 2027 11:16:41.548             0.325           162.500
       300   11 Jun 2027 03:34:00.849   11 Jun 2027 03:37:05.712           184.863         92431.500
       301   11 Jun 2027 03:37:31.880   11 Jun 2027 03:37:50.032            18.152          9076.000
       302   11 Jun 2027 03:40:53.601   11 Jun 2027 03:41:52.429            58.828         29414.000
       303   11 Jun 2027 05:11:07.203   11 Jun 2027 05:12:23.804            76.601         38219.813
       304   11 Jun 2027 05:14:01.637   11 Jun 2027 05:14:04.032             2.395           907.406
       305   11 Jun 2027 05:14:38.176   11 Jun 2027 05:14:41.025             2.849           738.250
       306   11 Jun 2027 06:35:07.027   11 Jun 2027 06:35:15.020             7.993          3993.375
       307   11 Jun 2027 06:35:32.483   11 Jun 2027 06:35:35.650             3.167           361.094
       308   11 Jun 2027 06:35:37.501   11 Jun 2027 06:35:37.501             0.000             0.000
       309   11 Jun 2027 06:35:39.309   11 Jun 2027 06:35:40.739             1.430           114.344
       310   11 Jun 2027 06:36:40.595   11 Jun 2027 06:36:44.161             3.566          1611.344
       311   11 Jun 2027 08:10:51.778   11 Jun 2027 08:11:07.542            15.764          2045.437
       312   11 Jun 2027 08:11:43.780   11 Jun 2027 08:11:46.486             2.706           621.750
       313   11 Jun 2027 08:13:00.072   11 Jun 2027 08:13:13.346            13.274          1701.344
       314   11 Jun 2027 08:13:23.566   11 Jun 2027 08:13:25.834             2.268           319.375
       315   11 Jun 2027 08:13:42.006   11 Jun 2027 08:13:42.006             0.000             0.000
       316   11 Jun 2027 08:14:12.157   11 Jun 2027 08:14:16.318             4.161          1182.656
       317   11 Jun 2027 08:15:00.613   11 Jun 2027 08:15:04.764             4.151          1316.063
       318   11 Jun 2027 09:45:44.610   11 Jun 2027 09:45:50.741             6.131          2955.469
       319   11 Jun 2027 09:48:16.569   11 Jun 2027 09:48:19.621             3.052          1070.219
       320   11 Jun 2027 09:48:48.858   11 Jun 2027 09:48:51.094             2.236           319.062
       321   11 Jun 2027 09:49:08.696   11 Jun 2027 09:49:08.696             0.000             0.000
       322   11 Jun 2027 09:50:05.575   11 Jun 2027 09:50:17.817            12.242          2278.719
       323   11 Jun 2027 09:50:39.671   11 Jun 2027 09:50:40.905             1.234           185.563
       324   11 Jun 2027 09:51:01.059   11 Jun 2027 09:51:02.505             1.446           620.969
       325   11 Jun 2027 09:51:11.508   11 Jun 2027 09:51:12.587             1.079           136.750
       326   11 Jun 2027 09:51:34.390   11 Jun 2027 09:51:37.070             2.680           573.375
       327   11 Jun 2027 09:52:20.596   11 Jun 2027 09:52:26.941             6.345          1122.187
       328   11 Jun 2027 09:52:59.230   11 Jun 2027 09:53:00.905             1.675           659.594
       329   11 Jun 2027 11:22:18.462   11 Jun 2027 11:22:29.483            11.021          4915.375
       330   11 Jun 2027 11:24:16.911   11 Jun 2027 11:24:21.158             4.247          1830.563
       331   11 Jun 2027 11:24:56.080   11 Jun 2027 11:24:57.299             1.219           483.750
       332   11 Jun 2027 11:26:22.726   11 Jun 2027 11:26:29.467             6.741          2221.437
       333   11 Jun 2027 11:27:18.928   11 Jun 2027 11:27:24.863             5.935          1101.500
       334   11 Jun 2027 11:27:37.374   11 Jun 2027 11:27:41.259             3.885           194.969
       335   11 Jun 2027 11:27:52.127   11 Jun 2027 11:27:56.197             4.070           224.875
       336   11 Jun 2027 11:28:17.883   11 Jun 2027 11:28:19.331             1.448           243.312
       337   11 Jun 2027 11:28:30.123   11 Jun 2027 11:28:30.702             0.579            15.438
       338   12 Jun 2027 03:46:09.143   12 Jun 2027 03:49:51.705           222.562        111281.000
       339   12 Jun 2027 05:11:39.925   12 Jun 2027 05:11:43.498             3.573          1786.500
       340   12 Jun 2027 05:12:48.941   12 Jun 2027 05:12:51.669             2.728          1364.000
       341   12 Jun 2027 05:23:05.187   12 Jun 2027 05:24:24.031            78.844         38545.657
       342   12 Jun 2027 06:45:43.600   12 Jun 2027 06:46:01.354            17.754          7167.313
       343   12 Jun 2027 06:46:30.566   12 Jun 2027 06:46:36.423             5.857           479.125
       344   12 Jun 2027 06:47:48.975   12 Jun 2027 06:47:52.948             3.973          1543.813
       345   12 Jun 2027 06:48:43.824   12 Jun 2027 06:48:46.891             3.067          1342.437
       346   12 Jun 2027 06:50:00.269   12 Jun 2027 06:50:08.357             8.088          1733.781
       347   12 Jun 2027 06:50:19.582   12 Jun 2027 06:50:20.691             1.109           350.781
       348   12 Jun 2027 08:21:06.021   12 Jun 2027 08:21:09.223             3.202          1527.062
       349   12 Jun 2027 08:22:37.333   12 Jun 2027 08:22:40.201             2.868          1253.500
       350   12 Jun 2027 08:24:16.198   12 Jun 2027 08:24:18.537             2.339           922.188
       351   12 Jun 2027 08:25:37.287   12 Jun 2027 08:25:42.071             4.784          2301.187
       352   12 Jun 2027 08:26:07.250   12 Jun 2027 08:26:08.909             1.659           415.625
       353   12 Jun 2027 08:26:31.298   12 Jun 2027 08:26:32.572             1.274           601.813
       354   12 Jun 2027 09:57:33.218   12 Jun 2027 09:57:41.265             8.047          3377.812
       355   12 Jun 2027 09:59:42.726   12 Jun 2027 09:59:50.261             7.535          3446.937
       356   12 Jun 2027 10:01:56.829   12 Jun 2027 10:01:59.800             2.971          1437.844
       357   12 Jun 2027 10:04:17.627   12 Jun 2027 10:04:28.682            11.055          3944.438
       358   12 Jun 2027 10:05:03.989   12 Jun 2027 10:05:04.107             0.118            59.000
       359   12 Jun 2027 11:34:40.035   12 Jun 2027 11:34:54.968            14.933          6727.656
       360   12 Jun 2027 11:36:40.483   12 Jun 2027 11:36:43.851             3.368           256.344
       361   12 Jun 2027 11:37:16.776   12 Jun 2027 11:37:18.713             1.937           957.469
       362   12 Jun 2027 11:37:47.372   12 Jun 2027 11:37:50.172             2.800           895.594
       363   12 Jun 2027 11:38:54.637   12 Jun 2027 11:38:58.713             4.076          1130.094
       364   12 Jun 2027 11:39:25.245   12 Jun 2027 11:39:32.616             7.371           332.781
       365   12 Jun 2027 11:40:07.315   12 Jun 2027 11:40:08.363             1.048           457.844
       366   12 Jun 2027 11:40:12.211   12 Jun 2027 11:40:13.391             1.180            31.000
       367   12 Jun 2027 11:40:18.372   12 Jun 2027 11:40:18.839             0.467           142.031
       368   12 Jun 2027 11:40:36.595   12 Jun 2027 11:40:39.882             3.287           197.906
       369   13 Jun 2027 03:58:35.091   13 Jun 2027 04:00:42.011           126.920         63460.000
       370   13 Jun 2027 04:00:56.732   13 Jun 2027 04:01:20.531            23.799         11899.500
       371   13 Jun 2027 04:02:43.351   13 Jun 2027 04:03:13.091            29.740         14870.000
       372   13 Jun 2027 04:03:49.525   13 Jun 2027 04:04:22.147            32.622         16311.000
       373   13 Jun 2027 04:05:03.181   13 Jun 2027 04:05:14.560            11.379          5689.500
       374   13 Jun 2027 05:22:53.551   13 Jun 2027 05:23:28.537            34.986         17493.000
       375   13 Jun 2027 05:35:04.565   13 Jun 2027 05:36:04.241            59.676         29838.000
       376   13 Jun 2027 06:57:21.461   13 Jun 2027 06:57:42.618            21.157         10463.625
       377   13 Jun 2027 06:58:07.782   13 Jun 2027 06:58:09.288             1.506           367.187
       378   13 Jun 2027 06:59:16.381   13 Jun 2027 06:59:24.577             8.196          1712.406
       379   13 Jun 2027 07:00:05.111   13 Jun 2027 07:00:08.990             3.879           891.594
       380   13 Jun 2027 07:00:54.926   13 Jun 2027 07:01:00.565             5.639          1299.281
       381   13 Jun 2027 07:01:40.833   13 Jun 2027 07:01:40.833             0.000             0.000
       382   13 Jun 2027 07:02:14.551   13 Jun 2027 07:02:18.511             3.960          1822.187
       383   13 Jun 2027 08:32:15.269   13 Jun 2027 08:32:19.701             4.432          2003.125
       384   13 Jun 2027 08:33:39.238   13 Jun 2027 08:33:41.055             1.817           643.312
       385   13 Jun 2027 08:34:39.012   13 Jun 2027 08:34:45.450             6.438          1180.062
       386   13 Jun 2027 08:35:49.412   13 Jun 2027 08:35:52.990             3.578           912.531
       387   13 Jun 2027 08:36:22.647   13 Jun 2027 08:36:25.632             2.985           778.125
       388   13 Jun 2027 08:37:34.660   13 Jun 2027 08:37:37.805             3.145           272.594
       389   13 Jun 2027 08:38:09.205   13 Jun 2027 08:38:13.708             4.503           981.250
       390   13 Jun 2027 08:38:56.396   13 Jun 2027 08:38:59.433             3.037          1249.500
       391   13 Jun 2027 10:09:48.270   13 Jun 2027 10:09:55.608             7.338          3312.688
       392   13 Jun 2027 10:11:45.645   13 Jun 2027 10:11:47.944             2.299           841.156
       393   13 Jun 2027 10:12:42.400   13 Jun 2027 10:12:48.049             5.649          1688.750
       394   13 Jun 2027 10:13:29.714   13 Jun 2027 10:13:32.416             2.702          1127.250
       395   13 Jun 2027 10:14:19.944   13 Jun 2027 10:14:24.183             4.239          1485.250
       396   13 Jun 2027 10:15:03.403   13 Jun 2027 10:15:05.023             1.620           222.469
       397   13 Jun 2027 10:15:59.389   13 Jun 2027 10:16:05.360             5.971          1059.187
       398   13 Jun 2027 10:16:16.201   13 Jun 2027 10:16:21.939             5.738           261.844
       399   13 Jun 2027 10:17:04.686   13 Jun 2027 10:17:07.977             3.291          1335.844
       400   13 Jun 2027 11:46:31.056   13 Jun 2027 11:46:45.447            14.391          6808.031
       401   13 Jun 2027 11:49:17.878   13 Jun 2027 11:49:24.894             7.016          3408.188
       402   13 Jun 2027 11:49:40.964   13 Jun 2027 11:49:45.903             4.939           288.187
       403   13 Jun 2027 11:50:28.374   13 Jun 2027 11:50:31.234             2.860           779.406
       404   13 Jun 2027 11:50:38.438   13 Jun 2027 11:50:42.567             4.129            26.187
       405   13 Jun 2027 11:50:54.538   13 Jun 2027 11:50:55.372             0.834            91.219
       406   13 Jun 2027 11:52:14.378   13 Jun 2027 11:52:21.010             6.632          2346.781
       407   13 Jun 2027 11:52:42.459   13 Jun 2027 11:52:45.021             2.562           384.375
       408   13 Jun 2027 11:53:03.263   13 Jun 2027 11:53:07.207             3.944           561.937
