uniorb/output/strategy_4/Camera/Camera_KinoSat_111203.txt

KinoSat_111203
-------------------------
    Access    *     Start Time (UTCG)     *     Stop Time (UTCG)  *   Duration (s) *   Data (Mbytes)
         1   01 Jun 2027 03:50:59.828   01 Jun 2027 03:51:36.543            36.715         18357.500
         2   01 Jun 2027 03:52:05.285   01 Jun 2027 03:54:19.558           134.273         67136.500
         3   01 Jun 2027 05:15:05.176   01 Jun 2027 05:16:04.857            59.681         29840.500
         4   01 Jun 2027 06:50:50.826   01 Jun 2027 06:52:43.292           112.466         56233.000
         5   01 Jun 2027 06:53:14.406   01 Jun 2027 06:53:22.018             7.612          3806.000
         6   01 Jun 2027 08:25:48.436   01 Jun 2027 08:26:16.189            27.753         13876.500
         7   01 Jun 2027 08:27:37.747   01 Jun 2027 08:28:51.498            73.751         36875.500
         8   01 Jun 2027 08:29:39.630   01 Jun 2027 08:30:09.460            29.830         14915.000
         9   01 Jun 2027 08:32:25.075   01 Jun 2027 08:32:49.452            24.377         12188.500
        10   01 Jun 2027 10:02:00.555   01 Jun 2027 10:04:27.355           146.800         73400.000
        11   01 Jun 2027 10:04:38.777   01 Jun 2027 10:04:40.726             1.949           974.500
        12   01 Jun 2027 10:04:46.380   01 Jun 2027 10:04:54.613             8.233          4116.500
        13   01 Jun 2027 10:05:07.362   01 Jun 2027 10:05:13.206             5.844          2922.000
        14   01 Jun 2027 10:05:26.584   01 Jun 2027 10:05:26.878             0.294           147.000
        15   01 Jun 2027 10:07:11.700   01 Jun 2027 10:07:22.978            11.278          5639.000
        16   01 Jun 2027 11:40:00.965   01 Jun 2027 11:41:52.941           111.976         55988.000
        17   01 Jun 2027 11:42:36.073   01 Jun 2027 11:42:55.916            19.843          9921.500
        18   01 Jun 2027 11:43:18.078   01 Jun 2027 11:43:23.347             5.269          2634.500
        19   02 Jun 2027 03:51:52.424   02 Jun 2027 03:52:14.606            22.182         11091.000
        20   02 Jun 2027 04:02:55.560   02 Jun 2027 04:03:59.948            64.388         32194.000
        21   02 Jun 2027 04:04:08.779   02 Jun 2027 04:04:27.201            18.422          9211.000
        22   02 Jun 2027 04:05:03.304   02 Jun 2027 04:05:14.552            11.248          5624.000
        23   02 Jun 2027 04:05:36.843   02 Jun 2027 04:05:52.003            15.160          7580.000
        24   02 Jun 2027 05:25:54.902   02 Jun 2027 05:27:20.187            85.285         42642.500
        25   02 Jun 2027 05:28:12.363   02 Jun 2027 05:28:30.746            18.383          9191.500
        26   02 Jun 2027 07:01:26.843   02 Jun 2027 07:01:32.873             6.030          3015.000
        27   02 Jun 2027 07:02:36.472   02 Jun 2027 07:05:30.477           174.005         87002.500
        28   02 Jun 2027 07:06:29.218   02 Jun 2027 07:06:47.402            18.184          9092.000
        29   02 Jun 2027 08:37:22.221   02 Jun 2027 08:39:38.217           135.996         67998.000
        30   02 Jun 2027 08:40:37.733   02 Jun 2027 08:40:49.968            12.235          6117.500
        31   02 Jun 2027 08:41:41.714   02 Jun 2027 08:41:41.714             0.000             0.000
        32   02 Jun 2027 08:43:27.026   02 Jun 2027 08:44:12.023            44.997         22498.500
        33   02 Jun 2027 08:44:13.858   02 Jun 2027 08:44:55.383            41.525         20762.500
        34   02 Jun 2027 10:14:21.835   02 Jun 2027 10:15:08.935            47.100         22625.562
        35   02 Jun 2027 10:17:20.298   02 Jun 2027 10:17:22.487             2.189          1011.188
        36   02 Jun 2027 10:17:52.402   02 Jun 2027 10:17:52.890             0.488           205.688
        37   02 Jun 2027 10:18:22.909   02 Jun 2027 10:18:24.558             1.649           738.781
        38   02 Jun 2027 10:18:41.155   02 Jun 2027 10:18:42.645             1.490           427.156
        39   02 Jun 2027 10:18:54.325   02 Jun 2027 10:18:56.178             1.853           197.906
        40   02 Jun 2027 10:19:09.172   02 Jun 2027 10:19:13.524             4.352           196.125
        41   02 Jun 2027 10:19:17.583   02 Jun 2027 10:19:18.796             1.213            33.188
        42   02 Jun 2027 10:20:23.270   02 Jun 2027 10:20:26.839             3.569          1773.625
        43   02 Jun 2027 11:52:22.830   02 Jun 2027 11:52:36.221            13.391          6573.156
        44   02 Jun 2027 11:52:40.879   02 Jun 2027 11:52:43.813             2.934           140.844
        45   02 Jun 2027 11:53:22.741   02 Jun 2027 11:53:25.382             2.641           943.469
        46   02 Jun 2027 11:54:53.864   02 Jun 2027 11:54:57.100             3.236           489.656
        47   02 Jun 2027 11:55:46.610   02 Jun 2027 11:55:51.106             4.496            25.469
        48   02 Jun 2027 11:56:00.137   02 Jun 2027 11:56:02.341             2.204           282.219
        49   03 Jun 2027 04:03:15.001   03 Jun 2027 04:03:35.751            20.750         10375.000
        50   03 Jun 2027 04:04:33.759   03 Jun 2027 04:04:39.899             6.140          3070.000
        51   03 Jun 2027 04:14:56.732   03 Jun 2027 04:16:17.454            80.722         40361.000
        52   03 Jun 2027 05:37:11.121   03 Jun 2027 05:38:25.772            74.651         37325.500
        53   03 Jun 2027 05:39:10.858   03 Jun 2027 05:39:25.122            14.264          7132.000
        54   03 Jun 2027 05:41:25.704   03 Jun 2027 05:41:32.751             7.047          3523.500
        55   03 Jun 2027 07:12:19.071   03 Jun 2027 07:13:46.893            87.822         43911.000
        56   03 Jun 2027 07:14:20.031   03 Jun 2027 07:15:02.988            42.957         20558.656
        57   03 Jun 2027 07:15:32.068   03 Jun 2027 07:15:35.872             3.804           491.750
        58   03 Jun 2027 07:16:12.479   03 Jun 2027 07:16:16.291             3.812           885.938
        59   03 Jun 2027 07:17:40.506   03 Jun 2027 07:17:46.521             6.015          2631.719
        60   03 Jun 2027 07:18:58.427   03 Jun 2027 07:19:05.612             7.185          2040.563
        61   03 Jun 2027 08:49:30.166   03 Jun 2027 08:49:37.601             7.435          2782.219
        62   03 Jun 2027 08:51:38.139   03 Jun 2027 08:51:45.905             7.766          2319.094
        63   03 Jun 2027 08:52:30.806   03 Jun 2027 08:52:34.999             4.193           163.844
        64   03 Jun 2027 08:52:50.860   03 Jun 2027 08:52:51.614             0.754           183.094
        65   03 Jun 2027 08:53:18.576   03 Jun 2027 08:53:20.286             1.710           584.000
        66   03 Jun 2027 08:53:56.999   03 Jun 2027 08:54:02.925             5.926           537.469
        67   03 Jun 2027 08:54:48.739   03 Jun 2027 08:54:50.418             1.679           818.906
        68   03 Jun 2027 08:55:53.079   03 Jun 2027 08:55:58.517             5.438          1415.375
        69   03 Jun 2027 08:56:11.305   03 Jun 2027 08:56:12.190             0.885           152.781
        70   03 Jun 2027 08:56:55.422   03 Jun 2027 08:56:55.991             0.569           284.500
        71   03 Jun 2027 10:26:27.474   03 Jun 2027 10:26:40.886            13.412          6477.219
        72   03 Jun 2027 10:30:02.785   03 Jun 2027 10:30:09.991             7.206          1090.562
        73   03 Jun 2027 10:30:11.490   03 Jun 2027 10:30:15.930             4.440            46.844
        74   03 Jun 2027 10:30:46.012   03 Jun 2027 10:30:48.114             2.102           646.688
        75   03 Jun 2027 10:31:12.845   03 Jun 2027 10:31:18.140             5.295           559.719
        76   03 Jun 2027 10:31:54.702   03 Jun 2027 10:31:56.245             1.543           446.250
        77   03 Jun 2027 10:32:08.773   03 Jun 2027 10:32:09.967             1.194           391.500
        78   03 Jun 2027 10:32:29.258   03 Jun 2027 10:32:30.546             1.288           121.563
        79   04 Jun 2027 04:14:41.449   04 Jun 2027 04:15:02.513            21.064         10532.000
        80   04 Jun 2027 04:15:55.443   04 Jun 2027 04:16:15.427            19.984          9992.000
        81   04 Jun 2027 04:16:29.504   04 Jun 2027 04:16:37.435             7.931          3965.500
        82   04 Jun 2027 04:26:53.754   04 Jun 2027 04:27:33.440            39.686         19843.000
        83   04 Jun 2027 05:48:56.053   04 Jun 2027 05:50:14.866            78.813         39406.500
        84   04 Jun 2027 05:50:59.222   04 Jun 2027 05:51:32.976            33.754         16877.000
        85   04 Jun 2027 05:53:28.295   04 Jun 2027 05:53:28.295             0.000             0.000
        86   04 Jun 2027 05:53:43.335   04 Jun 2027 05:53:43.335             0.000             0.000
        87   04 Jun 2027 05:54:27.552   04 Jun 2027 05:54:31.661             4.109          2054.500
        88   04 Jun 2027 07:23:48.422   04 Jun 2027 07:25:40.868           112.446         56223.000
        89   04 Jun 2027 07:25:48.446   04 Jun 2027 07:25:52.661             4.215           333.656
        90   04 Jun 2027 07:26:59.490   04 Jun 2027 07:26:59.490             0.000             0.000
        91   04 Jun 2027 07:28:02.942   04 Jun 2027 07:28:12.436             9.494          3326.375
        92   04 Jun 2027 07:29:23.890   04 Jun 2027 07:29:31.616             7.726          2232.937
        93   04 Jun 2027 07:30:27.728   04 Jun 2027 07:30:35.076             7.348          1377.156
        94   04 Jun 2027 07:30:42.222   04 Jun 2027 07:30:42.222             0.000             0.000
        95   04 Jun 2027 07:30:44.629   04 Jun 2027 07:30:45.825             1.196           238.313
        96   04 Jun 2027 07:31:32.253   04 Jun 2027 07:31:37.772             5.519          1330.313
        97   04 Jun 2027 07:32:34.497   04 Jun 2027 07:32:36.329             1.832           916.000
        98   04 Jun 2027 09:01:31.585   04 Jun 2027 09:01:39.483             7.898          3660.687
        99   04 Jun 2027 09:02:28.131   04 Jun 2027 09:02:31.092             2.961          1078.500
       100   04 Jun 2027 09:03:47.590   04 Jun 2027 09:03:48.088             0.498            77.469
       101   04 Jun 2027 09:05:05.273   04 Jun 2027 09:05:09.498             4.225          2086.969
       102   04 Jun 2027 09:05:49.982   04 Jun 2027 09:05:52.868             2.886          1192.656
       103   04 Jun 2027 09:06:50.352   04 Jun 2027 09:06:57.849             7.497          1786.469
       104   04 Jun 2027 09:07:09.117   04 Jun 2027 09:07:10.112             0.995            47.500
       105   04 Jun 2027 09:07:32.643   04 Jun 2027 09:07:32.643             0.000             0.000
       106   04 Jun 2027 09:07:36.614   04 Jun 2027 09:07:38.353             1.739           731.031
       107   04 Jun 2027 09:08:29.533   04 Jun 2027 09:08:30.935             1.402           510.156
       108   04 Jun 2027 09:08:44.320   04 Jun 2027 09:08:44.578             0.258            62.562
       109   04 Jun 2027 10:38:19.786   04 Jun 2027 10:38:35.684            15.898          7062.344
       110   04 Jun 2027 10:38:41.642   04 Jun 2027 10:38:43.091             1.449           186.187
       111   04 Jun 2027 10:39:26.957   04 Jun 2027 10:39:27.346             0.389            17.875
       112   04 Jun 2027 10:41:03.305   04 Jun 2027 10:41:09.728             6.423          2075.500
       113   04 Jun 2027 10:42:20.417   04 Jun 2027 10:42:26.107             5.690          1987.406
       114   04 Jun 2027 10:42:32.265   04 Jun 2027 10:42:33.538             1.273           173.500
       115   04 Jun 2027 10:42:39.250   04 Jun 2027 10:42:42.841             3.591           100.563
       116   04 Jun 2027 10:43:10.895   04 Jun 2027 10:43:13.785             2.890           791.938
       117   04 Jun 2027 10:43:14.638   04 Jun 2027 10:43:17.371             2.733            26.656
       118   04 Jun 2027 10:43:46.251   04 Jun 2027 10:43:48.120             1.869           902.500
       119   04 Jun 2027 10:44:38.213   04 Jun 2027 10:44:40.619             2.406           919.281
       120   05 Jun 2027 03:02:38.720   05 Jun 2027 03:03:09.991            31.271         15635.500
       121   05 Jun 2027 03:03:18.591   05 Jun 2027 03:03:58.024            39.433         19716.500
       122   05 Jun 2027 03:04:35.379   05 Jun 2027 03:04:35.379             0.000             0.000
       123   05 Jun 2027 04:26:45.396   05 Jun 2027 04:27:28.979            43.583         21791.500
       124   05 Jun 2027 06:00:31.550   05 Jun 2027 06:03:14.538           162.988         81494.000
       125   05 Jun 2027 06:04:24.026   05 Jun 2027 06:04:27.174             3.148          1574.000
       126   05 Jun 2027 06:04:33.795   05 Jun 2027 06:04:34.599             0.804           402.000
       127   05 Jun 2027 06:04:43.869   05 Jun 2027 06:05:30.715            46.846         21722.375
       128   05 Jun 2027 07:36:32.285   05 Jun 2027 07:36:50.921            18.636          5588.000
       129   05 Jun 2027 07:37:41.726   05 Jun 2027 07:37:45.419             3.693          1204.281
       130   05 Jun 2027 07:38:00.295   05 Jun 2027 07:38:01.483             1.188           266.594
       131   05 Jun 2027 07:38:37.585   05 Jun 2027 07:38:39.094             1.509           735.812
       132   05 Jun 2027 07:39:09.008   05 Jun 2027 07:39:09.649             0.641            93.031
       133   05 Jun 2027 07:40:02.873   05 Jun 2027 07:40:06.553             3.680          1663.250
       134   05 Jun 2027 07:41:23.476   05 Jun 2027 07:41:28.276             4.800          2143.875
       135   05 Jun 2027 07:42:07.221   05 Jun 2027 07:42:09.063             1.842           640.969
       136   05 Jun 2027 07:42:43.451   05 Jun 2027 07:42:43.451             0.000             0.000
       137   05 Jun 2027 07:43:27.637   05 Jun 2027 07:43:32.680             5.043          2455.437
       138   05 Jun 2027 07:44:11.354   05 Jun 2027 07:44:14.542             3.188          1175.000
       139   05 Jun 2027 09:13:35.076   05 Jun 2027 09:13:44.264             9.188          4336.531
       140   05 Jun 2027 09:17:45.960   05 Jun 2027 09:17:55.411             9.451          2632.625
       141   05 Jun 2027 09:19:02.039   05 Jun 2027 09:19:04.702             2.663           476.875
       142   05 Jun 2027 09:19:30.141   05 Jun 2027 09:19:32.837             2.696           742.531
       143   05 Jun 2027 09:20:32.267   05 Jun 2027 09:20:34.750             2.483          1040.500
       144   05 Jun 2027 10:50:29.945   05 Jun 2027 10:50:38.883             8.938          4469.000
       145   05 Jun 2027 10:51:02.842   05 Jun 2027 10:51:08.249             5.407          1375.594
       146   05 Jun 2027 10:52:57.213   05 Jun 2027 10:52:57.952             0.739           342.031
       147   05 Jun 2027 10:54:17.739   05 Jun 2027 10:54:19.814             2.075           776.063
       148   05 Jun 2027 10:54:24.607   05 Jun 2027 10:54:25.754             1.147           149.781
       149   05 Jun 2027 10:54:42.106   05 Jun 2027 10:54:44.364             2.258           511.000
       150   05 Jun 2027 10:55:02.593   05 Jun 2027 10:55:11.795             9.202           569.656
       151   05 Jun 2027 10:55:14.222   05 Jun 2027 10:55:16.154             1.932            75.844
       152   05 Jun 2027 10:55:55.568   05 Jun 2027 10:55:58.586             3.018          1231.688
       153   05 Jun 2027 10:56:28.978   05 Jun 2027 10:56:31.586             2.608           504.313
       154   05 Jun 2027 10:56:39.580   05 Jun 2027 10:56:44.824             5.244           242.219
       155   06 Jun 2027 03:15:15.463   06 Jun 2027 03:17:57.119           161.656         80828.000
       156   06 Jun 2027 03:18:04.155   06 Jun 2027 03:18:10.898             6.743          3371.500
       157   06 Jun 2027 03:18:42.840   06 Jun 2027 03:18:57.845            15.005          7502.500
       158   06 Jun 2027 04:38:40.232   06 Jun 2027 04:38:44.628             4.396          2198.000
       159   06 Jun 2027 04:38:56.617   06 Jun 2027 04:39:18.888            22.271         11135.500
       160   06 Jun 2027 04:40:56.275   06 Jun 2027 04:40:56.275             0.000             0.000
       161   06 Jun 2027 06:14:59.711   06 Jun 2027 06:16:52.446           112.735         55548.094
       162   06 Jun 2027 06:17:22.742   06 Jun 2027 06:17:25.556             2.814           946.750
       163   06 Jun 2027 06:17:32.938   06 Jun 2027 06:17:34.454             1.516           173.031
       164   06 Jun 2027 06:17:41.837   06 Jun 2027 06:17:41.837             0.000             0.000
       165   06 Jun 2027 06:18:01.218   06 Jun 2027 06:18:06.230             5.012           819.031
       166   06 Jun 2027 07:48:29.520   06 Jun 2027 07:48:40.062            10.542          2156.344
       167   06 Jun 2027 07:50:56.229   06 Jun 2027 07:50:58.038             1.809            85.406
       168   06 Jun 2027 07:51:50.781   06 Jun 2027 07:51:54.480             3.699          1486.219
       169   06 Jun 2027 07:52:40.816   06 Jun 2027 07:52:43.755             2.939          1204.781
       170   06 Jun 2027 07:53:48.631   06 Jun 2027 07:53:51.092             2.461           820.000
       171   06 Jun 2027 07:55:13.558   06 Jun 2027 07:55:17.668             4.110          1980.125
       172   06 Jun 2027 07:55:32.386   06 Jun 2027 07:55:32.386             0.000             0.000
       173   06 Jun 2027 07:55:34.883   06 Jun 2027 07:55:38.516             3.633           175.937
       174   06 Jun 2027 07:55:40.678   06 Jun 2027 07:55:44.989             4.311            67.562
       175   06 Jun 2027 07:55:55.735   06 Jun 2027 07:55:56.918             1.183           302.500
       176   06 Jun 2027 07:56:02.944   06 Jun 2027 07:56:04.801             1.857            87.094
       177   06 Jun 2027 07:56:22.641   06 Jun 2027 07:56:25.476             2.835           455.531
       178   06 Jun 2027 09:26:00.941   06 Jun 2027 09:26:18.119            17.178          5089.687
       179   06 Jun 2027 09:28:50.725   06 Jun 2027 09:28:53.237             2.512           889.469
       180   06 Jun 2027 09:29:13.694   06 Jun 2027 09:29:16.377             2.683           135.125
       181   06 Jun 2027 09:29:41.413   06 Jun 2027 09:29:42.852             1.439           211.563
       182   06 Jun 2027 09:31:03.996   06 Jun 2027 09:31:05.434             1.438           633.500
       183   06 Jun 2027 09:31:49.135   06 Jun 2027 09:31:54.172             5.037          1354.000
       184   06 Jun 2027 09:32:18.585   06 Jun 2027 09:32:21.523             2.938           302.750
       185   06 Jun 2027 11:02:57.444   06 Jun 2027 11:03:18.642            21.198          6045.062
       186   06 Jun 2027 11:06:33.402   06 Jun 2027 11:06:37.544             4.142           637.500
       187   06 Jun 2027 11:06:59.130   06 Jun 2027 11:06:59.913             0.783           350.719
       188   06 Jun 2027 11:07:15.630   06 Jun 2027 11:07:16.777             1.147           491.156
       189   06 Jun 2027 11:07:33.775   06 Jun 2027 11:07:39.729             5.954           531.187
       190   06 Jun 2027 11:08:28.890   06 Jun 2027 11:08:38.099             9.209          1536.281
       191   07 Jun 2027 03:26:53.903   07 Jun 2027 03:31:11.143           257.240        128620.000
       192   07 Jun 2027 04:50:31.021   07 Jun 2027 04:50:35.451             4.430          2215.000
       193   07 Jun 2027 04:50:37.475   07 Jun 2027 04:50:50.169            12.694          6347.000
       194   07 Jun 2027 06:27:01.924   07 Jun 2027 06:28:06.913            64.989         31952.688
       195   07 Jun 2027 06:29:03.261   07 Jun 2027 06:29:07.782             4.521          1507.250
       196   07 Jun 2027 06:29:28.564   07 Jun 2027 06:29:33.526             4.962           588.656
       197   07 Jun 2027 06:29:45.104   07 Jun 2027 06:29:47.802             2.698           318.063
       198   07 Jun 2027 08:01:09.137   07 Jun 2027 08:01:14.499             5.362          2288.187
       199   07 Jun 2027 08:03:07.575   07 Jun 2027 08:03:08.344             0.769           378.031
       200   07 Jun 2027 08:03:52.450   07 Jun 2027 08:03:56.130             3.680          1243.187
       201   07 Jun 2027 08:05:20.495   07 Jun 2027 08:05:26.358             5.863          1656.125
       202   07 Jun 2027 08:05:52.372   07 Jun 2027 08:05:57.109             4.737           635.531
       203   07 Jun 2027 08:06:54.407   07 Jun 2027 08:07:00.310             5.903          1355.500
       204   07 Jun 2027 08:07:18.027   07 Jun 2027 08:07:21.830             3.803            88.437
       205   07 Jun 2027 08:07:35.739   07 Jun 2027 08:07:35.739             0.000             0.000
       206   07 Jun 2027 08:07:53.385   07 Jun 2027 08:07:55.320             1.935           556.125
       207   07 Jun 2027 08:08:36.890   07 Jun 2027 08:08:40.585             3.695          1233.844
       208   07 Jun 2027 08:08:55.118   07 Jun 2027 08:08:55.814             0.696           164.844
       209   07 Jun 2027 09:38:07.364   07 Jun 2027 09:38:20.262            12.898          5319.094
       210   07 Jun 2027 09:41:33.488   07 Jun 2027 09:41:36.750             3.262            89.250
       211   07 Jun 2027 09:41:47.684   07 Jun 2027 09:41:51.946             4.262           341.625
       212   07 Jun 2027 09:42:56.526   07 Jun 2027 09:43:00.250             3.724          1666.875
       213   07 Jun 2027 09:44:05.349   07 Jun 2027 09:44:09.508             4.159          1664.875
       214   07 Jun 2027 09:44:46.305   07 Jun 2027 09:44:48.577             2.272           878.656
       215   07 Jun 2027 11:15:47.745   07 Jun 2027 11:16:05.042            17.297          6697.219
       216   07 Jun 2027 11:17:31.064   07 Jun 2027 11:17:33.803             2.739          1258.500
       217   07 Jun 2027 11:18:09.667   07 Jun 2027 11:18:15.488             5.821           625.188
       218   07 Jun 2027 11:18:32.622   07 Jun 2027 11:18:35.203             2.581           535.437
       219   07 Jun 2027 11:19:22.511   07 Jun 2027 11:19:26.400             3.889          1133.812
       220   08 Jun 2027 03:39:21.579   08 Jun 2027 03:39:44.626            23.047         11523.500
       221   08 Jun 2027 03:40:07.110   08 Jun 2027 03:42:58.741           171.631         85815.500
       222   08 Jun 2027 03:43:13.995   08 Jun 2027 03:43:13.995             0.000             0.000
       223   08 Jun 2027 05:02:40.627   08 Jun 2027 05:02:58.367            17.740          8870.000
       224   08 Jun 2027 05:03:18.119   08 Jun 2027 05:03:22.835             4.716          2358.000
       225   08 Jun 2027 05:04:20.246   08 Jun 2027 05:04:27.322             7.076          3538.000
       226   08 Jun 2027 05:04:39.253   08 Jun 2027 05:04:39.253             0.000             0.000
       227   08 Jun 2027 05:05:33.381   08 Jun 2027 05:05:46.150            12.769          6384.500
       228   08 Jun 2027 06:39:11.355   08 Jun 2027 06:40:26.077            74.722         37160.719
       229   08 Jun 2027 06:41:06.456   08 Jun 2027 06:41:08.629             2.173          1086.500
       230   08 Jun 2027 06:41:19.990   08 Jun 2027 06:41:19.990             0.000             0.000
       231   08 Jun 2027 06:41:36.652   08 Jun 2027 06:41:40.321             3.669          1051.062
       232   08 Jun 2027 08:14:21.341   08 Jun 2027 08:14:31.298             9.957          2347.594
       233   08 Jun 2027 08:14:45.117   08 Jun 2027 08:14:49.673             4.556            56.000
       234   08 Jun 2027 08:15:53.760   08 Jun 2027 08:15:54.432             0.672           123.156
       235   08 Jun 2027 08:17:17.492   08 Jun 2027 08:17:20.196             2.704          1237.063
       236   08 Jun 2027 08:18:18.395   08 Jun 2027 08:18:24.101             5.706          1081.406
       237   08 Jun 2027 08:19:35.798   08 Jun 2027 08:19:43.460             7.662          2240.531
       238   08 Jun 2027 08:20:18.354   08 Jun 2027 08:20:19.606             1.252           530.875
       239   08 Jun 2027 08:20:41.565   08 Jun 2027 08:20:43.233             1.668           414.750
       240   08 Jun 2027 09:50:43.560   08 Jun 2027 09:50:59.160            15.600          4118.438
       241   08 Jun 2027 09:53:53.428   08 Jun 2027 09:53:55.785             2.357           813.781
       242   08 Jun 2027 09:54:39.124   08 Jun 2027 09:54:45.331             6.207          1354.344
       243   08 Jun 2027 09:55:58.532   08 Jun 2027 09:56:01.638             3.106          1282.469
       244   08 Jun 2027 11:28:00.183   08 Jun 2027 11:28:16.852            16.669          6017.531
       245   08 Jun 2027 11:28:57.799   08 Jun 2027 11:29:00.938             3.139           465.625
       246   08 Jun 2027 11:30:08.401   08 Jun 2027 11:30:13.244             4.843          1032.469
       247   08 Jun 2027 11:30:58.882   08 Jun 2027 11:31:05.066             6.184           331.719
       248   08 Jun 2027 11:31:14.979   08 Jun 2027 11:31:17.657             2.678           230.187
       249   08 Jun 2027 11:32:07.616   08 Jun 2027 11:32:11.970             4.354          1095.063
       250   08 Jun 2027 11:32:33.345   08 Jun 2027 11:32:36.341             2.996           457.781
       251   09 Jun 2027 03:51:15.209   09 Jun 2027 03:51:52.328            37.119         18559.500
       252   09 Jun 2027 03:52:21.731   09 Jun 2027 03:54:38.506           136.775         68387.500
       253   09 Jun 2027 05:15:20.561   09 Jun 2027 05:15:42.922            22.361         11180.500
       254   09 Jun 2027 05:16:00.567   09 Jun 2027 05:16:19.004            18.437          9218.500
       255   09 Jun 2027 05:17:35.228   09 Jun 2027 05:17:36.286             1.058           529.000
       256   09 Jun 2027 06:51:06.091   09 Jun 2027 06:52:46.017            99.926         49815.875
       257   09 Jun 2027 06:53:09.242   09 Jun 2027 06:53:11.197             1.955           725.781
       258   09 Jun 2027 06:54:18.466   09 Jun 2027 06:54:20.254             1.788           894.000
       259   09 Jun 2027 06:54:33.889   09 Jun 2027 06:54:36.900             3.011          1046.062
       260   09 Jun 2027 08:26:03.399   09 Jun 2027 08:26:09.112             5.713          2261.656
       261   09 Jun 2027 08:27:54.666   09 Jun 2027 08:28:00.628             5.962          2322.656
       262   09 Jun 2027 08:28:39.970   09 Jun 2027 08:28:46.261             6.291          1189.688
       263   09 Jun 2027 08:29:05.052   09 Jun 2027 08:29:05.114             0.062            31.000
       264   09 Jun 2027 08:29:13.571   09 Jun 2027 08:29:13.571             0.000             0.000
       265   09 Jun 2027 08:29:57.253   09 Jun 2027 08:30:02.607             5.354          2030.344
       266   09 Jun 2027 08:32:33.942   09 Jun 2027 08:32:43.679             9.737          3969.188
       267   09 Jun 2027 08:33:04.366   09 Jun 2027 08:33:05.099             0.733           153.750
       268   09 Jun 2027 10:02:15.942   09 Jun 2027 10:02:26.006            10.064          4903.469
       269   09 Jun 2027 10:04:55.702   09 Jun 2027 10:04:58.302             2.600           882.594
       270   09 Jun 2027 10:05:49.406   09 Jun 2027 10:05:51.382             1.976           848.750
       271   09 Jun 2027 10:06:43.923   09 Jun 2027 10:06:46.845             2.922           904.125
       272   09 Jun 2027 10:07:22.112   09 Jun 2027 10:07:24.920             2.808          1079.031
       273   09 Jun 2027 10:07:52.610   09 Jun 2027 10:07:54.815             2.205           440.406
       274   09 Jun 2027 11:40:17.126   09 Jun 2027 11:40:29.247            12.121          5436.281
       275   09 Jun 2027 11:42:54.633   09 Jun 2027 11:42:57.271             2.638           210.000
       276   09 Jun 2027 11:44:20.445   09 Jun 2027 11:44:24.288             3.843          1592.063
       277   10 Jun 2027 03:52:06.428   10 Jun 2027 03:52:31.506            25.078         12539.000
       278   10 Jun 2027 04:03:11.132   10 Jun 2027 04:04:54.599           103.467         51733.500
       279   10 Jun 2027 04:05:05.239   10 Jun 2027 04:05:51.824            46.585         23292.500
       280   10 Jun 2027 05:26:09.466   10 Jun 2027 05:26:56.140            46.674         23337.000
       281   10 Jun 2027 07:01:41.831   10 Jun 2027 07:01:49.970             8.139          4069.500
       282   10 Jun 2027 07:02:52.079   10 Jun 2027 07:04:43.508           111.429         54126.031
       283   10 Jun 2027 07:05:39.101   10 Jun 2027 07:05:42.074             2.973          1444.063
       284   10 Jun 2027 07:07:05.320   10 Jun 2027 07:07:11.521             6.201          2585.094
       285   10 Jun 2027 07:07:16.778   10 Jun 2027 07:07:17.805             1.027           107.625
       286   10 Jun 2027 08:37:37.035   10 Jun 2027 08:37:43.738             6.703          1793.938
       287   10 Jun 2027 08:38:39.743   10 Jun 2027 08:38:43.169             3.426           888.125
       288   10 Jun 2027 08:40:54.769   10 Jun 2027 08:41:02.294             7.525           687.594
       289   10 Jun 2027 08:41:41.842   10 Jun 2027 08:41:45.826             3.984          1068.937
       290   10 Jun 2027 08:42:32.323   10 Jun 2027 08:42:36.029             3.706          1031.562
       291   10 Jun 2027 08:43:05.353   10 Jun 2027 08:43:07.963             2.610           569.938
       292   10 Jun 2027 08:43:44.841   10 Jun 2027 08:43:47.679             2.838           705.156
       293   10 Jun 2027 08:44:34.791   10 Jun 2027 08:44:36.191             1.400           592.719
       294   10 Jun 2027 10:14:37.925   10 Jun 2027 10:14:52.930            15.005          7053.875
       295   10 Jun 2027 10:18:12.382   10 Jun 2027 10:18:15.540             3.158           325.031
       296   10 Jun 2027 10:18:37.794   10 Jun 2027 10:18:41.168             3.374           695.438
       297   10 Jun 2027 10:19:09.758   10 Jun 2027 10:19:10.813             1.055           219.344
       298   10 Jun 2027 10:19:25.967   10 Jun 2027 10:19:27.954             1.987           227.750
       299   10 Jun 2027 10:19:33.045   10 Jun 2027 10:19:33.535             0.490            41.844
       300   10 Jun 2027 11:52:38.513   10 Jun 2027 11:52:50.905            12.392          5238.500
       301   10 Jun 2027 11:53:39.239   10 Jun 2027 11:53:41.604             2.365           930.562
       302   10 Jun 2027 11:56:00.658   10 Jun 2027 11:56:07.077             6.419          1882.938
       303   10 Jun 2027 11:56:16.405   10 Jun 2027 11:56:17.826             1.421           281.594
       304   11 Jun 2027 04:03:30.278   11 Jun 2027 04:03:42.792            12.514          6257.000
       305   11 Jun 2027 04:04:48.445   11 Jun 2027 04:04:55.330             6.885          3442.500
       306   11 Jun 2027 04:15:12.620   11 Jun 2027 04:16:32.829            80.209         40104.500
       307   11 Jun 2027 05:37:25.840   11 Jun 2027 05:38:39.584            73.744         36872.000
       308   11 Jun 2027 05:39:27.230   11 Jun 2027 05:39:54.290            27.060         13530.000
       309   11 Jun 2027 05:41:41.818   11 Jun 2027 05:41:50.460             8.642          4321.000
       310   11 Jun 2027 05:42:00.596   11 Jun 2027 05:42:00.596             0.000             0.000
       311   11 Jun 2027 07:12:33.558   11 Jun 2027 07:14:07.742            94.184         47092.000
       312   11 Jun 2027 07:14:35.257   11 Jun 2027 07:15:06.246            30.989         15047.032
       313   11 Jun 2027 07:16:19.456   11 Jun 2027 07:16:27.109             7.653          2184.250
       314   11 Jun 2027 07:17:39.725   11 Jun 2027 07:17:48.098             8.373          2210.719
       315   11 Jun 2027 07:18:11.058   11 Jun 2027 07:18:11.058             0.000             0.000
       316   11 Jun 2027 07:18:23.706   11 Jun 2027 07:18:24.408             0.702           351.000
       317   11 Jun 2027 07:18:43.795   11 Jun 2027 07:18:46.503             2.708          1331.250
       318   11 Jun 2027 07:19:05.809   11 Jun 2027 07:19:07.109             1.300           107.563
       319   11 Jun 2027 08:49:46.095   11 Jun 2027 08:49:54.721             8.626          2611.219
       320   11 Jun 2027 08:52:39.729   11 Jun 2027 08:52:43.408             3.679            68.344
       321   11 Jun 2027 08:53:39.409   11 Jun 2027 08:53:43.699             4.290          1655.406
       322   11 Jun 2027 08:54:34.985   11 Jun 2027 08:54:39.864             4.879           706.844
       323   11 Jun 2027 08:55:07.807   11 Jun 2027 08:55:11.026             3.219           856.375
       324   11 Jun 2027 08:56:12.031   11 Jun 2027 08:56:16.446             4.415          1532.406
       325   11 Jun 2027 08:57:11.277   11 Jun 2027 08:57:11.868             0.591           295.500
       326   11 Jun 2027 10:26:43.162   11 Jun 2027 10:26:56.747            13.585          6398.688
       327   11 Jun 2027 10:30:21.327   11 Jun 2027 10:30:24.775             3.448          1187.281
       328   11 Jun 2027 10:30:31.009   11 Jun 2027 10:30:32.360             1.351           194.812
       329   11 Jun 2027 10:30:41.687   11 Jun 2027 10:30:44.361             2.674           291.469
       330   11 Jun 2027 10:31:29.043   11 Jun 2027 10:31:35.390             6.347           844.031
       331   11 Jun 2027 10:32:08.886   11 Jun 2027 10:32:12.979             4.093           373.844
       332   11 Jun 2027 10:32:46.201   11 Jun 2027 10:32:49.785             3.584           770.406
       333   12 Jun 2027 04:14:57.858   12 Jun 2027 04:15:45.633            47.775         23887.500
       334   12 Jun 2027 04:27:09.464   12 Jun 2027 04:27:48.677            39.213         19606.500
       335   12 Jun 2027 05:49:11.147   12 Jun 2027 05:50:32.048            80.901         40450.500
       336   12 Jun 2027 05:51:14.465   12 Jun 2027 05:51:31.211            16.746          8373.000
       337   12 Jun 2027 05:53:47.643   12 Jun 2027 05:53:53.331             5.688          2844.000
       338   12 Jun 2027 07:24:03.107   12 Jun 2027 07:26:11.253           128.146         63807.812
       339   12 Jun 2027 07:28:19.808   12 Jun 2027 07:28:28.897             9.089          3361.219
       340   12 Jun 2027 07:29:39.855   12 Jun 2027 07:29:47.383             7.528          2211.469
       341   12 Jun 2027 07:30:43.622   12 Jun 2027 07:30:49.812             6.190          1320.531
       342   12 Jun 2027 07:30:58.404   12 Jun 2027 07:31:01.062             2.658           150.719
       343   12 Jun 2027 07:31:04.648   12 Jun 2027 07:31:05.854             1.206           112.063
       344   12 Jun 2027 07:32:19.011   12 Jun 2027 07:32:21.856             2.845          1388.156
       345   12 Jun 2027 09:01:48.117   12 Jun 2027 09:01:57.363             9.246          4139.969
       346   12 Jun 2027 09:03:54.197   12 Jun 2027 09:03:59.439             5.242          2130.281
       347   12 Jun 2027 09:06:05.469   12 Jun 2027 09:06:08.035             2.566          1217.656
       348   12 Jun 2027 09:07:07.491   12 Jun 2027 09:07:12.855             5.364          1851.812
       349   12 Jun 2027 09:07:25.291   12 Jun 2027 09:07:25.910             0.619            78.656
       350   12 Jun 2027 09:07:51.211   12 Jun 2027 09:07:53.248             2.037            12.813
       351   12 Jun 2027 09:09:00.609   12 Jun 2027 09:09:03.784             3.175          1023.531
       352   12 Jun 2027 10:38:35.869   12 Jun 2027 10:38:50.870            15.001          7259.437
       353   12 Jun 2027 10:38:58.296   12 Jun 2027 10:38:59.337             1.041           232.063
       354   12 Jun 2027 10:40:10.441   12 Jun 2027 10:40:13.462             3.021           823.250
       355   12 Jun 2027 10:41:54.012   12 Jun 2027 10:41:57.512             3.500          1716.781
       356   12 Jun 2027 10:42:50.037   12 Jun 2027 10:42:51.545             1.508           534.875
       357   12 Jun 2027 10:42:55.378   12 Jun 2027 10:42:56.248             0.870           119.781
       358   12 Jun 2027 10:44:26.299   12 Jun 2027 10:44:29.455             3.156          1578.000
       359   12 Jun 2027 10:44:37.900   12 Jun 2027 10:44:43.213             5.313           887.250
       360   12 Jun 2027 10:45:08.719   12 Jun 2027 10:45:15.819             7.100           743.750
       361   13 Jun 2027 03:02:54.940   13 Jun 2027 03:03:24.838            29.898         14949.000
       362   13 Jun 2027 03:03:35.803   13 Jun 2027 03:03:38.661             2.858          1429.000
       363   13 Jun 2027 03:04:14.712   13 Jun 2027 03:04:24.172             9.460          4730.000
       364   13 Jun 2027 03:04:43.160   13 Jun 2027 03:04:52.183             9.023          4511.500
       365   13 Jun 2027 03:05:51.651   13 Jun 2027 03:06:11.306            19.655          9827.500
       366   13 Jun 2027 04:27:00.974   13 Jun 2027 04:27:43.639            42.665         21332.500
       367   13 Jun 2027 04:29:02.465   13 Jun 2027 04:29:04.594             2.129          1064.500
       368   13 Jun 2027 06:02:58.122   13 Jun 2027 06:06:16.233           198.111         99055.500
       369   13 Jun 2027 07:36:47.994   13 Jun 2027 07:37:06.844            18.850          9255.374
       370   13 Jun 2027 07:38:09.758   13 Jun 2027 07:38:10.561             0.803           366.594
       371   13 Jun 2027 07:38:23.748   13 Jun 2027 07:38:25.873             2.125           221.062
       372   13 Jun 2027 07:39:24.260   13 Jun 2027 07:39:25.459             1.199            52.563
       373   13 Jun 2027 07:40:19.702   13 Jun 2027 07:40:23.364             3.662          1615.031
       374   13 Jun 2027 07:41:39.410   13 Jun 2027 07:41:46.423             7.013          2116.719
       375   13 Jun 2027 07:42:23.293   13 Jun 2027 07:42:26.591             3.298           590.344
       376   13 Jun 2027 07:43:01.760   13 Jun 2027 07:43:01.760             0.000             0.000
       377   13 Jun 2027 07:43:46.097   13 Jun 2027 07:43:53.725             7.628          2484.563
       378   13 Jun 2027 07:44:17.204   13 Jun 2027 07:44:18.405             1.201           592.844
       379   13 Jun 2027 09:13:51.188   13 Jun 2027 09:14:04.318            13.130          6074.469
       380   13 Jun 2027 09:16:36.927   13 Jun 2027 09:16:39.713             2.786          1384.031
       381   13 Jun 2027 09:18:01.658   13 Jun 2027 09:18:03.454             1.796           524.031
       382   13 Jun 2027 09:19:26.606   13 Jun 2027 09:19:32.651             6.045          1527.375
       383   13 Jun 2027 09:20:34.877   13 Jun 2027 09:20:38.707             3.830          1606.406
       384   13 Jun 2027 09:20:47.288   13 Jun 2027 09:20:48.659             1.371           110.906
       385   13 Jun 2027 09:21:05.702   13 Jun 2027 09:21:11.771             6.069           384.562
       386   13 Jun 2027 10:50:45.585   13 Jun 2027 10:50:58.231            12.646          5889.375
       387   13 Jun 2027 10:51:19.254   13 Jun 2027 10:51:21.765             2.511           607.687
       388   13 Jun 2027 10:53:11.272   13 Jun 2027 10:53:12.491             1.219           240.750
       389   13 Jun 2027 10:53:42.505   13 Jun 2027 10:53:43.709             1.204           380.281
       390   13 Jun 2027 10:54:33.260   13 Jun 2027 10:54:34.955             1.695           772.719
       391   13 Jun 2027 10:54:40.377   13 Jun 2027 10:54:41.439             1.062           152.750
       392   13 Jun 2027 10:55:27.585   13 Jun 2027 10:55:32.790             5.205           918.031
       393   13 Jun 2027 10:56:32.660   13 Jun 2027 10:56:39.455             6.795          1870.938
