uniorb/output/strategy_4/Camera/Camera_KinoSat_110908.txt

KinoSat_110908
-------------------------
    Access    *     Start Time (UTCG)     *     Stop Time (UTCG)  *   Duration (s) *   Data (Mbytes)
         1   01 Jun 2027 03:02:26.704   01 Jun 2027 03:02:47.840            21.136         10568.000
         2   01 Jun 2027 03:03:27.938   01 Jun 2027 03:03:51.803            23.865         11932.500
         3   01 Jun 2027 03:04:13.851   01 Jun 2027 03:04:13.851             0.000             0.000
         4   01 Jun 2027 03:14:56.145   01 Jun 2027 03:15:06.979            10.834          5417.000
         5   01 Jun 2027 04:36:16.670   01 Jun 2027 04:37:57.811           101.141         50570.500
         6   01 Jun 2027 04:38:02.266   01 Jun 2027 04:38:13.295            11.029          5514.500
         7   01 Jun 2027 04:40:40.623   01 Jun 2027 04:40:52.644            12.021          6010.500
         8   01 Jun 2027 04:40:59.121   01 Jun 2027 04:41:05.519             6.398          3199.000
         9   01 Jun 2027 06:11:10.603   01 Jun 2027 06:12:41.550            90.947         45473.500
        10   01 Jun 2027 06:14:58.854   01 Jun 2027 06:15:03.252             4.398          2199.000
        11   01 Jun 2027 06:15:27.437   01 Jun 2027 06:15:39.793            12.356          6178.000
        12   01 Jun 2027 06:16:07.617   01 Jun 2027 06:16:07.617             0.000             0.000
        13   01 Jun 2027 06:17:23.410   01 Jun 2027 06:17:26.981             3.571          1785.500
        14   01 Jun 2027 06:17:52.109   01 Jun 2027 06:17:58.414             6.305          3152.500
        15   01 Jun 2027 06:18:20.760   01 Jun 2027 06:18:24.744             3.984          1992.000
        16   01 Jun 2027 06:20:07.179   01 Jun 2027 06:20:09.030             1.851           925.500
        17   01 Jun 2027 06:20:28.780   01 Jun 2027 06:20:34.120             5.340          2670.000
        18   01 Jun 2027 07:49:13.522   01 Jun 2027 07:50:49.119            95.597         47798.500
        19   01 Jun 2027 07:51:14.437   01 Jun 2027 07:51:52.422            37.985         18992.500
        20   01 Jun 2027 07:53:45.997   01 Jun 2027 07:53:55.291             9.294          4647.000
        21   01 Jun 2027 09:26:06.901   01 Jun 2027 09:29:24.013           197.112         98556.000
        22   01 Jun 2027 09:32:14.129   01 Jun 2027 09:32:21.030             6.901          3450.500
        23   01 Jun 2027 11:03:17.231   01 Jun 2027 11:05:41.161           143.930         71965.000
        24   01 Jun 2027 11:06:40.416   01 Jun 2027 11:06:53.671            13.255          6627.500
        25   02 Jun 2027 03:14:24.413   02 Jun 2027 03:14:28.251             3.838          1919.000
        26   02 Jun 2027 03:15:13.663   02 Jun 2027 03:15:28.659            14.996          7498.000
        27   02 Jun 2027 04:50:35.204   02 Jun 2027 04:53:17.033           161.829         80914.500
        28   02 Jun 2027 04:53:41.781   02 Jun 2027 04:53:45.871             4.090          2045.000
        29   02 Jun 2027 06:24:08.720   02 Jun 2027 06:28:09.797           241.077        120538.500
        30   02 Jun 2027 06:28:35.032   02 Jun 2027 06:28:52.195            17.163          8581.500
        31   02 Jun 2027 06:32:41.319   02 Jun 2027 06:32:42.411             1.092           546.000
        32   02 Jun 2027 08:01:35.469   02 Jun 2027 08:04:40.267           184.798         92399.000
        33   02 Jun 2027 08:05:05.316   02 Jun 2027 08:05:15.450            10.134          5067.000
        34   02 Jun 2027 08:06:39.792   02 Jun 2027 08:06:47.336             7.544          3772.000
        35   02 Jun 2027 08:07:12.801   02 Jun 2027 08:07:13.408             0.607           303.500
        36   02 Jun 2027 09:38:36.030   02 Jun 2027 09:39:10.789            34.759         17131.375
        37   02 Jun 2027 09:42:31.941   02 Jun 2027 09:42:33.069             1.128           183.594
        38   02 Jun 2027 09:42:55.328   02 Jun 2027 09:43:02.381             7.053           607.187
        39   02 Jun 2027 09:43:55.123   02 Jun 2027 09:44:04.095             8.972          1648.188
        40   02 Jun 2027 11:15:30.143   02 Jun 2027 11:15:44.976            14.833          6808.531
        41   02 Jun 2027 11:18:34.627   02 Jun 2027 11:18:38.228             3.601           674.156
        42   02 Jun 2027 11:19:58.208   02 Jun 2027 11:20:02.811             4.603          2179.000
        43   02 Jun 2027 11:20:07.096   02 Jun 2027 11:20:07.613             0.517            55.344
        44   03 Jun 2027 03:26:13.995   03 Jun 2027 03:26:29.581            15.586          7793.000
        45   03 Jun 2027 03:28:21.309   03 Jun 2027 03:28:25.028             3.719          1859.500
        46   03 Jun 2027 05:02:40.972   03 Jun 2027 05:03:48.082            67.110         33555.000
        47   03 Jun 2027 05:04:52.331   03 Jun 2027 05:05:07.606            15.275          7637.500
        48   03 Jun 2027 05:05:33.032   03 Jun 2027 05:06:14.158            41.126         20563.000
        49   03 Jun 2027 06:34:52.034   03 Jun 2027 06:35:00.024             7.990          3995.000
        50   03 Jun 2027 06:36:47.540   03 Jun 2027 06:39:22.601           155.061         77097.625
        51   03 Jun 2027 06:40:14.294   03 Jun 2027 06:40:15.826             1.532           766.000
        52   03 Jun 2027 06:40:37.789   03 Jun 2027 06:40:40.162             2.373          1171.500
        53   03 Jun 2027 06:41:11.340   03 Jun 2027 06:41:14.282             2.942           648.094
        54   03 Jun 2027 06:41:31.796   03 Jun 2027 06:41:37.908             6.112           195.688
        55   03 Jun 2027 06:42:11.004   03 Jun 2027 06:42:12.039             1.035           517.500
        56   03 Jun 2027 06:42:31.681   03 Jun 2027 06:42:42.887            11.206          1130.563
        57   03 Jun 2027 06:43:05.238   03 Jun 2027 06:43:07.319             2.081           491.875
        58   03 Jun 2027 06:43:46.409   03 Jun 2027 06:43:50.118             3.709           485.781
        59   03 Jun 2027 06:44:36.871   03 Jun 2027 06:44:36.905             0.034            17.000
        60   03 Jun 2027 08:13:45.375   03 Jun 2027 08:13:49.737             4.362          2178.469
        61   03 Jun 2027 08:16:12.240   03 Jun 2027 08:16:15.386             3.146          1003.062
        62   03 Jun 2027 08:16:44.600   03 Jun 2027 08:16:50.396             5.796           703.063
        63   03 Jun 2027 08:17:01.150   03 Jun 2027 08:17:01.854             0.704           336.062
        64   03 Jun 2027 08:18:21.496   03 Jun 2027 08:18:23.498             2.002           849.813
        65   03 Jun 2027 08:19:25.542   03 Jun 2027 08:19:29.071             3.529          1675.094
        66   03 Jun 2027 08:19:55.325   03 Jun 2027 08:19:56.894             1.569           697.781
        67   03 Jun 2027 09:51:00.247   03 Jun 2027 09:51:15.385            15.138          6738.469
        68   03 Jun 2027 09:52:21.354   03 Jun 2027 09:52:23.091             1.737           602.844
        69   03 Jun 2027 09:54:09.887   03 Jun 2027 09:54:14.653             4.766            10.281
        70   03 Jun 2027 09:54:55.750   03 Jun 2027 09:54:59.796             4.046          1284.281
        71   03 Jun 2027 09:55:19.606   03 Jun 2027 09:55:22.636             3.030           571.031
        72   03 Jun 2027 09:55:42.186   03 Jun 2027 09:55:47.942             5.756           222.844
        73   03 Jun 2027 11:27:30.410   03 Jun 2027 11:27:47.747            17.337          7702.719
        74   03 Jun 2027 11:30:08.354   03 Jun 2027 11:30:12.988             4.634           663.500
        75   03 Jun 2027 11:31:40.539   03 Jun 2027 11:31:46.512             5.973          2378.813
        76   03 Jun 2027 11:32:10.949   03 Jun 2027 11:32:13.322             2.373           411.781
        77   04 Jun 2027 03:38:21.717   04 Jun 2027 03:38:35.211            13.494          6747.000
        78   04 Jun 2027 05:15:08.006   04 Jun 2027 05:18:28.737           200.731        100365.500
        79   04 Jun 2027 06:50:00.181   04 Jun 2027 06:51:20.185            80.004         38952.781
        80   04 Jun 2027 06:51:48.884   04 Jun 2027 06:51:56.927             8.043           185.844
        81   04 Jun 2027 06:52:49.726   04 Jun 2027 06:52:54.363             4.637           561.344
        82   04 Jun 2027 06:52:58.200   04 Jun 2027 06:52:59.346             1.146            79.219
        83   04 Jun 2027 06:53:27.508   04 Jun 2027 06:53:33.538             6.030           602.781
        84   04 Jun 2027 06:53:40.015   04 Jun 2027 06:53:40.015             0.000             0.000
        85   04 Jun 2027 06:54:49.991   04 Jun 2027 06:54:55.761             5.770          2318.844
        86   04 Jun 2027 06:56:01.275   04 Jun 2027 06:56:05.546             4.271          1652.344
        87   04 Jun 2027 06:56:14.948   04 Jun 2027 06:56:18.904             3.956           184.656
        88   04 Jun 2027 08:26:19.529   04 Jun 2027 08:26:25.273             5.744          2428.187
        89   04 Jun 2027 08:28:05.284   04 Jun 2027 08:28:08.007             2.723           189.938
        90   04 Jun 2027 08:28:47.141   04 Jun 2027 08:28:50.380             3.239          1075.969
        91   04 Jun 2027 08:29:32.412   04 Jun 2027 08:29:32.938             0.526           216.969
        92   04 Jun 2027 08:31:02.514   04 Jun 2027 08:31:05.762             3.248          1094.969
        93   04 Jun 2027 08:31:39.355   04 Jun 2027 08:31:41.720             2.365           487.000
        94   04 Jun 2027 10:03:43.482   04 Jun 2027 10:03:54.471            10.989          5036.344
        95   04 Jun 2027 10:05:28.024   04 Jun 2027 10:05:29.061             1.037           186.594
        96   04 Jun 2027 10:06:16.010   04 Jun 2027 10:06:17.145             1.135           561.219
        97   04 Jun 2027 10:07:03.998   04 Jun 2027 10:07:06.586             2.588           623.219
        98   04 Jun 2027 10:07:24.233   04 Jun 2027 10:07:33.107             8.874           430.094
        99   04 Jun 2027 10:08:02.968   04 Jun 2027 10:08:07.322             4.354           933.156
       100   04 Jun 2027 11:39:55.511   04 Jun 2027 11:40:07.984            12.473          6209.656
       101   04 Jun 2027 11:41:40.856   04 Jun 2027 11:41:45.062             4.206            33.281
       102   05 Jun 2027 03:50:23.206   05 Jun 2027 03:50:31.178             7.972          3986.000
       103   05 Jun 2027 03:50:53.093   05 Jun 2027 03:50:57.919             4.826          2413.000
       104   05 Jun 2027 03:52:30.312   05 Jun 2027 03:52:30.312             0.000             0.000
       105   05 Jun 2027 03:52:58.523   05 Jun 2027 03:53:00.886             2.363          1181.500
       106   05 Jun 2027 03:53:20.111   05 Jun 2027 03:53:28.845             8.734          4367.000
       107   05 Jun 2027 05:26:51.329   05 Jun 2027 05:30:01.706           190.377         95188.500
       108   05 Jun 2027 07:02:03.970   05 Jun 2027 07:03:35.810            91.840         43633.656
       109   05 Jun 2027 07:04:38.119   05 Jun 2027 07:04:42.054             3.935          1394.813
       110   05 Jun 2027 07:04:44.595   05 Jun 2027 07:04:46.284             1.689            79.406
       111   05 Jun 2027 07:05:10.583   05 Jun 2027 07:05:10.583             0.000             0.000
       112   05 Jun 2027 07:05:36.071   05 Jun 2027 07:05:38.692             2.621          1082.062
       113   05 Jun 2027 07:06:24.759   05 Jun 2027 07:06:25.242             0.483           152.531
       114   05 Jun 2027 07:06:34.800   05 Jun 2027 07:06:39.418             4.618           298.688
       115   05 Jun 2027 07:07:11.472   05 Jun 2027 07:07:11.472             0.000             0.000
       116   05 Jun 2027 07:07:53.317   05 Jun 2027 07:07:57.333             4.016          1979.250
       117   05 Jun 2027 07:08:19.324   05 Jun 2027 07:08:22.886             3.562           589.656
       118   05 Jun 2027 08:37:58.924   05 Jun 2027 08:38:09.427            10.503          4491.750
       119   05 Jun 2027 08:39:51.562   05 Jun 2027 08:39:55.163             3.601          1417.750
       120   05 Jun 2027 08:40:43.729   05 Jun 2027 08:40:47.136             3.407          1277.281
       121   05 Jun 2027 08:41:06.185   05 Jun 2027 08:41:07.240             1.055           526.719
       122   05 Jun 2027 08:41:55.039   05 Jun 2027 08:41:58.456             3.417           450.500
       123   05 Jun 2027 08:43:23.395   05 Jun 2027 08:43:33.336             9.941          2267.781
       124   05 Jun 2027 08:43:42.257   05 Jun 2027 08:43:49.048             6.791           249.844
       125   05 Jun 2027 10:15:56.029   05 Jun 2027 10:16:09.122            13.093          6413.219
       126   05 Jun 2027 10:17:20.331   05 Jun 2027 10:17:24.860             4.529           911.063
       127   05 Jun 2027 10:18:16.737   05 Jun 2027 10:18:19.196             2.459           373.281
       128   05 Jun 2027 10:19:44.320   05 Jun 2027 10:19:50.525             6.205           668.906
       129   05 Jun 2027 10:19:58.124   05 Jun 2027 10:19:58.282             0.158            38.719
       130   05 Jun 2027 10:20:17.126   05 Jun 2027 10:20:18.178             1.052           342.656
       131   05 Jun 2027 11:51:49.309   05 Jun 2027 11:51:59.937            10.628          4504.250
       132   06 Jun 2027 04:02:49.603   06 Jun 2027 04:03:03.034            13.431          6715.500
       133   06 Jun 2027 04:03:33.561   06 Jun 2027 04:03:37.445             3.884          1942.000
       134   06 Jun 2027 04:04:32.714   06 Jun 2027 04:04:47.641            14.927          7463.500
       135   06 Jun 2027 04:05:28.403   06 Jun 2027 04:05:30.016             1.613           806.500
       136   06 Jun 2027 05:38:34.551   06 Jun 2027 05:41:07.756           153.205         76602.500
       137   06 Jun 2027 05:42:07.113   06 Jun 2027 05:42:43.715            36.602         18301.000
       138   06 Jun 2027 07:13:18.385   06 Jun 2027 07:14:50.862            92.477         45780.719
       139   06 Jun 2027 07:15:22.954   06 Jun 2027 07:15:24.372             1.418           528.594
       140   06 Jun 2027 07:15:40.263   06 Jun 2027 07:15:40.742             0.479            34.656
       141   06 Jun 2027 07:17:04.790   06 Jun 2027 07:17:07.172             2.382           866.969
       142   06 Jun 2027 07:17:38.837   06 Jun 2027 07:17:42.976             4.139           816.344
       143   06 Jun 2027 07:18:49.375   06 Jun 2027 07:18:57.804             8.429          2074.969
       144   06 Jun 2027 07:19:33.567   06 Jun 2027 07:19:35.843             2.276           597.875
       145   06 Jun 2027 07:20:12.219   06 Jun 2027 07:20:15.864             3.645           566.000
       146   06 Jun 2027 07:20:44.295   06 Jun 2027 07:20:45.614             1.319           380.094
       147   06 Jun 2027 08:50:06.292   06 Jun 2027 08:50:18.637            12.345          4852.687
       148   06 Jun 2027 08:52:07.886   06 Jun 2027 08:52:10.523             2.637           843.031
       149   06 Jun 2027 08:52:49.797   06 Jun 2027 08:52:53.378             3.581           878.937
       150   06 Jun 2027 08:53:52.429   06 Jun 2027 08:53:55.136             2.707           640.719
       151   06 Jun 2027 08:54:36.984   06 Jun 2027 08:54:39.402             2.418           192.469
       152   06 Jun 2027 08:54:49.846   06 Jun 2027 08:54:50.845             0.999           222.969
       153   06 Jun 2027 08:55:45.397   06 Jun 2027 08:55:47.683             2.286          1013.906
       154   06 Jun 2027 08:55:51.663   06 Jun 2027 08:55:55.408             3.745            75.125
       155   06 Jun 2027 08:56:19.015   06 Jun 2027 08:56:23.283             4.268           136.656
       156   06 Jun 2027 10:28:21.389   06 Jun 2027 10:28:34.919            13.530          6367.156
       157   06 Jun 2027 10:30:10.890   06 Jun 2027 10:30:13.667             2.777          1223.406
       158   06 Jun 2027 10:31:38.870   06 Jun 2027 10:31:44.849             5.979          2565.844
       159   06 Jun 2027 10:32:10.119   06 Jun 2027 10:32:16.393             6.274           733.094
       160   07 Jun 2027 04:13:25.280   07 Jun 2027 04:13:58.059            32.779         16389.500
       161   07 Jun 2027 04:15:35.088   07 Jun 2027 04:15:38.170             3.082          1541.000
       162   07 Jun 2027 04:16:06.118   07 Jun 2027 04:16:15.411             9.293          4646.500
       163   07 Jun 2027 04:16:57.201   07 Jun 2027 04:17:04.395             7.194          3597.000
       164   07 Jun 2027 04:17:08.990   07 Jun 2027 04:17:31.019            22.029         11014.500
       165   07 Jun 2027 05:48:28.985   07 Jun 2027 05:49:46.685            77.700         38850.000
       166   07 Jun 2027 05:50:18.968   07 Jun 2027 05:51:18.243            59.275         29637.500
       167   07 Jun 2027 05:51:28.885   07 Jun 2027 05:51:45.163            16.278          8139.000
       168   07 Jun 2027 05:53:04.117   07 Jun 2027 05:53:04.117             0.000             0.000
       169   07 Jun 2027 05:54:20.359   07 Jun 2027 05:54:45.901            25.542         12771.000
       170   07 Jun 2027 07:25:26.621   07 Jun 2027 07:26:43.136            76.515         38071.282
       171   07 Jun 2027 07:27:26.120   07 Jun 2027 07:27:27.486             1.366           619.656
       172   07 Jun 2027 07:28:21.234   07 Jun 2027 07:28:23.501             2.267           116.594
       173   07 Jun 2027 07:28:33.217   07 Jun 2027 07:28:38.640             5.423           303.625
       174   07 Jun 2027 07:29:14.586   07 Jun 2027 07:29:15.739             1.153           200.000
       175   07 Jun 2027 07:30:48.067   07 Jun 2027 07:30:58.090            10.023          1997.156
       176   07 Jun 2027 07:31:15.755   07 Jun 2027 07:31:16.634             0.879            85.375
       177   07 Jun 2027 07:31:50.054   07 Jun 2027 07:31:52.568             2.514          1024.750
       178   07 Jun 2027 09:02:24.993   07 Jun 2027 09:02:41.993            17.000          5804.281
       179   07 Jun 2027 09:03:33.326   07 Jun 2027 09:03:39.885             6.559          1190.937
       180   07 Jun 2027 09:04:49.787   07 Jun 2027 09:04:51.168             1.381           573.812
       181   07 Jun 2027 09:06:08.075   07 Jun 2027 09:06:11.873             3.798           469.812
       182   07 Jun 2027 09:06:30.036   07 Jun 2027 09:06:32.451             2.415            73.812
       183   07 Jun 2027 09:07:14.371   07 Jun 2027 09:07:16.936             2.565          1055.750
       184   07 Jun 2027 10:40:19.550   07 Jun 2027 10:40:33.156            13.606          5241.375
       185   07 Jun 2027 10:41:29.076   07 Jun 2027 10:41:32.630             3.554          1735.375
       186   07 Jun 2027 10:42:16.002   07 Jun 2027 10:42:21.497             5.495          1216.406
       187   07 Jun 2027 10:43:18.956   07 Jun 2027 10:43:20.940             1.984           128.313
       188   07 Jun 2027 10:43:49.097   07 Jun 2027 10:43:50.586             1.489           663.219
       189   07 Jun 2027 10:44:02.431   07 Jun 2027 10:44:03.668             1.237           118.687
       190   07 Jun 2027 10:44:11.013   07 Jun 2027 10:44:12.883             1.870           229.531
       191   07 Jun 2027 10:44:17.901   07 Jun 2027 10:44:18.916             1.015             7.500
       192   08 Jun 2027 03:02:50.455   08 Jun 2027 03:03:19.041            28.586         14293.000
       193   08 Jun 2027 03:03:30.960   08 Jun 2027 03:03:46.210            15.250          7625.000
       194   08 Jun 2027 04:24:55.134   08 Jun 2027 04:25:38.658            43.524         21762.000
       195   08 Jun 2027 04:25:58.888   08 Jun 2027 04:26:12.015            13.127          6563.500
       196   08 Jun 2027 04:28:04.299   08 Jun 2027 04:28:23.584            19.285          9642.500
       197   08 Jun 2027 04:29:20.888   08 Jun 2027 04:29:28.913             8.025          4012.500
       198   08 Jun 2027 04:29:59.140   08 Jun 2027 04:29:59.140             0.000             0.000
       199   08 Jun 2027 04:30:14.615   08 Jun 2027 04:30:26.061            11.446          5723.000
       200   08 Jun 2027 05:59:53.947   08 Jun 2027 06:01:46.366           112.419         56209.500
       201   08 Jun 2027 06:02:04.191   08 Jun 2027 06:02:19.503            15.312          7656.000
       202   08 Jun 2027 06:03:29.124   08 Jun 2027 06:03:58.060            28.936         14468.000
       203   08 Jun 2027 06:05:05.707   08 Jun 2027 06:05:08.255             2.548          1274.000
       204   08 Jun 2027 06:05:58.424   08 Jun 2027 06:06:20.349            21.925         10962.500
       205   08 Jun 2027 06:07:09.549   08 Jun 2027 06:07:11.051             1.502           751.000
       206   08 Jun 2027 06:07:27.252   08 Jun 2027 06:07:31.068             3.816          1908.000
       207   08 Jun 2027 07:37:30.207   08 Jun 2027 07:37:40.413            10.206          5050.187
       208   08 Jun 2027 07:39:05.988   08 Jun 2027 07:39:12.069             6.081          2159.250
       209   08 Jun 2027 07:39:53.584   08 Jun 2027 07:39:56.569             2.985           762.312
       210   08 Jun 2027 07:40:47.735   08 Jun 2027 07:40:49.174             1.439           583.875
       211   08 Jun 2027 07:41:11.607   08 Jun 2027 07:41:16.146             4.539           494.188
       212   08 Jun 2027 07:41:52.151   08 Jun 2027 07:41:55.308             3.157          1125.156
       213   08 Jun 2027 07:42:58.524   08 Jun 2027 07:42:59.957             1.433           528.750
       214   08 Jun 2027 07:43:19.910   08 Jun 2027 07:43:22.130             2.220           623.531
       215   08 Jun 2027 07:44:33.877   08 Jun 2027 07:44:41.797             7.920          1900.719
       216   08 Jun 2027 09:14:14.368   08 Jun 2027 09:14:26.529            12.161          5451.781
       217   08 Jun 2027 09:16:39.880   08 Jun 2027 09:16:46.035             6.155          2220.563
       218   08 Jun 2027 09:17:21.573   08 Jun 2027 09:17:26.020             4.447           928.156
       219   08 Jun 2027 09:18:07.256   08 Jun 2027 09:18:08.925             1.669           660.969
       220   08 Jun 2027 09:18:13.394   08 Jun 2027 09:18:15.073             1.679           123.469
       221   08 Jun 2027 09:19:07.202   08 Jun 2027 09:19:10.464             3.262          1394.281
       222   08 Jun 2027 09:19:27.054   08 Jun 2027 09:19:27.875             0.821           340.063
       223   08 Jun 2027 09:20:01.242   08 Jun 2027 09:20:05.917             4.675           336.094
       224   08 Jun 2027 09:20:35.268   08 Jun 2027 09:20:37.958             2.690           833.625
       225   08 Jun 2027 10:52:18.997   08 Jun 2027 10:52:31.885            12.888          6202.531
       226   08 Jun 2027 10:54:11.539   08 Jun 2027 10:54:14.337             2.798           528.344
       227   08 Jun 2027 10:54:21.393   08 Jun 2027 10:54:34.006            12.613           220.500
       228   08 Jun 2027 10:55:36.415   08 Jun 2027 10:55:38.267             1.852           299.531
       229   08 Jun 2027 10:56:17.662   08 Jun 2027 10:56:20.040             2.378           852.188
       230   09 Jun 2027 03:02:41.704   09 Jun 2027 03:02:54.635            12.931          6465.500
       231   09 Jun 2027 03:15:11.360   09 Jun 2027 03:15:17.501             6.141          3070.500
       232   09 Jun 2027 04:36:31.331   09 Jun 2027 04:39:09.299           157.968         78984.000
       233   09 Jun 2027 04:40:55.513   09 Jun 2027 04:41:09.435            13.922          6961.000
       234   09 Jun 2027 04:41:45.095   09 Jun 2027 04:41:52.128             7.033          3516.500
       235   09 Jun 2027 06:11:24.470   09 Jun 2027 06:13:10.255           105.785         51844.500
       236   09 Jun 2027 06:14:13.486   09 Jun 2027 06:14:13.486             0.000             0.000
       237   09 Jun 2027 06:15:14.474   09 Jun 2027 06:15:24.291             9.817          3664.875
       238   09 Jun 2027 06:17:06.674   09 Jun 2027 06:17:16.844            10.170          3199.469
       239   09 Jun 2027 06:18:04.251   09 Jun 2027 06:18:10.048             5.797          1481.469
       240   09 Jun 2027 06:18:37.917   09 Jun 2027 06:18:41.670             3.753           723.594
       241   09 Jun 2027 06:19:12.432   09 Jun 2027 06:19:14.790             2.358           957.094
       242   09 Jun 2027 06:20:09.854   09 Jun 2027 06:20:13.299             3.445          1676.531
       243   09 Jun 2027 06:20:21.727   09 Jun 2027 06:20:22.216             0.489           200.563
       244   09 Jun 2027 07:49:29.052   09 Jun 2027 07:49:31.951             2.899          1158.312
       245   09 Jun 2027 07:51:05.032   09 Jun 2027 07:51:09.610             4.578          1987.906
       246   09 Jun 2027 07:52:51.208   09 Jun 2027 07:52:55.777             4.569          1830.469
       247   09 Jun 2027 07:54:02.921   09 Jun 2027 07:54:07.769             4.848           693.500
       248   09 Jun 2027 07:55:44.550   09 Jun 2027 07:55:46.056             1.506           417.531
       249   09 Jun 2027 07:56:15.512   09 Jun 2027 07:56:17.612             2.100           920.500
       250   09 Jun 2027 09:26:22.260   09 Jun 2027 09:26:34.092            11.832          4943.063
       251   09 Jun 2027 09:28:47.250   09 Jun 2027 09:28:47.367             0.117            19.562
       252   09 Jun 2027 09:30:25.538   09 Jun 2027 09:30:27.263             1.725           673.344
       253   09 Jun 2027 09:30:46.711   09 Jun 2027 09:30:47.800             1.089            39.125
       254   09 Jun 2027 09:31:17.515   09 Jun 2027 09:31:20.021             2.506           928.594
       255   09 Jun 2027 09:32:28.963   09 Jun 2027 09:32:36.276             7.313          2009.312
       256   09 Jun 2027 11:03:32.185   09 Jun 2027 11:03:43.377            11.192          5224.781
       257   09 Jun 2027 11:06:35.324   09 Jun 2027 11:06:46.386            11.062           705.656
       258   09 Jun 2027 11:07:09.600   09 Jun 2027 11:07:11.958             2.358           499.625
       259   09 Jun 2027 11:08:09.312   09 Jun 2027 11:08:13.285             3.973           497.719
       260   09 Jun 2027 11:08:16.799   09 Jun 2027 11:08:17.793             0.994           100.031
       261   09 Jun 2027 11:08:19.110   09 Jun 2027 11:08:22.275             3.165            41.156
       262   10 Jun 2027 03:14:38.212   10 Jun 2027 03:14:42.914             4.702          2351.000
       263   10 Jun 2027 03:15:31.544   10 Jun 2027 03:15:45.922            14.378          7189.000
       264   10 Jun 2027 04:50:50.287   10 Jun 2027 04:54:22.116           211.829        105914.500
       265   10 Jun 2027 06:24:23.666   10 Jun 2027 06:25:32.025            68.359         34179.500
       266   10 Jun 2027 06:26:29.690   10 Jun 2027 06:26:36.385             6.695          2409.875
       267   10 Jun 2027 06:26:45.016   10 Jun 2027 06:26:45.662             0.646           269.719
       268   10 Jun 2027 06:27:11.881   10 Jun 2027 06:27:16.975             5.094           663.969
       269   10 Jun 2027 06:27:27.542   10 Jun 2027 06:27:30.026             2.484           330.219
       270   10 Jun 2027 06:28:27.207   10 Jun 2027 06:28:32.445             5.238          1778.531
       271   10 Jun 2027 06:28:43.937   10 Jun 2027 06:28:49.929             5.992            67.031
       272   10 Jun 2027 06:29:41.227   10 Jun 2027 06:29:41.227             0.000             0.000
       273   10 Jun 2027 06:29:48.253   10 Jun 2027 06:29:52.211             3.958          1822.625
       274   10 Jun 2027 06:30:39.191   10 Jun 2027 06:30:39.191             0.000             0.000
       275   10 Jun 2027 06:30:58.701   10 Jun 2027 06:31:04.317             5.616          1886.281
       276   10 Jun 2027 06:31:50.309   10 Jun 2027 06:31:55.380             5.071          1437.250
       277   10 Jun 2027 06:32:48.943   10 Jun 2027 06:32:51.673             2.730             9.719
       278   10 Jun 2027 08:01:51.263   10 Jun 2027 08:01:53.599             2.336           416.219
       279   10 Jun 2027 08:03:36.745   10 Jun 2027 08:03:41.169             4.424           311.031
       280   10 Jun 2027 08:04:55.180   10 Jun 2027 08:05:00.042             4.862          1916.062
       281   10 Jun 2027 08:05:34.174   10 Jun 2027 08:05:35.178             1.004           493.875
       282   10 Jun 2027 08:05:41.105   10 Jun 2027 08:05:42.441             1.336            70.844
       283   10 Jun 2027 08:06:53.391   10 Jun 2027 08:07:00.023             6.632           711.750
       284   10 Jun 2027 08:07:28.118   10 Jun 2027 08:07:31.447             3.329           820.406
       285   10 Jun 2027 08:08:00.259   10 Jun 2027 08:08:04.227             3.968            17.000
       286   10 Jun 2027 09:38:50.847   10 Jun 2027 09:39:05.601            14.754          5976.688
       287   10 Jun 2027 09:40:53.671   10 Jun 2027 09:40:58.448             4.777            63.031
       288   10 Jun 2027 09:42:40.698   10 Jun 2027 09:42:45.174             4.476           397.313
       289   10 Jun 2027 09:42:50.234   10 Jun 2027 09:42:51.784             1.550           101.750
       290   10 Jun 2027 09:43:26.676   10 Jun 2027 09:43:28.762             2.086           334.031
       291   10 Jun 2027 09:44:20.465   10 Jun 2027 09:44:24.646             4.181          1424.875
       292   10 Jun 2027 11:15:44.838   10 Jun 2027 11:15:54.251             9.413          4628.750
       293   10 Jun 2027 11:18:07.639   10 Jun 2027 11:18:14.175             6.536           501.344
       294   10 Jun 2027 11:18:50.248   10 Jun 2027 11:18:56.452             6.204           636.719
       295   10 Jun 2027 11:20:13.900   10 Jun 2027 11:20:18.271             4.371          2166.937
       296   11 Jun 2027 03:26:28.806   11 Jun 2027 03:26:44.239            15.433          7716.500
       297   11 Jun 2027 05:02:55.714   11 Jun 2027 05:06:18.703           202.989        101494.500
       298   11 Jun 2027 05:06:22.766   11 Jun 2027 05:06:28.866             6.100          3050.000
       299   11 Jun 2027 06:35:06.076   11 Jun 2027 06:35:15.020             8.944          4472.000
       300   11 Jun 2027 06:37:02.607   11 Jun 2027 06:38:09.604            66.997         33097.688
       301   11 Jun 2027 06:38:47.052   11 Jun 2027 06:38:50.120             3.068           577.625
       302   11 Jun 2027 06:39:18.750   11 Jun 2027 06:39:20.014             1.264           468.344
       303   11 Jun 2027 06:39:30.835   11 Jun 2027 06:39:34.454             3.619           286.437
       304   11 Jun 2027 06:40:28.240   11 Jun 2027 06:40:30.827             2.587          1227.437
       305   11 Jun 2027 06:40:52.644   11 Jun 2027 06:40:57.871             5.227           681.781
       306   11 Jun 2027 06:41:13.339   11 Jun 2027 06:41:20.398             7.059           237.562
       307   11 Jun 2027 06:41:54.008   11 Jun 2027 06:41:56.681             2.673           987.562
       308   11 Jun 2027 06:42:25.338   11 Jun 2027 06:42:25.338             0.000             0.000
       309   11 Jun 2027 06:43:05.219   11 Jun 2027 06:43:07.660             2.441          1220.500
       310   11 Jun 2027 06:43:09.662   11 Jun 2027 06:43:11.449             1.787           557.250
       311   11 Jun 2027 06:43:46.500   11 Jun 2027 06:43:49.181             2.681           744.906
       312   11 Jun 2027 06:44:35.878   11 Jun 2027 06:44:44.224             8.346          1049.813
       313   11 Jun 2027 08:14:00.658   11 Jun 2027 08:14:03.817             3.159          1062.969
       314   11 Jun 2027 08:16:51.293   11 Jun 2027 08:16:55.921             4.628          1775.719
       315   11 Jun 2027 08:17:34.598   11 Jun 2027 08:17:36.888             2.290          1122.594
       316   11 Jun 2027 08:18:08.294   11 Jun 2027 08:18:10.740             2.446           800.062
       317   11 Jun 2027 08:18:26.083   11 Jun 2027 08:18:27.091             1.008           405.156
       318   11 Jun 2027 08:19:23.469   11 Jun 2027 08:19:26.464             2.995          1437.812
       319   11 Jun 2027 08:20:02.322   11 Jun 2027 08:20:03.686             1.364           646.031
       320   11 Jun 2027 08:20:15.813   11 Jun 2027 08:20:16.861             1.048           141.594
       321   11 Jun 2027 09:51:18.337   11 Jun 2027 09:51:32.231            13.894          6007.094
       322   11 Jun 2027 09:52:51.692   11 Jun 2027 09:52:59.230             7.538           971.750
       323   11 Jun 2027 09:54:22.133   11 Jun 2027 09:54:24.758             2.625           365.937
       324   11 Jun 2027 09:54:26.739   11 Jun 2027 09:54:29.899             3.160            19.062
       325   11 Jun 2027 09:55:10.850   11 Jun 2027 09:55:16.040             5.190          1279.719
       326   11 Jun 2027 09:55:37.959   11 Jun 2027 09:55:39.623             1.664           670.656
       327   11 Jun 2027 09:55:58.041   11 Jun 2027 09:56:03.637             5.596           111.312
       328   11 Jun 2027 11:27:45.953   11 Jun 2027 11:28:03.313            17.360          7643.375
       329   11 Jun 2027 11:30:24.459   11 Jun 2027 11:30:30.595             6.136           697.500
       330   11 Jun 2027 11:32:18.588   11 Jun 2027 11:32:20.553             1.965           686.906
       331   11 Jun 2027 11:32:46.615   11 Jun 2027 11:32:50.890             4.275           335.000
       332   12 Jun 2027 03:38:36.799   12 Jun 2027 03:38:45.223             8.424          4212.000
       333   12 Jun 2027 03:40:45.059   12 Jun 2027 03:41:16.725            31.666         15833.000
       334   12 Jun 2027 05:15:22.849   12 Jun 2027 05:18:43.701           200.852        100426.000
       335   12 Jun 2027 06:50:15.673   12 Jun 2027 06:51:27.919            72.246         35038.593
       336   12 Jun 2027 06:51:58.994   12 Jun 2027 06:52:02.690             3.696           776.563
       337   12 Jun 2027 06:53:03.236   12 Jun 2027 06:53:08.704             5.468          1833.937
       338   12 Jun 2027 06:53:24.951   12 Jun 2027 06:53:28.021             3.070           413.188
       339   12 Jun 2027 06:55:05.691   12 Jun 2027 06:55:12.039             6.348          2587.656
       340   12 Jun 2027 06:56:17.251   12 Jun 2027 06:56:22.110             4.859          1607.375
       341   12 Jun 2027 06:56:30.641   12 Jun 2027 06:56:31.335             0.694           168.250
       342   12 Jun 2027 08:26:34.699   12 Jun 2027 08:26:42.016             7.317          1904.156
       343   12 Jun 2027 08:28:26.735   12 Jun 2027 08:28:27.706             0.971            43.062
       344   12 Jun 2027 08:29:01.690   12 Jun 2027 08:29:06.425             4.735           820.437
       345   12 Jun 2027 08:31:48.929   12 Jun 2027 08:31:56.454             7.525          2619.969
       346   12 Jun 2027 08:32:18.188   12 Jun 2027 08:32:19.280             1.092           315.125
       347   12 Jun 2027 10:03:58.211   12 Jun 2027 10:04:07.938             9.727          4842.281
       348   12 Jun 2027 10:07:19.035   12 Jun 2027 10:07:23.541             4.506           584.188
       349   12 Jun 2027 10:07:39.407   12 Jun 2027 10:07:51.237            11.830           428.250
       350   12 Jun 2027 10:07:56.620   12 Jun 2027 10:07:57.594             0.974           168.219
       351   12 Jun 2027 10:08:18.806   12 Jun 2027 10:08:22.565             3.759           599.187
       352   12 Jun 2027 11:40:10.057   12 Jun 2027 11:40:25.870            15.813          6094.031
       353   12 Jun 2027 11:41:59.755   12 Jun 2027 11:42:00.084             0.329           156.500
       354   12 Jun 2027 11:43:58.741   12 Jun 2027 11:44:04.454             5.713          1110.437
       355   13 Jun 2027 03:50:37.966   13 Jun 2027 03:50:45.823             7.857          3928.500
       356   13 Jun 2027 03:52:32.211   13 Jun 2027 03:52:45.045            12.834          6417.000
       357   13 Jun 2027 03:53:15.078   13 Jun 2027 03:53:15.078             0.000             0.000
       358   13 Jun 2027 03:53:34.715   13 Jun 2027 03:53:44.074             9.359          4679.500
       359   13 Jun 2027 05:27:05.742   13 Jun 2027 05:30:01.690           175.948         87974.000
       360   13 Jun 2027 05:30:18.283   13 Jun 2027 05:30:22.952             4.669          2334.500
       361   13 Jun 2027 07:02:18.511   13 Jun 2027 07:03:56.934            98.423         47833.375
       362   13 Jun 2027 07:04:34.382   13 Jun 2027 07:04:37.512             3.130           879.281
       363   13 Jun 2027 07:05:10.123   13 Jun 2027 07:05:14.429             4.306           779.813
       364   13 Jun 2027 07:05:19.696   13 Jun 2027 07:05:20.087             0.391            84.719
       365   13 Jun 2027 07:07:05.657   13 Jun 2027 07:07:17.249            11.592          3073.687
       366   13 Jun 2027 07:08:09.174   13 Jun 2027 07:08:09.174             0.000             0.000
       367   13 Jun 2027 07:08:16.823   13 Jun 2027 07:08:22.233             5.410          1498.313
       368   13 Jun 2027 08:38:13.708   13 Jun 2027 08:38:20.522             6.814          2663.438
       369   13 Jun 2027 08:40:06.786   13 Jun 2027 08:40:10.276             3.490          1432.219
       370   13 Jun 2027 08:41:02.283   13 Jun 2027 08:41:06.691             4.408          1396.094
       371   13 Jun 2027 08:43:38.188   13 Jun 2027 08:43:43.765             5.577          2250.781
       372   13 Jun 2027 08:43:58.271   13 Jun 2027 08:43:59.907             1.636           294.094
       373   13 Jun 2027 10:16:12.526   13 Jun 2027 10:16:29.873            17.347          7110.000
       374   13 Jun 2027 10:16:39.931   13 Jun 2027 10:16:41.599             1.668           314.312
       375   13 Jun 2027 10:17:32.134   13 Jun 2027 10:17:33.617             1.483           429.875
       376   13 Jun 2027 10:18:31.944   13 Jun 2027 10:18:34.839             2.895           317.625
       377   13 Jun 2027 10:20:02.303   13 Jun 2027 10:20:09.189             6.886           752.531
       378   13 Jun 2027 10:20:13.385   13 Jun 2027 10:20:13.840             0.455            35.594
       379   13 Jun 2027 10:20:31.676   13 Jun 2027 10:20:34.525             2.849           303.094
       380   13 Jun 2027 11:52:04.325   13 Jun 2027 11:52:16.932            12.607          5885.031
