uniorb/output/strategy_4/Camera/Camera_KinoSat_111510.txt

KinoSat_111510
-------------------------
    Access    *     Start Time (UTCG)     *     Stop Time (UTCG)  *   Duration (s) *   Data (Mbytes)
         1   01 Jun 2027 04:07:44.354   01 Jun 2027 04:10:02.988           138.634         69317.000
         2   01 Jun 2027 04:10:09.469   01 Jun 2027 04:10:10.353             0.884           442.000
         3   01 Jun 2027 04:11:50.063   01 Jun 2027 04:11:53.549             3.486          1743.000
         4   01 Jun 2027 04:12:37.150   01 Jun 2027 04:13:04.118            26.968         13484.000
         5   01 Jun 2027 04:14:42.673   01 Jun 2027 04:14:48.845             6.172          3086.000
         6   01 Jun 2027 05:32:05.992   01 Jun 2027 05:32:56.463            50.471         25235.500
         7   01 Jun 2027 05:33:54.739   01 Jun 2027 05:34:14.751            20.012         10006.000
         8   01 Jun 2027 05:44:19.281   01 Jun 2027 05:44:50.756            31.475         15737.500
         9   01 Jun 2027 07:06:14.283   01 Jun 2027 07:07:28.351            74.068         37034.000
        10   01 Jun 2027 07:08:17.400   01 Jun 2027 07:08:47.744            30.344         15172.000
        11   01 Jun 2027 07:10:26.195   01 Jun 2027 07:10:47.050            20.855         10427.500
        12   01 Jun 2027 08:41:02.441   01 Jun 2027 08:42:46.723           104.282         52141.000
        13   01 Jun 2027 08:44:06.887   01 Jun 2027 08:44:27.937            21.050         10525.000
        14   01 Jun 2027 08:46:46.867   01 Jun 2027 08:47:35.088            48.221         24110.500
        15   01 Jun 2027 08:49:57.313   01 Jun 2027 08:49:58.294             0.981           490.500
        16   01 Jun 2027 10:18:52.312   01 Jun 2027 10:20:49.776           117.464         58732.000
        17   01 Jun 2027 10:24:51.158   01 Jun 2027 10:25:24.640            33.482         16741.000
        18   01 Jun 2027 11:55:36.801   01 Jun 2027 11:57:34.446           117.645         58822.500
        19   02 Jun 2027 04:20:06.304   02 Jun 2027 04:21:44.738            98.434         49217.000
        20   02 Jun 2027 04:22:02.194   02 Jun 2027 04:22:12.016             9.822          4911.000
        21   02 Jun 2027 04:23:32.029   02 Jun 2027 04:23:33.614             1.585           792.500
        22   02 Jun 2027 04:23:38.236   02 Jun 2027 04:23:42.965             4.729          2364.500
        23   02 Jun 2027 04:23:51.791   02 Jun 2027 04:24:00.495             8.704          4352.000
        24   02 Jun 2027 04:24:07.226   02 Jun 2027 04:24:30.787            23.561         11780.500
        25   02 Jun 2027 05:44:04.483   02 Jun 2027 05:45:11.698            67.215         33607.500
        26   02 Jun 2027 05:45:49.333   02 Jun 2027 05:45:49.333             0.000             0.000
        27   02 Jun 2027 05:46:19.855   02 Jun 2027 05:46:20.928             1.073           536.500
        28   02 Jun 2027 07:20:01.320   02 Jun 2027 07:23:44.580           223.260        111630.000
        29   02 Jun 2027 08:53:50.772   02 Jun 2027 08:56:23.683           152.911         76455.500
        30   02 Jun 2027 08:59:34.092   02 Jun 2027 08:59:48.334            14.242          7121.000
        31   02 Jun 2027 09:00:23.403   02 Jun 2027 09:00:23.822             0.419           209.500
        32   02 Jun 2027 09:01:22.534   02 Jun 2027 09:01:36.985            14.451          7225.500
        33   02 Jun 2027 10:30:59.519   02 Jun 2027 10:32:26.420            86.901         43165.345
        34   02 Jun 2027 10:33:13.498   02 Jun 2027 10:33:28.784            15.286          1301.406
        35   02 Jun 2027 10:35:25.097   02 Jun 2027 10:35:33.652             8.555          3272.875
        36   02 Jun 2027 10:35:35.269   02 Jun 2027 10:35:35.588             0.319             9.375
        37   02 Jun 2027 10:35:52.194   02 Jun 2027 10:35:53.145             0.951           198.250
        38   02 Jun 2027 10:36:11.609   02 Jun 2027 10:36:12.824             1.215           298.750
        39   02 Jun 2027 10:36:18.707   02 Jun 2027 10:36:19.327             0.620           183.844
        40   02 Jun 2027 10:36:27.103   02 Jun 2027 10:36:29.426             2.323           243.000
        41   02 Jun 2027 10:37:18.396   02 Jun 2027 10:37:22.898             4.502          1110.219
        42   02 Jun 2027 10:37:46.737   02 Jun 2027 10:37:49.786             3.049           667.594
        43   03 Jun 2027 04:32:36.356   03 Jun 2027 04:33:26.148            49.792         24896.000
        44   03 Jun 2027 04:33:52.434   03 Jun 2027 04:34:10.301            17.867          8933.500
        45   03 Jun 2027 04:34:28.932   03 Jun 2027 04:35:53.812            84.880         42440.000
        46   03 Jun 2027 04:36:28.898   03 Jun 2027 04:37:05.419            36.521         18260.500
        47   03 Jun 2027 05:55:58.015   03 Jun 2027 05:56:50.387            52.372         26186.000
        48   03 Jun 2027 05:57:36.279   03 Jun 2027 05:58:13.791            37.512         18756.000
        49   03 Jun 2027 07:32:22.979   03 Jun 2027 07:33:15.080            52.101         24108.719
        50   03 Jun 2027 07:34:13.655   03 Jun 2027 07:34:19.266             5.611          1488.875
        51   03 Jun 2027 07:34:19.824   03 Jun 2027 07:34:20.158             0.334            17.437
        52   03 Jun 2027 07:35:22.245   03 Jun 2027 07:35:23.865             1.620           803.219
        53   03 Jun 2027 09:06:11.197   03 Jun 2027 09:06:19.360             8.163          3298.188
        54   03 Jun 2027 09:07:50.058   03 Jun 2027 09:07:53.870             3.812          1413.000
        55   03 Jun 2027 09:08:54.009   03 Jun 2027 09:09:00.610             6.601          1129.250
        56   03 Jun 2027 09:09:40.305   03 Jun 2027 09:09:43.237             2.932          1157.344
        57   03 Jun 2027 09:11:55.494   03 Jun 2027 09:12:03.707             8.213          2945.375
        58   03 Jun 2027 09:12:56.139   03 Jun 2027 09:12:56.529             0.390           195.000
        59   03 Jun 2027 09:13:09.153   03 Jun 2027 09:13:10.376             1.223           465.594
        60   03 Jun 2027 09:14:19.704   03 Jun 2027 09:14:21.888             2.184           948.781
        61   03 Jun 2027 10:43:26.061   03 Jun 2027 10:43:37.290            11.229          5500.062
        62   03 Jun 2027 10:48:10.708   03 Jun 2027 10:48:18.068             7.360          2020.719
        63   03 Jun 2027 10:48:33.593   03 Jun 2027 10:48:34.371             0.778           240.938
        64   03 Jun 2027 10:49:34.236   03 Jun 2027 10:49:38.739             4.503          1434.719
        65   03 Jun 2027 10:50:01.443   03 Jun 2027 10:50:04.509             3.066           709.500
        66   03 Jun 2027 10:50:06.722   03 Jun 2027 10:50:07.329             0.607            18.906
        67   04 Jun 2027 03:06:40.866   04 Jun 2027 03:07:19.963            39.097         19548.500
        68   04 Jun 2027 03:07:59.713   04 Jun 2027 03:08:14.932            15.219          7609.500
        69   04 Jun 2027 03:08:56.979   04 Jun 2027 03:09:07.292            10.313          5156.500
        70   04 Jun 2027 03:09:36.145   04 Jun 2027 03:09:43.237             7.092          3546.000
        71   04 Jun 2027 03:09:56.378   04 Jun 2027 03:10:25.322            28.944         14472.000
        72   04 Jun 2027 03:11:38.780   04 Jun 2027 03:11:50.536            11.756          5878.000
        73   04 Jun 2027 04:44:52.269   04 Jun 2027 04:46:09.293            77.024         38512.000
        74   04 Jun 2027 04:46:32.884   04 Jun 2027 04:48:25.137           112.253         56126.500
        75   04 Jun 2027 06:07:46.152   04 Jun 2027 06:08:01.737            15.585          7792.500
        76   04 Jun 2027 06:09:31.086   04 Jun 2027 06:09:45.463            14.377          6980.250
        77   04 Jun 2027 06:10:28.648   04 Jun 2027 06:10:30.166             1.518           707.781
        78   04 Jun 2027 07:44:25.306   04 Jun 2027 07:44:34.227             8.921          2716.375
        79   04 Jun 2027 07:45:02.124   04 Jun 2027 07:45:03.196             1.072           354.969
        80   04 Jun 2027 07:45:26.699   04 Jun 2027 07:45:26.699             0.000             0.000
        81   04 Jun 2027 07:45:27.733   04 Jun 2027 07:45:32.976             5.243           648.469
        82   04 Jun 2027 07:46:08.557   04 Jun 2027 07:46:10.158             1.601           410.781
        83   04 Jun 2027 07:46:58.624   04 Jun 2027 07:47:01.763             3.139          1372.656
        84   04 Jun 2027 07:47:26.168   04 Jun 2027 07:47:29.038             2.870           610.594
        85   04 Jun 2027 09:19:25.751   04 Jun 2027 09:19:35.497             9.746          2564.469
        86   04 Jun 2027 09:20:27.013   04 Jun 2027 09:20:29.040             2.027           530.281
        87   04 Jun 2027 09:21:05.069   04 Jun 2027 09:21:09.201             4.132           694.531
        88   04 Jun 2027 09:22:23.443   04 Jun 2027 09:22:25.917             2.474          1084.875
        89   04 Jun 2027 09:23:20.271   04 Jun 2027 09:23:24.801             4.530          1157.031
        90   04 Jun 2027 09:24:54.859   04 Jun 2027 09:25:03.195             8.336          2742.969
        91   04 Jun 2027 09:25:35.812   04 Jun 2027 09:25:39.762             3.950           307.594
        92   04 Jun 2027 09:26:14.829   04 Jun 2027 09:26:15.602             0.773           332.156
        93   04 Jun 2027 10:55:35.624   04 Jun 2027 10:55:49.635            14.011          4377.375
        94   04 Jun 2027 10:57:44.354   04 Jun 2027 10:57:45.843             1.489           513.062
        95   04 Jun 2027 10:58:40.679   04 Jun 2027 10:58:45.710             5.031          1032.312
        96   04 Jun 2027 11:00:07.248   04 Jun 2027 11:00:13.495             6.247          1806.094
        97   04 Jun 2027 11:00:20.959   04 Jun 2027 11:00:23.668             2.709            86.531
        98   04 Jun 2027 11:01:25.405   04 Jun 2027 11:01:31.928             6.523          1664.406
        99   04 Jun 2027 11:01:42.529   04 Jun 2027 11:01:47.805             5.276           331.281
       100   04 Jun 2027 11:01:52.356   04 Jun 2027 11:01:52.566             0.210            42.844
       101   05 Jun 2027 03:18:20.129   05 Jun 2027 03:19:22.100            61.971         30985.500
       102   05 Jun 2027 03:19:28.556   05 Jun 2027 03:20:30.971            62.415         31207.500
       103   05 Jun 2027 03:21:23.264   05 Jun 2027 03:21:50.478            27.214         13607.000
       104   05 Jun 2027 03:22:02.459   05 Jun 2027 03:22:38.788            36.329         18164.500
       105   05 Jun 2027 03:23:45.818   05 Jun 2027 03:23:53.714             7.896          3948.000
       106   05 Jun 2027 03:24:16.076   05 Jun 2027 03:24:33.066            16.990          8495.000
       107   05 Jun 2027 04:56:38.579   05 Jun 2027 04:57:10.837            32.258         16129.000
       108   05 Jun 2027 04:57:27.674   05 Jun 2027 04:58:33.762            66.088         32154.750
       109   05 Jun 2027 04:59:25.122   05 Jun 2027 04:59:28.805             3.683          1113.500
       110   05 Jun 2027 05:00:03.053   05 Jun 2027 05:00:06.421             3.368           956.906
       111   05 Jun 2027 06:20:00.540   05 Jun 2027 06:20:09.361             8.821          3639.063
       112   05 Jun 2027 06:21:14.775   05 Jun 2027 06:21:18.675             3.900          1885.000
       113   05 Jun 2027 06:21:37.859   05 Jun 2027 06:21:41.109             3.250           346.813
       114   05 Jun 2027 06:22:44.425   05 Jun 2027 06:22:44.742             0.317           158.500
       115   05 Jun 2027 06:22:56.431   05 Jun 2027 06:23:01.559             5.128          1733.781
       116   05 Jun 2027 07:56:32.966   05 Jun 2027 07:56:39.723             6.757          2549.000
       117   05 Jun 2027 07:57:29.317   05 Jun 2027 07:57:33.073             3.756          1424.844
       118   05 Jun 2027 07:57:51.151   05 Jun 2027 07:57:51.566             0.415           170.875
       119   05 Jun 2027 07:58:01.124   05 Jun 2027 07:58:02.019             0.895            33.812
       120   05 Jun 2027 07:58:13.215   05 Jun 2027 07:58:18.332             5.117           168.719
       121   05 Jun 2027 07:59:10.225   05 Jun 2027 07:59:10.225             0.000             0.000
       122   05 Jun 2027 07:59:52.099   05 Jun 2027 07:59:58.399             6.300          2283.656
       123   05 Jun 2027 09:31:43.493   05 Jun 2027 09:31:54.467            10.974          3369.375
       124   05 Jun 2027 09:33:06.504   05 Jun 2027 09:33:11.809             5.305          2093.750
       125   05 Jun 2027 09:34:40.195   05 Jun 2027 09:34:42.725             2.530          1257.188
       126   05 Jun 2027 09:36:55.104   05 Jun 2027 09:37:12.311            17.207          2747.906
       127   05 Jun 2027 09:37:58.317   05 Jun 2027 09:38:00.044             1.727           201.281
       128   05 Jun 2027 09:38:08.203   05 Jun 2027 09:38:10.909             2.706           251.875
       129   05 Jun 2027 09:38:18.278   05 Jun 2027 09:38:19.554             1.276           230.281
       130   05 Jun 2027 11:08:05.475   05 Jun 2027 11:08:19.016            13.541          4753.250
       131   05 Jun 2027 11:09:59.259   05 Jun 2027 11:10:01.269             2.010           438.656
       132   05 Jun 2027 11:10:15.146   05 Jun 2027 11:10:20.511             5.365           247.906
       133   05 Jun 2027 11:11:08.687   05 Jun 2027 11:11:12.463             3.776          1431.969
       134   05 Jun 2027 11:11:29.069   05 Jun 2027 11:11:30.235             1.166           401.156
       135   05 Jun 2027 11:11:54.746   05 Jun 2027 11:11:58.814             4.068           675.031
       136   05 Jun 2027 11:12:37.560   05 Jun 2027 11:12:40.087             2.527          1105.063
       137   05 Jun 2027 11:13:19.689   05 Jun 2027 11:13:21.122             1.433           354.063
       138   05 Jun 2027 11:13:43.782   05 Jun 2027 11:13:45.058             1.276           310.781
       139   05 Jun 2027 11:13:54.374   05 Jun 2027 11:13:56.135             1.761           243.563
       140   05 Jun 2027 11:14:12.714   05 Jun 2027 11:14:13.777             1.063           518.094
       141   06 Jun 2027 03:31:26.627   06 Jun 2027 03:33:56.496           149.869         74934.500
       142   06 Jun 2027 03:34:05.689   06 Jun 2027 03:34:22.332            16.643          8321.500
       143   06 Jun 2027 03:34:38.513   06 Jun 2027 03:35:02.245            23.732         11866.000
       144   06 Jun 2027 03:35:27.716   06 Jun 2027 03:35:39.234            11.518          5759.000
       145   06 Jun 2027 03:38:15.503   06 Jun 2027 03:38:16.036             0.533           266.500
       146   06 Jun 2027 03:38:23.513   06 Jun 2027 03:39:14.452            50.939         25469.500
       147   06 Jun 2027 05:08:34.978   06 Jun 2027 05:09:14.497            39.519         19759.500
       148   06 Jun 2027 05:09:34.738   06 Jun 2027 05:10:30.944            56.206         27753.219
       149   06 Jun 2027 05:10:56.948   06 Jun 2027 05:11:02.305             5.357           581.094
       150   06 Jun 2027 05:11:35.466   06 Jun 2027 05:11:37.024             1.558           265.187
       151   06 Jun 2027 05:12:07.183   06 Jun 2027 05:12:08.665             1.482           741.000
       152   06 Jun 2027 06:32:02.046   06 Jun 2027 06:32:12.535            10.489          4704.031
       153   06 Jun 2027 06:33:15.229   06 Jun 2027 06:33:21.141             5.912          1923.156
       154   06 Jun 2027 06:34:44.627   06 Jun 2027 06:34:50.060             5.433          2472.781
       155   06 Jun 2027 08:08:25.062   06 Jun 2027 08:08:33.405             8.343          2859.781
       156   06 Jun 2027 08:09:08.406   06 Jun 2027 08:09:10.854             2.448           564.438
       157   06 Jun 2027 08:10:18.780   06 Jun 2027 08:10:18.780             0.000             0.000
       158   06 Jun 2027 08:10:55.368   06 Jun 2027 08:11:01.892             6.524          2645.625
       159   06 Jun 2027 08:11:41.955   06 Jun 2027 08:11:43.980             2.025          1012.500
       160   06 Jun 2027 09:43:19.252   06 Jun 2027 09:43:25.794             6.542          3235.906
       161   06 Jun 2027 09:45:07.528   06 Jun 2027 09:45:12.804             5.276          2575.688
       162   06 Jun 2027 09:46:01.628   06 Jun 2027 09:46:06.874             5.246           831.281
       163   06 Jun 2027 09:47:29.758   06 Jun 2027 09:47:35.866             6.108          2362.219
       164   06 Jun 2027 09:47:55.872   06 Jun 2027 09:47:56.135             0.263           108.875
       165   06 Jun 2027 09:48:50.284   06 Jun 2027 09:48:53.015             2.731           727.812
       166   06 Jun 2027 09:48:59.535   06 Jun 2027 09:49:08.599             9.064           203.750
       167   06 Jun 2027 09:50:06.243   06 Jun 2027 09:50:09.851             3.608          1499.500
       168   06 Jun 2027 11:19:40.911   06 Jun 2027 11:19:52.390            11.479          4853.437
       169   06 Jun 2027 11:22:33.118   06 Jun 2027 11:22:37.305             4.187          1520.344
       170   06 Jun 2027 11:23:50.010   06 Jun 2027 11:23:55.225             5.215          2272.031
       171   06 Jun 2027 11:24:42.180   06 Jun 2027 11:24:47.454             5.274          1467.344
       172   06 Jun 2027 11:24:58.984   06 Jun 2027 11:25:01.685             2.701           234.250
       173   06 Jun 2027 11:25:14.941   06 Jun 2027 11:25:17.107             2.166           276.875
       174   07 Jun 2027 03:43:30.501   07 Jun 2027 03:47:06.338           215.837        107918.500
       175   07 Jun 2027 03:50:07.895   07 Jun 2027 03:50:24.751            16.856          8428.000
       176   07 Jun 2027 05:09:17.119   07 Jun 2027 05:09:25.713             8.594          4297.000
       177   07 Jun 2027 05:20:31.072   07 Jun 2027 05:21:54.909            83.837         39886.063
       178   07 Jun 2027 05:23:10.726   07 Jun 2027 05:23:12.922             2.196           411.344
       179   07 Jun 2027 06:43:07.712   07 Jun 2027 06:43:18.077            10.365          4770.531
       180   07 Jun 2027 06:43:44.722   07 Jun 2027 06:43:46.069             1.347           130.719
       181   07 Jun 2027 06:44:27.842   07 Jun 2027 06:44:36.639             8.797          1046.594
       182   07 Jun 2027 06:44:46.142   07 Jun 2027 06:44:47.408             1.266            57.313
       183   07 Jun 2027 06:45:03.454   07 Jun 2027 06:45:05.487             2.033            95.156
       184   07 Jun 2027 06:46:33.314   07 Jun 2027 06:46:42.551             9.237          2438.500
       185   07 Jun 2027 06:47:03.188   07 Jun 2027 06:47:10.696             7.508           590.656
       186   07 Jun 2027 08:18:42.314   07 Jun 2027 08:18:52.305             9.991          3211.813
       187   07 Jun 2027 08:20:08.923   07 Jun 2027 08:20:16.671             7.748           519.000
       188   07 Jun 2027 08:21:31.856   07 Jun 2027 08:21:36.873             5.017          2077.031
       189   07 Jun 2027 08:21:49.811   07 Jun 2027 08:21:50.883             1.072           111.719
       190   07 Jun 2027 08:23:05.729   07 Jun 2027 08:23:13.807             8.078           494.969
       191   07 Jun 2027 08:24:07.441   07 Jun 2027 08:24:12.664             5.223          1661.469
       192   07 Jun 2027 08:24:24.202   07 Jun 2027 08:24:25.808             1.606           180.719
       193   07 Jun 2027 09:54:54.822   07 Jun 2027 09:55:02.316             7.494          3282.844
       194   07 Jun 2027 09:57:08.070   07 Jun 2027 09:57:14.679             6.609          3230.156
       195   07 Jun 2027 09:58:29.911   07 Jun 2027 09:58:31.517             1.606           695.688
       196   07 Jun 2027 09:59:05.463   07 Jun 2027 09:59:16.274            10.811          1060.812
       197   07 Jun 2027 10:00:53.642   07 Jun 2027 10:01:00.909             7.267          2460.312
       198   07 Jun 2027 10:01:59.776   07 Jun 2027 10:02:04.239             4.463          1639.219
       199   07 Jun 2027 10:02:23.678   07 Jun 2027 10:02:26.213             2.535           579.437
       200   07 Jun 2027 10:02:28.984   07 Jun 2027 10:02:30.902             1.918            86.594
       201   07 Jun 2027 11:32:01.206   07 Jun 2027 11:32:18.294            17.088          5380.625
       202   07 Jun 2027 11:34:44.635   07 Jun 2027 11:34:49.662             5.027          2096.531
       203   07 Jun 2027 11:35:40.626   07 Jun 2027 11:35:43.281             2.655          1097.219
       204   07 Jun 2027 11:36:24.560   07 Jun 2027 11:36:45.560            21.000          1210.438
       205   07 Jun 2027 11:36:52.445   07 Jun 2027 11:36:54.176             1.731           215.156
       206   07 Jun 2027 11:37:17.719   07 Jun 2027 11:37:20.032             2.313           398.344
       207   07 Jun 2027 11:37:34.458   07 Jun 2027 11:37:37.709             3.251            27.063
       208   07 Jun 2027 11:37:45.323   07 Jun 2027 11:37:47.518             2.195           230.219
       209   08 Jun 2027 03:55:59.672   08 Jun 2027 03:59:41.510           221.838        110919.000
       210   08 Jun 2027 04:00:42.550   08 Jun 2027 04:00:44.213             1.663           831.500
       211   08 Jun 2027 04:01:23.945   08 Jun 2027 04:01:48.362            24.417         12208.500
       212   08 Jun 2027 04:02:47.119   08 Jun 2027 04:03:08.111            20.992         10496.000
       213   08 Jun 2027 05:20:51.217   08 Jun 2027 05:20:52.954             1.737           868.500
       214   08 Jun 2027 05:21:13.310   08 Jun 2027 05:21:25.124            11.814          5907.000
       215   08 Jun 2027 05:32:34.032   08 Jun 2027 05:33:34.572            60.540         30270.000
       216   08 Jun 2027 06:54:49.768   08 Jun 2027 06:55:05.737            15.969          7552.469
       217   08 Jun 2027 06:55:28.695   08 Jun 2027 06:55:30.981             2.286           447.125
       218   08 Jun 2027 06:56:47.189   08 Jun 2027 06:56:50.946             3.757          1632.031
       219   08 Jun 2027 06:57:06.787   08 Jun 2027 06:57:07.345             0.558           137.281
       220   08 Jun 2027 06:58:10.224   08 Jun 2027 06:58:14.022             3.798          1730.875
       221   08 Jun 2027 06:59:26.981   08 Jun 2027 06:59:32.313             5.332          1963.531
       222   08 Jun 2027 08:29:49.139   08 Jun 2027 08:29:59.731            10.592          2073.281
       223   08 Jun 2027 08:31:14.007   08 Jun 2027 08:31:16.647             2.640          1253.750
       224   08 Jun 2027 08:33:32.698   08 Jun 2027 08:33:42.713            10.015          2587.406
       225   08 Jun 2027 08:35:03.608   08 Jun 2027 08:35:09.513             5.905          2356.125
       226   08 Jun 2027 08:35:28.380   08 Jun 2027 08:35:30.907             2.527           155.125
       227   08 Jun 2027 08:37:46.744   08 Jun 2027 08:37:58.338            11.594          3241.469
       228   08 Jun 2027 10:07:14.958   08 Jun 2027 10:07:20.878             5.920          2585.375
       229   08 Jun 2027 10:08:44.396   08 Jun 2027 10:08:48.792             4.396           331.656
       230   08 Jun 2027 10:09:20.391   08 Jun 2027 10:09:24.945             4.554           211.906
       231   08 Jun 2027 10:10:22.112   08 Jun 2027 10:10:23.801             1.689           114.687
       232   08 Jun 2027 10:11:42.751   08 Jun 2027 10:11:46.196             3.445          1578.656
       233   08 Jun 2027 10:12:19.360   08 Jun 2027 10:12:27.054             7.694           996.531
       234   08 Jun 2027 10:12:56.898   08 Jun 2027 10:13:00.033             3.135           848.969
       235   08 Jun 2027 10:13:55.278   08 Jun 2027 10:14:00.497             5.219          1450.875
       236   08 Jun 2027 11:44:01.987   08 Jun 2027 11:44:15.227            13.240          6187.563
       237   08 Jun 2027 11:45:33.983   08 Jun 2027 11:45:42.810             8.827           410.656
       238   08 Jun 2027 11:45:54.468   08 Jun 2027 11:45:56.791             2.323           178.719
       239   08 Jun 2027 11:46:13.625   08 Jun 2027 11:46:15.932             2.307           319.750
       240   08 Jun 2027 11:47:39.291   08 Jun 2027 11:47:44.725             5.434          1950.438
       241   08 Jun 2027 11:48:07.549   08 Jun 2027 11:48:08.529             0.980           275.250
       242   08 Jun 2027 11:48:24.824   08 Jun 2027 11:48:25.712             0.888           255.781
       243   08 Jun 2027 11:49:21.620   08 Jun 2027 11:49:26.209             4.589          1016.812
       244   08 Jun 2027 11:49:45.429   08 Jun 2027 11:49:45.961             0.532           166.156
       245   08 Jun 2027 11:49:56.935   08 Jun 2027 11:49:58.883             1.948            83.125
       246   08 Jun 2027 11:50:29.197   08 Jun 2027 11:50:30.645             1.448           724.000
       247   09 Jun 2027 04:08:01.581   09 Jun 2027 04:11:05.483           183.902         91951.000
       248   09 Jun 2027 04:11:44.903   09 Jun 2027 04:11:57.669            12.766          6383.000
       249   09 Jun 2027 04:12:55.351   09 Jun 2027 04:13:20.331            24.980         12490.000
       250   09 Jun 2027 04:14:59.963   09 Jun 2027 04:15:03.803             3.840          1920.000
       251   09 Jun 2027 05:32:23.172   09 Jun 2027 05:33:01.020            37.848         18924.000
       252   09 Jun 2027 05:44:40.133   09 Jun 2027 05:45:07.387            27.254         13627.000
       253   09 Jun 2027 07:06:29.922   09 Jun 2027 07:07:21.838            51.916         25597.469
       254   09 Jun 2027 07:08:48.200   09 Jun 2027 07:09:01.099            12.899          2018.906
       255   09 Jun 2027 07:09:10.146   09 Jun 2027 07:09:13.779             3.633           188.906
       256   09 Jun 2027 07:10:11.216   09 Jun 2027 07:10:15.332             4.116          1794.906
       257   09 Jun 2027 07:10:23.997   09 Jun 2027 07:10:25.736             1.739           270.781
       258   09 Jun 2027 07:11:03.180   09 Jun 2027 07:11:05.056             1.876           675.969
       259   09 Jun 2027 07:11:38.327   09 Jun 2027 07:11:43.293             4.966           924.469
       260   09 Jun 2027 08:41:17.739   09 Jun 2027 08:41:23.322             5.583          2412.563
       261   09 Jun 2027 08:43:08.492   09 Jun 2027 08:43:14.463             5.971          1951.344
       262   09 Jun 2027 08:43:20.792   09 Jun 2027 08:43:22.258             1.466           104.406
       263   09 Jun 2027 08:43:25.140   09 Jun 2027 08:43:25.140             0.000             0.000
       264   09 Jun 2027 08:43:45.643   09 Jun 2027 08:43:50.266             4.623           730.781
       265   09 Jun 2027 08:45:04.225   09 Jun 2027 08:45:08.020             3.795          1723.969
       266   09 Jun 2027 08:45:49.043   09 Jun 2027 08:45:51.824             2.781          1010.438
       267   09 Jun 2027 08:47:58.224   09 Jun 2027 08:48:00.776             2.552          1276.000
       268   09 Jun 2027 08:49:39.440   09 Jun 2027 08:49:45.287             5.847          2867.938
       269   09 Jun 2027 10:19:09.239   09 Jun 2027 10:19:21.488            12.249          4493.656
       270   09 Jun 2027 10:22:10.977   09 Jun 2027 10:22:17.908             6.931          1988.031
       271   09 Jun 2027 10:23:25.237   09 Jun 2027 10:23:25.999             0.762           113.844
       272   09 Jun 2027 10:24:01.799   09 Jun 2027 10:24:06.405             4.606           225.875
       273   09 Jun 2027 10:24:32.887   09 Jun 2027 10:24:34.577             1.690           228.375
       274   09 Jun 2027 10:25:43.421   09 Jun 2027 10:25:46.974             3.553          1719.125
       275   09 Jun 2027 10:26:07.207   09 Jun 2027 10:26:08.742             1.535           455.531
       276   09 Jun 2027 10:26:27.473   09 Jun 2027 10:26:29.036             1.563           585.344
       277   09 Jun 2027 11:55:53.765   09 Jun 2027 11:56:05.326            11.561          5423.000
       278   09 Jun 2027 11:56:25.595   09 Jun 2027 11:56:29.380             3.785           633.406
       279   09 Jun 2027 11:58:17.855   09 Jun 2027 11:58:19.656             1.801            98.594
       280   09 Jun 2027 11:58:47.440   09 Jun 2027 11:58:51.064             3.624            41.813
       281   09 Jun 2027 11:59:37.032   09 Jun 2027 11:59:41.204             4.172          1156.438
       282   09 Jun 2027 11:59:54.924   09 Jun 2027 11:59:55.913             0.989           428.750
       283   10 Jun 2027 04:20:24.500   10 Jun 2027 04:22:26.856           122.356         61178.000
       284   10 Jun 2027 04:23:47.984   10 Jun 2027 04:24:45.453            57.469         28734.500
       285   10 Jun 2027 05:44:21.016   10 Jun 2027 05:45:03.437            42.421         21210.500
       286   10 Jun 2027 07:20:18.587   10 Jun 2027 07:22:04.202           105.615         51142.157
       287   10 Jun 2027 07:23:28.340   10 Jun 2027 07:23:33.951             5.611          2056.094
       288   10 Jun 2027 08:54:06.972   10 Jun 2027 08:54:14.526             7.554          2226.219
       289   10 Jun 2027 08:56:08.774   10 Jun 2027 08:56:10.826             2.052          1021.031
       290   10 Jun 2027 08:57:33.180   10 Jun 2027 08:57:38.665             5.485          2308.313
       291   10 Jun 2027 08:59:03.232   10 Jun 2027 08:59:08.105             4.873          2213.750
       292   10 Jun 2027 09:00:03.816   10 Jun 2027 09:00:04.679             0.863           386.031
       293   10 Jun 2027 09:00:50.653   10 Jun 2027 09:00:53.978             3.325           686.875
       294   10 Jun 2027 09:01:54.979   10 Jun 2027 09:01:59.199             4.220          1391.594
       295   10 Jun 2027 10:31:16.510   10 Jun 2027 10:31:27.863            11.353          5606.625
       296   10 Jun 2027 10:33:05.874   10 Jun 2027 10:33:09.146             3.272          1407.375
       297   10 Jun 2027 10:33:54.047   10 Jun 2027 10:33:56.672             2.625          1233.031
       298   10 Jun 2027 10:36:28.727   10 Jun 2027 10:36:33.411             4.684          2072.812
       299   10 Jun 2027 10:36:35.103   10 Jun 2027 10:36:35.548             0.445            52.875
       300   10 Jun 2027 10:37:23.983   10 Jun 2027 10:37:30.153             6.170          1474.656
       301   10 Jun 2027 10:37:54.413   10 Jun 2027 10:37:58.202             3.789           298.156
       302   10 Jun 2027 10:38:02.877   10 Jun 2027 10:38:04.297             1.420            19.188
       303   11 Jun 2027 03:00:00.000   11 Jun 2027 03:00:13.438            13.438          6719.000
       304   11 Jun 2027 03:00:29.545   11 Jun 2027 03:00:43.319            13.774          6887.000
       305   11 Jun 2027 04:32:51.622   11 Jun 2027 04:34:26.541            94.919         47459.500
       306   11 Jun 2027 04:35:32.681   11 Jun 2027 04:36:19.339            46.658         23329.000
       307   11 Jun 2027 04:36:43.420   11 Jun 2027 04:37:21.551            38.131         19065.500
       308   11 Jun 2027 05:56:13.688   11 Jun 2027 05:57:29.282            75.594         37797.000
       309   11 Jun 2027 05:57:47.411   11 Jun 2027 05:57:51.938             4.527          2263.500
       310   11 Jun 2027 07:32:36.019   11 Jun 2027 07:33:16.838            40.819         19513.063
       311   11 Jun 2027 07:33:57.357   11 Jun 2027 07:34:00.603             3.246          1266.219
       312   11 Jun 2027 07:34:28.100   11 Jun 2027 07:34:31.703             3.603           248.219
       313   11 Jun 2027 07:35:28.437   11 Jun 2027 07:35:32.595             4.158          1765.094
       314   11 Jun 2027 09:06:28.968   11 Jun 2027 09:06:36.392             7.424          3457.906
       315   11 Jun 2027 09:08:33.763   11 Jun 2027 09:08:37.607             3.844           799.781
       316   11 Jun 2027 09:09:12.560   11 Jun 2027 09:09:15.499             2.939          1000.063
       317   11 Jun 2027 09:09:58.335   11 Jun 2027 09:10:01.051             2.716          1162.656
       318   11 Jun 2027 09:11:47.000   11 Jun 2027 09:11:51.672             4.672          1405.844
       319   11 Jun 2027 09:13:11.611   11 Jun 2027 09:13:21.165             9.554          2492.844
       320   11 Jun 2027 09:14:07.558   11 Jun 2027 09:14:13.171             5.613          1253.500
       321   11 Jun 2027 10:43:42.978   11 Jun 2027 10:43:53.416            10.438          5131.781
       322   11 Jun 2027 10:45:08.490   11 Jun 2027 10:45:11.743             3.253           414.594
       323   11 Jun 2027 10:46:54.801   11 Jun 2027 10:46:57.112             2.311           465.469
       324   11 Jun 2027 10:48:26.551   11 Jun 2027 10:48:32.647             6.096          1994.281
       325   11 Jun 2027 10:48:46.347   11 Jun 2027 10:48:47.931             1.584           195.187
       326   11 Jun 2027 10:49:46.511   11 Jun 2027 10:49:50.473             3.962          1648.531
       327   11 Jun 2027 10:49:53.642   11 Jun 2027 10:49:54.319             0.677            99.031
       328   11 Jun 2027 10:50:15.045   11 Jun 2027 10:50:17.057             2.012           593.125
       329   11 Jun 2027 10:50:20.968   11 Jun 2027 10:50:23.916             2.948           121.719
       330   12 Jun 2027 03:06:28.769   12 Jun 2027 03:06:31.894             3.125          1562.500
       331   12 Jun 2027 03:06:57.038   12 Jun 2027 03:07:33.836            36.798         18399.000
       332   12 Jun 2027 03:08:14.524   12 Jun 2027 03:08:17.284             2.760          1380.000
       333   12 Jun 2027 03:08:20.923   12 Jun 2027 03:08:23.277             2.354          1177.000
       334   12 Jun 2027 03:08:29.544   12 Jun 2027 03:08:30.460             0.916           458.000
       335   12 Jun 2027 03:09:13.015   12 Jun 2027 03:09:19.307             6.292          3146.000
       336   12 Jun 2027 03:09:51.090   12 Jun 2027 03:09:57.550             6.460          3230.000
       337   12 Jun 2027 03:10:08.830   12 Jun 2027 03:10:34.296            25.466         12733.000
       338   12 Jun 2027 03:11:53.304   12 Jun 2027 03:12:08.208            14.904          7452.000
       339   12 Jun 2027 04:45:08.929   12 Jun 2027 04:46:24.164            75.235         37617.500
       340   12 Jun 2027 04:46:46.599   12 Jun 2027 04:48:55.177           128.578         64200.093
       341   12 Jun 2027 06:08:02.983   12 Jun 2027 06:08:18.882            15.899          7949.500
       342   12 Jun 2027 06:10:27.095   12 Jun 2027 06:10:39.534            12.439          5216.625
       343   12 Jun 2027 07:44:39.498   12 Jun 2027 07:44:48.787             9.289          3166.438
       344   12 Jun 2027 07:45:25.213   12 Jun 2027 07:45:30.243             5.030           625.375
       345   12 Jun 2027 07:46:12.139   12 Jun 2027 07:46:16.122             3.983           892.500
       346   12 Jun 2027 07:46:29.918   12 Jun 2027 07:46:29.918             0.000             0.000
       347   12 Jun 2027 07:47:15.632   12 Jun 2027 07:47:20.031             4.399          1575.688
       348   12 Jun 2027 07:47:43.065   12 Jun 2027 07:47:47.850             4.785           620.500
       349   12 Jun 2027 09:19:46.732   12 Jun 2027 09:19:54.852             8.120          3214.156
       350   12 Jun 2027 09:20:45.429   12 Jun 2027 09:20:50.882             5.453           613.219
       351   12 Jun 2027 09:21:22.896   12 Jun 2027 09:21:24.323             1.427           676.719
       352   12 Jun 2027 09:22:43.937   12 Jun 2027 09:22:48.100             4.163          1154.938
       353   12 Jun 2027 09:23:35.313   12 Jun 2027 09:23:40.485             5.172          1105.750
       354   12 Jun 2027 09:25:12.329   12 Jun 2027 09:25:18.567             6.238          2732.281
       355   12 Jun 2027 09:25:48.213   12 Jun 2027 09:25:49.229             1.016           116.656
       356   12 Jun 2027 09:26:31.030   12 Jun 2027 09:26:34.836             3.806           250.156
       357   12 Jun 2027 10:56:07.202   12 Jun 2027 10:56:18.858            11.656          4243.656
       358   12 Jun 2027 10:58:01.384   12 Jun 2027 10:58:03.756             2.372           578.750
       359   12 Jun 2027 11:00:23.020   12 Jun 2027 11:00:26.958             3.938          1771.281
       360   12 Jun 2027 11:00:32.872   12 Jun 2027 11:00:33.869             0.997            31.844
       361   12 Jun 2027 11:01:42.030   12 Jun 2027 11:01:46.889             4.859          1623.781
       362   12 Jun 2027 11:01:57.540   12 Jun 2027 11:02:02.930             5.390           288.906
       363   12 Jun 2027 11:02:08.442   12 Jun 2027 11:02:09.032             0.590            58.000
       364   13 Jun 2027 03:18:36.702   13 Jun 2027 03:19:38.288            61.586         30793.000
       365   13 Jun 2027 03:19:45.113   13 Jun 2027 03:21:45.307           120.194         60097.000
       366   13 Jun 2027 03:22:54.566   13 Jun 2027 03:22:59.479             4.913          2456.500
       367   13 Jun 2027 03:23:35.575   13 Jun 2027 03:24:00.465            24.890         12445.000
       368   13 Jun 2027 03:24:14.039   13 Jun 2027 03:24:22.556             8.517          4258.500
       369   13 Jun 2027 04:56:54.418   13 Jun 2027 04:57:28.251            33.833         16916.500
       370   13 Jun 2027 04:57:42.969   13 Jun 2027 04:58:29.636            46.667         23254.438
       371   13 Jun 2027 04:59:07.318   13 Jun 2027 04:59:11.124             3.806           870.375
       372   13 Jun 2027 04:59:48.058   13 Jun 2027 04:59:49.678             1.620           186.062
       373   13 Jun 2027 05:00:33.318   13 Jun 2027 05:00:37.617             4.299           842.219
       374   13 Jun 2027 06:20:16.323   13 Jun 2027 06:20:23.951             7.628          3814.000
       375   13 Jun 2027 06:20:28.993   13 Jun 2027 06:20:30.672             1.679           543.781
       376   13 Jun 2027 06:21:11.356   13 Jun 2027 06:21:12.166             0.810           138.219
       377   13 Jun 2027 06:21:42.629   13 Jun 2027 06:21:45.569             2.940           951.969
       378   13 Jun 2027 06:22:59.338   13 Jun 2027 06:23:04.332             4.994          2148.531
       379   13 Jun 2027 07:56:50.658   13 Jun 2027 07:56:57.500             6.842          1877.031
       380   13 Jun 2027 07:58:16.877   13 Jun 2027 07:58:21.024             4.147          1674.500
       381   13 Jun 2027 07:58:30.093   13 Jun 2027 07:58:32.972             2.879           222.656
       382   13 Jun 2027 08:00:10.535   13 Jun 2027 08:00:15.216             4.681          2276.031
       383   13 Jun 2027 09:32:00.052   13 Jun 2027 09:32:08.472             8.420          3326.375
       384   13 Jun 2027 09:33:24.293   13 Jun 2027 09:33:29.012             4.719          2162.781
       385   13 Jun 2027 09:34:18.453   13 Jun 2027 09:34:26.323             7.870          1545.031
       386   13 Jun 2027 09:35:11.325   13 Jun 2027 09:35:14.834             3.509           454.063
       387   13 Jun 2027 09:37:12.521   13 Jun 2027 09:37:28.702            16.181          2728.406
       388   13 Jun 2027 09:38:25.995   13 Jun 2027 09:38:29.400             3.405          1371.375
       389   13 Jun 2027 11:08:21.385   13 Jun 2027 11:08:35.688            14.303          6347.375
       390   13 Jun 2027 11:10:14.990   13 Jun 2027 11:10:17.366             2.376           467.375
       391   13 Jun 2027 11:10:31.686   13 Jun 2027 11:10:37.051             5.365           208.688
       392   13 Jun 2027 11:11:25.700   13 Jun 2027 11:11:33.029             7.329          1520.281
       393   13 Jun 2027 11:11:42.381   13 Jun 2027 11:11:45.432             3.051           282.812
       394   13 Jun 2027 11:12:11.989   13 Jun 2027 11:12:13.600             1.611           721.156
       395   13 Jun 2027 11:12:55.415   13 Jun 2027 11:12:59.988             4.573          1172.781
       396   13 Jun 2027 11:13:36.548   13 Jun 2027 11:13:38.426             1.878           395.063
       397   13 Jun 2027 11:13:58.784   13 Jun 2027 11:14:01.023             2.239           267.750
       398   13 Jun 2027 11:14:13.810   13 Jun 2027 11:14:18.546             4.736           310.844
