uniorb/output/strategy_4/Camera/Camera_KinoSat_111008.txt

KinoSat_111008
-------------------------
    Access    *     Start Time (UTCG)     *     Stop Time (UTCG)  *   Duration (s) *   Data (Mbytes)
         1   01 Jun 2027 03:00:00.000   01 Jun 2027 03:00:18.248            18.248          9124.000
         2   01 Jun 2027 03:10:41.087   01 Jun 2027 03:11:58.720            77.633         38816.500
         3   01 Jun 2027 03:12:10.684   01 Jun 2027 03:12:13.803             3.119          1559.500
         4   01 Jun 2027 03:12:48.451   01 Jun 2027 03:12:53.762             5.311          2655.500
         5   01 Jun 2027 03:13:15.174   01 Jun 2027 03:13:30.123            14.949          7474.500
         6   01 Jun 2027 04:33:38.346   01 Jun 2027 04:34:25.139            46.793         23396.500
         7   01 Jun 2027 04:36:01.518   01 Jun 2027 04:36:10.886             9.368          4684.000
         8   01 Jun 2027 04:36:29.467   01 Jun 2027 04:36:29.467             0.000             0.000
         9   01 Jun 2027 04:37:01.722   01 Jun 2027 04:37:04.579             2.857          1428.500
        10   01 Jun 2027 04:37:23.983   01 Jun 2027 04:37:24.342             0.359           179.500
        11   01 Jun 2027 06:09:05.522   01 Jun 2027 06:09:22.304            16.782          8391.000
        12   01 Jun 2027 06:10:21.005   01 Jun 2027 06:11:57.484            96.479         48239.500
        13   01 Jun 2027 06:13:22.381   01 Jun 2027 06:13:38.934            16.553          8276.500
        14   01 Jun 2027 07:45:06.399   01 Jun 2027 07:47:08.315           121.916         60958.000
        15   01 Jun 2027 07:47:50.914   01 Jun 2027 07:48:16.008            25.094         12547.000
        16   01 Jun 2027 07:51:58.036   01 Jun 2027 07:52:02.438             4.402          2201.000
        17   01 Jun 2027 09:22:08.071   01 Jun 2027 09:24:34.323           146.252         73126.000
        18   01 Jun 2027 09:25:20.941   01 Jun 2027 09:25:41.871            20.930         10465.000
        19   01 Jun 2027 09:26:09.664   01 Jun 2027 09:26:20.654            10.990          5495.000
        20   01 Jun 2027 11:00:08.003   01 Jun 2027 11:02:50.213           162.210         81105.000
        21   01 Jun 2027 11:03:04.229   01 Jun 2027 11:03:13.363             9.134          4567.000
        22   02 Jun 2027 03:11:00.101   02 Jun 2027 03:11:07.239             7.138          3569.000
        23   02 Jun 2027 03:11:22.358   02 Jun 2027 03:11:41.120            18.762          9381.000
        24   02 Jun 2027 03:22:42.460   02 Jun 2027 03:24:02.691            80.231         40115.500
        25   02 Jun 2027 04:44:55.474   02 Jun 2027 04:46:08.768            73.294         36647.000
        26   02 Jun 2027 04:47:58.251   02 Jun 2027 04:48:00.949             2.698          1349.000
        27   02 Jun 2027 04:49:25.299   02 Jun 2027 04:49:25.299             0.000             0.000
        28   02 Jun 2027 04:49:43.914   02 Jun 2027 04:49:51.558             7.644          3822.000
        29   02 Jun 2027 06:20:02.685   02 Jun 2027 06:21:31.776            89.091         44545.500
        30   02 Jun 2027 06:22:04.559   02 Jun 2027 06:24:23.582           139.023         69511.500
        31   02 Jun 2027 06:25:01.793   02 Jun 2027 06:25:17.836            16.043          8021.500
        32   02 Jun 2027 06:28:09.797   02 Jun 2027 06:28:13.817             4.020          2010.000
        33   02 Jun 2027 07:57:16.346   02 Jun 2027 08:00:15.857           179.511         89755.500
        34   02 Jun 2027 08:00:24.130   02 Jun 2027 08:00:25.894             1.764           882.000
        35   02 Jun 2027 08:00:34.416   02 Jun 2027 08:01:17.953            43.537         21768.500
        36   02 Jun 2027 08:03:42.213   02 Jun 2027 08:04:20.243            38.030         18836.593
        37   02 Jun 2027 08:04:37.755   02 Jun 2027 08:04:40.267             2.512            69.406
        38   02 Jun 2027 09:34:12.241   02 Jun 2027 09:34:41.806            29.565         12956.406
        39   02 Jun 2027 09:35:27.520   02 Jun 2027 09:35:30.740             3.220          1121.344
        40   02 Jun 2027 09:37:47.161   02 Jun 2027 09:37:52.472             5.311          1991.469
        41   02 Jun 2027 09:38:02.691   02 Jun 2027 09:38:03.362             0.671            73.063
        42   02 Jun 2027 09:38:22.094   02 Jun 2027 09:38:31.947             9.853           516.719
        43   02 Jun 2027 09:38:46.203   02 Jun 2027 09:38:48.251             2.048           445.094
        44   02 Jun 2027 09:39:13.435   02 Jun 2027 09:39:32.807            19.372           626.000
        45   02 Jun 2027 09:39:57.463   02 Jun 2027 09:40:01.206             3.743           770.500
        46   02 Jun 2027 11:12:06.632   02 Jun 2027 11:12:21.628            14.996          5276.156
        47   02 Jun 2027 11:14:12.046   02 Jun 2027 11:14:17.996             5.950           649.750
        48   02 Jun 2027 11:14:29.107   02 Jun 2027 11:14:30.991             1.884           230.125
        49   02 Jun 2027 11:15:26.979   02 Jun 2027 11:15:30.143             3.164            99.531
        50   02 Jun 2027 11:16:04.874   02 Jun 2027 11:16:07.101             2.227           536.094
        51   03 Jun 2027 03:22:28.335   03 Jun 2027 03:23:07.510            39.175         19587.500
        52   03 Jun 2027 03:34:39.264   03 Jun 2027 03:35:18.578            39.314         19657.000
        53   03 Jun 2027 04:56:40.999   03 Jun 2027 04:58:01.945            80.946         40473.000
        54   03 Jun 2027 04:58:43.940   03 Jun 2027 04:59:48.858            64.918         32459.000
        55   03 Jun 2027 05:00:00.628   03 Jun 2027 05:00:06.905             6.277          3138.500
        56   03 Jun 2027 05:02:14.834   03 Jun 2027 05:02:17.848             3.014          1507.000
        57   03 Jun 2027 06:31:32.118   03 Jun 2027 06:32:53.265            81.147         40573.500
        58   03 Jun 2027 06:33:14.367   03 Jun 2027 06:33:18.892             4.525          1896.437
        59   03 Jun 2027 06:33:56.259   03 Jun 2027 06:33:56.259             0.000             0.000
        60   03 Jun 2027 06:34:02.115   03 Jun 2027 06:34:06.576             4.461          1341.500
        61   03 Jun 2027 06:35:32.764   03 Jun 2027 06:35:38.066             5.302          1887.375
        62   03 Jun 2027 06:37:02.435   03 Jun 2027 06:37:13.540            11.105          2478.156
        63   03 Jun 2027 06:38:10.818   03 Jun 2027 06:38:15.836             5.018          1651.406
        64   03 Jun 2027 06:38:49.109   03 Jun 2027 06:38:52.944             3.835           555.187
        65   03 Jun 2027 06:39:06.126   03 Jun 2027 06:39:06.126             0.000             0.000
        66   03 Jun 2027 06:39:13.098   03 Jun 2027 06:39:13.548             0.450           225.000
        67   03 Jun 2027 06:40:13.976   03 Jun 2027 06:40:21.098             7.122          1988.562
        68   03 Jun 2027 08:09:18.028   03 Jun 2027 08:09:21.602             3.574           314.156
        69   03 Jun 2027 08:11:07.673   03 Jun 2027 08:11:20.602            12.929          2059.719
        70   03 Jun 2027 08:12:09.971   03 Jun 2027 08:12:14.420             4.449          1379.813
        71   03 Jun 2027 08:13:06.682   03 Jun 2027 08:13:07.656             0.974           325.344
        72   03 Jun 2027 08:14:37.898   03 Jun 2027 08:14:43.799             5.901          1316.781
        73   03 Jun 2027 08:15:19.560   03 Jun 2027 08:15:23.574             4.014          1086.344
        74   03 Jun 2027 08:16:12.240   03 Jun 2027 08:16:15.386             3.146          1003.062
        75   03 Jun 2027 08:16:20.526   03 Jun 2027 08:16:21.958             1.432           160.625
        76   03 Jun 2027 09:46:05.604   03 Jun 2027 09:46:21.500            15.896          7667.906
        77   03 Jun 2027 09:48:46.755   03 Jun 2027 09:48:48.199             1.444           147.719
        78   03 Jun 2027 09:49:45.039   03 Jun 2027 09:49:49.766             4.727          1562.812
        79   03 Jun 2027 09:50:15.162   03 Jun 2027 09:50:15.773             0.611           242.594
        80   03 Jun 2027 09:50:23.839   03 Jun 2027 09:50:25.334             1.495           229.219
        81   03 Jun 2027 09:50:49.368   03 Jun 2027 09:50:52.513             3.145           354.437
        82   03 Jun 2027 09:50:56.316   03 Jun 2027 09:51:00.247             3.931           114.781
        83   03 Jun 2027 09:51:18.429   03 Jun 2027 09:51:22.891             4.462           530.531
        84   03 Jun 2027 09:52:06.648   03 Jun 2027 09:52:12.079             5.431          1064.844
        85   03 Jun 2027 11:24:08.920   03 Jun 2027 11:24:22.754            13.834          6658.281
        86   03 Jun 2027 11:24:55.496   03 Jun 2027 11:24:56.927             1.431           366.406
        87   03 Jun 2027 11:26:26.486   03 Jun 2027 11:26:28.988             2.502           596.937
        88   03 Jun 2027 11:27:15.005   03 Jun 2027 11:27:16.913             1.908           325.406
        89   03 Jun 2027 11:28:12.100   03 Jun 2027 11:28:16.045             3.945          1567.656
        90   04 Jun 2027 03:34:30.548   04 Jun 2027 03:34:35.899             5.351          2675.500
        91   04 Jun 2027 03:35:27.771   04 Jun 2027 03:35:41.657            13.886          6943.000
        92   04 Jun 2027 05:10:27.937   04 Jun 2027 05:14:13.076           225.139        112569.500
        93   04 Jun 2027 06:44:17.723   04 Jun 2027 06:45:31.366            73.643         36065.531
        94   04 Jun 2027 06:46:02.331   04 Jun 2027 06:46:04.357             2.026           959.906
        95   04 Jun 2027 06:46:41.961   04 Jun 2027 06:46:43.091             1.130           565.000
        96   04 Jun 2027 06:46:59.106   04 Jun 2027 06:47:01.294             2.188           817.625
        97   04 Jun 2027 06:47:18.271   04 Jun 2027 06:47:20.910             2.639           530.531
        98   04 Jun 2027 06:47:44.750   04 Jun 2027 06:47:47.850             3.100           745.000
        99   04 Jun 2027 06:48:24.549   04 Jun 2027 06:48:27.966             3.417           967.313
       100   04 Jun 2027 06:49:01.981   04 Jun 2027 06:49:07.053             5.072          1062.969
       101   04 Jun 2027 06:49:52.515   04 Jun 2027 06:49:59.645             7.130           986.906
       102   04 Jun 2027 06:50:38.745   04 Jun 2027 06:50:44.838             6.093          1113.125
       103   04 Jun 2027 06:51:04.181   04 Jun 2027 06:51:06.637             2.456           381.531
       104   04 Jun 2027 06:51:47.606   04 Jun 2027 06:51:56.927             9.321          1040.187
       105   04 Jun 2027 06:52:38.305   04 Jun 2027 06:52:44.059             5.754            91.594
       106   04 Jun 2027 08:21:21.180   04 Jun 2027 08:21:23.466             2.286           625.406
       107   04 Jun 2027 08:23:06.324   04 Jun 2027 08:23:10.466             4.142          1821.812
       108   04 Jun 2027 08:25:54.870   04 Jun 2027 08:25:59.529             4.659          1030.062
       109   04 Jun 2027 08:27:09.323   04 Jun 2027 08:27:11.954             2.631          1220.062
       110   04 Jun 2027 08:27:56.752   04 Jun 2027 08:28:04.553             7.801          1293.125
       111   04 Jun 2027 08:28:12.710   04 Jun 2027 08:28:17.152             4.442           232.063
       112   04 Jun 2027 08:28:27.873   04 Jun 2027 08:28:30.811             2.938           302.375
       113   04 Jun 2027 09:58:15.823   04 Jun 2027 09:58:25.645             9.822          4379.156
       114   04 Jun 2027 10:01:15.786   04 Jun 2027 10:01:21.414             5.628           693.219
       115   04 Jun 2027 10:01:57.845   04 Jun 2027 10:02:03.445             5.600            82.875
       116   04 Jun 2027 10:02:28.778   04 Jun 2027 10:02:30.326             1.548            40.031
       117   04 Jun 2027 10:02:55.753   04 Jun 2027 10:02:57.336             1.583           507.594
       118   04 Jun 2027 10:03:09.016   04 Jun 2027 10:03:10.411             1.395           365.000
       119   04 Jun 2027 10:03:16.958   04 Jun 2027 10:03:17.181             0.223           106.187
       120   04 Jun 2027 10:04:16.239   04 Jun 2027 10:04:19.408             3.169          1543.031
       121   04 Jun 2027 11:35:22.009   04 Jun 2027 11:35:35.406            13.397          5167.125
       122   04 Jun 2027 11:38:38.968   04 Jun 2027 11:38:40.430             1.462           349.906
       123   04 Jun 2027 11:39:08.949   04 Jun 2027 11:39:09.589             0.640           313.062
       124   04 Jun 2027 11:39:58.162   04 Jun 2027 11:39:59.729             1.567            72.875
       125   04 Jun 2027 11:40:13.323   04 Jun 2027 11:40:14.274             0.951           310.344
       126   05 Jun 2027 03:46:24.555   05 Jun 2027 03:46:36.726            12.171          6085.500
       127   05 Jun 2027 03:47:10.304   05 Jun 2027 03:47:18.807             8.503          4251.500
       128   05 Jun 2027 05:22:46.585   05 Jun 2027 05:25:43.443           176.858         88429.000
       129   05 Jun 2027 06:56:15.842   05 Jun 2027 06:58:12.302           116.460         56790.812
       130   05 Jun 2027 06:58:34.670   05 Jun 2027 06:58:35.433             0.763            59.375
       131   05 Jun 2027 06:59:20.210   05 Jun 2027 06:59:20.210             0.000             0.000
       132   05 Jun 2027 06:59:24.249   05 Jun 2027 06:59:31.409             7.160          1506.312
       133   05 Jun 2027 07:00:39.913   05 Jun 2027 07:00:46.263             6.350          2116.312
       134   05 Jun 2027 07:01:23.762   05 Jun 2027 07:01:23.762             0.000             0.000
       135   05 Jun 2027 07:01:34.060   05 Jun 2027 07:01:37.866             3.806          1037.250
       136   05 Jun 2027 07:02:22.841   05 Jun 2027 07:02:23.737             0.896           448.000
       137   05 Jun 2027 07:03:05.312   05 Jun 2027 07:03:09.699             4.387          2052.406
       138   05 Jun 2027 07:03:37.532   05 Jun 2027 07:03:42.150             4.618           869.781
       139   05 Jun 2027 07:04:38.119   05 Jun 2027 07:04:42.054             3.935          1394.813
       140   05 Jun 2027 07:04:44.595   05 Jun 2027 07:04:46.284             1.689            79.406
       141   05 Jun 2027 08:33:47.460   05 Jun 2027 08:33:57.296             9.836          3938.344
       142   05 Jun 2027 08:38:58.391   05 Jun 2027 08:39:00.027             1.636           736.469
       143   05 Jun 2027 08:39:51.562   05 Jun 2027 08:39:55.163             3.601          1417.750
       144   05 Jun 2027 10:10:42.663   05 Jun 2027 10:10:54.057            11.394          5222.250
       145   05 Jun 2027 10:11:31.204   05 Jun 2027 10:11:33.273             2.069           902.437
       146   05 Jun 2027 10:14:06.709   05 Jun 2027 10:14:10.871             4.162           809.062
       147   05 Jun 2027 10:14:22.773   05 Jun 2027 10:14:24.313             1.540            32.063
       148   05 Jun 2027 10:14:25.585   05 Jun 2027 10:14:27.480             1.895            39.750
       149   05 Jun 2027 10:14:36.883   05 Jun 2027 10:14:37.903             1.020           278.563
       150   05 Jun 2027 10:14:47.414   05 Jun 2027 10:14:50.307             2.893           293.375
       151   05 Jun 2027 10:15:28.716   05 Jun 2027 10:15:31.971             3.255           857.094
       152   05 Jun 2027 10:15:38.911   05 Jun 2027 10:15:40.709             1.798           216.875
       153   05 Jun 2027 10:16:09.122   05 Jun 2027 10:16:13.695             4.573           289.406
       154   05 Jun 2027 10:16:24.535   05 Jun 2027 10:16:25.236             0.701           338.750
       155   05 Jun 2027 11:47:33.224   05 Jun 2027 11:47:45.320            12.096          4955.500
       156   05 Jun 2027 11:49:28.044   05 Jun 2027 11:49:28.883             0.839           392.094
       157   05 Jun 2027 11:50:34.500   05 Jun 2027 11:50:37.868             3.368          1086.594
       158   05 Jun 2027 11:51:05.660   05 Jun 2027 11:51:08.198             2.538           844.062
       159   05 Jun 2027 11:52:00.305   05 Jun 2027 11:52:01.306             1.001            72.187
       160   06 Jun 2027 03:58:15.530   06 Jun 2027 03:58:54.668            39.138         19569.000
       161   06 Jun 2027 05:34:48.236   06 Jun 2027 05:37:40.296           172.060         86030.000
       162   06 Jun 2027 07:09:17.251   06 Jun 2027 07:11:09.384           112.133         55967.000
       163   06 Jun 2027 07:11:21.867   06 Jun 2027 07:11:27.586             5.719           299.813
       164   06 Jun 2027 07:11:55.630   06 Jun 2027 07:11:55.630             0.000             0.000
       165   06 Jun 2027 07:12:58.959   06 Jun 2027 07:13:06.852             7.893          2854.469
       166   06 Jun 2027 07:13:45.198   06 Jun 2027 07:13:47.855             2.657           951.906
       167   06 Jun 2027 07:15:06.039   06 Jun 2027 07:15:10.874             4.835          2208.500
       168   06 Jun 2027 07:15:37.990   06 Jun 2027 07:15:39.881             1.891           596.094
       169   06 Jun 2027 07:16:06.950   06 Jun 2027 07:16:10.973             4.023           698.875
       170   06 Jun 2027 07:16:34.659   06 Jun 2027 07:16:36.299             1.640           615.906
       171   06 Jun 2027 07:16:39.738   06 Jun 2027 07:16:41.897             2.159            84.094
       172   06 Jun 2027 08:45:54.869   06 Jun 2027 08:46:06.846            11.977          3651.156
       173   06 Jun 2027 08:48:27.808   06 Jun 2027 08:48:31.877             4.069           540.031
       174   06 Jun 2027 08:48:54.826   06 Jun 2027 08:48:56.092             1.266           523.281
       175   06 Jun 2027 08:51:01.588   06 Jun 2027 08:51:04.366             2.778           636.500
       176   06 Jun 2027 08:51:40.909   06 Jun 2027 08:51:46.130             5.221          1023.250
       177   06 Jun 2027 08:52:21.671   06 Jun 2027 08:52:23.245             1.574           430.781
       178   06 Jun 2027 10:23:36.333   06 Jun 2027 10:23:48.958            12.625          6145.469
       179   06 Jun 2027 10:27:51.884   06 Jun 2027 10:27:58.551             6.667          2019.906
       180   06 Jun 2027 11:59:35.687   06 Jun 2027 11:59:50.363            14.676          6618.219
       181   07 Jun 2027 04:10:25.814   07 Jun 2027 04:11:14.888            49.074         24537.000
       182   07 Jun 2027 05:46:57.330   07 Jun 2027 05:49:14.875           137.545         68772.500
       183   07 Jun 2027 07:22:06.477   07 Jun 2027 07:24:27.619           141.142         69352.750
       184   07 Jun 2027 07:25:03.176   07 Jun 2027 07:25:06.685             3.509           221.031
       185   07 Jun 2027 07:25:31.698   07 Jun 2027 07:25:33.495             1.797            86.656
       186   07 Jun 2027 07:27:26.120   07 Jun 2027 07:27:35.974             9.854          2850.688
       187   07 Jun 2027 07:27:57.133   07 Jun 2027 07:28:01.420             4.287           661.219
       188   07 Jun 2027 07:28:19.012   07 Jun 2027 07:28:20.876             1.864           430.281
       189   07 Jun 2027 07:28:23.501   07 Jun 2027 07:28:26.469             2.968            70.844
       190   07 Jun 2027 07:28:26.772   07 Jun 2027 07:28:29.685             2.913             9.469
       191   07 Jun 2027 08:58:29.938   07 Jun 2027 08:58:40.284            10.346          4966.938
       192   07 Jun 2027 09:01:09.276   07 Jun 2027 09:01:10.156             0.880           297.563
       193   07 Jun 2027 09:01:39.075   07 Jun 2027 09:01:42.590             3.515           616.469
       194   07 Jun 2027 09:02:05.364   07 Jun 2027 09:02:05.511             0.147            48.406
       195   07 Jun 2027 09:03:34.259   07 Jun 2027 09:03:39.885             5.626          2407.563
       196   07 Jun 2027 09:04:29.609   07 Jun 2027 09:04:42.139            12.530          1540.875
       197   07 Jun 2027 10:35:43.966   07 Jun 2027 10:36:00.443            16.477          6157.719
       198   07 Jun 2027 10:37:17.714   07 Jun 2027 10:37:30.103            12.389          1400.375
       199   07 Jun 2027 10:38:00.874   07 Jun 2027 10:38:03.505             2.631           724.406
       200   07 Jun 2027 10:38:25.652   07 Jun 2027 10:38:26.266             0.614           125.906
       201   07 Jun 2027 10:39:00.239   07 Jun 2027 10:39:01.197             0.958           166.906
       202   07 Jun 2027 10:39:18.470   07 Jun 2027 10:39:18.652             0.182             6.656
       203   07 Jun 2027 10:40:18.855   07 Jun 2027 10:40:21.069             2.214           722.937
       204   07 Jun 2027 10:40:21.789   07 Jun 2027 10:40:22.565             0.776            22.500
       205   08 Jun 2027 03:00:07.671   08 Jun 2027 03:00:16.347             8.676          4338.000
       206   08 Jun 2027 03:00:23.246   08 Jun 2027 03:00:24.985             1.739           869.500
       207   08 Jun 2027 03:00:51.765   08 Jun 2027 03:01:02.195            10.430          5215.000
       208   08 Jun 2027 03:01:38.757   08 Jun 2027 03:01:41.094             2.337          1168.500
       209   08 Jun 2027 03:02:16.394   08 Jun 2027 03:02:35.239            18.845          9422.500
       210   08 Jun 2027 04:23:02.897   08 Jun 2027 04:23:24.355            21.458         10729.000
       211   08 Jun 2027 05:58:50.567   08 Jun 2027 06:01:46.366           175.799         87899.500
       212   08 Jun 2027 06:02:04.191   08 Jun 2027 06:02:08.819             4.628          2314.000
       213   08 Jun 2027 06:02:18.667   08 Jun 2027 06:02:19.503             0.836           418.000
       214   08 Jun 2027 06:02:25.197   08 Jun 2027 06:02:50.874            25.677         12838.500
       215   08 Jun 2027 07:33:48.211   08 Jun 2027 07:34:31.531            43.320         18990.875
       216   08 Jun 2027 07:35:34.305   08 Jun 2027 07:35:36.218             1.913           318.500
       217   08 Jun 2027 07:36:17.421   08 Jun 2027 07:36:20.090             2.669          1258.438
       218   08 Jun 2027 07:36:49.073   08 Jun 2027 07:36:50.772             1.699           677.344
       219   08 Jun 2027 07:37:31.198   08 Jun 2027 07:37:34.812             3.614          1260.656
       220   08 Jun 2027 07:39:05.988   08 Jun 2027 07:39:12.069             6.081          2159.250
       221   08 Jun 2027 07:39:27.059   08 Jun 2027 07:39:29.190             2.131           369.812
       222   08 Jun 2027 07:40:14.131   08 Jun 2027 07:40:18.605             4.474          1404.406
       223   08 Jun 2027 07:40:46.988   08 Jun 2027 07:40:49.174             2.186           864.812
       224   08 Jun 2027 09:10:01.647   08 Jun 2027 09:10:16.777            15.130          5864.937
       225   08 Jun 2027 09:13:48.420   08 Jun 2027 09:13:49.146             0.726           356.344
       226   08 Jun 2027 09:14:46.642   08 Jun 2027 09:14:50.488             3.846          1796.750
       227   08 Jun 2027 09:15:16.166   08 Jun 2027 09:15:19.961             3.795           771.281
       228   08 Jun 2027 10:48:21.844   08 Jun 2027 10:48:34.465            12.621          6275.781
       229   08 Jun 2027 10:50:26.133   08 Jun 2027 10:50:32.201             6.068          2261.094
       230   08 Jun 2027 10:51:15.888   08 Jun 2027 10:51:17.172             1.284           433.938
       231   08 Jun 2027 10:52:04.312   08 Jun 2027 10:52:09.754             5.442          1442.250
       232   09 Jun 2027 03:00:00.000   09 Jun 2027 03:00:28.508            28.508         14254.000
       233   09 Jun 2027 03:10:56.204   09 Jun 2027 03:12:08.971            72.767         36383.500
       234   09 Jun 2027 03:12:52.483   09 Jun 2027 03:12:59.211             6.728          3364.000
       235   09 Jun 2027 03:13:45.761   09 Jun 2027 03:13:50.922             5.161          2580.500
       236   09 Jun 2027 04:33:53.005   09 Jun 2027 04:34:17.806            24.801         12400.500
       237   09 Jun 2027 04:35:20.428   09 Jun 2027 04:35:39.276            18.848          9424.000
       238   09 Jun 2027 06:09:12.748   09 Jun 2027 06:09:38.195            25.447         12723.500
       239   09 Jun 2027 06:10:35.580   09 Jun 2027 06:12:55.243           139.663         69192.594
       240   09 Jun 2027 06:13:17.198   09 Jun 2027 06:13:17.198             0.000             0.000
       241   09 Jun 2027 06:14:13.486   09 Jun 2027 06:14:15.470             1.984           992.000
       242   09 Jun 2027 06:14:48.044   09 Jun 2027 06:14:53.899             5.855          2453.031
       243   09 Jun 2027 07:45:21.212   09 Jun 2027 07:45:30.797             9.585          3470.156
       244   09 Jun 2027 07:47:24.595   09 Jun 2027 07:47:30.452             5.857          2206.469
       245   09 Jun 2027 07:49:33.211   09 Jun 2027 07:49:36.250             3.039          1456.500
       246   09 Jun 2027 07:50:01.419   09 Jun 2027 07:50:04.611             3.192           188.188
       247   09 Jun 2027 07:50:14.431   09 Jun 2027 07:50:23.300             8.869           239.094
       248   09 Jun 2027 07:51:06.373   09 Jun 2027 07:51:09.610             3.237           643.437
       249   09 Jun 2027 07:52:40.814   09 Jun 2027 07:52:50.474             9.660          2318.750
       250   09 Jun 2027 09:22:23.455   09 Jun 2027 09:22:33.464            10.009          4762.344
       251   09 Jun 2027 09:26:01.443   09 Jun 2027 09:26:01.619             0.176            11.625
       252   09 Jun 2027 09:27:09.225   09 Jun 2027 09:27:13.002             3.777          1344.906
       253   09 Jun 2027 09:27:23.200   09 Jun 2027 09:27:24.566             1.366           169.031
       254   09 Jun 2027 09:28:09.190   09 Jun 2027 09:28:13.151             3.961          1394.500
       255   09 Jun 2027 11:00:23.168   09 Jun 2027 11:00:36.543            13.375          5945.875
       256   09 Jun 2027 11:02:25.873   09 Jun 2027 11:02:31.865             5.992          2364.000
       257   09 Jun 2027 11:03:49.182   09 Jun 2027 11:03:57.687             8.505          2357.062
       258   09 Jun 2027 11:04:14.995   09 Jun 2027 11:04:17.880             2.885           540.875
       259   10 Jun 2027 03:11:15.575   10 Jun 2027 03:11:19.089             3.514          1757.000
       260   10 Jun 2027 03:11:23.582   10 Jun 2027 03:11:23.582             0.000             0.000
       261   10 Jun 2027 03:11:37.434   10 Jun 2027 03:11:56.052            18.618          9309.000
       262   10 Jun 2027 03:22:57.829   10 Jun 2027 03:24:17.541            79.712         39856.000
       263   10 Jun 2027 04:45:10.851   10 Jun 2027 04:46:23.519            72.668         36334.000
       264   10 Jun 2027 04:47:12.658   10 Jun 2027 04:47:40.978            28.320         14160.000
       265   10 Jun 2027 04:48:30.494   10 Jun 2027 04:48:47.628            17.134          8567.000
       266   10 Jun 2027 04:49:19.876   10 Jun 2027 04:49:19.876             0.000             0.000
       267   10 Jun 2027 06:20:17.347   10 Jun 2027 06:21:46.696            89.349         44674.500
       268   10 Jun 2027 06:22:19.406   10 Jun 2027 06:22:22.842             3.436          1036.063
       269   10 Jun 2027 06:23:48.669   10 Jun 2027 06:23:52.921             4.252          2045.187
       270   10 Jun 2027 06:24:05.569   10 Jun 2027 06:24:07.794             2.225           178.625
       271   10 Jun 2027 06:24:40.909   10 Jun 2027 06:24:44.266             3.357          1034.844
       272   10 Jun 2027 06:25:23.625   10 Jun 2027 06:25:24.754             1.129           205.156
       273   10 Jun 2027 06:26:29.690   10 Jun 2027 06:26:34.237             4.547          1802.031
       274   10 Jun 2027 06:26:45.016   10 Jun 2027 06:26:45.662             0.646           269.719
       275   10 Jun 2027 06:27:11.881   10 Jun 2027 06:27:16.975             5.094           663.969
       276   10 Jun 2027 06:28:27.207   10 Jun 2027 06:28:29.431             2.224          1112.000
       277   10 Jun 2027 07:57:32.432   10 Jun 2027 07:57:36.811             4.379           665.625
       278   10 Jun 2027 08:00:42.566   10 Jun 2027 08:00:43.400             0.834           103.094
       279   10 Jun 2027 08:01:34.935   10 Jun 2027 08:01:40.033             5.098          1362.781
       280   10 Jun 2027 08:02:14.279   10 Jun 2027 08:02:22.321             8.042           542.000
       281   10 Jun 2027 08:03:26.792   10 Jun 2027 08:03:33.844             7.052          1907.344
       282   10 Jun 2027 08:03:36.179   10 Jun 2027 08:03:36.745             0.566            39.875
       283   10 Jun 2027 08:04:56.413   10 Jun 2027 08:04:56.986             0.573           286.500
       284   10 Jun 2027 09:34:26.968   10 Jun 2027 09:34:43.680            16.712          5271.969
       285   10 Jun 2027 09:37:59.815   10 Jun 2027 09:38:05.442             5.627          1905.562
       286   10 Jun 2027 09:38:19.170   10 Jun 2027 09:38:19.696             0.526            24.062
       287   10 Jun 2027 09:38:58.643   10 Jun 2027 09:39:00.936             2.293           654.750
       288   10 Jun 2027 09:39:29.266   10 Jun 2027 09:39:48.046            18.780           630.031
       289   10 Jun 2027 11:12:23.093   10 Jun 2027 11:12:37.139            14.046          5718.313
       290   10 Jun 2027 11:14:29.296   10 Jun 2027 11:14:34.309             5.013           696.031
       291   10 Jun 2027 11:14:45.840   10 Jun 2027 11:14:48.734             2.894           214.531
       292   10 Jun 2027 11:16:08.064   10 Jun 2027 11:16:10.247             2.183          1032.562
       293   11 Jun 2027 03:22:44.152   11 Jun 2027 03:23:23.353            39.201         19600.500
       294   11 Jun 2027 03:34:54.544   11 Jun 2027 03:35:33.419            38.875         19437.500
       295   11 Jun 2027 04:56:56.323   11 Jun 2027 04:58:16.899            80.576         40288.000
       296   11 Jun 2027 04:58:58.945   11 Jun 2027 05:00:04.289            65.344         32672.000
       297   11 Jun 2027 05:00:18.327   11 Jun 2027 05:00:18.327             0.000             0.000
       298   11 Jun 2027 05:00:23.103   11 Jun 2027 05:00:25.072             1.969           984.500
       299   11 Jun 2027 05:00:54.788   11 Jun 2027 05:01:12.878            18.090          9045.000
       300   11 Jun 2027 06:31:46.681   11 Jun 2027 06:33:03.408            76.727         37437.406
       301   11 Jun 2027 06:34:18.051   11 Jun 2027 06:34:23.782             5.731          2198.625
       302   11 Jun 2027 06:35:49.032   11 Jun 2027 06:35:53.139             4.107          1850.156
       303   11 Jun 2027 06:37:17.858   11 Jun 2027 06:37:28.169            10.311          2460.094
       304   11 Jun 2027 06:38:26.879   11 Jun 2027 06:38:33.769             6.890          1619.062
       305   11 Jun 2027 06:39:03.763   11 Jun 2027 06:39:04.979             1.216           522.219
       306   11 Jun 2027 06:39:21.669   11 Jun 2027 06:39:23.310             1.641            91.219
       307   11 Jun 2027 06:40:31.539   11 Jun 2027 06:40:35.722             4.183          1940.156
       308   11 Jun 2027 08:09:33.100   11 Jun 2027 08:09:36.478             3.378          1405.938
       309   11 Jun 2027 08:11:23.884   11 Jun 2027 08:11:35.979            12.095          2028.531
       310   11 Jun 2027 08:14:18.499   11 Jun 2027 08:14:21.329             2.830          1318.469
       311   11 Jun 2027 08:15:33.971   11 Jun 2027 08:15:37.487             3.516           971.781
       312   11 Jun 2027 08:16:24.784   11 Jun 2027 08:16:30.178             5.394           840.500
       313   11 Jun 2027 09:46:18.403   11 Jun 2027 09:46:33.407            15.004          5630.969
       314   11 Jun 2027 09:49:08.485   11 Jun 2027 09:49:10.368             1.883           135.594
       315   11 Jun 2027 09:50:23.185   11 Jun 2027 09:50:25.672             2.487           742.406
       316   11 Jun 2027 09:50:59.021   11 Jun 2027 09:51:01.059             2.038           806.062
       317   11 Jun 2027 09:51:16.042   11 Jun 2027 09:51:18.337             2.295           468.219
       318   11 Jun 2027 09:52:03.835   11 Jun 2027 09:52:09.182             5.347           920.156
       319   11 Jun 2027 09:52:51.692   11 Jun 2027 09:52:59.230             7.538           971.750
       320   11 Jun 2027 11:24:23.730   11 Jun 2027 11:24:40.600            16.870          6198.813
       321   11 Jun 2027 11:26:43.680   11 Jun 2027 11:26:45.881             2.201           654.813
       322   11 Jun 2027 11:26:54.197   11 Jun 2027 11:26:56.408             2.211           240.281
       323   11 Jun 2027 11:27:31.135   11 Jun 2027 11:27:37.374             6.239           381.469
       324   11 Jun 2027 11:28:29.629   11 Jun 2027 11:28:32.469             2.840          1420.000
       325   12 Jun 2027 03:34:45.451   12 Jun 2027 03:34:50.884             5.433          2716.500
       326   12 Jun 2027 03:35:23.614   12 Jun 2027 03:35:25.023             1.409           704.500
       327   12 Jun 2027 03:35:27.750   12 Jun 2027 03:35:42.839            15.089          7544.500
       328   12 Jun 2027 03:36:30.211   12 Jun 2027 03:36:30.211             0.000             0.000
       329   12 Jun 2027 03:36:31.620   12 Jun 2027 03:36:37.804             6.184          3092.000
       330   12 Jun 2027 05:10:43.374   12 Jun 2027 05:14:04.316           200.942        100471.000
       331   12 Jun 2027 06:44:32.698   12 Jun 2027 06:46:01.354            88.656         42992.906
       332   12 Jun 2027 06:46:30.619   12 Jun 2027 06:46:36.423             5.804           394.781
       333   12 Jun 2027 06:47:14.673   12 Jun 2027 06:47:16.071             1.398           483.781
       334   12 Jun 2027 06:47:34.660   12 Jun 2027 06:47:38.185             3.525           578.219
       335   12 Jun 2027 06:48:43.824   12 Jun 2027 06:48:50.676             6.852          2028.156
       336   12 Jun 2027 06:50:00.269   12 Jun 2027 06:50:08.357             8.088          1733.781
       337   12 Jun 2027 06:50:19.582   12 Jun 2027 06:50:20.691             1.109           350.781
       338   12 Jun 2027 06:50:42.901   12 Jun 2027 06:50:44.708             1.807           610.156
       339   12 Jun 2027 06:51:27.919   12 Jun 2027 06:51:32.843             4.924          1350.344
       340   12 Jun 2027 06:52:02.690   12 Jun 2027 06:52:02.923             0.233           116.500
       341   12 Jun 2027 06:52:20.237   12 Jun 2027 06:52:29.308             9.071          1201.125
       342   12 Jun 2027 06:53:02.183   12 Jun 2027 06:53:02.403             0.220           110.000
       343   12 Jun 2027 08:21:36.921   12 Jun 2027 08:21:47.813            10.892          2426.094
       344   12 Jun 2027 08:23:22.488   12 Jun 2027 08:23:26.084             3.596          1778.437
       345   12 Jun 2027 08:25:39.165   12 Jun 2027 08:25:40.726             1.561            58.688
       346   12 Jun 2027 08:26:45.094   12 Jun 2027 08:26:48.292             3.198           928.406
       347   12 Jun 2027 08:26:57.232   12 Jun 2027 08:26:59.300             2.068            13.781
       348   12 Jun 2027 08:27:28.721   12 Jun 2027 08:27:29.362             0.641           144.250
       349   12 Jun 2027 08:28:20.393   12 Jun 2027 08:28:20.863             0.470           191.469
       350   12 Jun 2027 08:28:26.735   12 Jun 2027 08:28:27.706             0.971            43.062
       351   12 Jun 2027 09:58:35.508   12 Jun 2027 09:58:46.745            11.237          4651.719
       352   12 Jun 2027 10:01:29.958   12 Jun 2027 10:01:36.111             6.153           594.750
       353   12 Jun 2027 10:02:43.700   12 Jun 2027 10:02:45.891             2.191           997.656
       354   12 Jun 2027 10:03:02.667   12 Jun 2027 10:03:03.886             1.219           524.250
       355   12 Jun 2027 10:03:28.634   12 Jun 2027 10:03:32.172             3.538           773.375
       356   12 Jun 2027 10:04:15.127   12 Jun 2027 10:04:20.569             5.442          1305.563
       357   12 Jun 2027 10:04:38.682   12 Jun 2027 10:04:46.025             7.343           514.094
       358   12 Jun 2027 11:35:37.527   12 Jun 2027 11:35:48.393            10.866          4878.094
       359   12 Jun 2027 11:38:56.017   12 Jun 2027 11:38:58.713             2.696           396.094
       360   12 Jun 2027 11:39:25.245   12 Jun 2027 11:39:32.616             7.371           332.781
       361   12 Jun 2027 11:40:13.827   12 Jun 2027 11:40:15.189             1.362            50.500
       362   13 Jun 2027 03:46:39.663   13 Jun 2027 03:46:40.387             0.724           362.000
       363   13 Jun 2027 03:47:00.189   13 Jun 2027 03:47:26.732            26.543         13271.500
       364   13 Jun 2027 03:48:01.415   13 Jun 2027 03:48:01.415             0.000             0.000
       365   13 Jun 2027 05:23:02.366   13 Jun 2027 05:25:59.234           176.868         88434.000
       366   13 Jun 2027 06:56:30.813   13 Jun 2027 06:58:19.097           108.284         53296.875
       367   13 Jun 2027 06:58:50.431   13 Jun 2027 06:58:51.773             1.342            44.125
       368   13 Jun 2027 06:59:36.580   13 Jun 2027 06:59:38.877             2.297           838.187
       369   13 Jun 2027 07:00:13.349   13 Jun 2027 07:00:13.349             0.000             0.000
       370   13 Jun 2027 07:00:45.765   13 Jun 2027 07:00:51.266             5.501          2090.250
       371   13 Jun 2027 07:02:40.418   13 Jun 2027 07:02:47.720             7.302          3296.625
       372   13 Jun 2027 07:03:25.520   13 Jun 2027 07:03:29.422             3.902          1032.094
       373   13 Jun 2027 07:03:51.636   13 Jun 2027 07:03:56.934             5.298           694.188
       374   13 Jun 2027 07:04:51.141   13 Jun 2027 07:04:55.621             4.480          1296.563
       375   13 Jun 2027 07:04:58.273   13 Jun 2027 07:04:58.902             0.629            82.875
       376   13 Jun 2027 08:34:03.421   13 Jun 2027 08:34:08.834             5.413          2313.750
       377   13 Jun 2027 08:39:11.382   13 Jun 2027 08:39:14.745             3.363           632.781
       378   13 Jun 2027 08:40:06.786   13 Jun 2027 08:40:10.276             3.490          1432.219
       379   13 Jun 2027 10:10:57.983   13 Jun 2027 10:11:13.203            15.220          6134.844
       380   13 Jun 2027 10:12:01.839   13 Jun 2027 10:12:06.119             4.280          1251.281
       381   13 Jun 2027 10:14:06.681   13 Jun 2027 10:14:12.875             6.194           161.656
       382   13 Jun 2027 10:14:45.099   13 Jun 2027 10:14:50.443             5.344          1007.000
       383   13 Jun 2027 10:15:03.403   13 Jun 2027 10:15:05.023             1.620           222.469
       384   13 Jun 2027 10:15:47.586   13 Jun 2027 10:15:51.685             4.099           967.094
       385   13 Jun 2027 10:15:55.153   13 Jun 2027 10:15:56.708             1.555            97.187
       386   13 Jun 2027 10:16:16.201   13 Jun 2027 10:16:21.939             5.738           261.844
       387   13 Jun 2027 10:16:39.332   13 Jun 2027 10:16:40.287             0.955           474.469
       388   13 Jun 2027 11:47:48.934   13 Jun 2027 11:47:59.869            10.935          4946.187
       389   13 Jun 2027 11:48:47.694   13 Jun 2027 11:48:49.657             1.963           244.594
       390   13 Jun 2027 11:49:40.964   13 Jun 2027 11:49:45.903             4.939           288.187
       391   13 Jun 2027 11:50:51.619   13 Jun 2027 11:50:54.538             2.919          1145.125
       392   13 Jun 2027 11:51:22.125   13 Jun 2027 11:51:24.181             2.056           862.094
       393   13 Jun 2027 11:52:17.125   13 Jun 2027 11:52:18.356             1.231            85.844
