uniorb/output/strategy_4/Camera/Camera_KinoSat_110802.txt

KinoSat_110802
-------------------------
    Access    *     Start Time (UTCG)     *     Stop Time (UTCG)  *   Duration (s) *   Data (Mbytes)
         1   01 Jun 2027 04:02:09.879   01 Jun 2027 04:03:29.335            79.456         39728.000
         2   01 Jun 2027 04:04:17.954   01 Jun 2027 04:04:47.319            29.365         14682.500
         3   01 Jun 2027 04:05:15.332   01 Jun 2027 04:05:15.332             0.000             0.000
         4   01 Jun 2027 04:06:45.248   01 Jun 2027 04:06:50.606             5.358          2679.000
         5   01 Jun 2027 04:07:21.802   01 Jun 2027 04:07:25.521             3.719          1859.500
         6   01 Jun 2027 04:07:54.083   01 Jun 2027 04:08:02.408             8.325          4162.500
         7   01 Jun 2027 05:37:02.910   01 Jun 2027 05:38:41.224            98.314         49157.000
         8   01 Jun 2027 05:39:31.668   01 Jun 2027 05:40:07.460            35.792         17896.000
         9   01 Jun 2027 05:40:23.503   01 Jun 2027 05:40:30.946             7.443          3721.500
        10   01 Jun 2027 05:45:56.453   01 Jun 2027 05:46:03.162             6.709          3354.500
        11   01 Jun 2027 07:14:56.535   01 Jun 2027 07:17:03.774           127.239         63619.500
        12   01 Jun 2027 07:18:02.507   01 Jun 2027 07:18:12.662            10.155          5077.500
        13   01 Jun 2027 07:18:36.706   01 Jun 2027 07:18:51.370            14.664          7332.000
        14   01 Jun 2027 07:21:50.716   01 Jun 2027 07:21:57.645             6.929          3464.500
        15   01 Jun 2027 08:51:40.471   01 Jun 2027 08:54:47.162           186.691         93345.500
        16   01 Jun 2027 08:56:06.465   01 Jun 2027 08:56:10.248             3.783          1891.500
        17   01 Jun 2027 08:56:25.361   01 Jun 2027 08:56:35.050             9.689          4844.500
        18   01 Jun 2027 08:56:53.882   01 Jun 2027 08:57:05.113            11.231          5615.500
        19   01 Jun 2027 08:57:37.341   01 Jun 2027 08:57:45.267             7.926          3963.000
        20   01 Jun 2027 08:57:59.700   01 Jun 2027 08:58:24.525            24.825         12412.500
        21   01 Jun 2027 10:29:46.729   01 Jun 2027 10:31:46.272           119.543         59771.500
        22   01 Jun 2027 10:32:21.443   01 Jun 2027 10:32:24.462             3.019          1509.500
        23   01 Jun 2027 10:32:37.929   01 Jun 2027 10:32:42.055             4.126          2063.000
        24   01 Jun 2027 10:33:01.056   01 Jun 2027 10:33:08.506             7.450          3725.000
        25   02 Jun 2027 04:16:07.965   02 Jun 2027 04:16:36.049            28.084         14042.000
        26   02 Jun 2027 04:17:19.052   02 Jun 2027 04:17:47.212            28.160         14080.000
        27   02 Jun 2027 05:49:55.353   02 Jun 2027 05:52:43.136           167.783         83891.500
        28   02 Jun 2027 05:53:28.898   02 Jun 2027 05:53:32.788             3.890          1945.000
        29   02 Jun 2027 05:55:58.003   02 Jun 2027 05:56:16.010            18.007          9003.500
        30   02 Jun 2027 05:58:12.453   02 Jun 2027 05:58:19.488             7.035          3517.500
        31   02 Jun 2027 05:58:25.636   02 Jun 2027 05:58:25.779             0.143            71.500
        32   02 Jun 2027 07:27:04.158   02 Jun 2027 07:30:17.069           192.911         96455.500
        33   02 Jun 2027 07:32:47.623   02 Jun 2027 07:33:09.134            21.511         10755.500
        34   02 Jun 2027 07:33:27.347   02 Jun 2027 07:33:58.955            31.608         15804.000
        35   02 Jun 2027 07:34:19.936   02 Jun 2027 07:34:22.040             2.104          1052.000
        36   02 Jun 2027 09:04:18.740   02 Jun 2027 09:07:51.017           212.277        106138.500
        37   02 Jun 2027 09:08:37.776   02 Jun 2027 09:08:45.434             7.658          3829.000
        38   02 Jun 2027 09:09:52.097   02 Jun 2027 09:10:02.905            10.808          3507.250
        39   02 Jun 2027 10:41:00.653   02 Jun 2027 10:41:24.158            23.505         10376.406
        40   02 Jun 2027 10:42:43.561   02 Jun 2027 10:42:49.315             5.754            49.687
        41   02 Jun 2027 10:45:27.209   02 Jun 2027 10:45:27.569             0.360            57.031
        42   03 Jun 2027 04:28:20.742   03 Jun 2027 04:30:14.498           113.756         56878.000
        43   03 Jun 2027 04:30:21.938   03 Jun 2027 04:30:22.170             0.232           116.000
        44   03 Jun 2027 04:31:25.017   03 Jun 2027 04:31:26.067             1.050           525.000
        45   03 Jun 2027 06:02:19.207   03 Jun 2027 06:05:00.413           161.206         80603.000
        46   03 Jun 2027 06:06:26.954   03 Jun 2027 06:06:40.523            13.569          6784.500
        47   03 Jun 2027 07:39:29.518   03 Jun 2027 07:39:54.121            24.603         11579.657
        48   03 Jun 2027 07:42:57.889   03 Jun 2027 07:43:01.616             3.727           806.469
        49   03 Jun 2027 07:45:09.698   03 Jun 2027 07:45:13.166             3.468           157.156
        50   03 Jun 2027 07:45:46.774   03 Jun 2027 07:45:50.070             3.296          1050.250
        51   03 Jun 2027 07:46:08.674   03 Jun 2027 07:46:09.388             0.714           257.687
        52   03 Jun 2027 09:16:28.848   03 Jun 2027 09:16:42.946            14.098          7002.344
        53   03 Jun 2027 09:19:44.733   03 Jun 2027 09:19:47.207             2.474          1170.469
        54   03 Jun 2027 09:21:25.641   03 Jun 2027 09:21:28.957             3.316          1136.125
        55   03 Jun 2027 10:53:15.433   03 Jun 2027 10:53:30.013            14.580          7099.531
        56   03 Jun 2027 10:55:27.622   03 Jun 2027 10:55:31.165             3.543           964.687
        57   03 Jun 2027 10:57:31.415   03 Jun 2027 10:57:35.564             4.149           129.406
        58   04 Jun 2027 03:03:54.059   04 Jun 2027 03:04:20.360            26.301         13150.500
        59   04 Jun 2027 04:40:26.457   04 Jun 2027 04:40:54.070            27.613         13806.500
        60   04 Jun 2027 04:41:11.726   04 Jun 2027 04:43:59.288           167.562         83781.000
        61   04 Jun 2027 06:15:35.287   04 Jun 2027 06:17:01.327            86.040         42933.031
        62   04 Jun 2027 06:17:27.539   04 Jun 2027 06:17:31.392             3.853           664.562
        63   04 Jun 2027 06:18:30.659   04 Jun 2027 06:18:31.702             1.043           113.312
        64   04 Jun 2027 06:19:01.712   04 Jun 2027 06:19:06.126             4.414           890.406
        65   04 Jun 2027 06:19:38.246   04 Jun 2027 06:19:40.375             2.129           637.344
        66   04 Jun 2027 06:20:30.808   04 Jun 2027 06:20:31.730             0.922           375.875
        67   04 Jun 2027 06:21:33.049   04 Jun 2027 06:21:37.198             4.149           260.188
        68   04 Jun 2027 06:22:01.126   04 Jun 2027 06:22:03.678             2.552           607.719
        69   04 Jun 2027 07:51:55.480   04 Jun 2027 07:52:05.914            10.434          1812.813
        70   04 Jun 2027 07:54:35.194   04 Jun 2027 07:54:38.888             3.694           838.750
        71   04 Jun 2027 07:57:02.044   04 Jun 2027 07:57:02.622             0.578           111.500
        72   04 Jun 2027 07:57:28.248   04 Jun 2027 07:57:30.267             2.019           199.000
        73   04 Jun 2027 09:29:29.715   04 Jun 2027 09:29:42.697            12.982          4831.250
        74   04 Jun 2027 09:33:37.508   04 Jun 2027 09:33:39.823             2.315           900.281
        75   04 Jun 2027 11:05:32.733   04 Jun 2027 11:05:44.846            12.113          5554.844
        76   04 Jun 2027 11:07:41.721   04 Jun 2027 11:07:43.700             1.979           324.219
        77   04 Jun 2027 11:09:00.872   04 Jun 2027 11:09:02.492             1.620           424.625
        78   04 Jun 2027 11:09:36.878   04 Jun 2027 11:09:37.778             0.900           322.688
        79   05 Jun 2027 03:16:01.280   05 Jun 2027 03:16:22.525            21.245         10622.500
        80   05 Jun 2027 03:18:24.200   05 Jun 2027 03:18:24.200             0.000             0.000
        81   05 Jun 2027 04:52:36.784   05 Jun 2027 04:56:04.267           207.483        103741.500
        82   05 Jun 2027 06:27:46.990   05 Jun 2027 06:29:03.908            76.918         36208.657
        83   05 Jun 2027 06:30:16.313   05 Jun 2027 06:30:21.134             4.821          1922.156
        84   05 Jun 2027 06:30:33.764   05 Jun 2027 06:30:35.460             1.696            52.937
        85   05 Jun 2027 06:32:19.085   05 Jun 2027 06:32:25.272             6.187          3068.187
        86   05 Jun 2027 06:33:31.213   05 Jun 2027 06:33:34.863             3.650          1791.187
        87   05 Jun 2027 06:33:40.745   05 Jun 2027 06:33:42.595             1.850            78.344
        88   05 Jun 2027 06:34:21.081   05 Jun 2027 06:34:22.501             1.420           710.000
        89   05 Jun 2027 08:04:07.768   05 Jun 2027 08:04:10.480             2.712           935.875
        90   05 Jun 2027 08:06:32.291   05 Jun 2027 08:06:34.156             1.865           205.500
        91   05 Jun 2027 08:07:58.231   05 Jun 2027 08:08:01.498             3.267           317.656
        92   05 Jun 2027 08:08:53.979   05 Jun 2027 08:08:57.101             3.122           120.031
        93   05 Jun 2027 08:09:32.231   05 Jun 2027 08:09:38.258             6.027          1042.906
        94   05 Jun 2027 09:41:24.457   05 Jun 2027 09:41:35.460            11.003          5376.000
        95   05 Jun 2027 09:45:00.881   05 Jun 2027 09:45:03.212             2.331            13.344
        96   05 Jun 2027 09:45:40.424   05 Jun 2027 09:45:42.583             2.159           950.687
        97   05 Jun 2027 09:46:03.587   05 Jun 2027 09:46:04.882             1.295           489.281
        98   05 Jun 2027 11:17:36.990   05 Jun 2027 11:17:51.341            14.351          6247.344
        99   05 Jun 2027 11:19:12.761   05 Jun 2027 11:19:19.103             6.342           884.250
       100   05 Jun 2027 11:19:43.499   05 Jun 2027 11:19:46.500             3.001           701.188
       101   05 Jun 2027 11:21:24.924   05 Jun 2027 11:21:29.884             4.960          2246.062
       102   06 Jun 2027 03:28:34.609   06 Jun 2027 03:28:37.888             3.279          1639.500
       103   06 Jun 2027 03:29:30.922   06 Jun 2027 03:29:35.782             4.860          2430.000
       104   06 Jun 2027 03:31:02.937   06 Jun 2027 03:31:06.994             4.057          2028.500
       105   06 Jun 2027 05:04:24.016   06 Jun 2027 05:07:44.234           200.218        100109.000
       106   06 Jun 2027 06:39:17.082   06 Jun 2027 06:40:40.092            83.010         40418.812
       107   06 Jun 2027 06:41:07.382   06 Jun 2027 06:41:09.260             1.878           619.125
       108   06 Jun 2027 06:42:34.344   06 Jun 2027 06:42:35.605             1.261           277.219
       109   06 Jun 2027 06:43:00.626   06 Jun 2027 06:43:03.622             2.996           738.375
       110   06 Jun 2027 06:44:18.859   06 Jun 2027 06:44:23.574             4.715          1962.156
       111   06 Jun 2027 06:45:17.169   06 Jun 2027 06:45:21.729             4.560          1258.750
       112   06 Jun 2027 06:45:59.421   06 Jun 2027 06:46:04.050             4.629          1140.250
       113   06 Jun 2027 08:15:46.558   06 Jun 2027 08:15:50.838             4.280          1954.500
       114   06 Jun 2027 08:17:17.230   06 Jun 2027 08:17:19.336             2.106           796.656
       115   06 Jun 2027 08:17:57.655   06 Jun 2027 08:18:01.670             4.015           684.594
       116   06 Jun 2027 08:18:33.584   06 Jun 2027 08:18:34.064             0.480           205.187
       117   06 Jun 2027 08:20:03.095   06 Jun 2027 08:20:06.479             3.384          1016.594
       118   06 Jun 2027 08:20:33.000   06 Jun 2027 08:20:34.667             1.667           302.313
       119   06 Jun 2027 08:21:13.637   06 Jun 2027 08:21:15.238             1.601           395.656
       120   06 Jun 2027 09:54:04.236   06 Jun 2027 09:54:14.059             9.823          4265.375
       121   06 Jun 2027 09:54:30.322   06 Jun 2027 09:54:31.799             1.477            63.281
       122   06 Jun 2027 09:55:43.629   06 Jun 2027 09:55:51.900             8.271          1842.000
       123   06 Jun 2027 09:56:13.475   06 Jun 2027 09:56:15.048             1.573           596.281
       124   06 Jun 2027 09:57:15.467   06 Jun 2027 09:57:16.842             1.375           132.125
       125   06 Jun 2027 09:57:36.090   06 Jun 2027 09:57:37.390             1.300           557.375
       126   06 Jun 2027 11:29:30.843   06 Jun 2027 11:29:43.520            12.677          4966.875
       127   07 Jun 2027 03:39:09.048   07 Jun 2027 03:39:21.286            12.238          6119.000
       128   07 Jun 2027 03:41:30.168   07 Jun 2027 03:41:30.168             0.000             0.000
       129   07 Jun 2027 03:41:43.956   07 Jun 2027 03:42:05.999            22.043         11021.500
       130   07 Jun 2027 05:14:40.495   07 Jun 2027 05:15:04.139            23.644         11822.000
       131   07 Jun 2027 05:15:22.369   07 Jun 2027 05:15:31.263             8.894          4447.000
       132   07 Jun 2027 05:16:09.399   07 Jun 2027 05:17:37.597            88.198         44099.000
       133   07 Jun 2027 05:18:28.398   07 Jun 2027 05:19:33.972            65.574         32787.000
       134   07 Jun 2027 06:51:00.068   07 Jun 2027 06:52:41.091           101.023         49961.500
       135   07 Jun 2027 06:53:37.864   07 Jun 2027 06:53:49.231            11.367          1472.562
       136   07 Jun 2027 06:54:01.755   07 Jun 2027 06:54:02.373             0.618           258.125
       137   07 Jun 2027 06:54:36.380   07 Jun 2027 06:54:38.870             2.490           694.531
       138   07 Jun 2027 06:55:03.779   07 Jun 2027 06:55:06.207             2.428           733.219
       139   07 Jun 2027 06:56:36.911   07 Jun 2027 06:56:38.477             1.566           590.531
       140   07 Jun 2027 06:56:57.989   07 Jun 2027 06:57:00.596             2.607           569.344
       141   07 Jun 2027 06:57:46.507   07 Jun 2027 06:57:49.168             2.661           925.469
       142   07 Jun 2027 08:28:06.605   07 Jun 2027 08:28:12.260             5.655          2102.000
       143   07 Jun 2027 08:28:25.811   07 Jun 2027 08:28:28.154             2.343           398.750
       144   07 Jun 2027 08:29:07.438   07 Jun 2027 08:29:09.209             1.771           676.875
       145   07 Jun 2027 08:31:01.314   07 Jun 2027 08:31:05.228             3.914          1058.562
       146   07 Jun 2027 08:32:10.490   07 Jun 2027 08:32:16.950             6.460           103.375
       147   07 Jun 2027 08:32:47.085   07 Jun 2027 08:32:49.085             2.000           710.687
       148   07 Jun 2027 08:33:26.845   07 Jun 2027 08:33:27.896             1.051           164.687
       149   07 Jun 2027 08:33:58.502   07 Jun 2027 08:34:01.954             3.452           878.594
       150   07 Jun 2027 08:34:24.042   07 Jun 2027 08:34:25.451             1.409           690.250
       151   07 Jun 2027 10:06:01.939   07 Jun 2027 10:06:14.591            12.652          5705.969
       152   07 Jun 2027 10:07:32.751   07 Jun 2027 10:07:38.295             5.544          2154.125
       153   07 Jun 2027 10:09:20.555   07 Jun 2027 10:09:22.705             2.150           553.375
       154   07 Jun 2027 10:09:38.580   07 Jun 2027 10:09:40.621             2.041           137.844
       155   07 Jun 2027 10:09:52.956   07 Jun 2027 10:09:56.817             3.861           222.063
       156   07 Jun 2027 11:39:07.085   07 Jun 2027 11:39:18.628            11.543          4954.094
       157   08 Jun 2027 03:50:51.672   08 Jun 2027 03:51:10.687            19.015          9507.500
       158   08 Jun 2027 03:53:01.551   08 Jun 2027 03:53:02.338             0.787           393.500
       159   08 Jun 2027 03:54:28.468   08 Jun 2027 03:54:48.381            19.913          9956.500
       160   08 Jun 2027 05:25:49.016   08 Jun 2027 05:27:44.796           115.780         57890.000
       161   08 Jun 2027 05:27:53.501   08 Jun 2027 05:29:08.686            75.185         37592.500
       162   08 Jun 2027 05:31:18.303   08 Jun 2027 05:31:43.160            24.857         12428.500
       163   08 Jun 2027 07:03:18.054   08 Jun 2027 07:04:32.298            74.244         37122.000
       164   08 Jun 2027 07:04:53.830   08 Jun 2027 07:05:02.093             8.263          2751.719
       165   08 Jun 2027 07:05:57.871   08 Jun 2027 07:05:59.683             1.812           416.906
       166   08 Jun 2027 07:06:13.283   08 Jun 2027 07:06:15.209             1.926           209.156
       167   08 Jun 2027 07:06:43.672   08 Jun 2027 07:06:47.446             3.774           172.500
       168   08 Jun 2027 07:08:16.433   08 Jun 2027 07:08:21.032             4.599          2091.562
       169   08 Jun 2027 07:08:42.510   08 Jun 2027 07:08:43.126             0.616            54.313
       170   08 Jun 2027 07:09:28.666   08 Jun 2027 07:09:32.913             4.247           484.844
       171   08 Jun 2027 07:10:23.749   08 Jun 2027 07:10:36.158            12.409          1375.750
       172   08 Jun 2027 08:40:02.648   08 Jun 2027 08:40:13.918            11.270          4529.344
       173   08 Jun 2027 08:41:56.239   08 Jun 2027 08:42:03.616             7.377          1735.250
       174   08 Jun 2027 08:43:21.249   08 Jun 2027 08:43:27.281             6.032          1698.031
       175   08 Jun 2027 08:43:51.205   08 Jun 2027 08:43:55.753             4.548           635.219
       176   08 Jun 2027 08:44:10.507   08 Jun 2027 08:44:14.273             3.766           190.844
       177   08 Jun 2027 08:45:18.217   08 Jun 2027 08:45:20.625             2.408           932.781
       178   08 Jun 2027 10:18:01.193   08 Jun 2027 10:18:14.906            13.713          6294.250
       179   08 Jun 2027 10:19:40.619   08 Jun 2027 10:19:47.829             7.210          1401.656
       180   08 Jun 2027 10:21:23.344   08 Jun 2027 10:21:25.848             2.504          1038.719
       181   08 Jun 2027 10:21:44.802   08 Jun 2027 10:21:48.312             3.510           206.656
       182   08 Jun 2027 11:51:38.948   08 Jun 2027 11:51:40.715             1.767           803.219
       183   08 Jun 2027 11:55:20.460   08 Jun 2027 11:55:23.971             3.511          1669.531
       184   08 Jun 2027 11:55:33.626   08 Jun 2027 11:55:33.959             0.333            37.000
       185   08 Jun 2027 11:56:20.671   08 Jun 2027 11:56:25.959             5.288          1111.156
       186   08 Jun 2027 11:56:37.260   08 Jun 2027 11:56:40.864             3.604           188.844
       187   08 Jun 2027 11:58:57.064   08 Jun 2027 11:58:59.660             2.596           257.063
       188   09 Jun 2027 04:02:23.784   09 Jun 2027 04:03:11.885            48.101         24050.500
       189   09 Jun 2027 05:37:17.384   09 Jun 2027 05:40:25.048           187.664         93832.000
       190   09 Jun 2027 05:41:28.668   09 Jun 2027 05:41:55.759            27.091         13545.500
       191   09 Jun 2027 05:44:56.761   09 Jun 2027 05:45:01.755             4.994          2497.000
       192   09 Jun 2027 07:15:11.410   09 Jun 2027 07:16:27.667            76.257         36781.532
       193   09 Jun 2027 07:16:56.816   09 Jun 2027 07:16:59.785             2.969           781.469
       194   09 Jun 2027 07:17:37.792   09 Jun 2027 07:17:44.808             7.016           563.531
       195   09 Jun 2027 07:18:39.214   09 Jun 2027 07:18:39.604             0.390           195.000
       196   09 Jun 2027 07:18:54.626   09 Jun 2027 07:18:59.881             5.255          1659.500
       197   09 Jun 2027 07:20:13.968   09 Jun 2027 07:20:22.466             8.498          1752.063
       198   09 Jun 2027 07:20:45.068   09 Jun 2027 07:20:47.382             2.314           609.125
       199   09 Jun 2027 07:22:28.690   09 Jun 2027 07:22:36.034             7.344           509.750
       200   09 Jun 2027 08:51:55.459   09 Jun 2027 08:52:07.507            12.048          5519.313
       201   09 Jun 2027 08:52:36.236   09 Jun 2027 08:52:45.759             9.523           287.281
       202   09 Jun 2027 08:52:58.618   09 Jun 2027 08:52:59.840             1.222           125.219
       203   09 Jun 2027 08:54:43.387   09 Jun 2027 08:54:44.935             1.548           664.062
       204   09 Jun 2027 08:55:45.882   09 Jun 2027 08:55:48.817             2.935          1243.844
       205   09 Jun 2027 08:56:21.335   09 Jun 2027 08:56:23.292             1.957           615.406
       206   09 Jun 2027 08:56:39.751   09 Jun 2027 08:56:44.728             4.977           444.406
       207   09 Jun 2027 08:58:01.509   09 Jun 2027 08:58:06.059             4.550          2143.219
       208   09 Jun 2027 10:29:48.904   09 Jun 2027 10:30:04.117            15.213          6491.062
       209   09 Jun 2027 10:33:36.107   09 Jun 2027 10:33:40.620             4.513          1234.938
       210   10 Jun 2027 04:16:22.221   10 Jun 2027 04:16:53.259            31.038         15519.000
       211   10 Jun 2027 04:18:19.890   10 Jun 2027 04:18:24.489             4.599          2299.500
       212   10 Jun 2027 04:19:03.005   10 Jun 2027 04:19:07.533             4.528          2264.000
       213   10 Jun 2027 05:50:10.277   10 Jun 2027 05:53:02.304           172.027         86013.500
       214   10 Jun 2027 05:54:00.902   10 Jun 2027 05:54:31.880            30.978         15489.000
       215   10 Jun 2027 05:55:03.417   10 Jun 2027 05:55:06.452             3.035          1517.500
       216   10 Jun 2027 05:56:20.194   10 Jun 2027 05:56:30.995            10.801          5400.500
       217   10 Jun 2027 05:58:37.219   10 Jun 2027 05:58:40.701             3.482          1741.000
       218   10 Jun 2027 07:27:19.412   10 Jun 2027 07:28:29.573            70.161         31511.718
       219   10 Jun 2027 07:28:59.658   10 Jun 2027 07:29:01.623             1.965           818.375
       220   10 Jun 2027 07:29:42.878   10 Jun 2027 07:29:44.573             1.695           298.156
       221   10 Jun 2027 07:30:50.380   10 Jun 2027 07:30:51.041             0.661           302.937
       222   10 Jun 2027 07:31:32.327   10 Jun 2027 07:31:34.132             1.805           721.000
       223   10 Jun 2027 07:33:23.180   10 Jun 2027 07:33:24.139             0.959           356.469
       224   10 Jun 2027 09:04:33.975   10 Jun 2027 09:04:47.089            13.114          5481.313
       225   10 Jun 2027 09:06:51.596   10 Jun 2027 09:06:54.952             3.356           909.156
       226   10 Jun 2027 09:08:04.304   10 Jun 2027 09:08:06.574             2.270          1131.531
       227   10 Jun 2027 09:08:42.618   10 Jun 2027 09:08:45.244             2.626           868.687
       228   10 Jun 2027 09:09:00.895   10 Jun 2027 09:09:02.162             1.267           242.031
       229   10 Jun 2027 09:10:06.767   10 Jun 2027 09:10:10.383             3.616             6.781
       230   10 Jun 2027 10:41:15.241   10 Jun 2027 10:41:27.025            11.784          5379.469
       231   10 Jun 2027 10:42:59.044   10 Jun 2027 10:43:01.183             2.139           989.125
       232   10 Jun 2027 10:43:54.016   10 Jun 2027 10:43:55.087             1.071           131.438
       233   10 Jun 2027 10:45:42.717   10 Jun 2027 10:45:44.770             2.053             1.875
       234   11 Jun 2027 04:28:35.290   11 Jun 2027 04:30:30.637           115.347         57673.500
       235   11 Jun 2027 04:31:34.151   11 Jun 2027 04:31:40.954             6.803          3401.500
       236   11 Jun 2027 06:02:35.826   11 Jun 2027 06:05:28.790           172.964         86482.000
       237   11 Jun 2027 06:08:33.488   11 Jun 2027 06:08:38.511             5.023          2511.500
       238   11 Jun 2027 06:09:15.509   11 Jun 2027 06:09:18.737             3.228          1614.000
       239   11 Jun 2027 06:09:27.263   11 Jun 2027 06:09:27.263             0.000             0.000
       240   11 Jun 2027 06:10:30.887   11 Jun 2027 06:10:31.116             0.229           114.500
       241   11 Jun 2027 07:39:44.545   11 Jun 2027 07:39:58.374            13.829          6067.968
       242   11 Jun 2027 07:42:46.852   11 Jun 2027 07:42:48.037             1.185            66.031
       243   11 Jun 2027 07:45:26.323   11 Jun 2027 07:45:28.030             1.707           221.344
       244   11 Jun 2027 07:46:06.627   11 Jun 2027 07:46:11.550             4.923          1206.156
       245   11 Jun 2027 07:46:25.563   11 Jun 2027 07:46:26.618             1.055           324.875
       246   11 Jun 2027 09:16:43.067   11 Jun 2027 09:16:56.171            13.104          5684.281
       247   11 Jun 2027 09:19:12.050   11 Jun 2027 09:19:19.570             7.520          1681.000
       248   11 Jun 2027 09:20:00.784   11 Jun 2027 09:20:02.548             1.764           788.625
       249   11 Jun 2027 09:21:10.195   11 Jun 2027 09:21:14.506             4.311          1701.750
       250   11 Jun 2027 09:21:51.486   11 Jun 2027 09:21:54.251             2.765           879.594
       251   11 Jun 2027 10:53:30.055   11 Jun 2027 10:53:44.877            14.822          7084.406
       252   12 Jun 2027 03:04:14.492   12 Jun 2027 03:04:36.183            21.691         10845.500
       253   12 Jun 2027 04:40:41.263   12 Jun 2027 04:44:10.907           209.644        104822.000
       254   12 Jun 2027 06:15:50.107   12 Jun 2027 06:17:03.533            73.426         36398.781
       255   12 Jun 2027 06:18:41.966   12 Jun 2027 06:18:48.655             6.689          2500.687
       256   12 Jun 2027 06:19:17.559   12 Jun 2027 06:19:21.263             3.704           903.250
       257   12 Jun 2027 06:19:52.377   12 Jun 2027 06:19:54.191             1.814           603.125
       258   12 Jun 2027 06:20:47.912   12 Jun 2027 06:20:50.203             2.291           427.625
       259   12 Jun 2027 06:21:48.454   12 Jun 2027 06:21:52.079             3.625           254.437
       260   12 Jun 2027 06:22:16.606   12 Jun 2027 06:22:18.929             2.323           595.313
       261   12 Jun 2027 07:52:10.466   12 Jun 2027 07:52:13.675             3.209          1251.531
       262   12 Jun 2027 07:55:33.912   12 Jun 2027 07:55:34.743             0.831           178.750
       263   12 Jun 2027 07:56:50.730   12 Jun 2027 07:56:51.381             0.651           199.375
       264   12 Jun 2027 07:57:16.990   12 Jun 2027 07:57:18.345             1.355           124.063
       265   12 Jun 2027 07:57:42.790   12 Jun 2027 07:57:43.592             0.802           137.094
       266   12 Jun 2027 07:58:16.095   12 Jun 2027 07:58:16.773             0.678           199.188
       267   12 Jun 2027 09:29:44.483   12 Jun 2027 09:29:56.831            12.348          5623.438
       268   12 Jun 2027 09:33:53.017   12 Jun 2027 09:33:55.246             2.229           892.844
       269   12 Jun 2027 11:05:47.788   12 Jun 2027 11:06:00.125            12.337          5602.094
       270   12 Jun 2027 11:09:17.050   12 Jun 2027 11:09:19.720             2.670           476.688
       271   12 Jun 2027 11:09:46.071   12 Jun 2027 11:09:53.269             7.198           723.500
       272   13 Jun 2027 03:16:15.798   13 Jun 2027 03:16:38.355            22.557         11278.500
       273   13 Jun 2027 03:18:45.400   13 Jun 2027 03:18:52.907             7.507          3753.500
       274   13 Jun 2027 04:52:51.606   13 Jun 2027 04:56:18.661           207.055        103527.500
       275   13 Jun 2027 06:28:01.884   13 Jun 2027 06:29:19.357            77.473         35561.719
       276   13 Jun 2027 06:30:31.825   13 Jun 2027 06:30:36.040             4.215          1914.469
       277   13 Jun 2027 06:30:48.473   13 Jun 2027 06:30:50.202             1.729           298.344
       278   13 Jun 2027 06:30:54.272   13 Jun 2027 06:30:56.315             2.043            78.250
       279   13 Jun 2027 06:32:34.513   13 Jun 2027 06:32:40.151             5.638          2758.750
       280   13 Jun 2027 06:33:47.221   13 Jun 2027 06:33:53.109             5.888          1757.156
       281   13 Jun 2027 06:33:56.420   13 Jun 2027 06:33:56.420             0.000             0.000
       282   13 Jun 2027 06:34:22.981   13 Jun 2027 06:34:27.551             4.570           909.875
       283   13 Jun 2027 08:04:22.031   13 Jun 2027 08:04:28.074             6.043          1591.031
       284   13 Jun 2027 08:05:39.756   13 Jun 2027 08:05:43.255             3.499           909.187
       285   13 Jun 2027 08:07:35.145   13 Jun 2027 08:07:39.619             4.474          1699.813
       286   13 Jun 2027 08:08:13.847   13 Jun 2027 08:08:16.959             3.112           335.250
       287   13 Jun 2027 08:09:09.006   13 Jun 2027 08:09:12.788             3.782           136.125
       288   13 Jun 2027 08:09:48.675   13 Jun 2027 08:09:53.362             4.687          1097.062
       289   13 Jun 2027 09:41:48.084   13 Jun 2027 09:42:01.014            12.930          5171.000
       290   13 Jun 2027 09:45:48.640   13 Jun 2027 09:45:50.916             2.276           952.125
       291   13 Jun 2027 09:45:58.042   13 Jun 2027 09:46:04.057             6.015           207.250
       292   13 Jun 2027 09:46:18.314   13 Jun 2027 09:46:19.207             0.893           416.656
       293   13 Jun 2027 11:17:51.858   13 Jun 2027 11:18:04.825            12.967          6217.906
