uniorb/output/strategy_4/Camera/Camera_KinoSat_111807.txt

KinoSat_111807
-------------------------
    Access    *     Start Time (UTCG)     *     Stop Time (UTCG)  *   Duration (s) *   Data (Mbytes)
         1   01 Jun 2027 04:23:42.737   01 Jun 2027 04:24:44.086            61.349         30674.500
         2   01 Jun 2027 04:24:49.706   01 Jun 2027 04:25:19.003            29.297         14648.500
         3   01 Jun 2027 04:25:20.262   01 Jun 2027 04:25:58.548            38.286         19143.000
         4   01 Jun 2027 04:27:01.433   01 Jun 2027 04:27:10.351             8.918          4459.000
         5   01 Jun 2027 04:28:14.098   01 Jun 2027 04:28:26.191            12.093          6046.500
         6   01 Jun 2027 06:02:44.657   01 Jun 2027 06:04:57.432           132.775         66387.500
         7   01 Jun 2027 06:06:04.995   01 Jun 2027 06:06:14.444             9.449          4724.500
         8   01 Jun 2027 07:25:16.135   01 Jun 2027 07:27:28.458           132.323         66161.500
         9   01 Jun 2027 09:01:42.040   01 Jun 2027 09:03:42.754           120.714         60357.000
        10   01 Jun 2027 09:04:23.310   01 Jun 2027 09:04:23.789             0.479           239.500
        11   01 Jun 2027 10:36:50.354   01 Jun 2027 10:37:30.150            39.796         19898.000
        12   01 Jun 2027 10:38:01.913   01 Jun 2027 10:39:55.596           113.683         56841.500
        13   01 Jun 2027 10:40:15.979   01 Jun 2027 10:40:37.754            21.775         10887.500
        14   01 Jun 2027 10:43:32.758   01 Jun 2027 10:43:37.683             4.925          2462.500
        15   02 Jun 2027 03:01:06.103   02 Jun 2027 03:01:39.095            32.992         16496.000
        16   02 Jun 2027 03:02:01.732   02 Jun 2027 03:02:07.023             5.291          2645.500
        17   02 Jun 2027 03:03:02.802   02 Jun 2027 03:03:11.076             8.274          4137.000
        18   02 Jun 2027 03:03:28.688   02 Jun 2027 03:03:29.098             0.410           205.000
        19   02 Jun 2027 03:04:12.926   02 Jun 2027 03:04:17.108             4.182          2091.000
        20   02 Jun 2027 03:04:21.539   02 Jun 2027 03:04:31.450             9.911          4955.500
        21   02 Jun 2027 04:35:40.363   02 Jun 2027 04:36:29.051            48.688         24344.000
        22   02 Jun 2027 04:36:46.906   02 Jun 2027 04:38:04.690            77.784         38892.000
        23   02 Jun 2027 04:38:22.989   02 Jun 2027 04:38:38.254            15.265          7632.500
        24   02 Jun 2027 04:39:00.543   02 Jun 2027 04:39:15.601            15.058          7529.000
        25   02 Jun 2027 04:39:54.889   02 Jun 2027 04:40:00.073             5.184          2592.000
        26   02 Jun 2027 04:41:47.703   02 Jun 2027 04:41:47.714             0.011             5.500
        27   02 Jun 2027 06:13:54.397   02 Jun 2027 06:17:40.566           226.169        113084.500
        28   02 Jun 2027 07:37:16.011   02 Jun 2027 07:38:18.714            62.703         31351.500
        29   02 Jun 2027 07:40:23.590   02 Jun 2027 07:40:23.590             0.000             0.000
        30   02 Jun 2027 09:13:52.583   02 Jun 2027 09:16:50.380           177.797         88898.500
        31   02 Jun 2027 10:49:02.627   02 Jun 2027 10:49:32.464            29.837         13475.000
        32   02 Jun 2027 10:51:52.616   02 Jun 2027 10:51:52.616             0.000             0.000
        33   02 Jun 2027 10:55:23.427   02 Jun 2027 10:55:38.576            15.149          7574.500
        34   03 Jun 2027 03:09:28.256   03 Jun 2027 03:09:45.208            16.952          8476.000
        35   03 Jun 2027 03:09:52.309   03 Jun 2027 03:10:45.928            53.619         26809.500
        36   03 Jun 2027 03:11:13.511   03 Jun 2027 03:11:19.133             5.622          2811.000
        37   03 Jun 2027 03:11:23.748   03 Jun 2027 03:11:34.504            10.756          5378.000
        38   03 Jun 2027 03:11:49.848   03 Jun 2027 03:12:19.470            29.622         14811.000
        39   03 Jun 2027 03:14:41.391   03 Jun 2027 03:14:47.603             6.212          3106.000
        40   03 Jun 2027 03:15:38.390   03 Jun 2027 03:15:48.913            10.523          5261.500
        41   03 Jun 2027 03:15:55.460   03 Jun 2027 03:16:06.497            11.037          5518.500
        42   03 Jun 2027 03:16:15.514   03 Jun 2027 03:16:24.340             8.826          4413.000
        43   03 Jun 2027 04:48:45.866   03 Jun 2027 04:51:16.518           150.652         75326.000
        44   03 Jun 2027 04:52:49.253   03 Jun 2027 04:53:00.848            11.595          3899.718
        45   03 Jun 2027 04:53:28.370   03 Jun 2027 04:53:33.448             5.078           806.750
        46   03 Jun 2027 04:55:36.819   03 Jun 2027 04:55:42.756             5.937          2500.500
        47   03 Jun 2027 06:15:08.840   03 Jun 2027 06:15:12.508             3.668          1834.000
        48   03 Jun 2027 06:25:51.826   03 Jun 2027 06:26:05.589            13.763          6052.187
        49   03 Jun 2027 06:26:50.258   03 Jun 2027 06:26:53.073             2.815          1395.906
        50   03 Jun 2027 07:49:52.105   03 Jun 2027 07:50:02.358            10.253          4222.406
        51   03 Jun 2027 07:50:22.625   03 Jun 2027 07:50:26.023             3.398            42.687
        52   03 Jun 2027 07:51:54.953   03 Jun 2027 07:52:01.157             6.204          2399.188
        53   03 Jun 2027 09:27:33.405   03 Jun 2027 09:27:47.718            14.313          6237.562
        54   03 Jun 2027 09:28:05.128   03 Jun 2027 09:28:05.790             0.662           148.813
        55   03 Jun 2027 09:28:21.246   03 Jun 2027 09:28:22.199             0.953           447.469
        56   03 Jun 2027 11:00:30.470   03 Jun 2027 11:00:39.824             9.354          3845.563
        57   03 Jun 2027 11:02:49.834   03 Jun 2027 11:02:57.077             7.243          3337.937
        58   03 Jun 2027 11:07:16.458   03 Jun 2027 11:07:32.581            16.123          7266.375
        59   04 Jun 2027 03:22:08.918   04 Jun 2027 03:24:48.223           159.305         79652.500
        60   04 Jun 2027 03:25:18.166   04 Jun 2027 03:25:26.439             8.273          4136.500
        61   04 Jun 2027 03:25:49.199   04 Jun 2027 03:25:55.890             6.691          3345.500
        62   04 Jun 2027 03:28:32.713   04 Jun 2027 03:28:35.768             3.055          1527.500
        63   04 Jun 2027 05:01:06.524   04 Jun 2027 05:02:34.168            87.644         43822.000
        64   04 Jun 2027 05:03:27.788   04 Jun 2027 05:03:58.332            30.544         15007.219
        65   04 Jun 2027 05:07:01.758   04 Jun 2027 05:07:13.035            11.277          5273.750
        66   04 Jun 2027 05:08:25.201   04 Jun 2027 05:08:30.103             4.902          2022.125
        67   04 Jun 2027 06:26:26.346   04 Jun 2027 06:26:34.253             7.907          3825.656
        68   04 Jun 2027 06:27:10.604   04 Jun 2027 06:27:15.209             4.605           748.281
        69   04 Jun 2027 06:37:50.345   04 Jun 2027 06:37:56.074             5.729          2350.656
        70   04 Jun 2027 08:00:27.880   04 Jun 2027 08:00:36.553             8.673          4318.250
        71   04 Jun 2027 08:00:43.540   04 Jun 2027 08:00:43.540             0.000             0.000
        72   04 Jun 2027 08:01:48.395   04 Jun 2027 08:01:53.164             4.769          1863.938
        73   04 Jun 2027 08:02:50.731   04 Jun 2027 08:02:54.044             3.313           848.187
        74   04 Jun 2027 08:04:38.617   04 Jun 2027 08:04:42.908             4.291          1572.844
        75   04 Jun 2027 09:35:51.205   04 Jun 2027 09:35:55.129             3.924          1886.063
        76   04 Jun 2027 09:36:32.730   04 Jun 2027 09:36:35.563             2.833           373.437
        77   04 Jun 2027 09:39:00.343   04 Jun 2027 09:39:04.322             3.979          1524.844
        78   04 Jun 2027 09:40:31.514   04 Jun 2027 09:40:32.674             1.160           496.750
        79   04 Jun 2027 09:41:16.394   04 Jun 2027 09:41:19.429             3.035           884.875
        80   04 Jun 2027 11:12:40.199   04 Jun 2027 11:12:50.844            10.645          3666.625
        81   04 Jun 2027 11:15:23.017   04 Jun 2027 11:15:30.315             7.298          3649.000
        82   04 Jun 2027 11:19:03.632   04 Jun 2027 11:19:23.920            20.288          6948.281
        83   04 Jun 2027 11:19:28.264   04 Jun 2027 11:19:29.283             1.019           115.438
        84   05 Jun 2027 03:34:16.772   05 Jun 2027 03:35:51.226            94.454         47227.000
        85   05 Jun 2027 03:35:52.012   05 Jun 2027 03:37:50.446           118.434         59217.000
        86   05 Jun 2027 03:39:15.918   05 Jun 2027 03:39:25.775             9.857          4928.500
        87   05 Jun 2027 03:40:03.752   05 Jun 2027 03:40:05.313             1.561           780.500
        88   05 Jun 2027 05:13:21.323   05 Jun 2027 05:14:36.873            75.550         37775.000
        89   05 Jun 2027 05:15:33.937   05 Jun 2027 05:15:45.019            11.082          5237.000
        90   05 Jun 2027 05:15:51.167   05 Jun 2027 05:15:51.548             0.381           132.719
        91   05 Jun 2027 05:17:46.178   05 Jun 2027 05:17:51.074             4.896          1588.625
        92   05 Jun 2027 05:18:08.445   05 Jun 2027 05:18:10.188             1.743           334.344
        93   05 Jun 2027 05:18:36.962   05 Jun 2027 05:18:37.788             0.826           321.594
        94   05 Jun 2027 05:19:08.575   05 Jun 2027 05:19:10.711             2.136           479.938
        95   05 Jun 2027 06:37:59.583   05 Jun 2027 06:38:08.396             8.813          4406.500
        96   05 Jun 2027 06:38:10.044   05 Jun 2027 06:38:10.044             0.000             0.000
        97   05 Jun 2027 06:38:36.592   05 Jun 2027 06:38:43.126             6.534          1794.469
        98   05 Jun 2027 06:39:27.442   05 Jun 2027 06:39:32.876             5.434          1219.937
        99   05 Jun 2027 06:49:49.720   05 Jun 2027 06:49:56.721             7.001          3414.437
       100   05 Jun 2027 08:12:06.775   05 Jun 2027 08:12:18.760            11.985          5602.438
       101   05 Jun 2027 08:12:52.820   05 Jun 2027 08:12:57.006             4.186          1064.375
       102   05 Jun 2027 08:14:01.423   05 Jun 2027 08:14:05.794             4.371          1537.688
       103   05 Jun 2027 08:14:25.664   05 Jun 2027 08:14:26.612             0.948           383.437
       104   05 Jun 2027 08:15:38.996   05 Jun 2027 08:15:44.245             5.249          1912.156
       105   05 Jun 2027 08:16:18.596   05 Jun 2027 08:16:23.819             5.223           628.906
       106   05 Jun 2027 09:47:00.496   05 Jun 2027 09:47:08.033             7.537          3026.969
       107   05 Jun 2027 09:48:05.548   05 Jun 2027 09:48:14.805             9.257           933.156
       108   05 Jun 2027 09:48:22.615   05 Jun 2027 09:48:23.187             0.572           244.063
       109   05 Jun 2027 09:50:42.780   05 Jun 2027 09:50:46.894             4.114          1044.375
       110   05 Jun 2027 09:52:14.689   05 Jun 2027 09:52:17.844             3.155          1317.688
       111   05 Jun 2027 09:53:39.325   05 Jun 2027 09:53:41.223             1.898           949.000
       112   05 Jun 2027 09:53:46.012   05 Jun 2027 09:53:48.126             2.114          1040.219
       113   05 Jun 2027 11:24:33.426   05 Jun 2027 11:24:44.013            10.587          5108.344
       114   05 Jun 2027 11:26:07.855   05 Jun 2027 11:26:12.284             4.429          1264.250
       115   05 Jun 2027 11:30:45.633   05 Jun 2027 11:30:58.812            13.179          6553.531
       116   05 Jun 2027 11:31:31.944   05 Jun 2027 11:31:40.209             8.265          1035.375
       117   05 Jun 2027 11:31:53.027   05 Jun 2027 11:31:53.502             0.475           237.500
       118   06 Jun 2027 03:46:43.882   06 Jun 2027 03:47:01.171            17.289          8644.500
       119   06 Jun 2027 03:47:09.592   06 Jun 2027 03:47:38.975            29.383         14691.500
       120   06 Jun 2027 03:47:43.773   06 Jun 2027 03:48:37.823            54.050         27025.000
       121   06 Jun 2027 03:48:40.032   06 Jun 2027 03:50:29.474           109.442         54721.000
       122   06 Jun 2027 05:25:26.632   06 Jun 2027 05:27:11.719           105.087         52268.469
       123   06 Jun 2027 05:29:26.048   06 Jun 2027 05:29:27.824             1.776           888.000
       124   06 Jun 2027 05:30:00.467   06 Jun 2027 05:30:09.669             9.202          4183.063
       125   06 Jun 2027 05:31:01.935   06 Jun 2027 05:31:05.366             3.431          1589.656
       126   06 Jun 2027 06:49:43.504   06 Jun 2027 06:49:57.520            14.016          6735.125
       127   06 Jun 2027 06:50:50.056   06 Jun 2027 06:50:53.394             3.338          1360.281
       128   06 Jun 2027 06:51:11.739   06 Jun 2027 06:51:12.730             0.991           184.750
       129   06 Jun 2027 07:02:05.872   06 Jun 2027 07:02:13.799             7.927          3166.406
       130   06 Jun 2027 08:23:36.885   06 Jun 2027 08:23:52.680            15.795          7195.281
       131   06 Jun 2027 08:24:22.827   06 Jun 2027 08:24:26.390             3.563           127.250
       132   06 Jun 2027 08:25:47.710   06 Jun 2027 08:25:51.560             3.850          1159.312
       133   06 Jun 2027 08:26:36.708   06 Jun 2027 08:26:43.637             6.929          1079.031
       134   06 Jun 2027 08:27:37.887   06 Jun 2027 08:27:43.864             5.977          1100.969
       135   06 Jun 2027 08:28:21.453   06 Jun 2027 08:28:24.418             2.965           771.062
       136   06 Jun 2027 09:58:31.433   06 Jun 2027 09:58:36.145             4.712          2311.875
       137   06 Jun 2027 10:00:24.085   06 Jun 2027 10:00:28.157             4.072          1867.250
       138   06 Jun 2027 10:00:50.723   06 Jun 2027 10:00:53.834             3.111           339.375
       139   06 Jun 2027 10:00:59.429   06 Jun 2027 10:01:00.068             0.639           174.844
       140   06 Jun 2027 10:01:48.054   06 Jun 2027 10:01:54.067             6.013           950.656
       141   06 Jun 2027 10:02:16.846   06 Jun 2027 10:02:18.208             1.362           336.219
       142   06 Jun 2027 10:05:34.120   06 Jun 2027 10:05:47.549            13.429          2422.656
       143   06 Jun 2027 10:06:58.464   06 Jun 2027 10:07:02.178             3.714          1745.625
       144   06 Jun 2027 11:36:28.190   06 Jun 2027 11:36:37.600             9.410          4705.000
       145   06 Jun 2027 11:40:46.716   06 Jun 2027 11:40:55.116             8.400          4200.000
       146   06 Jun 2027 11:42:18.673   06 Jun 2027 11:42:33.521            14.848          7077.031
       147   06 Jun 2027 11:42:47.660   06 Jun 2027 11:42:49.673             2.013           346.844
       148   06 Jun 2027 11:43:02.673   06 Jun 2027 11:43:05.055             2.382           281.563
       149   06 Jun 2027 11:43:16.200   06 Jun 2027 11:43:17.936             1.736           297.969
       150   07 Jun 2027 03:59:20.189   07 Jun 2027 03:59:31.917            11.728          5864.000
       151   07 Jun 2027 03:59:43.091   07 Jun 2027 04:00:30.060            46.969         23484.500
       152   07 Jun 2027 04:00:40.816   07 Jun 2027 04:00:43.884             3.068          1534.000
       153   07 Jun 2027 04:00:51.040   07 Jun 2027 04:01:21.176            30.136         15068.000
       154   07 Jun 2027 04:01:28.737   07 Jun 2027 04:02:07.662            38.925         19462.500
       155   07 Jun 2027 04:03:34.851   07 Jun 2027 04:03:58.804            23.953         11976.500
       156   07 Jun 2027 04:04:15.874   07 Jun 2027 04:04:27.073            11.199          5599.500
       157   07 Jun 2027 05:37:50.546   07 Jun 2027 05:39:03.720            73.174         36587.000
       158   07 Jun 2027 05:39:51.494   07 Jun 2027 05:41:11.701            80.207         38921.876
       159   07 Jun 2027 05:42:10.763   07 Jun 2027 05:42:14.016             3.253          1608.313
       160   07 Jun 2027 07:01:39.774   07 Jun 2027 07:02:01.601            21.827          8391.781
       161   07 Jun 2027 07:02:45.538   07 Jun 2027 07:02:45.538             0.000             0.000
       162   07 Jun 2027 07:03:50.812   07 Jun 2027 07:03:55.663             4.851          2425.500
       163   07 Jun 2027 08:37:39.125   07 Jun 2027 08:37:51.278            12.153          5452.437
       164   07 Jun 2027 08:37:57.798   07 Jun 2027 08:37:59.706             1.908           165.531
       165   07 Jun 2027 08:38:07.875   07 Jun 2027 08:38:10.132             2.257            25.094
       166   07 Jun 2027 08:39:12.693   07 Jun 2027 08:39:16.465             3.772          1369.094
       167   07 Jun 2027 08:40:24.115   07 Jun 2027 08:40:29.207             5.092           936.500
       168   07 Jun 2027 10:11:25.811   07 Jun 2027 10:11:35.265             9.454          2682.031
       169   07 Jun 2027 10:13:09.034   07 Jun 2027 10:13:12.044             3.010          1371.625
       170   07 Jun 2027 10:13:37.470   07 Jun 2027 10:13:37.955             0.485           170.969
       171   07 Jun 2027 10:14:01.459   07 Jun 2027 10:14:02.633             1.174           518.125
       172   07 Jun 2027 10:17:24.525   07 Jun 2027 10:17:29.349             4.824          2135.188
       173   07 Jun 2027 10:18:19.300   07 Jun 2027 10:18:21.809             2.509           149.781
       174   07 Jun 2027 10:19:14.600   07 Jun 2027 10:19:19.174             4.574           678.406
       175   07 Jun 2027 10:19:41.623   07 Jun 2027 10:19:42.760             1.137           329.000
       176   07 Jun 2027 11:48:47.819   07 Jun 2027 11:49:02.141            14.322          6517.938
       177   07 Jun 2027 11:50:07.397   07 Jun 2027 11:50:11.092             3.695          1847.500
       178   07 Jun 2027 11:50:57.738   07 Jun 2027 11:51:03.789             6.051          1560.656
       179   07 Jun 2027 11:53:30.286   07 Jun 2027 11:53:40.739            10.453          4442.625
       180   07 Jun 2027 11:54:49.297   07 Jun 2027 11:54:53.103             3.806          1801.969
       181   07 Jun 2027 11:55:20.114   07 Jun 2027 11:55:22.493             2.379           393.281
       182   07 Jun 2027 11:55:27.284   07 Jun 2027 11:55:28.421             1.137           149.719
       183   08 Jun 2027 04:11:52.496   08 Jun 2027 04:12:01.035             8.539          4269.500
       184   08 Jun 2027 04:12:42.444   08 Jun 2027 04:14:19.224            96.780         48390.000
       185   08 Jun 2027 04:15:30.040   08 Jun 2027 04:17:16.528           106.488         53244.000
       186   08 Jun 2027 05:50:09.325   08 Jun 2027 05:50:29.971            20.646         10323.000
       187   08 Jun 2027 05:51:10.327   08 Jun 2027 05:52:49.565            99.238         48531.500
       188   08 Jun 2027 05:53:36.959   08 Jun 2027 05:53:39.856             2.897          1392.375
       189   08 Jun 2027 05:54:33.008   08 Jun 2027 05:54:34.374             1.366           295.500
       190   08 Jun 2027 07:13:31.596   08 Jun 2027 07:13:50.712            19.116          8614.656
       191   08 Jun 2027 07:14:52.926   08 Jun 2027 07:14:52.926             0.000             0.000
       192   08 Jun 2027 07:15:17.171   08 Jun 2027 07:15:23.437             6.266          2574.750
       193   08 Jun 2027 07:16:06.089   08 Jun 2027 07:16:06.915             0.826           413.000
       194   08 Jun 2027 08:49:53.824   08 Jun 2027 08:50:09.101            15.277          7499.625
       195   08 Jun 2027 08:50:38.189   08 Jun 2027 08:50:39.938             1.749           426.344
       196   08 Jun 2027 08:51:25.628   08 Jun 2027 08:51:30.719             5.091           940.812
       197   08 Jun 2027 08:51:51.652   08 Jun 2027 08:51:51.652             0.000             0.000
       198   08 Jun 2027 08:52:26.567   08 Jun 2027 08:52:30.202             3.635          1131.188
       199   08 Jun 2027 10:22:10.672   08 Jun 2027 10:22:21.734            11.062          2461.594
       200   08 Jun 2027 10:23:57.885   08 Jun 2027 10:24:02.798             4.913           703.000
       201   08 Jun 2027 10:25:42.898   08 Jun 2027 10:25:54.813            11.915          2411.969
       202   08 Jun 2027 10:26:53.488   08 Jun 2027 10:27:02.787             9.299          1823.937
       203   08 Jun 2027 10:29:11.442   08 Jun 2027 10:29:15.978             4.536          1761.781
       204   08 Jun 2027 10:31:08.352   08 Jun 2027 10:31:10.199             1.847           848.719
       205   08 Jun 2027 10:31:20.251   08 Jun 2027 10:31:21.654             1.403            42.344
       206   08 Jun 2027 10:31:42.057   08 Jun 2027 10:31:42.313             0.256           124.281
       207   08 Jun 2027 10:31:54.134   08 Jun 2027 10:31:54.874             0.740           369.406
       208   09 Jun 2027 04:23:58.614   09 Jun 2027 04:25:00.301            61.687         30843.500
       209   09 Jun 2027 04:25:06.687   09 Jun 2027 04:25:33.741            27.054         13527.000
       210   09 Jun 2027 04:26:34.768   09 Jun 2027 04:27:54.822            80.054         40027.000
       211   09 Jun 2027 04:28:13.163   09 Jun 2027 04:28:31.464            18.301          9150.500
       212   09 Jun 2027 06:03:50.908   09 Jun 2027 06:06:19.648           148.740         74370.000
       213   09 Jun 2027 07:25:35.288   09 Jun 2027 07:25:48.347            13.059          6529.500
       214   09 Jun 2027 07:26:05.374   09 Jun 2027 07:26:10.313             4.939          1684.312
       215   09 Jun 2027 07:26:39.483   09 Jun 2027 07:26:39.483             0.000             0.000
       216   09 Jun 2027 07:27:08.378   09 Jun 2027 07:27:12.254             3.876          1094.187
       217   09 Jun 2027 07:28:19.214   09 Jun 2027 07:28:21.347             2.133          1025.781
       218   09 Jun 2027 09:02:27.585   09 Jun 2027 09:02:39.057            11.472          5256.688
       219   09 Jun 2027 09:03:03.162   09 Jun 2027 09:03:06.252             3.090           753.281
       220   09 Jun 2027 09:03:45.155   09 Jun 2027 09:03:46.709             1.554           110.281
       221   09 Jun 2027 09:04:28.759   09 Jun 2027 09:04:37.278             8.519          1104.250
       222   09 Jun 2027 10:37:09.528   09 Jun 2027 10:37:27.366            17.838          6037.125
       223   09 Jun 2027 10:38:16.408   09 Jun 2027 10:38:18.805             2.397           933.344
       224   09 Jun 2027 10:40:13.048   09 Jun 2027 10:40:23.324            10.276          3461.750
       225   09 Jun 2027 10:41:35.495   09 Jun 2027 10:41:44.534             9.039          1639.750
       226   09 Jun 2027 10:42:52.823   09 Jun 2027 10:42:53.787             0.964           482.000
       227   09 Jun 2027 10:42:54.060   09 Jun 2027 10:42:56.784             2.724           369.594
       228   09 Jun 2027 10:43:18.987   09 Jun 2027 10:43:20.575             1.588           247.156
       229   09 Jun 2027 10:43:49.675   09 Jun 2027 10:43:52.710             3.035           781.750
       230   10 Jun 2027 03:01:24.847   10 Jun 2027 03:01:33.901             9.054          4527.000
       231   10 Jun 2027 03:01:43.942   10 Jun 2027 03:02:04.116            20.174         10087.000
       232   10 Jun 2027 03:02:40.001   10 Jun 2027 03:02:53.273            13.272          6636.000
       233   10 Jun 2027 03:04:38.192   10 Jun 2027 03:04:51.037            12.845          6422.500
       234   10 Jun 2027 04:35:58.661   10 Jun 2027 04:36:42.743            44.082         22041.000
       235   10 Jun 2027 04:37:04.330   10 Jun 2027 04:39:34.857           150.527         75263.500
       236   10 Jun 2027 04:40:05.427   10 Jun 2027 04:40:05.429             0.002             1.000
       237   10 Jun 2027 04:41:58.167   10 Jun 2027 04:42:01.422             3.255          1627.500
       238   10 Jun 2027 06:14:38.130   10 Jun 2027 06:14:49.410            11.280          5640.000
       239   10 Jun 2027 06:15:01.831   10 Jun 2027 06:16:10.068            68.237         34009.781
       240   10 Jun 2027 07:37:32.157   10 Jun 2027 07:37:44.324            12.167          5794.469
       241   10 Jun 2027 07:38:54.873   10 Jun 2027 07:38:59.574             4.701          2184.313
       242   10 Jun 2027 07:39:05.781   10 Jun 2027 07:39:08.140             2.359            92.906
       243   10 Jun 2027 07:40:19.278   10 Jun 2027 07:40:23.384             4.106           911.062
       244   10 Jun 2027 07:40:39.998   10 Jun 2027 07:40:41.605             1.607           399.438
       245   10 Jun 2027 09:14:09.927   10 Jun 2027 09:14:20.572            10.645          2703.375
       246   10 Jun 2027 09:15:25.407   10 Jun 2027 09:15:32.652             7.245          1995.062
       247   10 Jun 2027 09:15:38.181   10 Jun 2027 09:15:41.363             3.182             2.156
       248   10 Jun 2027 09:16:30.664   10 Jun 2027 09:16:34.890             4.226           930.437
       249   10 Jun 2027 10:49:19.951   10 Jun 2027 10:49:28.214             8.263          3083.625
       250   10 Jun 2027 10:52:09.960   10 Jun 2027 10:52:22.068            12.108          4846.250
       251   10 Jun 2027 10:55:42.578   10 Jun 2027 10:55:55.218            12.640          6155.594
       252   11 Jun 2027 03:09:46.076   11 Jun 2027 03:10:00.506            14.430          7215.000
       253   11 Jun 2027 03:10:07.618   11 Jun 2027 03:10:08.237             0.619           309.500
       254   11 Jun 2027 03:10:10.938   11 Jun 2027 03:11:12.561            61.623         30811.500
       255   11 Jun 2027 03:11:20.566   11 Jun 2027 03:11:23.785             3.219          1609.500
       256   11 Jun 2027 03:11:41.763   11 Jun 2027 03:11:49.281             7.518          3759.000
       257   11 Jun 2027 03:12:04.447   11 Jun 2027 03:12:34.753            30.306         15153.000
       258   11 Jun 2027 03:16:21.497   11 Jun 2027 03:16:45.518            24.021         12010.500
       259   11 Jun 2027 04:49:03.722   11 Jun 2027 04:51:30.719           146.997         73498.500
       260   11 Jun 2027 04:52:31.239   11 Jun 2027 04:52:44.173            12.934          5483.093
       261   11 Jun 2027 04:53:14.340   11 Jun 2027 04:53:16.892             2.552           841.062
       262   11 Jun 2027 04:53:43.578   11 Jun 2027 04:53:51.639             8.061           742.375
       263   11 Jun 2027 04:55:52.020   11 Jun 2027 04:55:57.879             5.859          2923.469
       264   11 Jun 2027 06:15:23.145   11 Jun 2027 06:15:34.555            11.410          5705.000
       265   11 Jun 2027 06:26:09.234   11 Jun 2027 06:26:14.400             5.166          2204.562
       266   11 Jun 2027 06:27:07.736   11 Jun 2027 06:27:12.894             5.158          1479.687
       267   11 Jun 2027 07:50:08.517   11 Jun 2027 07:50:24.270            15.753          7150.781
       268   11 Jun 2027 07:50:38.614   11 Jun 2027 07:50:41.040             2.426            54.125
       269   11 Jun 2027 07:52:10.888   11 Jun 2027 07:52:15.897             5.009          2360.594
       270   11 Jun 2027 07:52:30.438   11 Jun 2027 07:52:37.151             6.713           454.406
       271   11 Jun 2027 09:25:53.696   11 Jun 2027 09:26:01.062             7.366          3153.469
       272   11 Jun 2027 09:27:53.744   11 Jun 2027 09:28:00.374             6.630          3144.500
       273   11 Jun 2027 09:28:23.676   11 Jun 2027 09:28:27.853             4.177           146.406
       274   11 Jun 2027 09:28:38.714   11 Jun 2027 09:28:40.720             2.006           339.406
       275   11 Jun 2027 11:00:44.755   11 Jun 2027 11:00:51.071             6.316          2497.344
       276   11 Jun 2027 11:03:10.259   11 Jun 2027 11:03:17.251             6.992          3485.844
       277   11 Jun 2027 11:04:04.145   11 Jun 2027 11:04:04.975             0.830           415.000
       278   11 Jun 2027 11:07:32.953   11 Jun 2027 11:07:47.230            14.277          6972.125
       279   12 Jun 2027 03:22:26.632   12 Jun 2027 03:25:02.691           156.059         78029.500
       280   12 Jun 2027 03:27:02.654   12 Jun 2027 03:27:20.014            17.360          8680.000
       281   12 Jun 2027 03:28:22.546   12 Jun 2027 03:28:53.010            30.464         15232.000
       282   12 Jun 2027 05:01:24.529   12 Jun 2027 05:03:01.978            97.449         48373.531
       283   12 Jun 2027 05:07:22.708   12 Jun 2027 05:07:39.801            17.093          6770.906
       284   12 Jun 2027 06:26:39.745   12 Jun 2027 06:26:56.047            16.302          7736.719
       285   12 Jun 2027 06:27:36.518   12 Jun 2027 06:27:39.649             3.131          1017.594
       286   12 Jun 2027 06:38:08.309   12 Jun 2027 06:38:14.687             6.378          2942.562
       287   12 Jun 2027 08:00:47.128   12 Jun 2027 08:00:55.295             8.167          3930.281
       288   12 Jun 2027 08:01:01.618   12 Jun 2027 08:01:01.618             0.000             0.000
       289   12 Jun 2027 08:02:22.968   12 Jun 2027 08:02:27.736             4.768          1860.719
       290   12 Jun 2027 08:03:07.840   12 Jun 2027 08:03:11.151             3.311           841.187
       291   12 Jun 2027 08:04:56.415   12 Jun 2027 08:05:03.741             7.326          1634.906
       292   12 Jun 2027 09:36:06.298   12 Jun 2027 09:36:12.124             5.826          2538.031
       293   12 Jun 2027 09:36:52.291   12 Jun 2027 09:37:02.030             9.739           419.281
       294   12 Jun 2027 09:40:33.384   12 Jun 2027 09:40:38.141             4.757          2378.500
       295   12 Jun 2027 09:42:05.759   12 Jun 2027 09:42:16.398            10.639          4260.094
       296   12 Jun 2027 11:15:43.885   12 Jun 2027 11:15:59.441            15.556          7778.000
       297   12 Jun 2027 11:19:19.776   12 Jun 2027 11:19:39.010            19.234          7501.719
       298   12 Jun 2027 11:19:45.155   12 Jun 2027 11:19:48.495             3.340           185.344
       299   13 Jun 2027 03:34:35.153   13 Jun 2027 03:36:07.502            92.349         46174.500
       300   13 Jun 2027 03:36:09.786   13 Jun 2027 03:37:33.552            83.766         41883.000
       301   13 Jun 2027 03:39:52.187   13 Jun 2027 03:40:09.116            16.929          8464.500
       302   13 Jun 2027 03:40:20.442   13 Jun 2027 03:40:22.912             2.470          1235.000
       303   13 Jun 2027 05:13:40.396   13 Jun 2027 05:15:28.442           108.046         53305.969
       304   13 Jun 2027 05:16:17.541   13 Jun 2027 05:16:22.971             5.430           912.531
       305   13 Jun 2027 05:18:01.277   13 Jun 2027 05:18:05.036             3.759          1513.563
       306   13 Jun 2027 05:18:25.906   13 Jun 2027 05:18:27.281             1.375           400.563
       307   13 Jun 2027 05:18:54.001   13 Jun 2027 05:18:55.641             1.640           401.719
       308   13 Jun 2027 05:19:24.156   13 Jun 2027 05:19:25.915             1.759           477.437
       309   13 Jun 2027 06:37:54.961   13 Jun 2027 06:38:03.048             8.087          3855.563
       310   13 Jun 2027 06:38:38.611   13 Jun 2027 06:38:44.759             6.148           530.906
       311   13 Jun 2027 06:39:44.959   13 Jun 2027 06:39:49.156             4.197          1784.344
       312   13 Jun 2027 06:50:07.464   13 Jun 2027 06:50:14.527             7.063          2570.625
       313   13 Jun 2027 08:12:23.155   13 Jun 2027 08:12:35.342            12.187          6093.500
       314   13 Jun 2027 08:13:09.776   13 Jun 2027 08:13:12.653             2.877          1349.094
       315   13 Jun 2027 08:14:54.891   13 Jun 2027 08:15:04.573             9.682          3035.625
       316   13 Jun 2027 08:16:14.662   13 Jun 2027 08:16:19.935             5.273          1937.812
       317   13 Jun 2027 08:17:15.636   13 Jun 2027 08:17:18.719             3.083          1221.375
       318   13 Jun 2027 09:47:16.155   13 Jun 2027 09:47:24.457             8.302          2826.219
       319   13 Jun 2027 09:48:24.667   13 Jun 2027 09:48:24.913             0.246           123.000
       320   13 Jun 2027 09:48:46.128   13 Jun 2027 09:48:54.068             7.940          1572.281
       321   13 Jun 2027 09:50:26.297   13 Jun 2027 09:50:30.241             3.944          1763.719
       322   13 Jun 2027 09:50:57.878   13 Jun 2027 09:50:59.539             1.661           686.469
       323   13 Jun 2027 09:52:31.920   13 Jun 2027 09:52:34.091             2.171          1085.500
       324   13 Jun 2027 09:52:54.892   13 Jun 2027 09:53:01.502             6.610           931.250
       325   13 Jun 2027 09:53:20.233   13 Jun 2027 09:53:20.233             0.000             0.000
       326   13 Jun 2027 09:53:53.963   13 Jun 2027 09:53:57.650             3.687          1639.406
       327   13 Jun 2027 09:55:21.287   13 Jun 2027 09:55:25.412             4.125          1925.719
       328   13 Jun 2027 11:24:50.517   13 Jun 2027 11:25:03.430            12.913          6025.281
       329   13 Jun 2027 11:25:29.002   13 Jun 2027 11:25:32.218             3.216           799.125
       330   13 Jun 2027 11:25:43.831   13 Jun 2027 11:25:44.895             1.064           318.188
       331   13 Jun 2027 11:28:22.959   13 Jun 2027 11:28:31.385             8.426          3725.656
       332   13 Jun 2027 11:30:10.093   13 Jun 2027 11:30:14.669             4.576          2019.687
       333   13 Jun 2027 11:31:00.497   13 Jun 2027 11:31:04.714             4.217          1334.000
       334   13 Jun 2027 11:31:50.392   13 Jun 2027 11:31:55.525             5.133          1127.094
       335   13 Jun 2027 11:32:10.775   13 Jun 2027 11:32:11.008             0.233           116.500
