uniorb/output/strategy_4/Camera/Camera_KinoSat_110501.txt

KinoSat_110501
-------------------------
    Access    *     Start Time (UTCG)     *     Stop Time (UTCG)  *   Duration (s) *   Data (Mbytes)
         1   01 Jun 2027 04:23:08.289   01 Jun 2027 04:23:26.810            18.521          9260.500
         2   01 Jun 2027 04:24:55.469   01 Jun 2027 04:26:34.203            98.734         49367.000
         3   01 Jun 2027 04:27:21.644   01 Jun 2027 04:28:02.762            41.118         20559.000
         4   01 Jun 2027 04:29:35.410   01 Jun 2027 04:29:46.529            11.119          5559.500
         5   01 Jun 2027 04:30:02.398   01 Jun 2027 04:30:02.398             0.000             0.000
         6   01 Jun 2027 04:30:13.762   01 Jun 2027 04:30:14.773             1.011           505.500
         7   01 Jun 2027 04:30:43.718   01 Jun 2027 04:30:44.770             1.052           526.000
         8   01 Jun 2027 04:30:53.167   01 Jun 2027 04:30:57.673             4.506          2253.000
         9   01 Jun 2027 04:31:16.190   01 Jun 2027 04:31:38.672            22.482         11241.000
        10   01 Jun 2027 04:32:19.562   01 Jun 2027 04:32:34.500            14.938          7469.000
        11   01 Jun 2027 04:32:41.139   01 Jun 2027 04:32:43.507             2.368          1184.000
        12   01 Jun 2027 06:01:59.981   01 Jun 2027 06:05:11.626           191.645         95822.500
        13   01 Jun 2027 06:08:03.823   01 Jun 2027 06:08:42.704            38.881         19440.500
        14   01 Jun 2027 07:38:56.069   01 Jun 2027 07:42:15.012           198.943         99471.500
        15   01 Jun 2027 07:42:43.000   01 Jun 2027 07:42:47.130             4.130          2065.000
        16   01 Jun 2027 09:15:42.657   01 Jun 2027 09:18:13.247           150.590         75295.000
        17   01 Jun 2027 09:18:39.799   01 Jun 2027 09:19:49.452            69.653         34826.500
        18   01 Jun 2027 10:54:10.218   01 Jun 2027 10:54:52.789            42.571         21285.500
        19   02 Jun 2027 03:03:01.978   02 Jun 2027 03:06:31.689           209.711        104855.500
        20   02 Jun 2027 04:38:06.886   02 Jun 2027 04:43:04.181           297.295        148647.500
        21   02 Jun 2027 04:43:18.882   02 Jun 2027 04:43:25.100             6.218          3109.000
        22   02 Jun 2027 04:44:07.109   02 Jun 2027 04:44:54.672            47.563         23781.500
        23   02 Jun 2027 06:14:28.703   02 Jun 2027 06:19:49.837           321.134        160567.000
        24   02 Jun 2027 06:20:34.609   02 Jun 2027 06:20:49.123            14.514          7257.000
        25   02 Jun 2027 07:51:59.140   02 Jun 2027 07:56:25.184           266.044        133022.000
        26   02 Jun 2027 09:28:03.770   02 Jun 2027 09:32:18.279           254.509        127254.500
        27   03 Jun 2027 03:15:06.592   03 Jun 2027 03:18:31.785           205.193        102596.500
        28   03 Jun 2027 04:50:16.901   03 Jun 2027 04:56:53.221           396.320        198160.000
        29   03 Jun 2027 06:26:31.947   03 Jun 2027 06:32:21.628           349.681        174840.500
        30   03 Jun 2027 08:04:05.836   03 Jun 2027 08:08:36.217           270.381        135190.500
        31   03 Jun 2027 09:40:27.856   03 Jun 2027 09:44:17.967           230.111        115055.500
        32   03 Jun 2027 09:44:22.117   03 Jun 2027 09:45:05.939            43.822         21911.000
        33   04 Jun 2027 03:26:50.201   04 Jun 2027 03:31:04.140           253.939        126969.500
        34   04 Jun 2027 05:01:41.426   04 Jun 2027 05:09:03.546           442.120        221060.000
        35   04 Jun 2027 06:38:17.094   04 Jun 2027 06:44:40.870           383.776        191888.000
        36   04 Jun 2027 08:16:46.455   04 Jun 2027 08:20:29.512           223.057        111528.500
        37   04 Jun 2027 09:49:55.540   04 Jun 2027 09:50:03.238             7.698          3849.000
        38   04 Jun 2027 09:52:15.594   04 Jun 2027 09:56:06.721           231.127        115563.500
        39   04 Jun 2027 09:56:26.195   04 Jun 2027 09:57:24.587            58.392         29196.000
        40   05 Jun 2027 03:37:03.259   05 Jun 2027 03:38:02.169            58.910         29455.000
        41   05 Jun 2027 03:38:35.186   05 Jun 2027 03:43:22.718           287.532        143766.000
        42   05 Jun 2027 05:13:33.466   05 Jun 2027 05:21:03.891           450.425        225212.500
        43   05 Jun 2027 06:50:38.137   05 Jun 2027 06:56:28.668           350.531        175265.500
        44   05 Jun 2027 06:56:43.181   05 Jun 2027 06:56:49.165             5.984          2992.000
        45   05 Jun 2027 08:28:54.661   05 Jun 2027 08:32:32.028           217.367        108683.500
        46   05 Jun 2027 10:01:40.898   05 Jun 2027 10:08:05.830           384.932        192466.000
        47   05 Jun 2027 10:08:35.198   05 Jun 2027 10:09:37.141            61.943         30971.500
        48   06 Jun 2027 03:48:12.934   06 Jun 2027 03:50:15.799           122.865         61432.500
        49   06 Jun 2027 03:50:22.276   06 Jun 2027 03:55:42.631           320.355        160177.500
        50   06 Jun 2027 03:56:25.098   06 Jun 2027 03:56:42.898            17.800          8900.000
        51   06 Jun 2027 05:25:46.589   06 Jun 2027 05:33:07.348           440.759        220379.500
        52   06 Jun 2027 07:02:39.925   06 Jun 2027 07:08:42.411           362.486        181243.000
        53   06 Jun 2027 07:08:47.598   06 Jun 2027 07:09:07.014            19.416          9708.000
        54   06 Jun 2027 08:40:44.228   06 Jun 2027 08:44:41.708           237.480        118740.000
        55   06 Jun 2027 10:14:09.555   06 Jun 2027 10:20:13.433           363.878        181939.000
        56   06 Jun 2027 10:21:30.313   06 Jun 2027 10:21:32.939             2.626          1313.000
        57   07 Jun 2027 03:59:43.636   07 Jun 2027 04:03:58.804           255.168        127584.000
        58   07 Jun 2027 04:04:15.874   07 Jun 2027 04:07:51.197           215.323        107661.500
        59   07 Jun 2027 04:08:29.978   07 Jun 2027 04:09:09.784            39.806         19903.000
        60   07 Jun 2027 05:37:40.489   07 Jun 2027 05:45:08.730           448.241        224120.500
        61   07 Jun 2027 07:14:34.761   07 Jun 2027 07:19:56.936           322.175        161087.500
        62   07 Jun 2027 07:20:43.978   07 Jun 2027 07:21:06.527            22.549         11274.500
        63   07 Jun 2027 08:52:20.901   07 Jun 2027 08:56:40.217           259.316        129658.000
        64   07 Jun 2027 10:26:32.558   07 Jun 2027 10:27:33.811            61.253         30626.500
        65   07 Jun 2027 10:28:33.451   07 Jun 2027 10:31:53.206           199.755         99877.500
        66   08 Jun 2027 04:12:37.170   08 Jun 2027 04:21:10.743           513.573        256786.500
        67   08 Jun 2027 05:50:01.224   08 Jun 2027 05:57:02.155           420.931        210465.500
        68   08 Jun 2027 07:28:09.659   08 Jun 2027 07:31:34.344           204.685        102342.500
        69   08 Jun 2027 07:31:41.872   08 Jun 2027 07:32:55.354            73.482         36741.000
        70   08 Jun 2027 09:03:55.266   08 Jun 2027 09:08:38.251           282.985        141492.500
        71   08 Jun 2027 10:39:07.375   08 Jun 2027 10:39:14.395             7.020          3510.000
        72   08 Jun 2027 10:40:56.046   08 Jun 2027 10:43:38.032           161.986         80993.000
        73   09 Jun 2027 04:25:10.132   09 Jun 2027 04:32:04.919           414.787        207393.500
        74   09 Jun 2027 04:32:06.980   09 Jun 2027 04:32:33.362            26.382         13191.000
        75   09 Jun 2027 04:32:49.541   09 Jun 2027 04:32:51.313             1.772           886.000
        76   09 Jun 2027 04:32:55.848   09 Jun 2027 04:33:08.030            12.182          6091.000
        77   09 Jun 2027 06:02:14.719   09 Jun 2027 06:08:57.317           402.598        201299.000
        78   09 Jun 2027 07:39:10.613   09 Jun 2027 07:44:10.933           300.320        150160.000
        79   09 Jun 2027 09:16:03.331   09 Jun 2027 09:20:39.364           276.033        138016.500
        80   09 Jun 2027 10:54:36.268   09 Jun 2027 10:55:07.146            30.878         15439.000
        81   10 Jun 2027 03:03:16.625   10 Jun 2027 03:06:46.551           209.926        104963.000
        82   10 Jun 2027 04:38:21.628   10 Jun 2027 04:45:09.260           407.632        203816.000
        83   10 Jun 2027 06:14:43.625   10 Jun 2027 06:21:03.801           380.176        190088.000
        84   10 Jun 2027 07:52:24.828   10 Jun 2027 07:56:40.037           255.209        127604.500
        85   10 Jun 2027 09:28:29.557   10 Jun 2027 09:32:32.977           243.420        121710.000
        86   11 Jun 2027 03:15:21.119   11 Jun 2027 03:18:46.210           205.091        102545.500
        87   11 Jun 2027 04:50:31.626   11 Jun 2027 04:57:07.814           396.188        198094.000
        88   11 Jun 2027 06:26:45.955   11 Jun 2027 06:32:36.346           350.391        175195.500
        89   11 Jun 2027 08:04:20.831   11 Jun 2027 08:08:50.711           269.880        134940.000
        90   11 Jun 2027 09:40:21.829   11 Jun 2027 09:44:32.503           250.674        125337.000
        91   11 Jun 2027 09:44:36.604   11 Jun 2027 09:45:20.885            44.281         22140.500
        92   12 Jun 2027 03:27:04.874   12 Jun 2027 03:31:18.771           253.897        126948.500
        93   12 Jun 2027 05:01:55.831   12 Jun 2027 05:09:18.208           442.377        221188.500
        94   12 Jun 2027 06:38:31.647   12 Jun 2027 06:44:55.469           383.822        191911.000
        95   12 Jun 2027 08:17:02.861   12 Jun 2027 08:20:44.141           221.280        110640.000
        96   12 Jun 2027 09:50:09.905   12 Jun 2027 09:50:19.531             9.626          4813.000
        97   12 Jun 2027 09:52:33.240   12 Jun 2027 09:56:21.695           228.455        114227.500
        98   12 Jun 2027 09:56:41.111   12 Jun 2027 09:57:39.291            58.180         29090.000
        99   13 Jun 2027 03:37:17.248   13 Jun 2027 03:38:17.066            59.818         29909.000
       100   13 Jun 2027 03:38:49.492   13 Jun 2027 03:43:37.753           288.261        144130.500
       101   13 Jun 2027 05:13:48.508   13 Jun 2027 05:20:39.847           411.339        205669.500
       102   13 Jun 2027 05:21:09.377   13 Jun 2027 05:21:18.561             9.184          4592.000
       103   13 Jun 2027 06:50:52.703   13 Jun 2027 06:56:43.398           350.695        175347.500
       104   13 Jun 2027 06:57:00.621   13 Jun 2027 06:57:03.417             2.796          1398.000
       105   13 Jun 2027 08:29:11.010   13 Jun 2027 08:32:46.635           215.625        107812.500
       106   13 Jun 2027 10:01:58.796   13 Jun 2027 10:08:20.849           382.053        191026.500
       107   13 Jun 2027 10:08:39.689   13 Jun 2027 10:09:52.252            72.563         36281.500
