uniorb/output/strategy_4/Camera/Camera_KinoSat_111401.txt

KinoSat_111401
-------------------------
    Access    *     Start Time (UTCG)     *     Stop Time (UTCG)  *   Duration (s) *   Data (Mbytes)
         1   01 Jun 2027 04:02:39.466   01 Jun 2027 04:04:57.183           137.717         68858.500
         2   01 Jun 2027 04:05:45.563   01 Jun 2027 04:05:59.554            13.991          6995.500
         3   01 Jun 2027 05:26:10.210   01 Jun 2027 05:27:22.158            71.948         35974.000
         4   01 Jun 2027 05:27:48.740   01 Jun 2027 05:28:24.151            35.411         17705.500
         5   01 Jun 2027 07:02:21.325   01 Jun 2027 07:04:19.687           118.362         59181.000
         6   01 Jun 2027 08:35:54.739   01 Jun 2027 08:38:13.958           139.219         69609.500
         7   01 Jun 2027 08:38:28.021   01 Jun 2027 08:38:41.218            13.197          6598.500
         8   01 Jun 2027 08:43:31.105   01 Jun 2027 08:43:34.247             3.142          1571.000
         9   01 Jun 2027 10:13:22.481   01 Jun 2027 10:15:06.322           103.841         51920.500
        10   01 Jun 2027 10:15:36.553   01 Jun 2027 10:15:59.590            23.037         11518.500
        11   01 Jun 2027 10:16:41.082   01 Jun 2027 10:16:55.650            14.568          7284.000
        12   01 Jun 2027 10:18:09.132   01 Jun 2027 10:18:21.160            12.028          6014.000
        13   01 Jun 2027 10:18:33.207   01 Jun 2027 10:18:52.428            19.221          9610.500
        14   01 Jun 2027 11:50:21.954   01 Jun 2027 11:51:47.216            85.262         42631.000
        15   01 Jun 2027 11:52:10.559   01 Jun 2027 11:52:27.163            16.604          8302.000
        16   01 Jun 2027 11:53:36.328   01 Jun 2027 11:53:52.707            16.379          8189.500
        17   01 Jun 2027 11:55:08.602   01 Jun 2027 11:55:08.602             0.000             0.000
        18   01 Jun 2027 11:55:23.657   01 Jun 2027 11:55:28.969             5.312          2656.000
        19   01 Jun 2027 11:55:55.694   01 Jun 2027 11:56:04.542             8.848          4424.000
        20   02 Jun 2027 04:14:20.761   02 Jun 2027 04:16:28.567           127.806         63903.000
        21   02 Jun 2027 05:38:00.164   02 Jun 2027 05:39:21.012            80.848         40424.000
        22   02 Jun 2027 07:14:27.051   02 Jun 2027 07:18:01.568           214.517        107258.500
        23   02 Jun 2027 08:46:36.711   02 Jun 2027 08:46:46.216             9.505          4752.500
        24   02 Jun 2027 08:48:33.854   02 Jun 2027 08:51:54.959           201.105        100552.500
        25   02 Jun 2027 08:55:50.865   02 Jun 2027 08:55:50.865             0.000             0.000
        26   02 Jun 2027 08:56:23.683   02 Jun 2027 08:56:25.731             2.048          1024.000
        27   02 Jun 2027 10:25:32.063   02 Jun 2027 10:26:23.699            51.636         23939.438
        28   02 Jun 2027 10:27:51.150   02 Jun 2027 10:27:52.978             1.828           117.219
        29   02 Jun 2027 10:28:14.309   02 Jun 2027 10:28:17.228             2.919           148.969
        30   02 Jun 2027 10:28:26.154   02 Jun 2027 10:28:28.070             1.916           278.938
        31   02 Jun 2027 10:29:25.547   02 Jun 2027 10:29:32.293             6.746          1796.156
        32   02 Jun 2027 10:30:01.457   02 Jun 2027 10:30:03.992             2.535           582.406
        33   02 Jun 2027 10:30:39.754   02 Jun 2027 10:30:42.789             3.035           673.625
        34   02 Jun 2027 10:31:58.752   02 Jun 2027 10:32:03.894             5.142          2364.875
        35   03 Jun 2027 04:27:34.323   03 Jun 2027 04:30:03.453           149.130         74565.000
        36   03 Jun 2027 05:50:08.198   03 Jun 2027 05:51:09.242            61.044         30522.000
        37   03 Jun 2027 05:51:18.431   03 Jun 2027 05:51:18.431             0.000             0.000
        38   03 Jun 2027 05:52:16.312   03 Jun 2027 05:52:51.652            35.340         17670.000
        39   03 Jun 2027 07:26:36.346   03 Jun 2027 07:27:54.420            78.074         37298.906
        40   03 Jun 2027 07:28:09.426   03 Jun 2027 07:28:11.507             2.081            92.406
        41   03 Jun 2027 07:28:15.301   03 Jun 2027 07:28:19.016             3.715            73.094
        42   03 Jun 2027 07:28:59.056   03 Jun 2027 07:29:02.466             3.410          1041.594
        43   03 Jun 2027 09:01:47.223   03 Jun 2027 09:01:53.943             6.720          2937.906
        44   03 Jun 2027 09:02:11.797   03 Jun 2027 09:02:14.930             3.133           408.938
        45   03 Jun 2027 09:03:01.794   03 Jun 2027 09:03:03.515             1.721           126.469
        46   03 Jun 2027 09:04:05.025   03 Jun 2027 09:04:09.990             4.965          1440.562
        47   03 Jun 2027 09:04:42.194   03 Jun 2027 09:04:43.821             1.627           604.594
        48   03 Jun 2027 09:05:06.300   03 Jun 2027 09:05:08.253             1.953           564.625
        49   03 Jun 2027 09:05:43.667   03 Jun 2027 09:05:46.601             2.934           856.750
        50   03 Jun 2027 09:07:06.654   03 Jun 2027 09:07:09.197             2.543          1061.969
        51   03 Jun 2027 09:08:17.873   03 Jun 2027 09:08:21.941             4.068           869.219
        52   03 Jun 2027 10:38:06.206   03 Jun 2027 10:38:18.879            12.673          6117.781
        53   03 Jun 2027 10:40:06.666   03 Jun 2027 10:40:07.368             0.702           271.563
        54   03 Jun 2027 10:40:11.511   03 Jun 2027 10:40:12.019             0.508           105.719
        55   03 Jun 2027 10:40:14.049   03 Jun 2027 10:40:14.868             0.819            32.656
        56   03 Jun 2027 10:40:24.370   03 Jun 2027 10:40:26.177             1.807           116.875
        57   03 Jun 2027 10:40:48.563   03 Jun 2027 10:40:55.294             6.731           343.781
        58   03 Jun 2027 10:41:19.147   03 Jun 2027 10:41:21.706             2.559           628.844
        59   03 Jun 2027 10:42:13.756   03 Jun 2027 10:42:17.276             3.520           524.375
        60   03 Jun 2027 10:42:55.129   03 Jun 2027 10:42:58.022             2.893           886.469
        61   03 Jun 2027 10:43:11.148   03 Jun 2027 10:43:13.250             2.102           123.125
        62   03 Jun 2027 10:43:41.882   03 Jun 2027 10:43:43.398             1.516           682.219
        63   03 Jun 2027 10:43:53.528   03 Jun 2027 10:43:56.172             2.644            82.250
        64   03 Jun 2027 10:44:03.125   03 Jun 2027 10:44:03.569             0.444           217.281
        65   03 Jun 2027 10:44:10.239   03 Jun 2027 10:44:11.342             1.103            32.687
        66   04 Jun 2027 03:00:29.989   04 Jun 2027 03:00:44.340            14.351          7175.500
        67   04 Jun 2027 03:00:53.601   04 Jun 2027 03:01:05.816            12.215          6107.500
        68   04 Jun 2027 03:01:39.334   04 Jun 2027 03:01:49.270             9.936          4968.000
        69   04 Jun 2027 03:02:37.183   04 Jun 2027 03:02:46.071             8.888          4444.000
        70   04 Jun 2027 03:03:12.566   04 Jun 2027 03:03:38.637            26.071         13035.500
        71   04 Jun 2027 04:38:43.354   04 Jun 2027 04:39:19.736            36.382         18191.000
        72   04 Jun 2027 04:39:48.338   04 Jun 2027 04:41:56.894           128.556         64278.000
        73   04 Jun 2027 06:02:09.574   04 Jun 2027 06:03:04.636            55.062         27531.000
        74   04 Jun 2027 06:03:35.150   04 Jun 2027 06:03:35.150             0.000             0.000
        75   04 Jun 2027 06:03:50.353   04 Jun 2027 06:04:15.768            25.415         12540.469
        76   04 Jun 2027 07:38:37.320   04 Jun 2027 07:38:50.477            13.157          6228.594
        77   04 Jun 2027 07:39:20.340   04 Jun 2027 07:39:22.063             1.723           697.594
        78   04 Jun 2027 07:40:12.021   04 Jun 2027 07:40:13.882             1.861           905.250
        79   04 Jun 2027 07:40:58.424   04 Jun 2027 07:41:02.480             4.056          1295.156
        80   04 Jun 2027 07:41:07.815   04 Jun 2027 07:41:08.563             0.748           166.719
        81   04 Jun 2027 07:41:32.145   04 Jun 2027 07:41:35.998             3.853           511.500
        82   04 Jun 2027 09:13:49.897   04 Jun 2027 09:13:58.475             8.578          4194.469
        83   04 Jun 2027 09:15:20.040   04 Jun 2027 09:15:26.829             6.789          2525.531
        84   04 Jun 2027 09:15:45.142   04 Jun 2027 09:15:46.677             1.535           538.781
        85   04 Jun 2027 09:16:44.477   04 Jun 2027 09:16:44.477             0.000             0.000
        86   04 Jun 2027 09:16:45.184   04 Jun 2027 09:16:46.884             1.700           849.719
        87   04 Jun 2027 09:17:45.646   04 Jun 2027 09:17:48.383             2.737          1149.937
        88   04 Jun 2027 09:18:00.281   04 Jun 2027 09:18:00.958             0.677             6.281
        89   04 Jun 2027 09:19:10.181   04 Jun 2027 09:19:14.335             4.154          1083.156
        90   04 Jun 2027 09:20:00.783   04 Jun 2027 09:20:05.012             4.229          1451.500
        91   04 Jun 2027 10:49:45.163   04 Jun 2027 10:49:57.326            12.163          5107.781
        92   04 Jun 2027 10:51:24.217   04 Jun 2027 10:51:34.398            10.181          2027.594
        93   04 Jun 2027 10:51:56.879   04 Jun 2027 10:51:57.862             0.983           382.656
        94   04 Jun 2027 10:52:45.804   04 Jun 2027 10:52:47.864             2.060           932.500
        95   04 Jun 2027 10:52:55.278   04 Jun 2027 10:52:57.883             2.605           231.687
        96   04 Jun 2027 10:53:46.886   04 Jun 2027 10:53:50.299             3.413           948.000
        97   04 Jun 2027 10:54:26.204   04 Jun 2027 10:54:29.368             3.164           723.219
        98   04 Jun 2027 10:55:06.570   04 Jun 2027 10:55:09.491             2.921           508.375
        99   04 Jun 2027 10:55:19.674   04 Jun 2027 10:55:24.201             4.527           318.219
       100   05 Jun 2027 03:13:34.617   05 Jun 2027 03:15:04.876            90.259         45129.500
       101   05 Jun 2027 03:16:09.770   05 Jun 2027 03:16:21.005            11.235          5617.500
       102   05 Jun 2027 03:16:39.541   05 Jun 2027 03:17:03.806            24.265         12132.500
       103   05 Jun 2027 03:17:26.419   05 Jun 2027 03:17:33.111             6.692          3346.000
       104   05 Jun 2027 03:19:47.387   05 Jun 2027 03:19:58.511            11.124          5562.000
       105   05 Jun 2027 03:20:30.971   05 Jun 2027 03:20:40.350             9.379          4689.500
       106   05 Jun 2027 04:39:43.144   05 Jun 2027 04:40:10.965            27.821         13910.500
       107   05 Jun 2027 04:50:38.985   05 Jun 2027 04:53:05.249           146.264         69617.532
       108   05 Jun 2027 04:53:28.757   05 Jun 2027 04:53:29.187             0.430           161.781
       109   05 Jun 2027 06:14:36.045   05 Jun 2027 06:14:52.452            16.407          6380.625
       110   05 Jun 2027 06:15:10.616   05 Jun 2027 06:15:12.091             1.475           119.969
       111   05 Jun 2027 06:16:58.778   05 Jun 2027 06:17:08.460             9.682          3229.844
       112   05 Jun 2027 07:50:21.251   05 Jun 2027 07:50:32.736            11.485          2228.375
       113   05 Jun 2027 07:51:23.281   05 Jun 2027 07:51:26.570             3.289           818.844
       114   05 Jun 2027 07:52:00.862   05 Jun 2027 07:52:03.966             3.104          1071.625
       115   05 Jun 2027 07:52:58.448   05 Jun 2027 07:53:03.646             5.198          1656.375
       116   05 Jun 2027 07:53:09.025   05 Jun 2027 07:53:12.647             3.622            98.219
       117   05 Jun 2027 07:53:34.050   05 Jun 2027 07:53:36.289             2.239           643.250
       118   05 Jun 2027 07:54:21.926   05 Jun 2027 07:54:29.208             7.282          1406.187
       119   05 Jun 2027 07:54:37.948   05 Jun 2027 07:54:38.354             0.406            92.063
       120   05 Jun 2027 09:25:05.127   05 Jun 2027 09:25:13.142             8.015          2764.344
       121   05 Jun 2027 09:27:20.698   05 Jun 2027 09:27:26.876             6.178          2750.219
       122   05 Jun 2027 09:27:58.259   05 Jun 2027 09:28:01.042             2.783           499.969
       123   05 Jun 2027 09:28:39.276   05 Jun 2027 09:28:40.857             1.581           164.000
       124   05 Jun 2027 09:29:11.151   05 Jun 2027 09:29:16.254             5.103           891.375
       125   05 Jun 2027 09:31:03.836   05 Jun 2027 09:31:10.190             6.354          2301.844
       126   05 Jun 2027 09:32:21.548   05 Jun 2027 09:32:28.654             7.106          2023.031
       127   05 Jun 2027 11:01:54.857   05 Jun 2027 11:02:08.606            13.749          6320.312
       128   05 Jun 2027 11:04:18.412   05 Jun 2027 11:04:21.316             2.904           390.687
       129   05 Jun 2027 11:04:25.282   05 Jun 2027 11:04:28.264             2.982            45.469
       130   05 Jun 2027 11:05:10.164   05 Jun 2027 11:05:14.779             4.615           660.406
       131   05 Jun 2027 11:05:59.117   05 Jun 2027 11:06:04.064             4.947           598.562
       132   05 Jun 2027 11:06:26.990   05 Jun 2027 11:06:38.997            12.007           710.375
       133   05 Jun 2027 11:06:54.397   05 Jun 2027 11:06:56.759             2.362           275.688
       134   05 Jun 2027 11:07:24.704   05 Jun 2027 11:07:26.748             2.044           873.281
       135   05 Jun 2027 11:07:45.526   05 Jun 2027 11:07:46.605             1.079            36.219
       136   05 Jun 2027 11:08:09.056   05 Jun 2027 11:08:11.102             2.046           232.156
       137   06 Jun 2027 03:25:56.191   06 Jun 2027 03:29:05.024           188.833         94416.500
       138   06 Jun 2027 03:30:10.173   06 Jun 2027 03:30:12.823             2.650          1325.000
       139   06 Jun 2027 03:31:47.737   06 Jun 2027 03:32:00.200            12.463          6231.500
       140   06 Jun 2027 03:32:46.683   06 Jun 2027 03:32:51.266             4.583          2291.500
       141   06 Jun 2027 04:50:59.981   06 Jun 2027 04:51:14.114            14.133          7066.500
       142   06 Jun 2027 05:02:39.925   06 Jun 2027 05:04:03.985            84.060         42030.000
       143   06 Jun 2027 06:25:11.121   06 Jun 2027 06:25:33.262            22.141          9992.751
       144   06 Jun 2027 06:26:53.206   06 Jun 2027 06:26:59.590             6.384          1898.187
       145   06 Jun 2027 06:27:50.426   06 Jun 2027 06:27:57.175             6.749          1498.719
       146   06 Jun 2027 06:28:42.482   06 Jun 2027 06:28:48.596             6.114           749.406
       147   06 Jun 2027 08:00:14.352   06 Jun 2027 08:00:20.923             6.571          2870.594
       148   06 Jun 2027 08:01:07.957   06 Jun 2027 08:01:13.781             5.824          1427.281
       149   06 Jun 2027 08:02:05.324   06 Jun 2027 08:02:07.803             2.479          1049.969
       150   06 Jun 2027 08:02:24.486   06 Jun 2027 08:02:24.486             0.000             0.000
       151   06 Jun 2027 08:03:45.142   06 Jun 2027 08:03:49.553             4.411          2205.500
       152   06 Jun 2027 08:03:58.291   06 Jun 2027 08:04:12.046            13.755           756.531
       153   06 Jun 2027 08:04:48.942   06 Jun 2027 08:04:49.291             0.349             0.500
       154   06 Jun 2027 08:05:10.046   06 Jun 2027 08:05:11.797             1.751           648.594
       155   06 Jun 2027 08:05:35.877   06 Jun 2027 08:05:38.786             2.909           669.281
       156   06 Jun 2027 08:06:08.083   06 Jun 2027 08:06:09.649             1.566           332.688
       157   06 Jun 2027 09:37:13.272   06 Jun 2027 09:37:22.052             8.780          3631.188
       158   06 Jun 2027 09:39:45.466   06 Jun 2027 09:39:51.178             5.712           753.594
       159   06 Jun 2027 09:40:53.334   06 Jun 2027 09:40:56.271             2.937           619.687
       160   06 Jun 2027 09:41:57.360   06 Jun 2027 09:42:00.839             3.479          1380.844
       161   06 Jun 2027 09:42:38.815   06 Jun 2027 09:42:40.100             1.285           425.250
       162   06 Jun 2027 09:44:03.066   06 Jun 2027 09:44:12.111             9.045          1603.406
       163   06 Jun 2027 09:44:37.767   06 Jun 2027 09:44:37.949             0.182            91.000
       164   06 Jun 2027 11:14:11.328   06 Jun 2027 11:14:26.156            14.828          6389.937
       165   06 Jun 2027 11:15:55.320   06 Jun 2027 11:15:57.847             2.527           659.219
       166   06 Jun 2027 11:16:40.101   06 Jun 2027 11:16:41.927             1.826           570.187
       167   06 Jun 2027 11:17:37.638   06 Jun 2027 11:17:44.993             7.355          1459.906
       168   06 Jun 2027 11:18:00.108   06 Jun 2027 11:18:05.685             5.577           472.344
       169   06 Jun 2027 11:18:29.186   06 Jun 2027 11:18:31.186             2.000           734.406
       170   06 Jun 2027 11:18:56.515   06 Jun 2027 11:18:57.711             1.196           439.969
       171   06 Jun 2027 11:19:27.087   06 Jun 2027 11:19:30.661             3.574           918.000
       172   06 Jun 2027 11:20:08.247   06 Jun 2027 11:20:09.522             1.275           601.750
       173   06 Jun 2027 11:20:11.758   06 Jun 2027 11:20:13.215             1.457            69.875
       174   07 Jun 2027 03:38:13.164   07 Jun 2027 03:39:41.440            88.276         44138.000
       175   07 Jun 2027 03:39:59.603   07 Jun 2027 03:41:38.658            99.055         49527.500
       176   07 Jun 2027 03:42:01.729   07 Jun 2027 03:42:08.876             7.147          3573.500
       177   07 Jun 2027 03:42:09.662   07 Jun 2027 03:42:18.851             9.189          4594.500
       178   07 Jun 2027 03:43:15.011   07 Jun 2027 03:43:26.343            11.332          5666.000
       179   07 Jun 2027 03:45:00.411   07 Jun 2027 03:45:00.858             0.447           223.500
       180   07 Jun 2027 05:02:21.012   07 Jun 2027 05:03:07.177            46.165         23082.500
       181   07 Jun 2027 05:14:37.152   07 Jun 2027 05:15:32.086            54.934         27467.000
       182   07 Jun 2027 06:36:35.883   07 Jun 2027 06:36:43.663             7.780          3529.344
       183   07 Jun 2027 06:37:49.017   07 Jun 2027 06:37:50.497             1.480           740.000
       184   07 Jun 2027 06:37:52.421   07 Jun 2027 06:38:00.259             7.838           717.500
       185   07 Jun 2027 06:38:47.852   07 Jun 2027 06:38:47.852             0.000             0.000
       186   07 Jun 2027 06:39:52.287   07 Jun 2027 06:39:59.881             7.594          2771.500
       187   07 Jun 2027 06:40:30.487   07 Jun 2027 06:40:30.487             0.000             0.000
       188   07 Jun 2027 06:41:40.835   07 Jun 2027 06:41:45.960             5.125          2439.938
       189   07 Jun 2027 06:42:02.714   07 Jun 2027 06:42:09.033             6.319           523.562
       190   07 Jun 2027 08:11:37.577   07 Jun 2027 08:11:42.888             5.311          2357.375
       191   07 Jun 2027 08:13:04.809   07 Jun 2027 08:13:05.082             0.273           136.500
       192   07 Jun 2027 08:13:24.843   07 Jun 2027 08:13:27.836             2.993          1496.500
       193   07 Jun 2027 08:14:09.869   07 Jun 2027 08:14:13.490             3.621          1637.656
       194   07 Jun 2027 08:15:45.695   07 Jun 2027 08:15:55.297             9.602          2486.500
       195   07 Jun 2027 08:17:10.141   07 Jun 2027 08:17:15.040             4.899          2250.875
       196   07 Jun 2027 08:17:51.705   07 Jun 2027 08:17:51.705             0.000             0.000
       197   07 Jun 2027 08:18:00.319   07 Jun 2027 08:18:01.749             1.430           710.594
       198   07 Jun 2027 08:18:24.808   07 Jun 2027 08:18:26.724             1.916           252.875
       199   07 Jun 2027 09:49:15.282   07 Jun 2027 09:49:25.623            10.341          4161.375
       200   07 Jun 2027 09:51:55.868   07 Jun 2027 09:52:01.206             5.338           920.563
       201   07 Jun 2027 09:53:14.861   07 Jun 2027 09:53:15.096             0.235             8.844
       202   07 Jun 2027 09:54:07.296   07 Jun 2027 09:54:12.241             4.945          1597.812
       203   07 Jun 2027 09:54:17.844   07 Jun 2027 09:54:18.309             0.465            71.906
       204   07 Jun 2027 09:54:39.892   07 Jun 2027 09:54:41.575             1.683           674.469
       205   07 Jun 2027 09:54:57.458   07 Jun 2027 09:54:59.546             2.088           470.281
       206   07 Jun 2027 09:55:24.705   07 Jun 2027 09:55:26.502             1.797           785.344
       207   07 Jun 2027 09:55:44.772   07 Jun 2027 09:55:48.110             3.338           123.187
       208   07 Jun 2027 09:56:01.811   07 Jun 2027 09:56:03.838             2.027           365.562
       209   07 Jun 2027 09:56:16.876   07 Jun 2027 09:56:19.061             2.185            67.000
       210   07 Jun 2027 09:56:32.353   07 Jun 2027 09:56:35.262             2.909           233.219
       211   07 Jun 2027 11:26:01.358   07 Jun 2027 11:26:12.466            11.108          5388.625
       212   07 Jun 2027 11:27:06.080   07 Jun 2027 11:27:09.378             3.298          1467.656
       213   07 Jun 2027 11:28:21.115   07 Jun 2027 11:28:24.816             3.701          1608.188
       214   07 Jun 2027 11:29:32.822   07 Jun 2027 11:29:39.389             6.567          1347.187
       215   07 Jun 2027 11:29:54.632   07 Jun 2027 11:29:59.479             4.847           476.344
       216   07 Jun 2027 11:30:29.680   07 Jun 2027 11:30:31.183             1.503           699.406
       217   07 Jun 2027 11:31:48.574   07 Jun 2027 11:31:53.708             5.134          2366.688
       218   07 Jun 2027 11:32:19.746   07 Jun 2027 11:32:21.681             1.935           442.000
       219   07 Jun 2027 11:32:38.071   07 Jun 2027 11:32:42.541             4.470           315.344
       220   08 Jun 2027 03:50:19.973   08 Jun 2027 03:53:32.914           192.941         96470.500
       221   08 Jun 2027 03:54:39.118   08 Jun 2027 03:54:55.768            16.650          8325.000
       222   08 Jun 2027 03:55:26.205   08 Jun 2027 03:55:44.793            18.588          9294.000
       223   08 Jun 2027 05:14:28.952   08 Jun 2027 05:15:10.098            41.146         20573.000
       224   08 Jun 2027 06:48:18.419   08 Jun 2027 06:49:27.811            69.392         34528.375
       225   08 Jun 2027 06:50:14.755   08 Jun 2027 06:50:20.158             5.403           717.437
       226   08 Jun 2027 06:50:36.003   08 Jun 2027 06:50:36.212             0.209            48.687
       227   08 Jun 2027 06:50:59.874   08 Jun 2027 06:51:00.833             0.959           444.875
       228   08 Jun 2027 06:51:19.987   08 Jun 2027 06:51:19.987             0.000             0.000
       229   08 Jun 2027 06:51:54.132   08 Jun 2027 06:52:04.386            10.254          1599.969
       230   08 Jun 2027 06:52:29.083   08 Jun 2027 06:52:29.083             0.000             0.000
       231   08 Jun 2027 06:53:34.462   08 Jun 2027 06:53:42.581             8.119          2547.062
       232   08 Jun 2027 08:23:10.393   08 Jun 2027 08:23:14.408             4.015          2007.500
       233   08 Jun 2027 08:23:37.717   08 Jun 2027 08:23:39.753             2.036          1010.312
       234   08 Jun 2027 08:26:03.454   08 Jun 2027 08:26:06.846             3.392          1028.656
       235   08 Jun 2027 08:26:41.689   08 Jun 2027 08:26:47.073             5.384           597.156
       236   08 Jun 2027 08:26:50.325   08 Jun 2027 08:26:51.278             0.953            44.031
       237   08 Jun 2027 08:29:09.891   08 Jun 2027 08:29:15.738             5.847          2923.500
       238   08 Jun 2027 08:30:09.413   08 Jun 2027 08:30:13.283             3.870          1842.875
       239   08 Jun 2027 08:30:34.337   08 Jun 2027 08:30:35.439             1.102           550.406
       240   08 Jun 2027 08:31:19.520   08 Jun 2027 08:31:26.267             6.747          1083.406
       241   08 Jun 2027 08:31:46.742   08 Jun 2027 08:31:49.088             2.346           480.531
       242   08 Jun 2027 10:01:16.198   08 Jun 2027 10:01:28.763            12.565          5327.500
       243   08 Jun 2027 10:02:36.237   08 Jun 2027 10:02:38.282             2.045          1014.000
       244   08 Jun 2027 10:03:15.084   08 Jun 2027 10:03:18.739             3.655           541.062
       245   08 Jun 2027 10:04:09.822   08 Jun 2027 10:04:14.716             4.894          1586.406
       246   08 Jun 2027 10:04:55.565   08 Jun 2027 10:04:58.578             3.013           994.937
       247   08 Jun 2027 10:05:17.326   08 Jun 2027 10:05:18.187             0.861           273.750
       248   08 Jun 2027 10:06:38.505   08 Jun 2027 10:06:43.500             4.995          2150.313
       249   08 Jun 2027 10:07:24.324   08 Jun 2027 10:07:31.182             6.858          1275.750
       250   08 Jun 2027 10:07:42.175   08 Jun 2027 10:07:44.842             2.667           323.594
       251   08 Jun 2027 10:07:58.720   08 Jun 2027 10:08:01.818             3.098           372.656
       252   08 Jun 2027 10:08:16.124   08 Jun 2027 10:08:18.235             2.111           447.063
       253   08 Jun 2027 10:08:33.454   08 Jun 2027 10:08:37.459             4.005           326.437
       254   08 Jun 2027 11:38:10.744   08 Jun 2027 11:38:23.232            12.488          5859.250
       255   08 Jun 2027 11:39:43.972   08 Jun 2027 11:39:54.320            10.348           984.531
       256   08 Jun 2027 11:40:47.292   08 Jun 2027 11:40:51.028             3.736          1566.531
       257   08 Jun 2027 11:41:17.420   08 Jun 2027 11:41:22.238             4.818           611.063
       258   08 Jun 2027 11:41:50.309   08 Jun 2027 11:41:52.574             2.265            94.937
       259   08 Jun 2027 11:42:41.449   08 Jun 2027 11:42:46.010             4.561          1240.344
       260   08 Jun 2027 11:42:59.735   08 Jun 2027 11:43:01.937             2.202           157.406
       261   08 Jun 2027 11:43:16.819   08 Jun 2027 11:43:17.781             0.962           465.062
       262   08 Jun 2027 11:44:16.280   08 Jun 2027 11:44:24.364             8.084          1070.812
       263   09 Jun 2027 04:02:56.423   09 Jun 2027 04:06:03.345           186.922         93461.000
       264   09 Jun 2027 04:07:05.551   09 Jun 2027 04:07:31.000            25.449         12724.500
       265   09 Jun 2027 05:26:25.105   09 Jun 2027 05:26:43.723            18.618          9309.000
       266   09 Jun 2027 05:27:12.937   09 Jun 2027 05:27:12.937             0.000             0.000
       267   09 Jun 2027 07:02:37.881   09 Jun 2027 07:04:00.227            82.346         40728.844
       268   09 Jun 2027 07:04:44.644   09 Jun 2027 07:04:47.697             3.053          1346.094
       269   09 Jun 2027 07:04:50.162   09 Jun 2027 07:04:50.971             0.809            77.031
       270   09 Jun 2027 07:05:09.218   09 Jun 2027 07:05:10.572             1.354           533.937
       271   09 Jun 2027 07:05:18.942   09 Jun 2027 07:05:22.495             3.553           261.562
       272   09 Jun 2027 08:36:11.165   09 Jun 2027 08:36:18.017             6.852          2359.438
       273   09 Jun 2027 08:38:00.473   09 Jun 2027 08:38:06.317             5.844           972.125
       274   09 Jun 2027 08:38:38.334   09 Jun 2027 08:38:39.350             1.016           230.750
       275   09 Jun 2027 08:39:02.432   09 Jun 2027 08:39:04.065             1.633           585.281
       276   09 Jun 2027 08:40:05.269   09 Jun 2027 08:40:08.305             3.036          1003.312
       277   09 Jun 2027 08:42:36.746   09 Jun 2027 08:42:44.204             7.458          3369.688
       278   09 Jun 2027 08:43:18.146   09 Jun 2027 08:43:20.388             2.242           667.656
       279   09 Jun 2027 08:44:09.058   09 Jun 2027 08:44:15.156             6.098          1508.313
       280   09 Jun 2027 10:13:42.675   09 Jun 2027 10:13:54.224            11.549          5103.219
       281   09 Jun 2027 10:15:51.787   09 Jun 2027 10:15:53.699             1.912           651.438
       282   09 Jun 2027 10:16:16.637   09 Jun 2027 10:16:21.787             5.150           268.906
       283   09 Jun 2027 10:17:47.801   09 Jun 2027 10:17:50.455             2.654           961.719
       284   09 Jun 2027 10:18:36.757   09 Jun 2027 10:18:37.062             0.305            71.125
       285   09 Jun 2027 10:19:26.378   09 Jun 2027 10:19:28.718             2.340          1108.094
       286   09 Jun 2027 10:20:03.011   09 Jun 2027 10:20:05.754             2.743          1071.656
       287   09 Jun 2027 10:20:24.403   09 Jun 2027 10:20:27.184             2.781           322.906
       288   09 Jun 2027 11:50:38.790   09 Jun 2027 11:50:52.315            13.525          6672.625
       289   09 Jun 2027 11:52:53.912   09 Jun 2027 11:52:54.607             0.695           326.969
       290   09 Jun 2027 11:53:33.790   09 Jun 2027 11:53:36.343             2.553             3.094
       291   09 Jun 2027 11:53:59.772   09 Jun 2027 11:54:02.888             3.116           205.437
       292   09 Jun 2027 11:54:58.144   09 Jun 2027 11:55:02.748             4.604           863.688
       293   09 Jun 2027 11:55:13.734   09 Jun 2027 11:55:14.734             1.000           283.844
       294   09 Jun 2027 11:56:07.356   09 Jun 2027 11:56:10.018             2.662           453.844
       295   10 Jun 2027 04:14:37.095   10 Jun 2027 04:16:55.103           138.008         69004.000
       296   10 Jun 2027 04:17:16.170   10 Jun 2027 04:17:51.034            34.864         17432.000
       297   10 Jun 2027 05:38:16.148   10 Jun 2027 05:39:10.628            54.480         27240.000
       298   10 Jun 2027 07:14:43.076   10 Jun 2027 07:16:19.730            96.654         46898.969
       299   10 Jun 2027 07:16:48.287   10 Jun 2027 07:16:52.001             3.714           892.406
       300   10 Jun 2027 07:17:47.082   10 Jun 2027 07:17:50.896             3.814          1036.375
       301   10 Jun 2027 08:46:51.188   10 Jun 2027 08:46:58.279             7.091          2877.844
       302   10 Jun 2027 08:48:50.012   10 Jun 2027 08:48:56.964             6.952           619.125
       303   10 Jun 2027 08:49:40.858   10 Jun 2027 08:49:44.224             3.366          1191.688
       304   10 Jun 2027 08:50:36.677   10 Jun 2027 08:50:38.893             2.216            45.031
       305   10 Jun 2027 08:51:34.990   10 Jun 2027 08:51:43.206             8.216          1176.531
       306   10 Jun 2027 08:53:07.266   10 Jun 2027 08:53:11.570             4.304          1702.531
       307   10 Jun 2027 08:53:51.504   10 Jun 2027 08:53:54.075             2.571           930.437
       308   10 Jun 2027 08:55:21.646   10 Jun 2027 08:55:27.962             6.316          2498.031
       309   10 Jun 2027 08:56:08.774   10 Jun 2027 08:56:10.826             2.052          1021.031
       310   10 Jun 2027 08:56:27.152   10 Jun 2027 08:56:31.628             4.476           162.031
       311   10 Jun 2027 10:25:48.759   10 Jun 2027 10:26:00.415            11.656          5371.563
       312   10 Jun 2027 10:28:03.025   10 Jun 2027 10:28:07.330             4.305            25.625
       313   10 Jun 2027 10:28:33.335   10 Jun 2027 10:28:35.035             1.700           463.719
       314   10 Jun 2027 10:29:02.814   10 Jun 2027 10:29:10.958             8.144           728.188
       315   10 Jun 2027 10:30:19.364   10 Jun 2027 10:30:21.991             2.627          1243.594
       316   10 Jun 2027 10:30:57.280   10 Jun 2027 10:31:00.304             3.024           735.531
       317   10 Jun 2027 10:31:12.379   10 Jun 2027 10:31:15.311             2.932            29.312
       318   10 Jun 2027 10:31:48.796   10 Jun 2027 10:31:52.996             4.200            69.781
       319   10 Jun 2027 10:32:13.828   10 Jun 2027 10:32:15.916             2.088           651.000
       320   11 Jun 2027 04:27:50.415   11 Jun 2027 04:30:39.978           169.563         84781.500
       321   11 Jun 2027 04:31:02.011   11 Jun 2027 04:31:22.210            20.199         10099.500
       322   11 Jun 2027 05:50:24.554   11 Jun 2027 05:50:54.788            30.234         15117.000
       323   11 Jun 2027 05:52:34.446   11 Jun 2027 05:53:07.748            33.302         16651.000
       324   11 Jun 2027 07:26:53.020   11 Jun 2027 07:27:53.317            60.297         30148.500
       325   11 Jun 2027 07:27:59.196   11 Jun 2027 07:28:04.041             4.845           349.844
       326   11 Jun 2027 07:29:01.347   11 Jun 2027 07:29:07.887             6.540          1790.813
       327   11 Jun 2027 07:29:22.926   11 Jun 2027 07:29:25.375             2.449           175.438
       328   11 Jun 2027 07:29:33.708   11 Jun 2027 07:29:33.708             0.000             0.000
       329   11 Jun 2027 07:29:48.299   11 Jun 2027 07:29:52.472             4.173           492.719
       330   11 Jun 2027 09:02:04.269   11 Jun 2027 09:02:10.513             6.244          2789.250
       331   11 Jun 2027 09:03:15.742   11 Jun 2027 09:03:19.844             4.102          1515.469
       332   11 Jun 2027 09:03:36.468   11 Jun 2027 09:03:41.057             4.589           519.500
       333   11 Jun 2027 09:05:04.596   11 Jun 2027 09:05:07.330             2.734          1297.875
       334   11 Jun 2027 09:05:30.940   11 Jun 2027 09:05:34.033             3.093           202.406
       335   11 Jun 2027 09:07:22.006   11 Jun 2027 09:07:28.166             6.160          2518.031
       336   11 Jun 2027 09:08:38.580   11 Jun 2027 09:08:40.558             1.978           959.938
       337   11 Jun 2027 10:38:23.008   11 Jun 2027 10:38:33.381            10.373          4510.406
       338   11 Jun 2027 10:40:04.912   11 Jun 2027 10:40:10.821             5.909          1208.875
       339   11 Jun 2027 10:40:56.499   11 Jun 2027 10:40:59.339             2.840           454.938
       340   11 Jun 2027 10:42:23.582   11 Jun 2027 10:42:29.234             5.652          2576.031
       341   11 Jun 2027 10:43:03.000   11 Jun 2027 10:43:05.936             2.936          1055.188
       342   11 Jun 2027 10:43:26.762   11 Jun 2027 10:43:28.629             1.867           133.469
       343   11 Jun 2027 10:43:56.308   11 Jun 2027 10:43:57.771             1.463           644.125
       344   11 Jun 2027 10:44:11.167   11 Jun 2027 10:44:14.114             2.947           149.906
       345   12 Jun 2027 03:00:46.633   12 Jun 2027 03:01:00.773            14.140          7070.000
       346   12 Jun 2027 03:01:21.696   12 Jun 2027 03:01:28.118             6.422          3211.000
       347   12 Jun 2027 03:01:50.204   12 Jun 2027 03:02:06.901            16.697          8348.500
       348   12 Jun 2027 03:02:51.683   12 Jun 2027 03:03:00.694             9.011          4505.500
       349   12 Jun 2027 03:03:34.794   12 Jun 2027 03:03:40.328             5.534          2767.000
       350   12 Jun 2027 03:04:06.790   12 Jun 2027 03:04:13.694             6.904          3452.000
       351   12 Jun 2027 03:06:12.601   12 Jun 2027 03:06:16.266             3.665          1832.500
       352   12 Jun 2027 03:06:48.165   12 Jun 2027 03:06:54.110             5.945          2972.500
       353   12 Jun 2027 03:09:07.683   12 Jun 2027 03:09:26.554            18.871          9435.500
       354   12 Jun 2027 04:38:59.386   12 Jun 2027 04:39:35.776            36.390         18195.000
       355   12 Jun 2027 04:40:04.383   12 Jun 2027 04:42:09.398           125.015         62507.500
       356   12 Jun 2027 04:42:17.956   12 Jun 2027 04:42:30.524            12.568          6284.000
       357   12 Jun 2027 06:03:07.025   12 Jun 2027 06:04:04.390            57.365         28682.500
       358   12 Jun 2027 06:05:12.304   12 Jun 2027 06:05:22.276             9.972          4986.000
       359   12 Jun 2027 07:38:52.174   12 Jun 2027 07:39:10.707            18.533          8762.375
       360   12 Jun 2027 07:39:38.037   12 Jun 2027 07:39:46.219             8.182           752.500
       361   12 Jun 2027 07:41:16.845   12 Jun 2027 07:41:23.783             6.938          2383.062
       362   12 Jun 2027 07:42:00.534   12 Jun 2027 07:42:02.969             2.435          1126.906
       363   12 Jun 2027 09:14:05.280   12 Jun 2027 09:14:12.066             6.786          2833.781
       364   12 Jun 2027 09:15:37.543   12 Jun 2027 09:15:46.195             8.652          2595.594
       365   12 Jun 2027 09:16:03.525   12 Jun 2027 09:16:06.655             3.130           541.562
       366   12 Jun 2027 09:16:59.237   12 Jun 2027 09:17:00.758             1.521           718.156
       367   12 Jun 2027 09:17:26.988   12 Jun 2027 09:17:33.537             6.549           819.688
       368   12 Jun 2027 09:19:21.786   12 Jun 2027 09:19:28.701             6.915          2442.281
       369   12 Jun 2027 09:20:16.403   12 Jun 2027 09:20:20.800             4.397          1490.687
       370   12 Jun 2027 09:20:44.625   12 Jun 2027 09:20:45.429             0.804            60.094
       371   12 Jun 2027 10:50:01.804   12 Jun 2027 10:50:16.272            14.468          6381.344
       372   12 Jun 2027 10:51:39.826   12 Jun 2027 10:51:44.679             4.853          1974.437
       373   12 Jun 2027 10:52:15.144   12 Jun 2027 10:52:17.070             1.926            69.438
       374   12 Jun 2027 10:52:48.123   12 Jun 2027 10:52:50.867             2.744           251.250
       375   12 Jun 2027 10:53:08.378   12 Jun 2027 10:53:09.570             1.192           212.687
       376   12 Jun 2027 10:54:21.902   12 Jun 2027 10:54:28.549             6.647          2246.844
       377   12 Jun 2027 10:55:43.026   12 Jun 2027 10:55:45.929             2.903          1131.406
       378   12 Jun 2027 10:55:58.423   12 Jun 2027 10:55:59.199             0.776           308.500
       379   12 Jun 2027 10:56:20.488   12 Jun 2027 10:56:20.840             0.352            50.938
       380   13 Jun 2027 03:13:51.165   13 Jun 2027 03:15:21.065            89.900         44950.000
       381   13 Jun 2027 03:16:24.591   13 Jun 2027 03:16:31.225             6.634          3317.000
       382   13 Jun 2027 03:16:54.144   13 Jun 2027 03:17:35.262            41.118         20559.000
       383   13 Jun 2027 03:17:50.033   13 Jun 2027 03:17:54.192             4.159          2079.500
       384   13 Jun 2027 03:18:18.175   13 Jun 2027 03:18:26.994             8.819          4409.500
       385   13 Jun 2027 03:20:17.604   13 Jun 2027 03:20:30.538            12.934          6467.000
       386   13 Jun 2027 03:20:32.306   13 Jun 2027 03:20:56.466            24.160         12080.000
       387   13 Jun 2027 04:39:57.188   13 Jun 2027 04:40:27.628            30.440         15220.000
       388   13 Jun 2027 04:50:55.049   13 Jun 2027 04:52:41.004           105.955         50542.906
       389   13 Jun 2027 04:53:43.164   13 Jun 2027 04:53:44.190             1.026           138.281
       390   13 Jun 2027 06:14:13.918   13 Jun 2027 06:14:23.240             9.322          4611.156
       391   13 Jun 2027 06:14:55.946   13 Jun 2027 06:15:01.519             5.573          1022.062
       392   13 Jun 2027 06:16:06.177   13 Jun 2027 06:16:09.823             3.646          1568.563
       393   13 Jun 2027 06:17:06.025   13 Jun 2027 06:17:14.520             8.495          1016.063
       394   13 Jun 2027 07:50:36.737   13 Jun 2027 07:50:50.917            14.180          1917.969
       395   13 Jun 2027 07:52:01.748   13 Jun 2027 07:52:08.392             6.644          2146.344
       396   13 Jun 2027 07:52:20.251   13 Jun 2027 07:52:26.356             6.105            78.094
       397   13 Jun 2027 07:53:22.811   13 Jun 2027 07:53:24.128             1.317           658.500
       398   13 Jun 2027 07:53:25.656   13 Jun 2027 07:53:27.376             1.720           105.781
       399   13 Jun 2027 07:53:34.915   13 Jun 2027 07:53:34.915             0.000             0.000
       400   13 Jun 2027 07:54:40.446   13 Jun 2027 07:54:45.105             4.659          2206.563
       401   13 Jun 2027 07:54:54.512   13 Jun 2027 07:54:55.486             0.974           124.344
       402   13 Jun 2027 09:25:21.797   13 Jun 2027 09:25:30.519             8.722          2826.875
       403   13 Jun 2027 09:27:38.157   13 Jun 2027 09:27:51.958            13.801          2737.719
       404   13 Jun 2027 09:28:16.830   13 Jun 2027 09:28:20.783             3.953           737.625
       405   13 Jun 2027 09:28:55.453   13 Jun 2027 09:28:55.753             0.300            91.469
       406   13 Jun 2027 09:29:45.280   13 Jun 2027 09:29:50.569             5.289          1547.719
       407   13 Jun 2027 09:30:31.930   13 Jun 2027 09:30:34.752             2.822           758.031
       408   13 Jun 2027 09:30:54.058   13 Jun 2027 09:30:55.200             1.142            22.500
       409   13 Jun 2027 09:31:11.661   13 Jun 2027 09:31:14.881             3.220           359.750
       410   13 Jun 2027 09:32:15.084   13 Jun 2027 09:32:20.232             5.148          1693.563
       411   13 Jun 2027 09:32:49.837   13 Jun 2027 09:32:53.790             3.953           420.719
       412   13 Jun 2027 11:02:11.144   13 Jun 2027 11:02:24.604            13.460          5826.812
       413   13 Jun 2027 11:04:06.355   13 Jun 2027 11:04:10.507             4.152          1542.656
       414   13 Jun 2027 11:05:04.913   13 Jun 2027 11:05:07.657             2.744           750.125
       415   13 Jun 2027 11:05:18.340   13 Jun 2027 11:05:20.332             1.992           333.844
       416   13 Jun 2027 11:06:19.165   13 Jun 2027 11:06:22.671             3.506          1540.813
       417   13 Jun 2027 11:07:00.644   13 Jun 2027 11:07:11.811            11.167           823.406
       418   13 Jun 2027 11:07:14.702   13 Jun 2027 11:07:17.569             2.867            89.375
       419   13 Jun 2027 11:07:19.668   13 Jun 2027 11:07:23.629             3.961            65.594
