uniorb/output/strategy_4/Camera/Camera_KinoSat_110403.txt

KinoSat_110403
-------------------------
    Access    *     Start Time (UTCG)     *     Stop Time (UTCG)  *   Duration (s) *   Data (Mbytes)
         1   01 Jun 2027 04:11:35.238   01 Jun 2027 04:13:31.568           116.330         58165.000
         2   01 Jun 2027 04:15:45.680   01 Jun 2027 04:16:12.013            26.333         13166.500
         3   01 Jun 2027 04:16:34.983   01 Jun 2027 04:16:55.750            20.767         10383.500
         4   01 Jun 2027 04:17:24.485   01 Jun 2027 04:17:48.430            23.945         11972.500
         5   01 Jun 2027 04:17:56.904   01 Jun 2027 04:17:58.971             2.067          1033.500
         6   01 Jun 2027 05:47:55.073   01 Jun 2027 05:51:00.498           185.425         92712.500
         7   01 Jun 2027 05:52:22.153   01 Jun 2027 05:52:51.113            28.960         14480.000
         8   01 Jun 2027 07:25:21.588   01 Jun 2027 07:28:12.219           170.631         85315.500
         9   01 Jun 2027 07:28:30.635   01 Jun 2027 07:28:38.571             7.936          3968.000
        10   01 Jun 2027 07:29:19.994   01 Jun 2027 07:29:28.214             8.220          4110.000
        11   01 Jun 2027 09:01:25.239   01 Jun 2027 09:04:26.290           181.051         90525.500
        12   01 Jun 2027 09:04:40.260   01 Jun 2027 09:04:49.293             9.033          4516.500
        13   01 Jun 2027 09:05:32.338   01 Jun 2027 09:05:35.002             2.664          1332.000
        14   01 Jun 2027 09:05:58.930   01 Jun 2027 09:06:17.564            18.634          9317.000
        15   02 Jun 2027 04:23:04.517   02 Jun 2027 04:30:10.643           426.126        213063.000
        16   02 Jun 2027 04:30:16.275   02 Jun 2027 04:30:20.228             3.953          1976.500
        17   02 Jun 2027 05:59:34.806   02 Jun 2027 06:03:52.951           258.145        129072.500
        18   02 Jun 2027 07:37:52.696   02 Jun 2027 07:41:36.002           223.306        111653.000
        19   02 Jun 2027 09:13:18.249   02 Jun 2027 09:17:21.405           243.156        121578.000
        20   02 Jun 2027 09:17:43.251   02 Jun 2027 09:18:41.095            57.844         28922.000
        21   03 Jun 2027 03:00:00.000   03 Jun 2027 03:04:36.943           276.943        138471.500
        22   03 Jun 2027 04:34:48.430   03 Jun 2027 04:42:20.881           452.451        226225.500
        23   03 Jun 2027 06:12:48.802   03 Jun 2027 06:17:58.366           309.564        154782.000
        24   03 Jun 2027 07:49:50.029   03 Jun 2027 07:53:48.209           238.180        119090.000
        25   03 Jun 2027 09:22:55.496   03 Jun 2027 09:29:16.362           380.866        190433.000
        26   03 Jun 2027 09:29:59.566   03 Jun 2027 09:30:57.185            57.619         28809.500
        27   04 Jun 2027 03:09:36.263   04 Jun 2027 03:11:33.285           117.022         58511.000
        28   04 Jun 2027 03:11:41.347   04 Jun 2027 03:16:59.355           318.008        159004.000
        29   04 Jun 2027 03:17:38.986   04 Jun 2027 03:17:59.968            20.982         10491.000
        30   04 Jun 2027 04:47:05.932   04 Jun 2027 04:54:24.538           438.606        219303.000
        31   04 Jun 2027 06:23:50.609   04 Jun 2027 06:29:08.687           318.078        159039.000
        32   04 Jun 2027 06:29:09.850   04 Jun 2027 06:30:03.033            53.183         26591.500
        33   04 Jun 2027 06:30:06.856   04 Jun 2027 06:30:23.948            17.092          8546.000
        34   04 Jun 2027 08:02:08.693   04 Jun 2027 08:06:00.181           231.488        115744.000
        35   04 Jun 2027 09:35:26.854   04 Jun 2027 09:42:41.676           434.822        217411.000
        36   05 Jun 2027 03:21:05.198   05 Jun 2027 03:29:09.189           483.991        241995.500
        37   05 Jun 2027 03:29:40.567   05 Jun 2027 03:30:27.549            46.982         23491.000
        38   05 Jun 2027 04:58:59.732   05 Jun 2027 05:06:25.120           445.388        222694.000
        39   05 Jun 2027 06:35:43.911   05 Jun 2027 06:41:28.572           344.661        172330.500
        40   05 Jun 2027 06:42:10.213   05 Jun 2027 06:42:27.082            16.869          8434.500
        41   05 Jun 2027 08:13:37.439   05 Jun 2027 08:17:59.451           262.012        131006.000
        42   05 Jun 2027 09:49:40.812   05 Jun 2027 09:53:54.930           254.118        127059.000
        43   06 Jun 2027 03:33:58.207   06 Jun 2027 03:42:28.875           510.668        255334.000
        44   06 Jun 2027 05:11:08.397   06 Jun 2027 05:18:24.464           436.067        218033.500
        45   06 Jun 2027 06:48:22.619   06 Jun 2027 06:52:52.860           270.241        135120.500
        46   06 Jun 2027 06:53:17.790   06 Jun 2027 06:54:13.872            56.082         28041.000
        47   06 Jun 2027 08:25:20.428   06 Jun 2027 08:29:55.797           275.369        137684.500
        48   06 Jun 2027 10:02:01.554   06 Jun 2027 10:04:58.109           176.555         88277.500
        49   07 Jun 2027 03:46:25.068   07 Jun 2027 03:53:22.253           417.185        208592.500
        50   07 Jun 2027 03:53:43.192   07 Jun 2027 03:54:27.170            43.978         21989.000
        51   07 Jun 2027 05:23:32.871   07 Jun 2027 05:30:14.881           402.010        201005.000
        52   07 Jun 2027 07:00:30.769   07 Jun 2027 07:05:29.236           298.467        149233.500
        53   07 Jun 2027 08:37:18.024   07 Jun 2027 08:41:48.883           270.859        135429.500
        54   07 Jun 2027 10:15:28.465   07 Jun 2027 10:16:29.042            60.577         30288.500
        55   08 Jun 2027 03:59:37.879   08 Jun 2027 04:05:23.586           345.707        172853.500
        56   08 Jun 2027 04:05:23.730   08 Jun 2027 04:06:27.135            63.405         31702.500
        57   08 Jun 2027 05:35:58.395   08 Jun 2027 05:42:20.857           382.462        191231.000
        58   08 Jun 2027 07:13:32.438   08 Jun 2027 07:17:55.022           262.584        131292.000
        59   08 Jun 2027 08:49:41.915   08 Jun 2027 08:53:47.630           245.715        122857.500
        60   09 Jun 2027 04:11:49.842   09 Jun 2027 04:18:25.599           395.757        197878.500
        61   09 Jun 2027 05:48:08.473   09 Jun 2027 05:53:53.708           345.235        172617.500
        62   09 Jun 2027 07:25:36.433   09 Jun 2027 07:30:08.999           272.566        136283.000
        63   09 Jun 2027 09:01:39.903   09 Jun 2027 09:05:50.353           250.450        125225.000
        64   09 Jun 2027 09:06:17.413   09 Jun 2027 09:06:32.695            15.282          7641.000
        65   10 Jun 2027 04:23:18.857   10 Jun 2027 04:30:35.002           436.145        218072.500
        66   10 Jun 2027 05:59:49.316   10 Jun 2027 06:06:13.331           384.015        192007.500
        67   10 Jun 2027 07:38:07.467   10 Jun 2027 07:41:50.450           222.983        111491.500
        68   10 Jun 2027 09:13:32.694   10 Jun 2027 09:17:36.380           243.686        121843.000
        69   10 Jun 2027 09:18:09.790   10 Jun 2027 09:18:55.851            46.061         23030.500
        70   11 Jun 2027 03:00:11.323   11 Jun 2027 03:04:51.769           280.446        140223.000
        71   11 Jun 2027 04:35:03.157   11 Jun 2027 04:42:35.559           452.402        226201.000
        72   11 Jun 2027 06:12:09.189   11 Jun 2027 06:18:12.976           363.787        181893.500
        73   11 Jun 2027 07:50:04.725   11 Jun 2027 07:54:02.862           238.137        119068.500
        74   11 Jun 2027 09:23:10.482   11 Jun 2027 09:29:31.227           380.745        190372.500
        75   11 Jun 2027 09:30:24.821   11 Jun 2027 09:30:56.374            31.553         15776.500
        76   12 Jun 2027 03:09:50.420   12 Jun 2027 03:11:48.095           117.675         58837.500
        77   12 Jun 2027 03:11:55.837   12 Jun 2027 03:17:04.769           308.932        154466.000
        78   12 Jun 2027 03:17:58.192   12 Jun 2027 03:18:14.651            16.459          8229.500
        79   12 Jun 2027 04:47:20.427   12 Jun 2027 04:54:39.128           438.701        219350.500
        80   12 Jun 2027 06:24:05.192   12 Jun 2027 06:29:22.623           317.431        158715.500
        81   12 Jun 2027 08:02:23.243   12 Jun 2027 08:06:14.790           231.547        115773.500
        82   12 Jun 2027 09:35:41.484   12 Jun 2027 09:42:56.281           434.797        217398.500
        83   13 Jun 2027 03:21:19.628   13 Jun 2027 03:29:23.846           484.218        242109.000
        84   13 Jun 2027 03:29:58.121   13 Jun 2027 03:30:42.195            44.074         22037.000
        85   13 Jun 2027 04:59:14.417   13 Jun 2027 05:06:39.927           445.510        222755.000
        86   13 Jun 2027 06:35:58.841   13 Jun 2027 06:41:42.452           343.611        171805.500
        87   13 Jun 2027 06:42:24.656   13 Jun 2027 06:42:41.581            16.925          8462.500
        88   13 Jun 2027 08:13:51.997   13 Jun 2027 08:18:14.035           262.038        131019.000
        89   13 Jun 2027 09:49:56.503   13 Jun 2027 09:54:09.450           252.947        126473.500
