uniorb/output/strategy_4/Camera/Camera_KinoSat_110206.txt

KinoSat_110206
-------------------------
    Access    *     Start Time (UTCG)     *     Stop Time (UTCG)  *   Duration (s) *   Data (Mbytes)
         1   01 Jun 2027 03:51:37.468   01 Jun 2027 03:53:35.042           117.574         58787.000
         2   01 Jun 2027 03:54:12.440   01 Jun 2027 03:54:12.440             0.000             0.000
         3   01 Jun 2027 03:54:36.146   01 Jun 2027 03:55:05.690            29.544         14772.000
         4   01 Jun 2027 03:56:36.886   01 Jun 2027 03:57:25.103            48.217         24108.500
         5   01 Jun 2027 03:57:42.865   01 Jun 2027 03:57:42.865             0.000             0.000
         6   01 Jun 2027 05:28:52.045   01 Jun 2027 05:32:25.045           213.000        106500.000
         7   01 Jun 2027 05:33:11.846   01 Jun 2027 05:33:12.766             0.920           460.000
         8   01 Jun 2027 05:34:19.890   01 Jun 2027 05:34:44.389            24.499         12249.500
         9   01 Jun 2027 07:05:33.894   01 Jun 2027 07:08:01.626           147.732         73866.000
        10   01 Jun 2027 07:08:49.891   01 Jun 2027 07:09:17.391            27.500         13750.000
        11   01 Jun 2027 08:40:45.760   01 Jun 2027 08:40:59.749            13.989          6994.500
        12   01 Jun 2027 08:42:20.653   01 Jun 2027 08:44:35.548           134.895         67447.500
        13   01 Jun 2027 08:45:01.191   01 Jun 2027 08:45:07.918             6.727          3363.500
        14   02 Jun 2027 04:04:02.808   02 Jun 2027 04:09:37.812           335.004        167502.000
        15   02 Jun 2027 05:41:02.042   02 Jun 2027 05:45:45.530           283.488        141744.000
        16   02 Jun 2027 07:17:48.670   02 Jun 2027 07:22:19.178           270.508        135254.000
        17   02 Jun 2027 08:55:59.032   02 Jun 2027 08:57:02.171            63.139         31569.500
        18   03 Jun 2027 04:16:28.777   03 Jun 2027 04:22:50.942           382.165        191082.500
        19   03 Jun 2027 05:54:02.977   03 Jun 2027 05:58:24.345           261.368        130684.000
        20   03 Jun 2027 07:30:06.726   03 Jun 2027 07:34:16.341           249.615        124807.500
        21   04 Jun 2027 04:28:41.026   04 Jun 2027 04:34:24.027           343.001        171500.500
        22   04 Jun 2027 04:34:26.412   04 Jun 2027 04:34:44.353            17.941          8970.500
        23   04 Jun 2027 06:05:57.719   04 Jun 2027 06:10:39.053           281.334        140667.000
        24   04 Jun 2027 07:42:10.256   04 Jun 2027 07:47:01.763           291.507        145753.500
        25   05 Jun 2027 03:03:50.296   05 Jun 2027 03:11:04.961           434.665        217332.500
        26   05 Jun 2027 04:40:19.854   05 Jun 2027 04:46:43.606           383.752        191876.000
        27   05 Jun 2027 06:18:37.518   05 Jun 2027 06:22:31.849           234.331        117165.500
        28   05 Jun 2027 07:55:06.124   05 Jun 2027 07:58:05.748           179.624         89812.000
        29   05 Jun 2027 07:58:35.900   05 Jun 2027 07:59:25.821            49.921         24960.500
        30   06 Jun 2027 03:15:33.348   06 Jun 2027 03:23:05.813           452.465        226232.500
        31   06 Jun 2027 04:52:39.858   06 Jun 2027 04:58:58.944           379.086        189543.000
        32   06 Jun 2027 06:30:40.017   06 Jun 2027 06:34:33.272           233.255        116627.500
        33   06 Jun 2027 08:03:40.354   06 Jun 2027 08:10:00.986           380.632        190316.000
        34   06 Jun 2027 08:10:50.634   06 Jun 2027 08:11:39.285            48.651         24325.500
        35   07 Jun 2027 03:27:51.309   07 Jun 2027 03:35:09.755           438.446        219223.000
        36   07 Jun 2027 05:04:35.901   07 Jun 2027 05:11:08.862           392.961        196480.500
        37   07 Jun 2027 06:42:34.453   07 Jun 2027 06:46:45.399           250.946        125473.000
        38   07 Jun 2027 08:16:12.192   07 Jun 2027 08:22:32.121           379.929        189964.500
        39   07 Jun 2027 08:23:13.807   07 Jun 2027 08:23:36.682            22.875         11437.500
        40   08 Jun 2027 03:39:44.683   08 Jun 2027 03:47:09.835           445.152        222576.000
        41   08 Jun 2027 05:16:28.725   08 Jun 2027 05:23:12.518           403.793        201896.500
        42   08 Jun 2027 06:54:24.510   08 Jun 2027 06:58:44.615           260.105        130052.500
        43   08 Jun 2027 08:30:24.515   08 Jun 2027 08:34:41.456           256.941        128470.500
        44   09 Jun 2027 03:51:52.694   09 Jun 2027 03:59:09.906           437.212        218606.000
        45   09 Jun 2027 05:29:07.254   09 Jun 2027 05:33:38.307           271.053        135526.500
        46   09 Jun 2027 05:33:48.215   09 Jun 2027 05:34:59.162            70.947         35473.500
        47   09 Jun 2027 07:05:57.075   09 Jun 2027 07:10:40.691           283.616        141808.000
        48   09 Jun 2027 08:42:44.727   09 Jun 2027 08:45:43.578           178.851         89425.500
        49   10 Jun 2027 04:04:17.816   10 Jun 2027 04:10:59.864           402.048        201024.000
        50   10 Jun 2027 05:41:16.315   10 Jun 2027 05:46:27.547           311.232        155616.000
        51   10 Jun 2027 07:18:25.579   10 Jun 2027 07:22:34.020           248.441        124220.500
        52   10 Jun 2027 08:56:13.823   10 Jun 2027 08:57:16.565            62.742         31371.000
        53   11 Jun 2027 04:16:43.724   11 Jun 2027 04:23:05.885           382.161        191080.500
        54   11 Jun 2027 05:54:17.742   11 Jun 2027 05:58:39.588           261.846        130923.000
        55   11 Jun 2027 07:30:21.049   11 Jun 2027 07:34:31.703           250.654        125327.000
        56   12 Jun 2027 04:28:55.282   12 Jun 2027 04:34:38.893           343.611        171805.500
        57   12 Jun 2027 04:34:41.879   12 Jun 2027 04:34:58.695            16.816          8408.000
        58   12 Jun 2027 06:06:21.345   12 Jun 2027 06:10:54.047           272.702        136351.000
        59   12 Jun 2027 07:42:25.115   12 Jun 2027 07:46:35.631           250.516        125258.000
        60   13 Jun 2027 03:04:04.619   13 Jun 2027 03:11:19.923           435.304        217652.000
        61   13 Jun 2027 04:40:34.838   13 Jun 2027 04:46:58.502           383.664        191832.000
        62   13 Jun 2027 06:18:52.520   13 Jun 2027 06:22:36.126           223.606        111803.000
        63   13 Jun 2027 07:54:56.208   13 Jun 2027 07:58:21.024           204.816        102408.000
        64   13 Jun 2027 07:58:50.157   13 Jun 2027 07:59:40.886            50.729         25364.500
