uniorb/output/strategy_4/Camera/Camera_KinoSat_111901.txt

KinoSat_111901
-------------------------
    Access    *     Start Time (UTCG)     *     Stop Time (UTCG)  *   Duration (s) *   Data (Mbytes)
         1   01 Jun 2027 03:39:08.687   01 Jun 2027 03:41:21.888           133.201         66600.500
         2   01 Jun 2027 03:41:23.210   01 Jun 2027 03:41:25.341             2.131          1065.500
         3   01 Jun 2027 03:42:05.808   01 Jun 2027 03:42:12.838             7.030          3515.000
         4   01 Jun 2027 03:42:23.669   01 Jun 2027 03:42:23.669             0.000             0.000
         5   01 Jun 2027 03:43:26.955   01 Jun 2027 03:43:28.368             1.413           706.500
         6   01 Jun 2027 03:44:20.138   01 Jun 2027 03:44:28.877             8.739          4369.500
         7   01 Jun 2027 05:18:25.780   01 Jun 2027 05:20:09.635           103.855         51927.500
         8   01 Jun 2027 05:21:03.729   01 Jun 2027 05:21:32.171            28.442         14221.000
         9   01 Jun 2027 05:23:18.417   01 Jun 2027 05:23:33.957            15.540          7770.000
        10   01 Jun 2027 05:25:07.053   01 Jun 2027 05:25:11.094             4.041          2020.500
        11   01 Jun 2027 06:44:36.952   01 Jun 2027 06:45:00.559            23.607         11803.500
        12   01 Jun 2027 06:55:29.175   01 Jun 2027 06:56:21.743            52.568         26284.000
        13   01 Jun 2027 06:57:42.069   01 Jun 2027 06:58:09.929            27.860         13930.000
        14   01 Jun 2027 08:19:27.574   01 Jun 2027 08:21:35.846           128.272         64136.000
        15   01 Jun 2027 09:55:12.228   01 Jun 2027 09:55:34.944            22.716         11358.000
        16   01 Jun 2027 09:58:33.787   01 Jun 2027 09:58:33.787             0.000             0.000
        17   01 Jun 2027 11:29:55.926   01 Jun 2027 11:30:37.819            41.893         20946.500
        18   01 Jun 2027 11:32:29.763   01 Jun 2027 11:33:07.384            37.621         18810.500
        19   01 Jun 2027 11:36:51.858   01 Jun 2027 11:37:28.085            36.227         18113.500
        20   02 Jun 2027 03:51:48.543   02 Jun 2027 03:54:25.274           156.731         78365.500
        21   02 Jun 2027 03:56:06.548   02 Jun 2027 03:56:06.548             0.000             0.000
        22   02 Jun 2027 03:56:48.655   02 Jun 2027 03:56:53.275             4.620          2310.000
        23   02 Jun 2027 03:57:53.833   02 Jun 2027 03:58:02.146             8.313          4156.500
        24   02 Jun 2027 05:30:48.958   02 Jun 2027 05:33:56.910           187.952         93976.000
        25   02 Jun 2027 05:36:37.124   02 Jun 2027 05:38:06.176            89.052         44526.000
        26   02 Jun 2027 06:55:51.382   02 Jun 2027 06:56:00.411             9.029          4514.500
        27   02 Jun 2027 06:56:51.394   02 Jun 2027 06:57:05.985            14.591          7295.500
        28   02 Jun 2027 07:07:30.490   02 Jun 2027 07:08:43.520            73.030         36515.000
        29   02 Jun 2027 08:30:03.114   02 Jun 2027 08:31:03.769            60.655         30327.500
        30   02 Jun 2027 08:31:44.129   02 Jun 2027 08:33:44.398           120.269         60134.500
        31   02 Jun 2027 10:05:05.982   02 Jun 2027 10:06:07.086            61.104         29762.126
        32   02 Jun 2027 10:07:28.611   02 Jun 2027 10:07:33.236             4.625          1968.063
        33   02 Jun 2027 10:09:50.172   02 Jun 2027 10:09:52.541             2.369          1184.500
        34   02 Jun 2027 10:10:55.006   02 Jun 2027 10:11:04.890             9.884          4444.625
        35   02 Jun 2027 11:42:04.446   02 Jun 2027 11:42:11.366             6.920          3460.000
        36   02 Jun 2027 11:47:04.298   02 Jun 2027 11:47:26.631            22.333         10735.594
        37   02 Jun 2027 11:47:36.585   02 Jun 2027 11:47:45.982             9.397           311.063
        38   02 Jun 2027 11:48:26.711   02 Jun 2027 11:48:30.790             4.079          1272.781
        39   02 Jun 2027 11:49:00.677   02 Jun 2027 11:49:03.112             2.435           677.562
        40   03 Jun 2027 04:04:06.696   03 Jun 2027 04:05:39.117            92.421         46210.500
        41   03 Jun 2027 04:05:48.815   03 Jun 2027 04:05:59.173            10.358          5179.000
        42   03 Jun 2027 04:06:22.809   03 Jun 2027 04:06:25.406             2.597          1298.500
        43   03 Jun 2027 04:06:33.122   03 Jun 2027 04:06:54.199            21.077         10538.500
        44   03 Jun 2027 04:08:06.639   03 Jun 2027 04:08:12.224             5.585          2792.500
        45   03 Jun 2027 04:08:47.277   03 Jun 2027 04:09:09.947            22.670         11335.000
        46   03 Jun 2027 04:09:54.923   03 Jun 2027 04:10:01.287             6.364          3182.000
        47   03 Jun 2027 05:43:07.649   03 Jun 2027 05:44:46.670            99.021         49510.500
        48   03 Jun 2027 05:44:55.985   03 Jun 2027 05:45:31.454            35.469         17734.500
        49   03 Jun 2027 05:48:04.166   03 Jun 2027 05:48:58.234            54.068         25596.562
        50   03 Jun 2027 07:07:12.635   03 Jun 2027 07:07:30.433            17.798          7508.250
        51   03 Jun 2027 07:07:51.733   03 Jun 2027 07:07:59.523             7.790           665.625
        52   03 Jun 2027 07:08:30.561   03 Jun 2027 07:08:33.106             2.545           888.875
        53   03 Jun 2027 07:09:20.315   03 Jun 2027 07:09:24.515             4.200          1208.250
        54   03 Jun 2027 07:19:27.785   03 Jun 2027 07:19:34.500             6.715          2842.000
        55   03 Jun 2027 08:41:27.328   03 Jun 2027 08:41:53.481            26.153         11010.219
        56   03 Jun 2027 08:43:36.047   03 Jun 2027 08:43:43.683             7.636          1897.250
        57   03 Jun 2027 08:45:19.499   03 Jun 2027 08:45:25.070             5.571          2367.719
        58   03 Jun 2027 08:45:53.439   03 Jun 2027 08:45:55.310             1.871           319.281
        59   03 Jun 2027 10:16:30.451   03 Jun 2027 10:16:41.836            11.385          2734.719
        60   03 Jun 2027 10:18:09.326   03 Jun 2027 10:18:14.433             5.107           142.219
        61   03 Jun 2027 10:19:50.010   03 Jun 2027 10:19:54.278             4.268          1952.406
        62   03 Jun 2027 10:21:50.878   03 Jun 2027 10:22:00.611             9.733          2888.656
        63   03 Jun 2027 10:23:15.813   03 Jun 2027 10:23:19.777             3.964           499.781
        64   03 Jun 2027 10:24:01.414   03 Jun 2027 10:24:08.305             6.891          1213.562
        65   03 Jun 2027 11:57:43.571   03 Jun 2027 11:58:08.843            25.272         12304.094
        66   03 Jun 2027 11:59:37.075   03 Jun 2027 11:59:41.590             4.515          2246.437
        67   04 Jun 2027 04:16:30.705   04 Jun 2027 04:16:35.272             4.567          2283.500
        68   04 Jun 2027 04:16:51.875   04 Jun 2027 04:18:53.028           121.153         60576.500
        69   04 Jun 2027 04:21:06.946   04 Jun 2027 04:21:11.607             4.661          2330.500
        70   04 Jun 2027 04:22:05.568   04 Jun 2027 04:22:13.141             7.573          3786.500
        71   04 Jun 2027 05:55:12.844   04 Jun 2027 05:58:11.620           178.776         89388.000
        72   04 Jun 2027 05:59:27.949   04 Jun 2027 05:59:50.476            22.527         10068.750
        73   04 Jun 2027 06:00:24.844   04 Jun 2027 06:00:29.638             4.794          1000.344
        74   04 Jun 2027 07:19:20.268   04 Jun 2027 07:19:39.295            19.027          9360.906
        75   04 Jun 2027 07:20:04.559   04 Jun 2027 07:20:04.559             0.000             0.000
        76   04 Jun 2027 07:20:23.409   04 Jun 2027 07:20:25.653             2.244          1112.906
        77   04 Jun 2027 08:53:09.753   04 Jun 2027 08:53:35.446            25.693         11794.031
        78   04 Jun 2027 08:55:08.804   04 Jun 2027 08:55:15.285             6.481           469.094
        79   04 Jun 2027 08:55:29.053   04 Jun 2027 08:55:29.053             0.000             0.000
        80   04 Jun 2027 08:55:39.424   04 Jun 2027 08:55:41.930             2.506           754.344
        81   04 Jun 2027 08:56:50.226   04 Jun 2027 08:56:50.226             0.000             0.000
        82   04 Jun 2027 08:57:38.395   04 Jun 2027 08:57:44.951             6.556          2775.594
        83   04 Jun 2027 08:58:20.266   04 Jun 2027 08:58:23.458             3.192           748.687
        84   04 Jun 2027 10:28:01.795   04 Jun 2027 10:28:06.296             4.501          2250.500
        85   04 Jun 2027 10:29:03.543   04 Jun 2027 10:29:08.557             5.014          2066.781
        86   04 Jun 2027 10:30:58.082   04 Jun 2027 10:30:59.711             1.629           814.500
        87   04 Jun 2027 10:31:46.346   04 Jun 2027 10:31:55.332             8.986          1479.937
        88   04 Jun 2027 10:35:14.612   04 Jun 2027 10:35:22.097             7.485          2611.531
        89   04 Jun 2027 10:35:37.743   04 Jun 2027 10:35:42.584             4.841            51.344
        90   04 Jun 2027 10:35:53.441   04 Jun 2027 10:36:03.156             9.715           195.438
        91   04 Jun 2027 10:37:04.690   04 Jun 2027 10:37:07.331             2.641           827.188
        92   05 Jun 2027 04:29:24.345   05 Jun 2027 04:30:21.902            57.557         28778.500
        93   05 Jun 2027 04:30:28.074   05 Jun 2027 04:31:09.659            41.585         20792.500
        94   05 Jun 2027 04:31:09.808   05 Jun 2027 04:31:21.613            11.805          5902.500
        95   05 Jun 2027 04:32:42.021   05 Jun 2027 04:32:53.213            11.192          5596.000
        96   05 Jun 2027 04:33:01.589   05 Jun 2027 04:33:06.617             5.028          2514.000
        97   05 Jun 2027 06:07:49.747   05 Jun 2027 06:11:17.523           207.776        101799.063
        98   05 Jun 2027 06:12:13.368   05 Jun 2027 06:12:15.244             1.876           682.781
        99   05 Jun 2027 07:31:17.051   05 Jun 2027 07:31:30.525            13.474          6520.281
       100   05 Jun 2027 07:32:33.741   05 Jun 2027 07:32:33.741             0.000             0.000
       101   05 Jun 2027 07:32:43.056   05 Jun 2027 07:32:47.273             4.217          1898.688
       102   05 Jun 2027 09:07:21.132   05 Jun 2027 09:07:45.039            23.907          9868.937
       103   05 Jun 2027 09:08:10.926   05 Jun 2027 09:08:13.716             2.790           111.625
       104   05 Jun 2027 09:08:39.492   05 Jun 2027 09:08:41.314             1.822           544.156
       105   05 Jun 2027 09:09:38.152   05 Jun 2027 09:09:38.152             0.000             0.000
       106   05 Jun 2027 09:09:56.498   05 Jun 2027 09:10:00.806             4.308          1719.312
       107   05 Jun 2027 10:41:02.639   05 Jun 2027 10:41:08.612             5.973          2902.031
       108   05 Jun 2027 10:42:39.225   05 Jun 2027 10:42:44.623             5.398          2190.063
       109   05 Jun 2027 10:43:41.216   05 Jun 2027 10:43:45.110             3.894          1221.969
       110   05 Jun 2027 10:45:50.561   05 Jun 2027 10:45:59.542             8.981          3531.719
       111   05 Jun 2027 10:48:22.123   05 Jun 2027 10:48:28.071             5.948          2447.375
       112   05 Jun 2027 10:49:01.612   05 Jun 2027 10:49:05.506             3.894            33.813
       113   06 Jun 2027 03:03:21.833   06 Jun 2027 03:03:28.968             7.135          3567.500
       114   06 Jun 2027 03:03:47.218   06 Jun 2027 03:03:59.065            11.847          5923.500
       115   06 Jun 2027 03:05:08.048   06 Jun 2027 03:05:24.775            16.727          8363.500
       116   06 Jun 2027 03:06:03.747   06 Jun 2027 03:06:23.640            19.893          9946.500
       117   06 Jun 2027 03:07:14.407   06 Jun 2027 03:07:19.925             5.518          2759.000
       118   06 Jun 2027 03:08:15.235   06 Jun 2027 03:08:23.712             8.477          4238.500
       119   06 Jun 2027 03:08:50.306   06 Jun 2027 03:09:00.831            10.525          5262.500
       120   06 Jun 2027 03:09:03.652   06 Jun 2027 03:09:05.557             1.905           952.500
       121   06 Jun 2027 03:10:43.064   06 Jun 2027 03:10:54.401            11.337          5668.500
       122   06 Jun 2027 04:41:25.819   06 Jun 2027 04:41:53.946            28.127         14063.500
       123   06 Jun 2027 04:41:56.789   06 Jun 2027 04:44:01.927           125.138         62569.000
       124   06 Jun 2027 04:44:52.458   06 Jun 2027 04:44:55.332             2.874          1437.000
       125   06 Jun 2027 04:45:01.104   06 Jun 2027 04:45:55.792            54.688         27344.000
       126   06 Jun 2027 04:46:02.643   06 Jun 2027 04:46:06.217             3.574          1787.000
       127   06 Jun 2027 06:19:28.661   06 Jun 2027 06:20:29.056            60.395         26500.375
       128   06 Jun 2027 06:23:34.114   06 Jun 2027 06:23:35.727             1.613           420.719
       129   06 Jun 2027 06:23:52.225   06 Jun 2027 06:23:53.677             1.452           151.312
       130   06 Jun 2027 07:43:07.912   06 Jun 2027 07:43:19.167            11.255          4899.594
       131   06 Jun 2027 07:44:35.063   06 Jun 2027 07:44:42.033             6.970          1887.000
       132   06 Jun 2027 07:45:03.805   06 Jun 2027 07:45:05.951             2.146           278.625
       133   06 Jun 2027 07:45:26.787   06 Jun 2027 07:45:28.477             1.690           367.531
       134   06 Jun 2027 09:19:34.786   06 Jun 2027 09:19:50.855            16.069          7891.813
       135   06 Jun 2027 09:20:58.389   06 Jun 2027 09:21:05.045             6.656           850.125
       136   06 Jun 2027 09:22:16.267   06 Jun 2027 09:22:24.875             8.608          2146.406
       137   06 Jun 2027 10:51:42.842   06 Jun 2027 10:51:48.641             5.799          2408.781
       138   06 Jun 2027 10:53:41.712   06 Jun 2027 10:53:46.666             4.954           533.594
       139   06 Jun 2027 10:57:42.530   06 Jun 2027 10:57:50.878             8.348          4037.625
       140   06 Jun 2027 10:58:55.538   06 Jun 2027 10:59:06.183            10.645           999.375
       141   06 Jun 2027 11:00:25.526   06 Jun 2027 11:00:27.904             2.378          1189.000
       142   06 Jun 2027 11:01:15.100   06 Jun 2027 11:01:22.155             7.055          1659.344
       143   06 Jun 2027 11:01:22.599   06 Jun 2027 11:01:22.834             0.235            13.875
       144   07 Jun 2027 03:15:24.692   07 Jun 2027 03:15:31.556             6.864          3432.000
       145   07 Jun 2027 03:16:30.038   07 Jun 2027 03:18:52.247           142.209         71104.500
       146   07 Jun 2027 03:19:46.002   07 Jun 2027 03:20:28.025            42.023         21011.500
       147   07 Jun 2027 03:21:31.429   07 Jun 2027 03:22:03.888            32.459         16229.500
       148   07 Jun 2027 04:53:33.876   07 Jun 2027 04:54:34.422            60.546         30273.000
       149   07 Jun 2027 04:54:42.941   07 Jun 2027 04:54:58.543            15.602          7801.000
       150   07 Jun 2027 04:55:33.970   07 Jun 2027 04:56:19.174            45.204         22123.313
       151   07 Jun 2027 04:58:00.245   07 Jun 2027 04:58:04.788             4.543          2187.812
       152   07 Jun 2027 04:58:24.408   07 Jun 2027 04:58:26.325             1.917           546.156
       153   07 Jun 2027 06:32:42.089   07 Jun 2027 06:32:54.095            12.006          5467.562
       154   07 Jun 2027 06:33:50.493   07 Jun 2027 06:33:55.031             4.538           298.781
       155   07 Jun 2027 06:35:21.306   07 Jun 2027 06:35:24.282             2.976           159.344
       156   07 Jun 2027 07:55:16.434   07 Jun 2027 07:55:30.180            13.746          5468.375
       157   07 Jun 2027 07:56:10.780   07 Jun 2027 07:56:15.955             5.175           722.250
       158   07 Jun 2027 07:56:50.656   07 Jun 2027 07:56:53.571             2.915          1084.406
       159   07 Jun 2027 07:58:03.516   07 Jun 2027 07:58:08.798             5.282           551.344
       160   07 Jun 2027 07:58:15.932   07 Jun 2027 07:58:15.932             0.000             0.000
       161   07 Jun 2027 07:58:17.271   07 Jun 2027 07:58:17.685             0.414           117.125
       162   07 Jun 2027 09:31:44.855   07 Jun 2027 09:31:49.511             4.656          1794.531
       163   07 Jun 2027 09:33:03.469   07 Jun 2027 09:33:07.705             4.236          1598.875
       164   07 Jun 2027 09:33:33.064   07 Jun 2027 09:33:36.061             2.997           160.188
       165   07 Jun 2027 09:34:15.905   07 Jun 2027 09:34:18.550             2.645           888.969
       166   07 Jun 2027 11:06:56.180   07 Jun 2027 11:07:00.931             4.751          2196.750
       167   07 Jun 2027 11:09:47.166   07 Jun 2027 11:09:57.447            10.281          4451.781
       168   07 Jun 2027 11:10:48.354   07 Jun 2027 11:10:48.354             0.000             0.000
       169   07 Jun 2027 11:13:00.286   07 Jun 2027 11:13:13.647            13.361          4770.875
       170   07 Jun 2027 11:13:29.881   07 Jun 2027 11:13:30.703             0.822           308.156
       171   08 Jun 2027 03:27:22.097   08 Jun 2027 03:27:34.277            12.180          6090.000
       172   08 Jun 2027 03:27:57.816   08 Jun 2027 03:31:12.925           195.109         97554.500
       173   08 Jun 2027 03:32:04.240   08 Jun 2027 03:32:07.599             3.359          1679.500
       174   08 Jun 2027 03:32:53.477   08 Jun 2027 03:32:58.289             4.812          2406.000
       175   08 Jun 2027 03:33:18.007   08 Jun 2027 03:33:18.520             0.513           256.500
       176   08 Jun 2027 05:05:38.743   08 Jun 2027 05:05:55.508            16.765          8382.500
       177   08 Jun 2027 05:06:41.467   08 Jun 2027 05:08:09.364            87.897         43240.312
       178   08 Jun 2027 05:13:56.948   08 Jun 2027 05:14:11.163            14.215          6795.969
       179   08 Jun 2027 06:43:50.394   08 Jun 2027 06:43:59.650             9.256          4015.656
       180   08 Jun 2027 06:46:05.802   08 Jun 2027 06:46:09.136             3.334           744.094
       181   08 Jun 2027 06:47:13.614   08 Jun 2027 06:47:15.073             1.459            37.594
       182   08 Jun 2027 08:07:59.081   08 Jun 2027 08:08:11.575            12.494          6067.844
       183   08 Jun 2027 08:08:49.356   08 Jun 2027 08:09:04.616            15.260           959.094
       184   08 Jun 2027 08:10:20.590   08 Jun 2027 08:10:22.258             1.668           657.594
       185   08 Jun 2027 09:43:44.528   08 Jun 2027 09:43:55.679            11.151          3504.563
       186   08 Jun 2027 09:45:40.976   08 Jun 2027 09:45:43.261             2.285           656.500
       187   08 Jun 2027 09:46:05.504   08 Jun 2027 09:46:08.654             3.150           365.906
       188   08 Jun 2027 11:18:57.391   08 Jun 2027 11:19:04.252             6.861          2551.094
       189   08 Jun 2027 11:21:08.819   08 Jun 2027 11:21:16.987             8.168          3659.688
       190   08 Jun 2027 11:22:33.398   08 Jun 2027 11:22:42.435             9.037          1610.156
       191   08 Jun 2027 11:23:12.878   08 Jun 2027 11:23:21.829             8.951           849.188
       192   08 Jun 2027 11:24:38.507   08 Jun 2027 11:24:43.977             5.470          2209.562
       193   08 Jun 2027 11:25:02.573   08 Jun 2027 11:25:05.086             2.513            39.969
       194   08 Jun 2027 11:25:30.304   08 Jun 2027 11:25:35.207             4.903           774.594
       195   09 Jun 2027 03:39:52.100   09 Jun 2027 03:43:10.846           198.746         99373.000
       196   09 Jun 2027 05:18:44.234   09 Jun 2027 05:20:56.967           132.733         66366.500
       197   09 Jun 2027 05:25:22.257   09 Jun 2027 05:25:41.388            19.131          8977.719
       198   09 Jun 2027 06:44:51.063   09 Jun 2027 06:45:02.152            11.089          4488.156
       199   09 Jun 2027 06:55:46.578   09 Jun 2027 06:55:51.747             5.169          2433.656
       200   09 Jun 2027 08:19:06.190   09 Jun 2027 08:19:20.929            14.739          4218.594
       201   09 Jun 2027 08:21:53.969   09 Jun 2027 08:22:05.477            11.508          4770.937
       202   09 Jun 2027 09:55:29.166   09 Jun 2027 09:55:35.110             5.944          2526.812
       203   09 Jun 2027 09:58:07.034   09 Jun 2027 09:58:10.651             3.617          1807.125
       204   09 Jun 2027 09:58:24.856   09 Jun 2027 09:58:27.873             3.017           208.281
       205   09 Jun 2027 11:30:13.999   09 Jun 2027 11:30:24.379            10.380          2223.906
       206   09 Jun 2027 11:32:50.672   09 Jun 2027 11:32:58.188             7.516          3663.656
       207   09 Jun 2027 11:36:24.663   09 Jun 2027 11:36:36.385            11.722          5169.250
       208   09 Jun 2027 11:37:01.706   09 Jun 2027 11:37:06.129             4.423           658.250
       209   09 Jun 2027 11:37:41.748   09 Jun 2027 11:37:46.306             4.558           947.656
       210   10 Jun 2027 03:52:06.792   10 Jun 2027 03:55:28.842           202.050        101025.000
       211   10 Jun 2027 03:55:53.359   10 Jun 2027 03:55:58.931             5.572          2786.000
       212   10 Jun 2027 03:56:28.927   10 Jun 2027 03:56:32.566             3.639          1819.500
       213   10 Jun 2027 03:57:23.347   10 Jun 2027 03:57:33.223             9.876          4938.000
       214   10 Jun 2027 03:57:39.664   10 Jun 2027 03:57:54.593            14.929          7464.500
       215   10 Jun 2027 03:58:28.766   10 Jun 2027 03:58:31.457             2.691          1345.500
       216   10 Jun 2027 05:31:08.273   10 Jun 2027 05:32:59.604           111.331         54406.470
       217   10 Jun 2027 05:35:26.464   10 Jun 2027 05:35:36.516            10.052          4589.375
       218   10 Jun 2027 05:36:52.073   10 Jun 2027 05:37:00.098             8.025           942.469
       219   10 Jun 2027 05:37:16.560   10 Jun 2027 05:37:17.843             1.283           310.969
       220   10 Jun 2027 06:56:08.657   10 Jun 2027 06:56:27.655            18.998          5763.656
       221   10 Jun 2027 06:56:54.334   10 Jun 2027 06:56:55.963             1.629           248.750
       222   10 Jun 2027 07:07:48.574   10 Jun 2027 07:07:55.766             7.192          2597.281
       223   10 Jun 2027 07:09:07.975   10 Jun 2027 07:09:08.619             0.644           300.000
       224   10 Jun 2027 08:30:04.679   10 Jun 2027 08:30:20.477            15.798          5994.000
       225   10 Jun 2027 08:30:28.183   10 Jun 2027 08:30:29.284             1.101           240.813
       226   10 Jun 2027 08:31:16.949   10 Jun 2027 08:31:19.966             3.017          1359.500
       227   10 Jun 2027 08:32:37.197   10 Jun 2027 08:32:44.928             7.731          2319.844
       228   10 Jun 2027 08:34:00.914   10 Jun 2027 08:34:00.914             0.000             0.000
       229   10 Jun 2027 08:34:08.626   10 Jun 2027 08:34:18.027             9.401          2346.156
       230   10 Jun 2027 10:05:16.828   10 Jun 2027 10:05:22.248             5.420          2281.031
       231   10 Jun 2027 10:05:47.540   10 Jun 2027 10:05:56.049             8.509           165.031
       232   10 Jun 2027 10:07:13.079   10 Jun 2027 10:07:17.514             4.435          1737.844
       233   10 Jun 2027 10:08:54.457   10 Jun 2027 10:08:57.296             2.839          1396.781
       234   10 Jun 2027 10:10:46.635   10 Jun 2027 10:10:51.271             4.636          1202.281
       235   10 Jun 2027 10:11:25.117   10 Jun 2027 10:11:25.743             0.626           247.875
       236   10 Jun 2027 11:42:21.403   10 Jun 2027 11:42:25.950             4.547          2273.500
       237   10 Jun 2027 11:45:25.279   10 Jun 2027 11:45:32.832             7.553          3776.500
       238   10 Jun 2027 11:48:40.691   10 Jun 2027 11:48:59.930            19.239          9617.500
       239   10 Jun 2027 11:49:03.351   10 Jun 2027 11:49:03.760             0.409           106.906
       240   10 Jun 2027 11:49:46.462   10 Jun 2027 11:49:46.862             0.400           200.000
       241   11 Jun 2027 04:04:24.719   11 Jun 2027 04:06:24.133           119.414         59707.000
       242   11 Jun 2027 04:08:39.007   11 Jun 2027 04:08:46.243             7.236          3618.000
       243   11 Jun 2027 04:09:45.974   11 Jun 2027 04:09:49.180             3.206          1603.000
       244   11 Jun 2027 05:43:27.002   11 Jun 2027 05:45:46.860           139.858         69929.000
       245   11 Jun 2027 05:48:18.845   11 Jun 2027 05:49:20.626            61.781         28652.531
       246   11 Jun 2027 07:07:30.209   11 Jun 2027 07:07:59.110            28.901         11850.344
       247   11 Jun 2027 07:08:26.245   11 Jun 2027 07:08:31.227             4.982           668.250
       248   11 Jun 2027 07:09:33.174   11 Jun 2027 07:09:36.598             3.424          1407.469
       249   11 Jun 2027 07:09:41.365   11 Jun 2027 07:09:44.261             2.896           148.969
       250   11 Jun 2027 07:19:45.655   11 Jun 2027 07:19:52.704             7.049          2604.188
       251   11 Jun 2027 08:41:45.892   11 Jun 2027 08:42:08.913            23.021         11184.969
       252   11 Jun 2027 08:43:05.270   11 Jun 2027 08:43:07.990             2.720          1360.000
       253   11 Jun 2027 08:44:24.493   11 Jun 2027 08:44:29.702             5.209          1720.969
       254   11 Jun 2027 08:45:35.237   11 Jun 2027 08:45:41.985             6.748          1834.344
       255   11 Jun 2027 08:46:11.635   11 Jun 2027 08:46:14.946             3.311           373.406
       256   11 Jun 2027 08:47:18.051   11 Jun 2027 08:47:22.014             3.963          1422.844
       257   11 Jun 2027 10:16:44.560   11 Jun 2027 10:16:50.203             5.643          2550.594
       258   11 Jun 2027 10:18:24.242   11 Jun 2027 10:18:29.184             4.942          1615.000
       259   11 Jun 2027 10:19:06.461   11 Jun 2027 10:19:10.175             3.714          1162.063
       260   11 Jun 2027 10:20:33.432   11 Jun 2027 10:20:35.871             2.439           820.563
       261   11 Jun 2027 10:21:23.162   11 Jun 2027 10:21:24.566             1.404           461.531
       262   11 Jun 2027 10:22:06.887   11 Jun 2027 10:22:08.818             1.931            33.625
       263   11 Jun 2027 10:23:19.651   11 Jun 2027 10:23:26.830             7.179          2213.531
       264   11 Jun 2027 10:24:22.532   11 Jun 2027 10:24:26.859             4.327          1480.469
       265   11 Jun 2027 11:56:27.936   11 Jun 2027 11:56:47.664            19.728          9156.000
       266   11 Jun 2027 11:57:32.707   11 Jun 2027 11:57:35.395             2.688           465.500
       267   11 Jun 2027 11:58:42.379   11 Jun 2027 11:58:47.858             5.479          1702.000
       268   11 Jun 2027 11:59:51.691   11 Jun 2027 11:59:54.019             2.328           906.281
       269   12 Jun 2027 04:17:10.776   12 Jun 2027 04:17:35.839            25.063         12531.500
       270   12 Jun 2027 04:17:38.266   12 Jun 2027 04:19:08.991            90.725         45362.500
       271   12 Jun 2027 04:19:30.317   12 Jun 2027 04:19:59.850            29.533         14766.500
       272   12 Jun 2027 05:55:33.000   12 Jun 2027 05:58:12.978           159.978         79989.000
       273   12 Jun 2027 05:59:42.334   12 Jun 2027 06:00:12.669            30.335         15167.500
       274   12 Jun 2027 06:00:42.251   12 Jun 2027 06:00:47.369             5.118          2488.656
       275   12 Jun 2027 07:19:38.011   12 Jun 2027 07:19:53.036            15.025          6986.656
       276   12 Jun 2027 07:20:49.781   12 Jun 2027 07:20:56.413             6.632          1445.438
       277   12 Jun 2027 07:21:12.625   12 Jun 2027 07:21:15.407             2.782           506.625
       278   12 Jun 2027 07:21:26.803   12 Jun 2027 07:21:28.133             1.330            22.656
       279   12 Jun 2027 08:53:26.207   12 Jun 2027 08:53:50.537            24.330         10741.781
       280   12 Jun 2027 08:55:11.082   12 Jun 2027 08:55:16.336             5.254          1579.000
       281   12 Jun 2027 08:55:42.246   12 Jun 2027 08:55:44.714             2.468           559.719
       282   12 Jun 2027 08:55:48.622   12 Jun 2027 08:55:52.210             3.588           104.469
       283   12 Jun 2027 08:56:27.136   12 Jun 2027 08:56:34.317             7.181           926.563
       284   12 Jun 2027 08:58:33.454   12 Jun 2027 08:58:42.294             8.840          3696.844
       285   12 Jun 2027 10:28:18.500   12 Jun 2027 10:28:23.830             5.330          2514.281
       286   12 Jun 2027 10:29:19.332   12 Jun 2027 10:29:23.393             4.061          1734.437
       287   12 Jun 2027 10:31:18.630   12 Jun 2027 10:31:23.874             5.244           860.437
       288   12 Jun 2027 10:34:08.922   12 Jun 2027 10:34:17.934             9.012          3922.625
       289   12 Jun 2027 10:34:26.569   12 Jun 2027 10:34:26.810             0.241            95.656
       290   12 Jun 2027 10:35:35.467   12 Jun 2027 10:35:38.187             2.720           796.000
       291   13 Jun 2027 04:29:43.802   13 Jun 2027 04:30:35.319            51.517         25758.500
       292   13 Jun 2027 04:30:45.360   13 Jun 2027 04:31:27.357            41.997         20998.500
       293   13 Jun 2027 04:31:27.913   13 Jun 2027 04:31:59.164            31.251         15625.500
       294   13 Jun 2027 04:32:10.683   13 Jun 2027 04:32:22.657            11.974          5987.000
       295   13 Jun 2027 04:33:05.785   13 Jun 2027 04:33:12.928             7.143          3571.500
       296   13 Jun 2027 04:34:33.048   13 Jun 2027 04:34:53.142            20.094         10047.000
       297   13 Jun 2027 06:08:07.625   13 Jun 2027 06:10:57.660           170.035         84464.719
       298   13 Jun 2027 06:12:28.763   13 Jun 2027 06:12:31.361             2.598           626.125
       299   13 Jun 2027 07:31:33.824   13 Jun 2027 07:31:47.019            13.195          5058.000
       300   13 Jun 2027 07:32:51.284   13 Jun 2027 07:32:56.911             5.627          1666.969
       301   13 Jun 2027 09:07:48.397   13 Jun 2027 09:08:16.280            27.883         11265.406
       302   13 Jun 2027 09:08:37.705   13 Jun 2027 09:08:44.550             6.845           669.531
       303   13 Jun 2027 09:09:35.046   13 Jun 2027 09:09:35.046             0.000             0.000
       304   13 Jun 2027 09:10:34.025   13 Jun 2027 09:10:48.323            14.298          3125.625
       305   13 Jun 2027 10:41:20.908   13 Jun 2027 10:41:28.649             7.741          3713.594
       306   13 Jun 2027 10:42:47.005   13 Jun 2027 10:42:47.005             0.000             0.000
       307   13 Jun 2027 10:43:22.292   13 Jun 2027 10:43:28.771             6.479          3137.813
       308   13 Jun 2027 10:43:58.127   13 Jun 2027 10:44:00.308             2.181           741.188
       309   13 Jun 2027 10:44:21.775   13 Jun 2027 10:44:21.775             0.000             0.000
       310   13 Jun 2027 10:46:08.376   13 Jun 2027 10:46:20.053            11.677          3416.813
       311   13 Jun 2027 10:47:56.530   13 Jun 2027 10:47:59.642             3.112          1202.906
       312   13 Jun 2027 10:48:42.951   13 Jun 2027 10:48:45.175             2.224           717.469
       313   13 Jun 2027 10:49:16.446   13 Jun 2027 10:49:21.477             5.031           874.469
