uniorb/output/strategy_4/Camera/Camera_KinoSat_111508.txt

KinoSat_111508
-------------------------
    Access    *     Start Time (UTCG)     *     Stop Time (UTCG)  *   Duration (s) *   Data (Mbytes)
         1   01 Jun 2027 04:27:42.693   01 Jun 2027 04:29:57.399           134.706         67353.000
         2   01 Jun 2027 04:30:34.400   01 Jun 2027 04:30:59.863            25.463         12731.500
         3   01 Jun 2027 05:51:10.983   01 Jun 2027 05:52:04.999            54.016         27008.000
         4   01 Jun 2027 05:52:48.142   01 Jun 2027 05:53:29.910            41.768         20884.000
         5   01 Jun 2027 07:27:23.663   01 Jun 2027 07:29:49.996           146.333         73166.500
         6   01 Jun 2027 09:00:56.966   01 Jun 2027 09:03:23.555           146.589         73294.500
         7   01 Jun 2027 09:06:39.508   01 Jun 2027 09:07:23.771            44.263         22131.500
         8   01 Jun 2027 09:09:09.246   01 Jun 2027 09:09:21.379            12.133          6066.500
         9   01 Jun 2027 10:38:28.383   01 Jun 2027 10:40:15.979           107.596         53798.000
        10   01 Jun 2027 10:42:34.793   01 Jun 2027 10:43:59.035            84.242         42121.000
        11   02 Jun 2027 03:01:21.943   02 Jun 2027 03:01:29.246             7.303          3651.500
        12   02 Jun 2027 03:01:59.376   02 Jun 2027 03:02:27.725            28.349         14174.500
        13   02 Jun 2027 03:03:37.542   02 Jun 2027 03:03:41.880             4.338          2169.000
        14   02 Jun 2027 03:03:45.618   02 Jun 2027 03:03:53.468             7.850          3925.000
        15   02 Jun 2027 03:04:57.271   02 Jun 2027 03:05:00.826             3.555          1777.500
        16   02 Jun 2027 03:05:35.030   02 Jun 2027 03:05:41.652             6.622          3311.000
        17   02 Jun 2027 03:06:17.375   02 Jun 2027 03:06:32.834            15.459          7729.500
        18   02 Jun 2027 03:06:53.933   02 Jun 2027 03:06:57.881             3.948          1974.000
        19   02 Jun 2027 03:07:11.807   02 Jun 2027 03:07:29.868            18.061          9030.500
        20   02 Jun 2027 04:39:22.913   02 Jun 2027 04:41:05.694           102.781         51390.500
        21   02 Jun 2027 04:42:01.066   02 Jun 2027 04:42:32.179            31.113         15556.500
        22   02 Jun 2027 06:03:01.993   02 Jun 2027 06:04:22.344            80.351         40175.500
        23   02 Jun 2027 06:05:07.574   02 Jun 2027 06:05:26.619            19.045          9522.500
        24   02 Jun 2027 07:39:28.921   02 Jun 2027 07:42:54.733           205.812        102906.000
        25   02 Jun 2027 09:11:37.019   02 Jun 2027 09:11:48.072            11.053          5526.500
        26   02 Jun 2027 09:13:35.853   02 Jun 2027 09:15:42.592           126.739         63369.500
        27   02 Jun 2027 09:16:12.822   02 Jun 2027 09:16:50.380            37.558         18779.000
        28   02 Jun 2027 09:18:36.183   02 Jun 2027 09:18:36.405             0.222           111.000
        29   02 Jun 2027 09:20:03.115   02 Jun 2027 09:20:21.986            18.871          9435.500
        30   02 Jun 2027 09:21:06.528   02 Jun 2027 09:21:10.769             4.241          2120.500
        31   02 Jun 2027 09:21:25.713   02 Jun 2027 09:21:26.985             1.272           636.000
        32   02 Jun 2027 10:50:34.618   02 Jun 2027 10:50:43.952             9.334          4654.812
        33   02 Jun 2027 10:52:36.178   02 Jun 2027 10:52:42.573             6.395          1739.250
        34   02 Jun 2027 10:52:45.642   02 Jun 2027 10:52:47.319             1.677            95.906
        35   02 Jun 2027 10:53:48.158   02 Jun 2027 10:53:51.666             3.508           800.187
        36   02 Jun 2027 10:54:39.081   02 Jun 2027 10:54:40.303             1.222           323.031
        37   02 Jun 2027 10:55:16.373   02 Jun 2027 10:55:17.644             1.271           442.781
        38   02 Jun 2027 10:55:38.153   02 Jun 2027 10:55:39.724             1.571           640.906
        39   02 Jun 2027 10:56:37.259   02 Jun 2027 10:56:41.008             3.749          1761.938
        40   02 Jun 2027 10:56:43.164   02 Jun 2027 10:56:43.351             0.187            47.500
        41   02 Jun 2027 10:57:00.180   02 Jun 2027 10:57:01.434             1.254           525.906
        42   02 Jun 2027 10:57:11.056   02 Jun 2027 10:57:14.020             2.964           176.562
        43   03 Jun 2027 03:13:28.056   03 Jun 2027 03:14:30.310            62.254         31127.000
        44   03 Jun 2027 03:14:37.380   03 Jun 2027 03:14:53.138            15.758          7879.000
        45   03 Jun 2027 03:15:42.189   03 Jun 2027 03:16:38.670            56.481         28240.500
        46   03 Jun 2027 03:17:46.525   03 Jun 2027 03:18:08.049            21.524         10762.000
        47   03 Jun 2027 03:18:17.299   03 Jun 2027 03:18:26.213             8.914          4457.000
        48   03 Jun 2027 04:52:36.160   03 Jun 2027 04:54:38.647           122.487         61243.500
        49   03 Jun 2027 04:55:22.383   03 Jun 2027 04:55:29.713             7.330          3665.000
        50   03 Jun 2027 06:15:10.447   03 Jun 2027 06:15:38.003            27.556         11739.187
        51   03 Jun 2027 06:16:10.954   03 Jun 2027 06:16:12.595             1.641           279.250
        52   03 Jun 2027 06:17:16.197   03 Jun 2027 06:17:16.197             0.000             0.000
        53   03 Jun 2027 06:17:38.180   03 Jun 2027 06:17:43.431             5.251          2341.875
        54   03 Jun 2027 07:51:38.887   03 Jun 2027 07:51:47.070             8.183          1975.500
        55   03 Jun 2027 07:52:37.137   03 Jun 2027 07:52:37.953             0.816           408.000
        56   03 Jun 2027 07:52:49.290   03 Jun 2027 07:52:54.417             5.127          1264.531
        57   03 Jun 2027 07:53:11.830   03 Jun 2027 07:53:13.578             1.748           507.344
        58   03 Jun 2027 07:53:19.771   03 Jun 2027 07:53:22.345             2.574           169.750
        59   03 Jun 2027 07:54:58.384   03 Jun 2027 07:55:07.449             9.065          2403.813
        60   03 Jun 2027 09:26:50.171   03 Jun 2027 09:26:57.059             6.888          3311.531
        61   03 Jun 2027 09:28:00.366   03 Jun 2027 09:28:04.100             3.734          1480.969
        62   03 Jun 2027 09:28:14.417   03 Jun 2027 09:28:21.246             6.829           290.281
        63   03 Jun 2027 09:29:50.222   03 Jun 2027 09:29:56.932             6.710          1461.750
        64   03 Jun 2027 09:30:35.252   03 Jun 2027 09:30:37.203             1.951           590.281
        65   03 Jun 2027 09:31:17.221   03 Jun 2027 09:31:18.640             1.419            92.938
        66   03 Jun 2027 09:31:31.911   03 Jun 2027 09:31:35.554             3.643           262.594
        67   03 Jun 2027 09:31:59.029   03 Jun 2027 09:32:01.093             2.064           715.469
        68   03 Jun 2027 09:32:53.612   03 Jun 2027 09:32:54.124             0.512           256.000
        69   03 Jun 2027 09:33:19.869   03 Jun 2027 09:33:24.331             4.462          2124.563
        70   03 Jun 2027 11:03:08.887   03 Jun 2027 11:03:19.151            10.264          5102.438
        71   03 Jun 2027 11:04:27.166   03 Jun 2027 11:04:40.166            13.000          1449.531
        72   03 Jun 2027 11:06:16.734   03 Jun 2027 11:06:20.396             3.662           996.594
        73   03 Jun 2027 11:07:01.655   03 Jun 2027 11:07:07.094             5.439          1248.531
        74   03 Jun 2027 11:07:43.910   03 Jun 2027 11:07:47.931             4.021           957.156
        75   03 Jun 2027 11:08:41.786   03 Jun 2027 11:08:48.928             7.142          1276.656
        76   03 Jun 2027 11:08:55.560   03 Jun 2027 11:08:56.579             1.019           118.063
        77   04 Jun 2027 03:25:32.788   04 Jun 2027 03:26:14.069            41.281         20640.500
        78   04 Jun 2027 03:26:35.993   04 Jun 2027 03:29:23.324           167.331         83665.500
        79   04 Jun 2027 03:30:09.865   04 Jun 2027 03:30:25.772            15.907          7953.500
        80   04 Jun 2027 03:31:31.254   04 Jun 2027 03:31:39.631             8.377          4188.500
        81   04 Jun 2027 05:03:45.149   04 Jun 2027 05:04:21.565            36.416         18208.000
        82   04 Jun 2027 05:04:50.165   04 Jun 2027 05:05:17.903            27.738         12814.469
        83   04 Jun 2027 05:06:02.801   04 Jun 2027 05:06:05.743             2.942          1194.531
        84   04 Jun 2027 05:06:55.922   04 Jun 2027 05:06:57.070             1.148           325.000
        85   04 Jun 2027 06:27:52.952   04 Jun 2027 06:28:02.419             9.467          3331.406
        86   04 Jun 2027 06:28:07.330   04 Jun 2027 06:28:08.793             1.463            43.156
        87   04 Jun 2027 06:29:14.647   04 Jun 2027 06:29:18.717             4.070          1587.906
        88   04 Jun 2027 06:30:12.642   04 Jun 2027 06:30:14.880             2.238           676.375
        89   04 Jun 2027 08:03:48.286   04 Jun 2027 08:03:58.929            10.643          3751.250
        90   04 Jun 2027 08:04:15.592   04 Jun 2027 08:04:16.706             1.114           506.719
        91   04 Jun 2027 08:05:15.572   04 Jun 2027 08:05:19.617             4.045          1154.844
        92   04 Jun 2027 08:05:56.761   04 Jun 2027 08:06:00.181             3.420          1160.750
        93   04 Jun 2027 08:06:46.489   04 Jun 2027 08:06:50.948             4.459          1141.750
        94   04 Jun 2027 09:38:51.216   04 Jun 2027 09:38:57.261             6.045          2720.594
        95   04 Jun 2027 09:40:15.618   04 Jun 2027 09:40:20.439             4.821          2352.344
        96   04 Jun 2027 09:40:48.078   04 Jun 2027 09:40:50.931             2.853           517.625
        97   04 Jun 2027 09:41:45.671   04 Jun 2027 09:41:47.915             2.244           914.906
        98   04 Jun 2027 09:44:03.480   04 Jun 2027 09:44:13.927            10.447          2709.344
        99   04 Jun 2027 09:45:17.291   04 Jun 2027 09:45:23.388             6.097           583.656
       100   04 Jun 2027 11:14:47.720   04 Jun 2027 11:15:06.236            18.516          7516.219
       101   04 Jun 2027 11:16:49.174   04 Jun 2027 11:16:51.992             2.818          1096.094
       102   04 Jun 2027 11:17:17.319   04 Jun 2027 11:17:19.408             2.089           588.844
       103   04 Jun 2027 11:17:54.168   04 Jun 2027 11:17:57.972             3.804           281.875
       104   04 Jun 2027 11:18:30.542   04 Jun 2027 11:18:32.667             2.125           429.219
       105   04 Jun 2027 11:19:15.146   04 Jun 2027 11:19:23.920             8.774           479.844
       106   04 Jun 2027 11:19:28.264   04 Jun 2027 11:19:29.283             1.019           115.438
       107   04 Jun 2027 11:20:02.672   04 Jun 2027 11:20:04.290             1.618           431.719
       108   04 Jun 2027 11:20:16.838   04 Jun 2027 11:20:21.990             5.152           392.125
       109   05 Jun 2027 03:38:37.303   05 Jun 2027 03:42:20.093           222.790        111395.000
       110   05 Jun 2027 03:45:34.327   05 Jun 2027 03:45:39.029             4.702          2351.000
       111   05 Jun 2027 05:04:43.525   05 Jun 2027 05:04:52.171             8.646          4323.000
       112   05 Jun 2027 05:15:40.842   05 Jun 2027 05:17:23.125           102.283         49547.375
       113   05 Jun 2027 05:17:57.746   05 Jun 2027 05:18:02.727             4.981           361.500
       114   05 Jun 2027 05:18:26.671   05 Jun 2027 05:18:28.983             2.312           569.563
       115   05 Jun 2027 05:18:53.217   05 Jun 2027 05:18:54.544             1.327           507.969
       116   05 Jun 2027 06:38:59.895   05 Jun 2027 06:39:11.670            11.775          4448.875
       117   05 Jun 2027 06:40:24.063   05 Jun 2027 06:40:28.199             4.136          1769.406
       118   05 Jun 2027 06:40:37.382   05 Jun 2027 06:40:38.017             0.635            84.062
       119   05 Jun 2027 06:41:45.184   05 Jun 2027 06:41:53.413             8.229          1910.688
       120   05 Jun 2027 06:42:10.590   05 Jun 2027 06:42:13.905             3.315           536.781
       121   05 Jun 2027 08:15:22.738   05 Jun 2027 08:15:27.593             4.855          2088.094
       122   05 Jun 2027 08:16:39.874   05 Jun 2027 08:16:48.865             8.991          1902.437
       123   05 Jun 2027 08:17:00.649   05 Jun 2027 08:17:02.687             2.038            30.063
       124   05 Jun 2027 08:18:14.625   05 Jun 2027 08:18:16.341             1.716           858.000
       125   05 Jun 2027 08:18:57.400   05 Jun 2027 08:19:10.012            12.612          1344.656
       126   05 Jun 2027 09:50:07.753   05 Jun 2027 09:50:12.778             5.025          2395.250
       127   05 Jun 2027 09:50:42.780   05 Jun 2027 09:50:44.775             1.995           937.562
       128   05 Jun 2027 09:52:04.518   05 Jun 2027 09:52:10.634             6.116           491.719
       129   05 Jun 2027 09:52:44.254   05 Jun 2027 09:52:50.677             6.423           871.344
       130   05 Jun 2027 09:53:32.409   05 Jun 2027 09:53:34.663             2.254           944.469
       131   05 Jun 2027 09:54:25.537   05 Jun 2027 09:54:37.540            12.003          1389.250
       132   05 Jun 2027 09:57:01.314   05 Jun 2027 09:57:11.492            10.178          4389.469
       133   05 Jun 2027 09:57:35.725   05 Jun 2027 09:57:37.467             1.742           754.000
       134   05 Jun 2027 11:26:57.110   05 Jun 2027 11:27:09.747            12.637          6170.188
       135   05 Jun 2027 11:28:38.539   05 Jun 2027 11:28:40.279             1.740           248.750
       136   05 Jun 2027 11:28:49.566   05 Jun 2027 11:28:55.942             6.376           156.594
       137   05 Jun 2027 11:29:19.804   05 Jun 2027 11:29:22.411             2.607           602.469
       138   05 Jun 2027 11:29:48.372   05 Jun 2027 11:29:53.202             4.830           811.281
       139   05 Jun 2027 11:30:00.313   05 Jun 2027 11:30:00.951             0.638           222.219
       140   05 Jun 2027 11:30:58.812   05 Jun 2027 11:31:03.067             4.255           492.906
       141   05 Jun 2027 11:31:21.305   05 Jun 2027 11:31:22.992             1.687           503.875
       142   05 Jun 2027 11:32:31.689   05 Jun 2027 11:32:38.480             6.791          1953.937
       143   05 Jun 2027 11:32:54.144   05 Jun 2027 11:32:58.719             4.575           259.781
       144   06 Jun 2027 03:51:00.068   06 Jun 2027 03:54:03.519           183.451         91725.500
       145   06 Jun 2027 03:54:08.303   06 Jun 2027 03:54:16.404             8.101          4050.500
       146   06 Jun 2027 03:55:07.093   06 Jun 2027 03:55:12.422             5.329          2664.500
       147   06 Jun 2027 03:57:17.165   06 Jun 2027 03:57:29.333            12.168          6084.000
       148   06 Jun 2027 05:16:02.081   06 Jun 2027 05:16:05.498             3.417          1708.500
       149   06 Jun 2027 05:17:19.352   06 Jun 2027 05:17:28.359             9.007          4503.500
       150   06 Jun 2027 05:27:41.999   06 Jun 2027 05:29:02.631            80.632         40316.000
       151   06 Jun 2027 06:49:58.324   06 Jun 2027 06:50:18.343            20.019         10001.843
       152   06 Jun 2027 06:50:50.056   06 Jun 2027 06:50:53.394             3.338           676.500
       153   06 Jun 2027 06:51:11.739   06 Jun 2027 06:51:12.730             0.991           184.750
       154   06 Jun 2027 06:51:55.110   06 Jun 2027 06:51:56.014             0.904           339.406
       155   06 Jun 2027 06:52:13.846   06 Jun 2027 06:52:15.001             1.155           109.125
       156   06 Jun 2027 06:53:17.209   06 Jun 2027 06:53:22.727             5.518          1668.094
       157   06 Jun 2027 08:25:10.759   06 Jun 2027 08:25:19.333             8.574          2862.594
       158   06 Jun 2027 08:26:02.179   06 Jun 2027 08:26:04.644             2.465          1176.906
       159   06 Jun 2027 08:27:16.163   06 Jun 2027 08:27:19.019             2.856          1232.969
       160   06 Jun 2027 08:28:40.855   06 Jun 2027 08:28:45.586             4.731          2346.344
       161   06 Jun 2027 08:28:57.099   06 Jun 2027 08:29:00.854             3.755           355.469
       162   06 Jun 2027 08:30:35.184   06 Jun 2027 08:30:38.173             2.989          1381.625
       163   06 Jun 2027 10:02:15.073   06 Jun 2027 10:02:21.408             6.335          2657.344
       164   06 Jun 2027 10:03:02.407   06 Jun 2027 10:03:03.618             1.211            79.781
       165   06 Jun 2027 10:03:24.049   06 Jun 2027 10:03:25.882             1.833           638.469
       166   06 Jun 2027 10:03:52.028   06 Jun 2027 10:03:54.094             2.066           654.656
       167   06 Jun 2027 10:04:44.945   06 Jun 2027 10:04:49.859             4.914           756.219
       168   06 Jun 2027 10:05:47.549   06 Jun 2027 10:05:48.732             1.183           577.875
       169   06 Jun 2027 10:06:43.237   06 Jun 2027 10:06:47.230             3.993          1636.062
       170   06 Jun 2027 10:07:02.178   06 Jun 2027 10:07:03.672             1.494           456.937
       171   06 Jun 2027 10:07:23.567   06 Jun 2027 10:07:24.936             1.369           492.563
       172   06 Jun 2027 10:07:52.859   06 Jun 2027 10:07:56.357             3.498           456.313
       173   06 Jun 2027 10:08:46.716   06 Jun 2027 10:08:50.461             3.745          1424.437
       174   06 Jun 2027 10:08:58.980   06 Jun 2027 10:09:01.169             2.189           266.219
       175   06 Jun 2027 10:09:24.086   06 Jun 2027 10:09:29.050             4.964           679.562
       176   06 Jun 2027 11:39:13.113   06 Jun 2027 11:39:27.812            14.699          6554.656
       177   06 Jun 2027 11:41:34.839   06 Jun 2027 11:41:36.126             1.287           409.219
       178   06 Jun 2027 11:42:53.663   06 Jun 2027 11:42:59.448             5.785          1845.000
       179   06 Jun 2027 11:43:22.701   06 Jun 2027 11:43:27.443             4.742           726.656
       180   06 Jun 2027 11:43:48.866   06 Jun 2027 11:43:52.761             3.895           543.406
       181   06 Jun 2027 11:44:28.166   06 Jun 2027 11:44:34.558             6.392           992.344
       182   06 Jun 2027 11:44:54.458   06 Jun 2027 11:44:55.671             1.213           202.813
       183   06 Jun 2027 11:45:05.102   06 Jun 2027 11:45:05.391             0.289           111.312
       184   07 Jun 2027 04:03:18.881   07 Jun 2027 04:04:17.846            58.965         29482.500
       185   07 Jun 2027 04:05:35.972   07 Jun 2027 04:05:48.134            12.162          6081.000
       186   07 Jun 2027 04:06:31.160   07 Jun 2027 04:06:40.546             9.386          4693.000
       187   07 Jun 2027 04:07:06.351   07 Jun 2027 04:07:06.351             0.000             0.000
       188   07 Jun 2027 04:07:28.628   07 Jun 2027 04:07:45.140            16.512          8256.000
       189   07 Jun 2027 04:08:08.136   07 Jun 2027 04:08:08.136             0.000             0.000
       190   07 Jun 2027 04:08:26.937   07 Jun 2027 04:08:58.186            31.249         15624.500
       191   07 Jun 2027 04:09:30.950   07 Jun 2027 04:09:30.950             0.000             0.000
       192   07 Jun 2027 04:10:03.591   07 Jun 2027 04:10:05.983             2.392          1196.000
       193   07 Jun 2027 05:27:23.781   07 Jun 2027 05:28:34.777            70.996         35498.000
       194   07 Jun 2027 05:39:39.232   07 Jun 2027 05:40:19.010            39.778         19889.000
       195   07 Jun 2027 07:01:39.108   07 Jun 2027 07:03:01.465            82.357         41178.500
       196   07 Jun 2027 07:03:45.552   07 Jun 2027 07:03:48.851             3.299          1612.188
       197   07 Jun 2027 07:04:47.828   07 Jun 2027 07:04:52.851             5.023          1781.750
       198   07 Jun 2027 07:06:36.144   07 Jun 2027 07:06:36.144             0.000             0.000
       199   07 Jun 2027 07:07:13.072   07 Jun 2027 07:07:15.736             2.664          1332.000
       200   07 Jun 2027 08:36:38.413   07 Jun 2027 08:36:45.263             6.850          2496.531
       201   07 Jun 2027 08:37:19.660   07 Jun 2027 08:37:21.938             2.278           155.906
       202   07 Jun 2027 08:38:28.882   07 Jun 2027 08:38:33.029             4.147           656.469
       203   07 Jun 2027 08:39:54.147   07 Jun 2027 08:39:58.705             4.558          1295.438
       204   07 Jun 2027 08:40:24.561   07 Jun 2027 08:40:24.860             0.299            13.938
       205   07 Jun 2027 08:42:07.318   07 Jun 2027 08:42:18.704            11.386          2682.031
       206   07 Jun 2027 08:42:58.628   07 Jun 2027 08:43:01.106             2.478           821.313
       207   07 Jun 2027 08:43:22.206   07 Jun 2027 08:43:24.444             2.238           659.375
       208   07 Jun 2027 08:43:28.221   07 Jun 2027 08:43:28.221             0.000             0.000
       209   07 Jun 2027 08:44:13.176   07 Jun 2027 08:44:16.657             3.481          1522.875
       210   07 Jun 2027 08:44:50.641   07 Jun 2027 08:45:00.607             9.966          1062.000
       211   07 Jun 2027 10:14:17.242   07 Jun 2027 10:14:25.250             8.008          3434.031
       212   07 Jun 2027 10:15:18.673   07 Jun 2027 10:15:20.303             1.630            62.219
       213   07 Jun 2027 10:16:07.763   07 Jun 2027 10:16:12.151             4.388           414.625
       214   07 Jun 2027 10:16:25.806   07 Jun 2027 10:16:29.042             3.236           381.594
       215   07 Jun 2027 10:17:24.395   07 Jun 2027 10:17:27.594             3.199          1125.313
       216   07 Jun 2027 10:18:36.003   07 Jun 2027 10:18:39.376             3.373          1339.031
       217   07 Jun 2027 10:19:14.600   07 Jun 2027 10:19:19.174             4.574           678.406
       218   07 Jun 2027 10:19:41.623   07 Jun 2027 10:19:42.760             1.137           329.000
       219   07 Jun 2027 10:20:25.943   07 Jun 2027 10:20:27.950             2.007           854.656
       220   07 Jun 2027 10:20:36.059   07 Jun 2027 10:20:38.368             2.309           109.438
       221   07 Jun 2027 10:21:00.416   07 Jun 2027 10:21:06.557             6.141           274.750
       222   07 Jun 2027 10:21:19.892   07 Jun 2027 10:21:21.655             1.763           416.719
       223   07 Jun 2027 11:51:03.789   07 Jun 2027 11:51:17.538            13.749          5382.156
       224   07 Jun 2027 11:51:24.413   07 Jun 2027 11:51:26.657             2.244            45.781
       225   07 Jun 2027 11:53:23.084   07 Jun 2027 11:53:24.547             1.463           220.594
       226   07 Jun 2027 11:54:32.726   07 Jun 2027 11:54:38.768             6.042          1277.656
       227   07 Jun 2027 11:55:08.326   07 Jun 2027 11:55:14.028             5.702           594.656
       228   07 Jun 2027 11:55:20.660   07 Jun 2027 11:55:22.493             1.833            17.063
       229   07 Jun 2027 11:55:56.443   07 Jun 2027 11:55:59.007             2.564           911.219
       230   07 Jun 2027 11:56:34.038   07 Jun 2027 11:56:36.241             2.203          1094.719
       231   07 Jun 2027 11:56:54.209   07 Jun 2027 11:56:58.627             4.418           126.844
       232   07 Jun 2027 11:57:18.330   07 Jun 2027 11:57:20.955             2.625           411.906
       233   07 Jun 2027 11:57:36.915   07 Jun 2027 11:57:38.689             1.774            90.312
       234   08 Jun 2027 04:16:12.279   08 Jun 2027 04:17:56.018           103.739         51869.500
       235   08 Jun 2027 04:19:10.938   08 Jun 2027 04:19:58.573            47.635         23817.500
       236   08 Jun 2027 05:39:31.311   08 Jun 2027 05:40:32.584            61.273         30636.500
       237   08 Jun 2027 07:13:19.844   08 Jun 2027 07:15:17.171           117.327         58663.500
       238   08 Jun 2027 07:16:21.560   08 Jun 2027 07:16:27.616             6.056          2350.406
       239   08 Jun 2027 07:17:09.761   08 Jun 2027 07:17:11.504             1.743           626.187
       240   08 Jun 2027 07:18:36.802   08 Jun 2027 07:18:43.245             6.443          2156.563
       241   08 Jun 2027 08:48:12.355   08 Jun 2027 08:48:16.764             4.409          2204.500
       242   08 Jun 2027 08:48:28.940   08 Jun 2027 08:48:33.855             4.915          1067.594
       243   08 Jun 2027 08:49:11.000   08 Jun 2027 08:49:22.764            11.764           128.875
       244   08 Jun 2027 08:50:33.001   08 Jun 2027 08:50:34.351             1.350            96.406
       245   08 Jun 2027 08:52:26.567   08 Jun 2027 08:52:30.202             3.635          1131.188
       246   08 Jun 2027 08:54:12.142   08 Jun 2027 08:54:19.913             7.771          2279.406
       247   08 Jun 2027 08:55:16.572   08 Jun 2027 08:55:25.161             8.589           441.750
       248   08 Jun 2027 08:55:48.528   08 Jun 2027 08:55:49.130             0.602           301.000
       249   08 Jun 2027 08:57:11.616   08 Jun 2027 08:57:17.186             5.570          2751.344
       250   08 Jun 2027 10:26:19.172   08 Jun 2027 10:26:31.330            12.158          5250.156
       251   08 Jun 2027 10:29:11.442   08 Jun 2027 10:29:15.978             4.536          1761.781
       252   08 Jun 2027 10:29:57.957   08 Jun 2027 10:30:01.124             3.167          1251.062
       253   08 Jun 2027 10:30:31.872   08 Jun 2027 10:30:34.284             2.412           477.719
       254   08 Jun 2027 10:30:52.338   08 Jun 2027 10:30:52.868             0.530            46.094
       255   08 Jun 2027 10:31:16.138   08 Jun 2027 10:31:17.645             1.507           224.375
       256   08 Jun 2027 10:31:42.057   08 Jun 2027 10:31:42.313             0.256           124.281
       257   08 Jun 2027 10:32:03.065   08 Jun 2027 10:32:06.597             3.532           360.969
       258   08 Jun 2027 10:32:50.466   08 Jun 2027 10:32:51.829             1.363           333.812
       259   08 Jun 2027 10:33:08.052   08 Jun 2027 10:33:09.609             1.557           450.313
       260   08 Jun 2027 10:33:24.164   08 Jun 2027 10:33:25.661             1.497           313.188
       261   09 Jun 2027 04:28:00.497   09 Jun 2027 04:28:44.496            43.999         21999.500
       262   09 Jun 2027 04:29:24.899   09 Jun 2027 04:30:18.736            53.837         26918.500
       263   09 Jun 2027 04:30:29.131   09 Jun 2027 04:31:18.374            49.243         24621.500
       264   09 Jun 2027 05:51:27.033   09 Jun 2027 05:52:08.069            41.036         20518.000
       265   09 Jun 2027 07:27:41.417   09 Jun 2027 07:29:59.794           138.377         66366.468
       266   09 Jun 2027 07:30:46.732   09 Jun 2027 07:30:53.558             6.826          1340.406
       267   09 Jun 2027 09:01:13.974   09 Jun 2027 09:01:22.744             8.770          2857.938
       268   09 Jun 2027 09:03:41.626   09 Jun 2027 09:03:44.583             2.957          1202.000
       269   09 Jun 2027 09:04:28.759   09 Jun 2027 09:04:37.278             8.519          1104.250
       270   09 Jun 2027 09:05:50.879   09 Jun 2027 09:05:55.283             4.404          2171.094
       271   09 Jun 2027 09:06:57.003   09 Jun 2027 09:07:01.408             4.405          1429.937
       272   09 Jun 2027 09:08:12.457   09 Jun 2027 09:08:17.754             5.297          2076.875
       273   09 Jun 2027 09:09:10.549   09 Jun 2027 09:09:22.223            11.674          1589.344
       274   09 Jun 2027 10:38:46.560   09 Jun 2027 10:38:57.192            10.632          4956.281
       275   09 Jun 2027 10:41:35.495   09 Jun 2027 10:41:38.167             2.672          1324.781
       276   09 Jun 2027 10:42:52.823   09 Jun 2027 10:42:54.684             1.861           851.594
       277   09 Jun 2027 10:43:11.078   09 Jun 2027 10:43:12.200             1.122           512.312
       278   09 Jun 2027 10:44:14.590   09 Jun 2027 10:44:21.222             6.632          1799.187
       279   09 Jun 2027 10:45:03.669   09 Jun 2027 10:45:06.452             2.783          1326.469
       280   09 Jun 2027 10:45:13.538   09 Jun 2027 10:45:15.604             2.066           221.438
       281   10 Jun 2027 03:01:37.045   10 Jun 2027 03:02:05.059            28.014         14007.000
       282   10 Jun 2027 03:03:17.432   10 Jun 2027 03:03:27.194             9.762          4881.000
       283   10 Jun 2027 03:03:40.019   10 Jun 2027 03:03:52.349            12.330          6165.000
       284   10 Jun 2027 03:04:57.412   10 Jun 2027 03:05:00.171             2.759          1379.500
       285   10 Jun 2027 03:05:52.268   10 Jun 2027 03:06:10.422            18.154          9077.000
       286   10 Jun 2027 03:06:31.923   10 Jun 2027 03:06:32.870             0.947           473.500
       287   10 Jun 2027 03:07:03.568   10 Jun 2027 03:07:06.232             2.664          1332.000
       288   10 Jun 2027 03:07:15.489   10 Jun 2027 03:07:22.743             7.254          3627.000
       289   10 Jun 2027 03:07:32.855   10 Jun 2027 03:07:38.286             5.431          2715.500
       290   10 Jun 2027 04:39:39.590   10 Jun 2027 04:41:20.416           100.826         50413.000
       291   10 Jun 2027 04:42:14.922   10 Jun 2027 04:42:49.105            34.183         17091.500
       292   10 Jun 2027 04:43:11.564   10 Jun 2027 04:43:16.248             4.684          2342.000
       293   10 Jun 2027 04:43:37.178   10 Jun 2027 04:43:47.864            10.686          5343.000
       294   10 Jun 2027 06:03:18.602   10 Jun 2027 06:04:17.199            58.597         29298.500
       295   10 Jun 2027 06:05:41.692   10 Jun 2027 06:05:57.831            16.139          8069.500
       296   10 Jun 2027 07:39:45.824   10 Jun 2027 07:40:15.623            29.799         14768.001
       297   10 Jun 2027 07:40:27.216   10 Jun 2027 07:40:28.058             0.842           362.281
       298   10 Jun 2027 07:41:14.519   10 Jun 2027 07:41:17.223             2.704          1078.781
       299   10 Jun 2027 07:41:41.130   10 Jun 2027 07:41:41.488             0.358           102.656
       300   10 Jun 2027 07:42:36.892   10 Jun 2027 07:42:43.079             6.187          1559.125
       301   10 Jun 2027 09:11:54.500   10 Jun 2027 09:12:04.028             9.528          3676.250
       302   10 Jun 2027 09:13:52.920   10 Jun 2027 09:13:53.679             0.759           355.938
       303   10 Jun 2027 09:15:38.112   10 Jun 2027 09:15:48.349            10.237          2112.000
       304   10 Jun 2027 09:16:30.664   10 Jun 2027 09:16:34.890             4.226           930.437
       305   10 Jun 2027 09:17:11.559   10 Jun 2027 09:17:14.377             2.818            58.313
       306   10 Jun 2027 09:18:51.573   10 Jun 2027 09:18:55.473             3.900          1313.656
       307   10 Jun 2027 09:20:19.019   10 Jun 2027 09:20:20.604             1.585           641.219
       308   10 Jun 2027 09:20:40.385   10 Jun 2027 09:20:40.657             0.272           136.000
       309   10 Jun 2027 09:20:43.675   10 Jun 2027 09:20:47.934             4.259           482.156
       310   10 Jun 2027 09:21:24.312   10 Jun 2027 09:21:26.086             1.774           519.750
       311   10 Jun 2027 10:50:51.351   10 Jun 2027 10:51:05.584            14.233          6375.844
       312   10 Jun 2027 10:52:52.932   10 Jun 2027 10:52:57.556             4.624          1755.438
       313   10 Jun 2027 10:53:38.686   10 Jun 2027 10:53:49.848            11.162          1132.469
       314   10 Jun 2027 10:54:33.140   10 Jun 2027 10:54:45.658            12.518           872.062
       315   10 Jun 2027 10:54:54.852   10 Jun 2027 10:54:55.489             0.637           287.312
       316   10 Jun 2027 10:55:31.853   10 Jun 2027 10:55:33.448             1.595           388.594
       317   10 Jun 2027 10:55:55.218   10 Jun 2027 10:55:59.838             4.620           680.313
       318   10 Jun 2027 10:56:22.512   10 Jun 2027 10:56:29.566             7.054           617.063
       319   10 Jun 2027 10:56:50.316   10 Jun 2027 10:56:53.789             3.473           648.437
       320   10 Jun 2027 10:57:11.275   10 Jun 2027 10:57:15.768             4.493           546.438
       321   11 Jun 2027 03:13:44.672   11 Jun 2027 03:14:45.199            60.527         30263.500
       322   11 Jun 2027 03:14:53.724   11 Jun 2027 03:15:31.334            37.610         18805.000
       323   11 Jun 2027 03:15:48.948   11 Jun 2027 03:16:11.426            22.478         11239.000
       324   11 Jun 2027 03:16:54.846   11 Jun 2027 03:17:11.625            16.779          8389.500
       325   11 Jun 2027 03:17:26.154   11 Jun 2027 03:18:02.351            36.197         18098.500
       326   11 Jun 2027 03:18:34.969   11 Jun 2027 03:18:43.980             9.011          4505.500
       327   11 Jun 2027 03:19:29.933   11 Jun 2027 03:19:34.223             4.290          2145.000
       328   11 Jun 2027 04:52:52.738   11 Jun 2027 04:54:47.625           114.887         56803.656
       329   11 Jun 2027 06:15:26.888   11 Jun 2027 06:15:38.608            11.720          5653.562
       330   11 Jun 2027 06:16:58.337   11 Jun 2027 06:17:03.969             5.632          2289.125
       331   11 Jun 2027 06:18:08.569   11 Jun 2027 06:18:10.493             1.924           962.000
       332   11 Jun 2027 06:18:13.888   11 Jun 2027 06:18:19.996             6.108           877.375
       333   11 Jun 2027 07:51:55.975   11 Jun 2027 07:52:01.609             5.634          2429.000
       334   11 Jun 2027 07:52:54.955   11 Jun 2027 07:52:59.428             4.473          1377.094
       335   11 Jun 2027 07:54:00.065   11 Jun 2027 07:54:04.715             4.650          1631.375
       336   11 Jun 2027 07:55:20.031   11 Jun 2027 07:55:23.626             3.595          1709.125
       337   11 Jun 2027 09:27:07.139   11 Jun 2027 09:27:12.783             5.644          2287.375
       338   11 Jun 2027 09:28:18.991   11 Jun 2027 09:28:23.001             4.010          1573.563
       339   11 Jun 2027 09:28:32.224   11 Jun 2027 09:28:37.253             5.029           267.125
       340   11 Jun 2027 09:30:06.860   11 Jun 2027 09:30:12.311             5.451          1407.031
       341   11 Jun 2027 09:30:53.199   11 Jun 2027 09:30:53.199             0.000             0.000
       342   11 Jun 2027 09:32:21.025   11 Jun 2027 09:32:38.434            17.409          3432.937
       343   11 Jun 2027 09:33:36.424   11 Jun 2027 09:33:38.769             2.345           901.406
       344   11 Jun 2027 11:03:26.229   11 Jun 2027 11:03:38.269            12.040          5194.844
       345   11 Jun 2027 11:05:24.497   11 Jun 2027 11:05:30.734             6.237            57.094
       346   11 Jun 2027 11:06:43.533   11 Jun 2027 11:06:51.396             7.863           336.562
       347   11 Jun 2027 11:07:20.165   11 Jun 2027 11:07:24.804             4.639           726.219
       348   11 Jun 2027 11:08:01.798   11 Jun 2027 11:08:05.266             3.468          1024.719
       349   11 Jun 2027 11:08:57.814   11 Jun 2027 11:09:02.690             4.876          1279.812
       350   11 Jun 2027 11:09:22.409   11 Jun 2027 11:09:27.079             4.670           471.594
       351   12 Jun 2027 03:25:49.658   12 Jun 2027 03:26:08.932            19.274          9637.000
       352   12 Jun 2027 03:26:52.346   12 Jun 2027 03:29:18.392           146.046         73023.000
       353   12 Jun 2027 03:30:43.286   12 Jun 2027 03:31:11.682            28.396         14198.000
       354   12 Jun 2027 03:34:12.313   12 Jun 2027 03:34:33.521            21.208         10604.000
       355   12 Jun 2027 05:04:01.335   12 Jun 2027 05:04:38.170            36.835         18417.500
       356   12 Jun 2027 05:05:06.944   12 Jun 2027 05:06:13.669            66.725         32330.656
       357   12 Jun 2027 05:07:01.162   12 Jun 2027 05:07:05.146             3.984          1270.937
       358   12 Jun 2027 05:07:28.001   12 Jun 2027 05:07:29.544             1.543           547.375
       359   12 Jun 2027 06:28:09.600   12 Jun 2027 06:28:21.127            11.527          4519.094
       360   12 Jun 2027 06:30:08.953   12 Jun 2027 06:30:17.503             8.550          3238.219
       361   12 Jun 2027 08:03:53.433   12 Jun 2027 08:04:02.126             8.693          2007.219
       362   12 Jun 2027 08:04:33.563   12 Jun 2027 08:04:35.977             2.414           561.062
       363   12 Jun 2027 08:05:34.361   12 Jun 2027 08:05:38.285             3.924          1185.813
       364   12 Jun 2027 08:06:15.570   12 Jun 2027 08:06:19.026             3.456          1165.156
       365   12 Jun 2027 08:07:03.646   12 Jun 2027 08:07:12.447             8.801          1147.625
       366   12 Jun 2027 09:38:57.153   12 Jun 2027 09:39:05.500             8.347          2796.062
       367   12 Jun 2027 09:40:33.384   12 Jun 2027 09:40:42.159             8.775          2425.000
       368   12 Jun 2027 09:41:07.158   12 Jun 2027 09:41:09.621             2.463           525.625
       369   12 Jun 2027 09:41:59.744   12 Jun 2027 09:42:02.552             2.808           772.375
       370   12 Jun 2027 09:42:54.961   12 Jun 2027 09:42:59.870             4.909          1623.813
       371   12 Jun 2027 09:43:22.652   12 Jun 2027 09:43:23.452             0.800           160.469
       372   12 Jun 2027 09:44:20.600   12 Jun 2027 09:44:28.306             7.706           927.312
       373   12 Jun 2027 09:45:11.922   12 Jun 2027 09:45:14.991             3.069          1363.000
       374   12 Jun 2027 09:45:47.380   12 Jun 2027 09:45:48.888             1.508           469.625
       375   12 Jun 2027 11:15:02.948   12 Jun 2027 11:15:15.491            12.543          6054.937
       376   12 Jun 2027 11:16:30.013   12 Jun 2027 11:16:32.700             2.687            74.875
       377   12 Jun 2027 11:17:09.894   12 Jun 2027 11:17:12.358             2.464           185.594
       378   12 Jun 2027 11:17:33.741   12 Jun 2027 11:17:38.009             4.268           607.156
       379   12 Jun 2027 11:18:09.340   12 Jun 2027 11:18:10.892             1.552           616.781
       380   12 Jun 2027 11:18:47.768   12 Jun 2027 11:18:50.442             2.674           420.250
       381   12 Jun 2027 11:19:21.181   12 Jun 2027 11:19:22.778             1.597           692.938
       382   12 Jun 2027 11:20:06.677   12 Jun 2027 11:20:11.029             4.352          1371.844
       383   12 Jun 2027 11:20:43.360   12 Jun 2027 11:20:50.770             7.410           779.781
       384   12 Jun 2027 11:21:08.391   12 Jun 2027 11:21:10.948             2.557           257.875
       385   12 Jun 2027 11:21:17.532   12 Jun 2027 11:21:18.652             1.120           203.406
       386   13 Jun 2027 03:38:54.367   13 Jun 2027 03:41:22.778           148.411         74205.500
       387   13 Jun 2027 03:41:26.967   13 Jun 2027 03:42:34.595            67.628         33814.000
       388   13 Jun 2027 03:45:51.887   13 Jun 2027 03:45:55.319             3.432          1716.000
       389   13 Jun 2027 05:04:57.578   13 Jun 2027 05:05:09.888            12.310          6155.000
       390   13 Jun 2027 05:15:57.216   13 Jun 2027 05:17:39.454           102.238         50944.844
       391   13 Jun 2027 05:18:41.146   13 Jun 2027 05:18:44.305             3.159          1245.906
       392   13 Jun 2027 05:19:08.878   13 Jun 2027 05:19:11.489             2.611           464.906
       393   13 Jun 2027 06:39:15.530   13 Jun 2027 06:39:26.895            11.365          5597.750
       394   13 Jun 2027 06:40:40.320   13 Jun 2027 06:40:44.096             3.776          1730.031
       395   13 Jun 2027 06:40:53.052   13 Jun 2027 06:40:53.052             0.000             0.000
       396   13 Jun 2027 06:42:08.825   13 Jun 2027 06:42:13.966             5.141          2440.250
       397   13 Jun 2027 08:15:38.296   13 Jun 2027 08:15:45.201             6.905          3104.250
       398   13 Jun 2027 08:16:57.647   13 Jun 2027 08:17:03.537             5.890          1969.219
       399   13 Jun 2027 08:17:16.823   13 Jun 2027 08:17:17.726             0.903            37.094
       400   13 Jun 2027 08:18:26.395   13 Jun 2027 08:18:28.137             1.742           692.656
       401   13 Jun 2027 08:18:33.329   13 Jun 2027 08:18:33.648             0.319           159.500
       402   13 Jun 2027 08:19:30.678   13 Jun 2027 08:19:38.483             7.805          1784.938
       403   13 Jun 2027 08:19:50.393   13 Jun 2027 08:19:51.453             1.060            48.500
       404   13 Jun 2027 09:50:24.357   13 Jun 2027 09:50:30.241             5.884          2922.750
       405   13 Jun 2027 09:52:34.091   13 Jun 2027 09:52:40.617             6.526          3006.656
       406   13 Jun 2027 09:53:21.323   13 Jun 2027 09:53:24.137             2.814           825.969
       407   13 Jun 2027 09:53:57.650   13 Jun 2027 09:53:58.441             0.791           198.406
       408   13 Jun 2027 09:54:39.854   13 Jun 2027 09:54:42.785             2.931          1294.156
       409   13 Jun 2027 09:56:20.034   13 Jun 2027 09:56:25.381             5.347          2523.781
       410   13 Jun 2027 09:57:21.291   13 Jun 2027 09:57:26.605             5.314          1646.687
       411   13 Jun 2027 09:57:52.607   13 Jun 2027 09:57:54.461             1.854           812.563
       412   13 Jun 2027 11:27:14.939   13 Jun 2027 11:27:25.205            10.266          4787.812
       413   13 Jun 2027 11:28:12.327   13 Jun 2027 11:28:14.988             2.661           697.313
       414   13 Jun 2027 11:28:53.250   13 Jun 2027 11:28:55.415             2.165           207.469
       415   13 Jun 2027 11:29:05.463   13 Jun 2027 11:29:11.159             5.696           152.781
       416   13 Jun 2027 11:29:37.424   13 Jun 2027 11:29:38.575             1.151            38.344
       417   13 Jun 2027 11:30:23.419   13 Jun 2027 11:30:32.015             8.596          1036.281
       418   13 Jun 2027 11:31:01.076   13 Jun 2027 11:31:04.714             3.638           169.906
       419   13 Jun 2027 11:31:35.931   13 Jun 2027 11:31:36.858             0.927           421.219
       420   13 Jun 2027 11:31:58.088   13 Jun 2027 11:31:59.515             1.427           663.438
       421   13 Jun 2027 11:32:42.877   13 Jun 2027 11:32:47.320             4.443          1003.187
       422   13 Jun 2027 11:32:50.735   13 Jun 2027 11:32:52.520             1.785           106.719
       423   13 Jun 2027 11:33:09.130   13 Jun 2027 11:33:13.079             3.949           216.250
       424   13 Jun 2027 11:33:24.386   13 Jun 2027 11:33:27.683             3.297           100.688
