uniorb/output/strategy_4/Camera/Camera_KinoSat_111106.txt

KinoSat_111106
-------------------------
    Access    *     Start Time (UTCG)     *     Stop Time (UTCG)  *   Duration (s) *   Data (Mbytes)
         1   01 Jun 2027 03:26:02.879   01 Jun 2027 03:26:40.486            37.607         18803.500
         2   01 Jun 2027 03:27:10.411   01 Jun 2027 03:28:45.893            95.482         47741.000
         3   01 Jun 2027 03:29:04.518   01 Jun 2027 03:29:04.518             0.000             0.000
         4   01 Jun 2027 04:50:07.544   01 Jun 2027 04:50:35.429            27.885         13942.500
         5   01 Jun 2027 04:51:02.895   01 Jun 2027 04:51:20.420            17.525          8762.500
         6   01 Jun 2027 06:25:53.505   01 Jun 2027 06:27:44.772           111.267         55633.500
         7   01 Jun 2027 08:00:51.213   01 Jun 2027 08:03:18.956           147.743         73871.500
         8   01 Jun 2027 08:03:27.657   01 Jun 2027 08:03:30.888             3.231          1615.500
         9   01 Jun 2027 08:03:54.391   01 Jun 2027 08:03:54.391             0.000             0.000
        10   01 Jun 2027 08:04:41.093   01 Jun 2027 08:05:08.597            27.504         13752.000
        11   01 Jun 2027 08:07:27.630   01 Jun 2027 08:07:28.922             1.292           646.000
        12   01 Jun 2027 09:37:04.238   01 Jun 2027 09:39:37.681           153.443         76721.500
        13   01 Jun 2027 09:39:57.900   01 Jun 2027 09:40:02.184             4.284          2142.000
        14   01 Jun 2027 09:40:07.054   01 Jun 2027 09:40:14.892             7.838          3919.000
        15   01 Jun 2027 09:40:28.983   01 Jun 2027 09:40:31.408             2.425          1212.500
        16   01 Jun 2027 09:42:00.782   01 Jun 2027 09:42:03.022             2.240          1120.000
        17   01 Jun 2027 11:15:24.565   01 Jun 2027 11:17:03.305            98.740         49370.000
        18   01 Jun 2027 11:17:46.556   01 Jun 2027 11:18:05.906            19.350          9675.000
        19   01 Jun 2027 11:18:19.147   01 Jun 2027 11:18:45.104            25.957         12978.500
        20   01 Jun 2027 11:18:59.165   01 Jun 2027 11:19:05.372             6.207          3103.500
        21   01 Jun 2027 11:19:09.813   01 Jun 2027 11:19:12.632             2.819          1409.500
        22   02 Jun 2027 03:26:51.832   02 Jun 2027 03:27:00.357             8.525          4262.500
        23   02 Jun 2027 03:37:58.965   02 Jun 2027 03:39:38.166            99.201         49600.500
        24   02 Jun 2027 03:40:06.097   02 Jun 2027 03:40:52.777            46.680         23340.000
        25   02 Jun 2027 05:00:56.049   02 Jun 2027 05:01:22.920            26.871         13435.500
        26   02 Jun 2027 05:01:40.600   02 Jun 2027 05:01:53.516            12.916          6458.000
        27   02 Jun 2027 05:02:19.455   02 Jun 2027 05:02:19.455             0.000             0.000
        28   02 Jun 2027 05:02:37.367   02 Jun 2027 05:02:41.010             3.643          1821.500
        29   02 Jun 2027 05:03:18.017   02 Jun 2027 05:03:18.017             0.000             0.000
        30   02 Jun 2027 05:04:17.342   02 Jun 2027 05:04:31.976            14.634          7317.000
        31   02 Jun 2027 06:36:22.841   02 Jun 2027 06:36:40.767            17.926          8963.000
        32   02 Jun 2027 06:37:38.701   02 Jun 2027 06:40:59.404           200.703        100351.500
        33   02 Jun 2027 06:41:46.344   02 Jun 2027 06:41:46.344             0.000             0.000
        34   02 Jun 2027 08:12:24.196   02 Jun 2027 08:14:36.951           132.755         66377.500
        35   02 Jun 2027 08:15:16.545   02 Jun 2027 08:15:52.761            36.216         18108.000
        36   02 Jun 2027 08:17:13.683   02 Jun 2027 08:18:15.725            62.042         31021.000
        37   02 Jun 2027 08:19:16.046   02 Jun 2027 08:19:33.940            17.894          7577.187
        38   02 Jun 2027 09:49:26.234   02 Jun 2027 09:49:51.318            25.084         11686.625
        39   02 Jun 2027 09:52:25.123   02 Jun 2027 09:52:28.397             3.274          1126.688
        40   02 Jun 2027 09:53:32.904   02 Jun 2027 09:53:36.786             3.882          1319.375
        41   02 Jun 2027 09:54:08.657   02 Jun 2027 09:54:12.372             3.715            54.719
        42   02 Jun 2027 09:54:20.674   02 Jun 2027 09:54:20.876             0.202           101.000
        43   02 Jun 2027 09:54:45.022   02 Jun 2027 09:54:48.302             3.280           810.500
        44   02 Jun 2027 09:55:32.919   02 Jun 2027 09:55:33.768             0.849           372.500
        45   02 Jun 2027 11:27:26.029   02 Jun 2027 11:27:37.535            11.506          5753.000
        46   02 Jun 2027 11:27:42.006   02 Jun 2027 11:27:47.145             5.139           758.219
        47   02 Jun 2027 11:27:53.463   02 Jun 2027 11:27:56.377             2.914           100.469
        48   02 Jun 2027 11:29:32.358   02 Jun 2027 11:29:37.754             5.396          2239.125
        49   02 Jun 2027 11:30:51.898   02 Jun 2027 11:30:59.668             7.770          2118.344
        50   02 Jun 2027 11:31:15.577   02 Jun 2027 11:31:16.815             1.238           497.156
        51   03 Jun 2027 03:38:18.289   03 Jun 2027 03:38:34.365            16.076          8038.000
        52   03 Jun 2027 03:50:00.760   03 Jun 2027 03:51:20.227            79.467         39733.500
        53   03 Jun 2027 05:12:13.644   03 Jun 2027 05:13:26.565            72.921         36460.500
        54   03 Jun 2027 05:14:15.681   03 Jun 2027 05:15:06.209            50.528         25264.000
        55   03 Jun 2027 05:16:33.327   03 Jun 2027 05:16:47.413            14.086          7043.000
        56   03 Jun 2027 06:47:20.371   03 Jun 2027 06:48:46.827            86.456         42635.750
        57   03 Jun 2027 06:49:22.409   03 Jun 2027 06:49:26.548             4.139          1012.031
        58   03 Jun 2027 06:51:00.407   03 Jun 2027 06:51:06.068             5.661          2105.375
        59   03 Jun 2027 06:52:24.360   03 Jun 2027 06:52:32.956             8.596          2405.937
        60   03 Jun 2027 06:52:49.765   03 Jun 2027 06:52:52.390             2.625           525.281
        61   03 Jun 2027 06:53:32.463   03 Jun 2027 06:53:32.463             0.000             0.000
        62   03 Jun 2027 06:53:45.401   03 Jun 2027 06:53:47.229             1.828           481.125
        63   03 Jun 2027 06:55:17.494   03 Jun 2027 06:55:21.539             4.045          1756.062
        64   03 Jun 2027 08:24:34.976   03 Jun 2027 08:24:42.568             7.592           574.594
        65   03 Jun 2027 08:25:27.964   03 Jun 2027 08:25:39.720            11.756           856.844
        66   03 Jun 2027 08:27:45.307   03 Jun 2027 08:27:46.385             1.078           277.281
        67   03 Jun 2027 08:28:06.130   03 Jun 2027 08:28:11.248             5.118           435.844
        68   03 Jun 2027 08:28:24.601   03 Jun 2027 08:28:25.569             0.968           221.688
        69   03 Jun 2027 08:29:21.439   03 Jun 2027 08:29:28.806             7.367          1143.406
        70   03 Jun 2027 08:30:19.945   03 Jun 2027 08:30:23.015             3.070          1300.031
        71   03 Jun 2027 08:30:39.460   03 Jun 2027 08:30:40.405             0.945           198.156
        72   03 Jun 2027 08:31:37.155   03 Jun 2027 08:31:41.305             4.150          1409.312
        73   03 Jun 2027 10:01:30.006   03 Jun 2027 10:01:48.610            18.604          6775.094
        74   03 Jun 2027 10:04:07.206   03 Jun 2027 10:04:13.769             6.563            58.813
        75   03 Jun 2027 10:05:17.385   03 Jun 2027 10:05:21.169             3.784           423.313
        76   03 Jun 2027 10:05:45.618   03 Jun 2027 10:05:47.556             1.938           699.969
        77   03 Jun 2027 10:06:02.217   03 Jun 2027 10:06:04.784             2.567           259.688
        78   03 Jun 2027 10:06:39.027   03 Jun 2027 10:06:43.386             4.359           906.594
        79   03 Jun 2027 11:39:25.514   03 Jun 2027 11:39:38.908            13.394          6130.719
        80   03 Jun 2027 11:40:48.904   03 Jun 2027 11:40:51.989             3.085           885.969
        81   03 Jun 2027 11:41:36.597   03 Jun 2027 11:41:38.109             1.512           623.563
        82   03 Jun 2027 11:42:39.113   03 Jun 2027 11:42:42.850             3.737          1556.281
        83   03 Jun 2027 11:43:01.922   03 Jun 2027 11:43:06.085             4.163           596.000
        84   03 Jun 2027 11:43:12.985   03 Jun 2027 11:43:14.385             1.400           215.625
        85   03 Jun 2027 11:43:20.037   03 Jun 2027 11:43:20.930             0.893           144.781
        86   04 Jun 2027 03:49:46.750   04 Jun 2027 03:49:48.667             1.917           958.500
        87   04 Jun 2027 03:50:04.655   04 Jun 2027 03:50:13.512             8.857          4428.500
        88   04 Jun 2027 03:51:56.434   04 Jun 2027 03:51:56.698             0.264           132.000
        89   04 Jun 2027 03:52:01.032   04 Jun 2027 03:52:01.487             0.455           227.500
        90   04 Jun 2027 04:01:57.476   04 Jun 2027 04:02:36.109            38.633         19316.500
        91   04 Jun 2027 05:23:59.233   04 Jun 2027 05:25:19.917            80.684         40342.000
        92   04 Jun 2027 05:26:01.938   04 Jun 2027 05:27:29.513            87.575         43787.500
        93   04 Jun 2027 05:28:29.039   04 Jun 2027 05:28:37.277             8.238          4119.000
        94   04 Jun 2027 06:58:49.761   04 Jun 2027 07:00:16.885            87.124         40829.875
        95   04 Jun 2027 07:01:19.119   04 Jun 2027 07:01:19.119             0.000             0.000
        96   04 Jun 2027 07:02:00.982   04 Jun 2027 07:02:08.479             7.497          2586.844
        97   04 Jun 2027 07:02:31.068   04 Jun 2027 07:02:34.961             3.893           377.469
        98   04 Jun 2027 07:02:40.986   04 Jun 2027 07:02:41.552             0.566           188.281
        99   04 Jun 2027 07:04:24.456   04 Jun 2027 07:04:37.099            12.643          3125.031
       100   04 Jun 2027 07:05:31.914   04 Jun 2027 07:05:36.361             4.447          1462.187
       101   04 Jun 2027 07:05:49.842   04 Jun 2027 07:05:50.863             1.021           421.281
       102   04 Jun 2027 07:06:05.366   04 Jun 2027 07:06:07.319             1.953           192.875
       103   04 Jun 2027 07:06:40.333   04 Jun 2027 07:06:42.198             1.865           931.594
       104   04 Jun 2027 08:36:36.046   04 Jun 2027 08:36:40.667             4.621          2106.281
       105   04 Jun 2027 08:37:29.538   04 Jun 2027 08:37:33.417             3.879           979.437
       106   04 Jun 2027 08:38:20.417   04 Jun 2027 08:38:22.827             2.410          1199.469
       107   04 Jun 2027 08:39:13.179   04 Jun 2027 08:39:17.558             4.379          1423.187
       108   04 Jun 2027 08:40:28.904   04 Jun 2027 08:40:33.772             4.868          1674.437
       109   04 Jun 2027 08:40:53.077   04 Jun 2027 08:40:58.888             5.811            20.219
       110   04 Jun 2027 08:42:37.417   04 Jun 2027 08:42:40.822             3.405           823.531
       111   04 Jun 2027 08:43:04.344   04 Jun 2027 08:43:09.722             5.378           598.594
       112   04 Jun 2027 08:43:24.569   04 Jun 2027 08:43:33.090             8.521           386.875
       113   04 Jun 2027 08:43:50.942   04 Jun 2027 08:43:55.305             4.363           462.250
       114   04 Jun 2027 08:43:57.232   04 Jun 2027 08:43:58.231             0.999            60.219
       115   04 Jun 2027 10:13:21.556   04 Jun 2027 10:13:39.213            17.657          6499.188
       116   04 Jun 2027 10:14:24.750   04 Jun 2027 10:14:28.232             3.482          1285.781
       117   04 Jun 2027 10:16:06.595   04 Jun 2027 10:16:07.631             1.036            86.094
       118   04 Jun 2027 10:16:58.317   04 Jun 2027 10:17:03.607             5.290          1357.344
       119   04 Jun 2027 10:17:34.840   04 Jun 2027 10:17:35.497             0.657           296.844
       120   04 Jun 2027 10:17:53.685   04 Jun 2027 10:17:57.695             4.010           428.344
       121   04 Jun 2027 10:18:18.995   04 Jun 2027 10:18:20.916             1.921           207.969
       122   04 Jun 2027 10:18:44.640   04 Jun 2027 10:18:46.880             2.240            68.688
       123   04 Jun 2027 10:19:32.336   04 Jun 2027 10:19:39.811             7.475          1369.156
       124   04 Jun 2027 11:51:26.712   04 Jun 2027 11:51:51.187            24.475          5374.156
       125   04 Jun 2027 11:53:35.092   04 Jun 2027 11:53:36.278             1.186           509.969
       126   04 Jun 2027 11:54:18.444   04 Jun 2027 11:54:21.686             3.242           763.906
       127   04 Jun 2027 11:55:00.159   04 Jun 2027 11:55:05.634             5.475           626.969
       128   04 Jun 2027 11:55:22.146   04 Jun 2027 11:55:25.010             2.864           180.469
       129   05 Jun 2027 04:01:48.584   05 Jun 2027 04:02:28.671            40.087         20043.500
       130   05 Jun 2027 05:37:46.229   05 Jun 2027 05:40:48.573           182.344         91172.000
       131   05 Jun 2027 07:11:35.685   05 Jun 2027 07:13:12.292            96.607         46273.375
       132   05 Jun 2027 07:14:11.147   05 Jun 2027 07:14:14.246             3.099          1193.469
       133   05 Jun 2027 07:14:16.225   05 Jun 2027 07:14:16.284             0.059            28.125
       134   05 Jun 2027 07:14:46.640   05 Jun 2027 07:14:53.768             7.128           261.031
       135   05 Jun 2027 07:15:46.233   05 Jun 2027 07:15:49.917             3.684          1424.312
       136   05 Jun 2027 07:17:10.271   05 Jun 2027 07:17:11.764             1.493           746.500
       137   05 Jun 2027 07:17:29.546   05 Jun 2027 07:17:36.091             6.545          1661.437
       138   05 Jun 2027 07:18:26.231   05 Jun 2027 07:18:29.814             3.583          1456.375
       139   05 Jun 2027 07:18:46.636   05 Jun 2027 07:18:49.360             2.724           475.094
       140   05 Jun 2027 07:19:23.756   05 Jun 2027 07:19:25.055             1.299           525.000
       141   05 Jun 2027 08:48:39.673   05 Jun 2027 08:48:47.633             7.960          3933.406
       142   05 Jun 2027 08:51:21.779   05 Jun 2027 08:51:24.157             2.378          1110.344
       143   05 Jun 2027 08:52:47.184   05 Jun 2027 08:52:55.554             8.370          2488.562
       144   05 Jun 2027 08:53:22.317   05 Jun 2027 08:53:23.015             0.698           107.813
       145   05 Jun 2027 08:54:06.929   05 Jun 2027 08:54:07.735             0.806           348.344
       146   05 Jun 2027 08:54:30.167   05 Jun 2027 08:54:32.481             2.314           385.156
       147   05 Jun 2027 08:54:55.641   05 Jun 2027 08:54:57.688             2.047           633.344
       148   05 Jun 2027 08:55:27.993   05 Jun 2027 08:55:29.070             1.077            18.094
       149   05 Jun 2027 08:55:41.553   05 Jun 2027 08:55:45.383             3.830           390.094
       150   05 Jun 2027 10:25:35.297   05 Jun 2027 10:25:51.258            15.961          7746.750
       151   05 Jun 2027 10:29:46.760   05 Jun 2027 10:29:49.567             2.807           805.000
       152   05 Jun 2027 10:30:08.564   05 Jun 2027 10:30:13.846             5.282           580.781
       153   05 Jun 2027 10:31:34.309   05 Jun 2027 10:31:43.104             8.795          2514.469
       154   06 Jun 2027 04:13:42.636   06 Jun 2027 04:14:27.099            44.463         22231.500
       155   06 Jun 2027 05:50:05.129   06 Jun 2027 05:52:48.613           163.484         81742.000
       156   06 Jun 2027 07:23:33.824   06 Jun 2027 07:25:15.689           101.865         50322.125
       157   06 Jun 2027 07:25:54.296   06 Jun 2027 07:25:57.271             2.975            34.281
       158   06 Jun 2027 07:26:09.175   06 Jun 2027 07:26:12.670             3.495           372.000
       159   06 Jun 2027 07:27:13.050   06 Jun 2027 07:27:16.692             3.642           998.938
       160   06 Jun 2027 07:28:22.831   06 Jun 2027 07:28:22.831             0.000             0.000
       161   06 Jun 2027 07:28:50.971   06 Jun 2027 07:28:58.802             7.831          2929.625
       162   06 Jun 2027 07:30:36.188   06 Jun 2027 07:30:42.151             5.963          2651.344
       163   06 Jun 2027 07:31:11.200   06 Jun 2027 07:31:16.627             5.427           539.375
       164   06 Jun 2027 07:31:35.497   06 Jun 2027 07:31:36.628             1.131           458.469
       165   06 Jun 2027 09:01:06.110   06 Jun 2027 09:01:18.224            12.114          5727.719
       166   06 Jun 2027 09:04:08.216   06 Jun 2027 09:04:09.657             1.441            70.938
       167   06 Jun 2027 09:04:48.829   06 Jun 2027 09:04:55.787             6.958           294.938
       168   06 Jun 2027 09:06:34.935   06 Jun 2027 09:06:43.549             8.614          2068.344
       169   06 Jun 2027 09:07:14.296   06 Jun 2027 09:07:20.647             6.351           926.000
       170   06 Jun 2027 10:38:00.908   06 Jun 2027 10:38:12.809            11.901          5824.156
       171   06 Jun 2027 10:39:08.305   06 Jun 2027 10:39:10.193             1.888           639.781
       172   06 Jun 2027 10:39:56.972   06 Jun 2027 10:40:01.954             4.982           216.531
       173   06 Jun 2027 10:41:18.321   06 Jun 2027 10:41:21.180             2.859           155.687
       174   06 Jun 2027 10:41:59.802   06 Jun 2027 10:42:00.401             0.599           235.844
       175   06 Jun 2027 10:42:14.466   06 Jun 2027 10:42:19.583             5.117           439.531
       176   06 Jun 2027 10:42:51.303   06 Jun 2027 10:42:56.420             5.117           991.250
       177   06 Jun 2027 10:43:25.094   06 Jun 2027 10:43:28.052             2.958           576.000
       178   06 Jun 2027 10:43:41.557   06 Jun 2027 10:43:42.175             0.618            56.000
       179   07 Jun 2027 03:01:57.542   07 Jun 2027 03:02:22.084            24.542         12271.000
       180   07 Jun 2027 03:02:55.853   07 Jun 2027 03:03:17.762            21.909         10954.500
       181   07 Jun 2027 03:04:40.845   07 Jun 2027 03:05:00.358            19.513          9756.500
       182   07 Jun 2027 04:25:32.721   07 Jun 2027 04:26:17.994            45.273         22636.500
       183   07 Jun 2027 04:26:40.600   07 Jun 2027 04:26:46.020             5.420          2710.000
       184   07 Jun 2027 04:26:51.687   07 Jun 2027 04:27:04.502            12.815          6407.500
       185   07 Jun 2027 06:02:06.914   07 Jun 2027 06:05:17.799           190.885         95442.500
       186   07 Jun 2027 07:36:36.664   07 Jun 2027 07:36:50.177            13.513          6407.969
       187   07 Jun 2027 07:38:22.025   07 Jun 2027 07:38:24.004             1.979           267.750
       188   07 Jun 2027 07:38:50.195   07 Jun 2027 07:38:51.605             1.410           159.344
       189   07 Jun 2027 07:40:20.868   07 Jun 2027 07:40:25.012             4.144          1756.500
       190   07 Jun 2027 07:41:12.119   07 Jun 2027 07:41:16.663             4.544          1102.812
       191   07 Jun 2027 07:41:22.820   07 Jun 2027 07:41:24.495             1.675           192.406
       192   07 Jun 2027 07:42:44.672   07 Jun 2027 07:42:46.690             2.018           358.406
       193   07 Jun 2027 07:43:34.917   07 Jun 2027 07:43:37.033             2.116           982.594
       194   07 Jun 2027 07:43:57.943   07 Jun 2027 07:43:59.948             2.005           149.125
       195   07 Jun 2027 09:13:13.227   07 Jun 2027 09:13:27.745            14.518          4986.031
       196   07 Jun 2027 09:17:32.786   07 Jun 2027 09:17:37.850             5.064           992.156
       197   07 Jun 2027 09:18:10.819   07 Jun 2027 09:18:13.950             3.131            40.344
       198   07 Jun 2027 09:19:28.079   07 Jun 2027 09:19:30.106             2.027           744.500
       199   07 Jun 2027 10:50:55.397   07 Jun 2027 10:51:08.454            13.057          5763.312
       200   07 Jun 2027 10:52:32.400   07 Jun 2027 10:52:35.780             3.380          1290.406
       201   07 Jun 2027 10:53:16.123   07 Jun 2027 10:53:16.892             0.769           300.406
       202   07 Jun 2027 10:53:51.863   07 Jun 2027 10:53:52.935             1.072           159.188
       203   07 Jun 2027 10:54:08.210   07 Jun 2027 10:54:09.424             1.214           477.344
       204   07 Jun 2027 10:54:14.113   07 Jun 2027 10:54:18.637             4.524           146.531
       205   08 Jun 2027 03:14:22.589   08 Jun 2027 03:14:49.324            26.735         13367.500
       206   08 Jun 2027 03:15:10.598   08 Jun 2027 03:17:02.015           111.417         55708.500
       207   08 Jun 2027 04:37:43.929   08 Jun 2027 04:38:27.737            43.808         21904.000
       208   08 Jun 2027 04:39:20.358   08 Jun 2027 04:39:20.358             0.000             0.000
       209   08 Jun 2027 04:39:26.633   08 Jun 2027 04:40:11.316            44.683         22341.500
       210   08 Jun 2027 06:14:15.656   08 Jun 2027 06:15:40.762            85.106         42553.000
       211   08 Jun 2027 06:16:47.156   08 Jun 2027 06:16:52.236             5.080          2381.594
       212   08 Jun 2027 06:17:35.228   08 Jun 2027 06:17:35.228             0.000             0.000
       213   08 Jun 2027 07:49:24.806   08 Jun 2027 07:49:36.374            11.568          2512.250
       214   08 Jun 2027 07:49:49.990   08 Jun 2027 07:49:50.362             0.372           174.719
       215   08 Jun 2027 07:50:59.557   08 Jun 2027 07:51:03.641             4.084          1044.875
       216   08 Jun 2027 07:51:34.848   08 Jun 2027 07:51:37.083             2.235           917.938
       217   08 Jun 2027 07:52:23.154   08 Jun 2027 07:52:23.756             0.602           163.125
       218   08 Jun 2027 07:52:56.159   08 Jun 2027 07:53:03.763             7.604           241.625
       219   08 Jun 2027 07:53:15.370   08 Jun 2027 07:53:23.035             7.665           287.031
       220   08 Jun 2027 07:54:33.384   08 Jun 2027 07:54:38.568             5.184          2198.406
       221   08 Jun 2027 07:55:36.552   08 Jun 2027 07:55:43.566             7.014          1521.000
       222   08 Jun 2027 07:55:51.425   08 Jun 2027 07:55:52.131             0.706           223.094
       223   08 Jun 2027 09:25:48.621   08 Jun 2027 09:25:58.887            10.266          4778.719
       224   08 Jun 2027 09:26:21.641   08 Jun 2027 09:26:22.585             0.944            46.469
       225   08 Jun 2027 09:27:41.985   08 Jun 2027 09:27:45.462             3.477           625.406
       226   08 Jun 2027 09:29:39.805   08 Jun 2027 09:29:44.130             4.325          1382.344
       227   08 Jun 2027 09:30:14.931   08 Jun 2027 09:30:15.664             0.733           313.594
       228   08 Jun 2027 09:30:57.292   08 Jun 2027 09:31:00.310             3.018           588.937
       229   08 Jun 2027 11:03:02.243   08 Jun 2027 11:03:14.606            12.363          5112.656
       230   08 Jun 2027 11:04:20.732   08 Jun 2027 11:04:30.592             9.860          1174.938
       231   08 Jun 2027 11:04:36.626   08 Jun 2027 11:04:37.065             0.439           148.250
       232   08 Jun 2027 11:06:12.685   08 Jun 2027 11:06:17.302             4.617          2040.969
       233   08 Jun 2027 11:06:56.356   08 Jun 2027 11:07:18.179            21.823          1220.437
       234   08 Jun 2027 11:07:28.665   08 Jun 2027 11:07:30.937             2.272           327.688
       235   08 Jun 2027 11:07:38.971   08 Jun 2027 11:07:40.894             1.923           247.687
       236   09 Jun 2027 03:26:18.220   09 Jun 2027 03:26:56.080            37.860         18930.000
       237   09 Jun 2027 03:27:25.661   09 Jun 2027 03:28:03.431            37.770         18885.000
       238   09 Jun 2027 03:28:32.762   09 Jun 2027 03:29:54.662            81.900         40950.000
       239   09 Jun 2027 04:50:20.314   09 Jun 2027 04:51:06.925            46.611         23305.500
       240   09 Jun 2027 06:26:08.682   09 Jun 2027 06:27:32.903            84.221         41961.688
       241   09 Jun 2027 06:28:01.148   09 Jun 2027 06:28:04.503             3.355           851.906
       242   09 Jun 2027 06:28:24.940   09 Jun 2027 06:28:28.611             3.671           529.656
       243   09 Jun 2027 06:28:45.410   09 Jun 2027 06:28:45.410             0.000             0.000
       244   09 Jun 2027 06:29:21.391   09 Jun 2027 06:29:30.384             8.993          1649.375
       245   09 Jun 2027 06:29:55.072   09 Jun 2027 06:29:57.284             2.212           534.031
       246   09 Jun 2027 08:01:06.125   09 Jun 2027 08:01:14.561             8.436          2725.562
       247   09 Jun 2027 08:01:41.426   09 Jun 2027 08:01:43.591             2.165           199.406
       248   09 Jun 2027 08:02:30.319   09 Jun 2027 08:02:30.538             0.219            88.875
       249   09 Jun 2027 08:02:52.345   09 Jun 2027 08:02:53.357             1.012            14.562
       250   09 Jun 2027 08:03:57.002   09 Jun 2027 08:04:00.095             3.093           283.281
       251   09 Jun 2027 08:04:58.428   09 Jun 2027 08:05:03.334             4.906          1479.031
       252   09 Jun 2027 08:05:31.221   09 Jun 2027 08:05:35.242             4.021           871.469
       253   09 Jun 2027 08:05:54.829   09 Jun 2027 08:05:56.420             1.591           539.469
       254   09 Jun 2027 08:06:55.335   09 Jun 2027 08:06:58.615             3.280           784.937
       255   09 Jun 2027 08:07:14.338   09 Jun 2027 08:07:19.376             5.038           474.906
       256   09 Jun 2027 08:07:55.592   09 Jun 2027 08:07:59.760             4.168           873.156
       257   09 Jun 2027 09:37:20.400   09 Jun 2027 09:37:33.733            13.333          5488.656
       258   09 Jun 2027 09:39:56.270   09 Jun 2027 09:39:59.527             3.257           956.219
       259   09 Jun 2027 09:40:50.104   09 Jun 2027 09:40:52.947             2.843           911.656
       260   09 Jun 2027 09:41:06.958   09 Jun 2027 09:41:10.229             3.271           175.188
       261   09 Jun 2027 09:42:28.022   09 Jun 2027 09:42:35.077             7.055          1358.969
       262   09 Jun 2027 09:42:53.422   09 Jun 2027 09:42:55.019             1.597           476.063
       263   09 Jun 2027 11:15:40.143   09 Jun 2027 11:15:56.875            16.732          5684.594
       264   09 Jun 2027 11:16:28.815   09 Jun 2027 11:16:33.484             4.669           793.375
       265   09 Jun 2027 11:17:48.329   09 Jun 2027 11:17:53.716             5.387          2143.375
       266   09 Jun 2027 11:18:50.664   09 Jun 2027 11:19:00.495             9.831          1707.969
       267   09 Jun 2027 11:19:28.390   09 Jun 2027 11:19:28.999             0.609           257.625
       268   10 Jun 2027 03:27:05.807   10 Jun 2027 03:27:09.634             3.827          1913.500
       269   10 Jun 2027 03:38:14.298   10 Jun 2027 03:39:56.688           102.390         51195.000
       270   10 Jun 2027 03:40:12.209   10 Jun 2027 03:41:08.701            56.492         28246.000
       271   10 Jun 2027 05:01:11.104   10 Jun 2027 05:02:24.223            73.119         36559.500
       272   10 Jun 2027 06:36:28.513   10 Jun 2027 06:36:57.152            28.639         14319.500
       273   10 Jun 2027 06:37:53.368   10 Jun 2027 06:38:33.661            40.293         18559.125
       274   10 Jun 2027 06:38:46.919   10 Jun 2027 06:38:55.769             8.850           197.000
       275   10 Jun 2027 06:39:05.008   10 Jun 2027 06:39:05.920             0.912           275.219
       276   10 Jun 2027 06:39:23.730   10 Jun 2027 06:39:24.209             0.479           231.469
       277   10 Jun 2027 06:39:50.477   10 Jun 2027 06:39:53.510             3.033           668.500
       278   10 Jun 2027 06:40:16.566   10 Jun 2027 06:40:16.566             0.000             0.000
       279   10 Jun 2027 06:40:42.765   10 Jun 2027 06:40:46.562             3.797          1202.531
       280   10 Jun 2027 06:41:16.113   10 Jun 2027 06:41:23.115             7.002           923.469
       281   10 Jun 2027 08:12:39.157   10 Jun 2027 08:12:49.161            10.004          2959.188
       282   10 Jun 2027 08:14:32.524   10 Jun 2027 08:14:38.075             5.551          1987.031
       283   10 Jun 2027 08:14:46.377   10 Jun 2027 08:14:46.698             0.321            42.781
       284   10 Jun 2027 08:14:55.184   10 Jun 2027 08:14:55.392             0.208            76.063
       285   10 Jun 2027 08:16:04.092   10 Jun 2027 08:16:08.184             4.092            90.125
       286   10 Jun 2027 08:17:00.430   10 Jun 2027 08:17:11.890            11.460          1632.688
       287   10 Jun 2027 08:17:44.217   10 Jun 2027 08:17:46.325             2.108           607.906
       288   10 Jun 2027 08:18:34.526   10 Jun 2027 08:18:37.773             3.247           925.125
       289   10 Jun 2027 08:19:38.090   10 Jun 2027 08:19:44.995             6.905          1714.813
       290   10 Jun 2027 09:49:41.897   10 Jun 2027 09:49:53.932            12.035          5572.969
       291   10 Jun 2027 09:52:53.788   10 Jun 2027 09:52:54.767             0.979           395.937
       292   10 Jun 2027 09:53:46.214   10 Jun 2027 09:53:48.770             2.556           672.094
       293   10 Jun 2027 09:54:19.532   10 Jun 2027 09:54:23.262             3.730            40.781
       294   10 Jun 2027 09:54:30.697   10 Jun 2027 09:54:32.997             2.300           232.344
       295   10 Jun 2027 09:54:36.477   10 Jun 2027 09:54:38.997             2.520            17.406
       296   10 Jun 2027 11:27:41.435   10 Jun 2027 11:27:54.963            13.528          5798.094
       297   10 Jun 2027 11:28:09.247   10 Jun 2027 11:28:13.586             4.339            69.031
       298   10 Jun 2027 11:29:06.697   10 Jun 2027 11:29:14.321             7.624          1624.312
       299   10 Jun 2027 11:29:48.023   10 Jun 2027 11:29:50.525             2.502           738.781
       300   10 Jun 2027 11:30:05.680   10 Jun 2027 11:30:06.766             1.086           387.500
       301   10 Jun 2027 11:31:29.356   10 Jun 2027 11:31:32.693             3.337          1426.125
       302   11 Jun 2027 03:38:34.001   11 Jun 2027 03:38:50.638            16.637          8318.500
       303   11 Jun 2027 03:50:16.401   11 Jun 2027 03:51:35.145            78.744         39372.000
       304   11 Jun 2027 05:12:29.564   11 Jun 2027 05:13:41.516            71.952         35976.000
       305   11 Jun 2027 05:14:30.803   11 Jun 2027 05:15:14.846            44.043         22021.500
       306   11 Jun 2027 05:15:43.256   11 Jun 2027 05:16:42.318            59.062         29531.000
       307   11 Jun 2027 06:47:35.259   11 Jun 2027 06:48:20.038            44.779         20965.438
       308   11 Jun 2027 06:48:54.349   11 Jun 2027 06:48:55.617             1.268           518.125
       309   11 Jun 2027 06:49:37.439   11 Jun 2027 06:49:41.450             4.011          1065.531
       310   11 Jun 2027 06:50:10.724   11 Jun 2027 06:50:10.724             0.000             0.000
       311   11 Jun 2027 06:51:17.004   11 Jun 2027 06:51:22.717             5.713          2440.125
       312   11 Jun 2027 06:52:02.370   11 Jun 2027 06:52:05.690             3.320          1153.500
       313   11 Jun 2027 06:53:07.216   11 Jun 2027 06:53:09.668             2.452           883.000
       314   11 Jun 2027 06:54:14.965   11 Jun 2027 06:54:21.573             6.608          1569.625
       315   11 Jun 2027 06:55:29.916   11 Jun 2027 06:55:33.125             3.209          1455.063
       316   11 Jun 2027 08:24:51.662   11 Jun 2027 08:24:57.121             5.459          2470.625
       317   11 Jun 2027 08:25:42.710   11 Jun 2027 08:25:45.520             2.810           908.563
       318   11 Jun 2027 08:26:58.393   11 Jun 2027 08:27:00.906             2.513           180.781
       319   11 Jun 2027 08:28:00.639   11 Jun 2027 08:28:04.529             3.890           222.031
       320   11 Jun 2027 08:28:23.524   11 Jun 2027 08:28:25.767             2.243           441.687
       321   11 Jun 2027 08:29:38.942   11 Jun 2027 08:29:43.382             4.440          1150.406
       322   11 Jun 2027 08:30:34.937   11 Jun 2027 08:30:38.571             3.634          1242.062
       323   11 Jun 2027 08:30:54.083   11 Jun 2027 08:30:55.006             0.923           166.938
       324   11 Jun 2027 08:31:14.968   11 Jun 2027 08:31:19.408             4.440           568.937
       325   11 Jun 2027 08:32:14.962   11 Jun 2027 08:32:15.323             0.361           180.500
       326   11 Jun 2027 10:01:44.871   11 Jun 2027 10:01:58.422            13.551          5766.031
       327   11 Jun 2027 10:04:25.009   11 Jun 2027 10:04:29.229             4.220           125.937
       328   11 Jun 2027 10:05:22.973   11 Jun 2027 10:05:29.144             6.171           474.875
       329   11 Jun 2027 10:05:42.358   11 Jun 2027 10:05:45.461             3.103           323.469
       330   11 Jun 2027 10:06:06.721   11 Jun 2027 10:06:08.292             1.571           164.625
       331   11 Jun 2027 10:06:16.816   11 Jun 2027 10:06:19.228             2.412           241.219
       332   11 Jun 2027 10:06:55.194   11 Jun 2027 10:06:58.064             2.870           898.531
       333   11 Jun 2027 11:39:41.180   11 Jun 2027 11:39:55.023            13.843          5868.219
       334   11 Jun 2027 11:40:58.933   11 Jun 2027 11:41:02.362             3.429          1228.406
       335   11 Jun 2027 11:41:46.870   11 Jun 2027 11:41:52.074             5.204          1291.906
       336   11 Jun 2027 11:42:29.724   11 Jun 2027 11:42:32.704             2.980           286.063
       337   11 Jun 2027 11:43:05.145   11 Jun 2027 11:43:10.933             5.788           357.312
       338   11 Jun 2027 11:43:30.613   11 Jun 2027 11:43:34.038             3.425           411.625
       339   12 Jun 2027 03:50:02.990   12 Jun 2027 03:50:03.476             0.486           243.000
       340   12 Jun 2027 03:50:19.382   12 Jun 2027 03:50:29.867            10.485          5242.500
       341   12 Jun 2027 03:51:15.741   12 Jun 2027 03:51:15.741             0.000             0.000
       342   12 Jun 2027 03:52:11.202   12 Jun 2027 03:52:14.074             2.872          1436.000
       343   12 Jun 2027 04:02:13.130   12 Jun 2027 04:02:51.101            37.971         18985.500
       344   12 Jun 2027 05:24:14.582   12 Jun 2027 05:25:35.015            80.433         40216.500
       345   12 Jun 2027 05:26:17.120   12 Jun 2027 05:27:24.589            67.469         33734.500
       346   12 Jun 2027 05:27:51.519   12 Jun 2027 05:28:25.698            34.179         17089.500
       347   12 Jun 2027 06:59:04.303   12 Jun 2027 07:00:25.387            81.084         39413.438
       348   12 Jun 2027 07:01:33.364   12 Jun 2027 07:01:33.364             0.000             0.000
       349   12 Jun 2027 07:02:18.836   12 Jun 2027 07:02:25.802             6.966          2610.500
       350   12 Jun 2027 07:02:44.570   12 Jun 2027 07:02:45.198             0.628           299.969
       351   12 Jun 2027 07:02:56.485   12 Jun 2027 07:02:56.694             0.209           102.281
       352   12 Jun 2027 07:03:26.517   12 Jun 2027 07:03:27.295             0.778           389.000
       353   12 Jun 2027 07:04:33.658   12 Jun 2027 07:04:40.138             6.480          2476.781
       354   12 Jun 2027 07:05:02.532   12 Jun 2027 07:05:04.532             2.000           699.813
       355   12 Jun 2027 07:06:30.167   12 Jun 2027 07:06:35.359             5.192          2145.625
       356   12 Jun 2027 08:36:51.316   12 Jun 2027 08:36:58.490             7.174          3055.594
       357   12 Jun 2027 08:37:47.124   12 Jun 2027 08:37:47.124             0.000             0.000
       358   12 Jun 2027 08:38:51.816   12 Jun 2027 08:38:59.657             7.841          3000.437
       359   12 Jun 2027 08:39:48.131   12 Jun 2027 08:39:51.741             3.610          1457.719
       360   12 Jun 2027 08:41:08.344   12 Jun 2027 08:41:08.457             0.113            30.969
       361   12 Jun 2027 08:43:30.302   12 Jun 2027 08:43:34.739             4.437          1747.031
       362   12 Jun 2027 08:43:58.787   12 Jun 2027 08:44:03.973             5.186           674.406
       363   12 Jun 2027 08:44:13.117   12 Jun 2027 08:44:13.690             0.573           221.750
       364   12 Jun 2027 10:13:36.324   12 Jun 2027 10:13:50.333            14.009          6781.000
       365   12 Jun 2027 10:14:41.561   12 Jun 2027 10:14:44.819             3.258          1345.000
       366   12 Jun 2027 10:16:24.525   12 Jun 2027 10:16:25.209             0.684           158.656
       367   12 Jun 2027 10:16:32.600   12 Jun 2027 10:16:33.413             0.813           230.969
       368   12 Jun 2027 10:17:47.803   12 Jun 2027 10:17:50.173             2.370          1093.813
       369   12 Jun 2027 10:17:58.666   12 Jun 2027 10:17:59.034             0.368            62.188
       370   12 Jun 2027 10:18:33.663   12 Jun 2027 10:18:36.406             2.743           154.594
       371   12 Jun 2027 10:19:01.018   12 Jun 2027 10:19:02.264             1.246           126.469
       372   12 Jun 2027 10:19:48.900   12 Jun 2027 10:19:55.839             6.939          1434.031
       373   12 Jun 2027 11:51:42.123   12 Jun 2027 11:52:05.627            23.504          5904.750
       374   12 Jun 2027 11:53:49.847   12 Jun 2027 11:53:51.588             1.741           469.125
       375   12 Jun 2027 11:54:21.362   12 Jun 2027 11:54:32.877            11.515           811.500
       376   12 Jun 2027 11:54:56.178   12 Jun 2027 11:54:57.284             1.106           553.000
       377   13 Jun 2027 04:02:03.494   13 Jun 2027 04:02:21.045            17.551          8775.500
       378   13 Jun 2027 04:02:43.283   13 Jun 2027 04:02:56.140            12.857          6428.500
       379   13 Jun 2027 05:38:01.569   13 Jun 2027 05:41:08.444           186.875         93437.500
       380   13 Jun 2027 05:41:19.469   13 Jun 2027 05:41:19.469             0.000             0.000
       381   13 Jun 2027 07:11:50.900   13 Jun 2027 07:13:32.886           101.986         50414.813
       382   13 Jun 2027 07:14:29.168   13 Jun 2027 07:14:31.884             2.716          1212.000
       383   13 Jun 2027 07:14:56.541   13 Jun 2027 07:14:59.308             2.767           770.531
       384   13 Jun 2027 07:15:28.900   13 Jun 2027 07:15:28.900             0.000             0.000
       385   13 Jun 2027 07:16:39.635   13 Jun 2027 07:16:46.397             6.762          3009.156
       386   13 Jun 2027 07:17:27.755   13 Jun 2027 07:17:34.630             6.875           695.094
       387   13 Jun 2027 07:18:03.862   13 Jun 2027 07:18:09.880             6.018           557.031
       388   13 Jun 2027 07:18:54.845   13 Jun 2027 07:18:54.845             0.000             0.000
       389   13 Jun 2027 07:19:24.805   13 Jun 2027 07:19:31.131             6.326          2317.687
       390   13 Jun 2027 08:48:56.435   13 Jun 2027 08:49:06.017             9.582          3751.688
       391   13 Jun 2027 08:51:36.815   13 Jun 2027 08:51:40.722             3.907          1455.156
       392   13 Jun 2027 08:53:04.395   13 Jun 2027 08:53:12.313             7.918          2479.219
       393   13 Jun 2027 08:54:12.799   13 Jun 2027 08:54:17.244             4.445          1080.906
       394   13 Jun 2027 08:54:43.583   13 Jun 2027 08:54:45.432             1.849           337.406
       395   13 Jun 2027 08:55:12.587   13 Jun 2027 08:55:16.026             3.439           703.125
       396   13 Jun 2027 08:55:43.258   13 Jun 2027 08:55:45.354             2.096            16.844
       397   13 Jun 2027 08:56:05.602   13 Jun 2027 08:56:09.174             3.572           616.656
       398   13 Jun 2027 10:25:58.486   13 Jun 2027 10:26:15.252            16.766          6906.687
       399   13 Jun 2027 10:28:45.764   13 Jun 2027 10:28:46.512             0.748           204.375
       400   13 Jun 2027 10:30:01.779   13 Jun 2027 10:30:05.537             3.758           766.406
       401   13 Jun 2027 10:30:30.174   13 Jun 2027 10:30:31.047             0.873           163.719
       402   13 Jun 2027 10:30:58.335   13 Jun 2027 10:31:03.528             5.193           659.844
       403   13 Jun 2027 10:31:58.033   13 Jun 2027 10:32:00.718             2.685           134.469
