uniorb/output/strategy_4/Camera/Camera_KinoSat_111305.txt

KinoSat_111305
-------------------------
    Access    *     Start Time (UTCG)     *     Stop Time (UTCG)  *   Duration (s) *   Data (Mbytes)
         1   01 Jun 2027 03:27:29.954   01 Jun 2027 03:29:41.953           131.999         65999.500
         2   01 Jun 2027 03:30:47.189   01 Jun 2027 03:31:00.066            12.877          6438.500
         3   01 Jun 2027 04:51:36.975   01 Jun 2027 04:52:21.077            44.102         22051.000
         4   01 Jun 2027 04:52:29.845   01 Jun 2027 04:52:45.246            15.401          7700.500
         5   01 Jun 2027 06:25:23.993   01 Jun 2027 06:26:58.713            94.720         47360.000
         6   01 Jun 2027 06:27:04.081   01 Jun 2027 06:27:07.214             3.133          1566.500
         7   01 Jun 2027 06:27:44.772   01 Jun 2027 06:27:50.718             5.946          2973.000
         8   01 Jun 2027 06:29:23.636   01 Jun 2027 06:29:37.673            14.037          7018.500
         9   01 Jun 2027 08:00:16.193   01 Jun 2027 08:02:12.513           116.320         58160.000
        10   01 Jun 2027 08:05:22.596   01 Jun 2027 08:06:04.357            41.761         20880.500
        11   01 Jun 2027 08:09:15.236   01 Jun 2027 08:09:16.662             1.426           713.000
        12   01 Jun 2027 09:38:25.949   01 Jun 2027 09:39:04.702            38.753         19376.500
        13   01 Jun 2027 09:39:20.672   01 Jun 2027 09:40:28.386            67.714         33857.000
        14   01 Jun 2027 09:42:32.701   01 Jun 2027 09:42:32.701             0.000             0.000
        15   01 Jun 2027 09:42:53.739   01 Jun 2027 09:43:15.036            21.297         10648.500
        16   01 Jun 2027 09:43:35.876   01 Jun 2027 09:44:08.198            32.322         16161.000
        17   01 Jun 2027 09:44:24.190   01 Jun 2027 09:44:52.488            28.298         14149.000
        18   01 Jun 2027 09:45:28.258   01 Jun 2027 09:45:32.645             4.387          2193.500
        19   01 Jun 2027 11:15:20.798   01 Jun 2027 11:17:52.906           152.108         76054.000
        20   01 Jun 2027 11:18:59.626   01 Jun 2027 11:19:02.985             3.359          1679.500
        21   01 Jun 2027 11:19:27.711   01 Jun 2027 11:19:31.559             3.848          1924.000
        22   01 Jun 2027 11:21:42.168   01 Jun 2027 11:21:43.886             1.718           859.000
        23   02 Jun 2027 03:40:06.664   02 Jun 2027 03:41:03.572            56.908         28454.000
        24   02 Jun 2027 03:41:33.157   02 Jun 2027 03:42:56.521            83.364         41682.000
        25   02 Jun 2027 03:43:24.374   02 Jun 2027 03:43:47.298            22.924         11462.000
        26   02 Jun 2027 05:03:31.887   02 Jun 2027 05:04:17.342            45.455         22727.500
        27   02 Jun 2027 05:05:07.881   02 Jun 2027 05:05:07.881             0.000             0.000
        28   02 Jun 2027 06:39:48.164   02 Jun 2027 06:43:19.467           211.303        105651.500
        29   02 Jun 2027 08:13:20.060   02 Jun 2027 08:16:18.754           178.694         89347.000
        30   02 Jun 2027 08:17:54.487   02 Jun 2027 08:18:15.725            21.238         10619.000
        31   02 Jun 2027 08:18:35.997   02 Jun 2027 08:18:56.985            20.988         10494.000
        32   02 Jun 2027 08:20:49.190   02 Jun 2027 08:21:16.985            27.795         13897.500
        33   02 Jun 2027 08:21:51.539   02 Jun 2027 08:21:52.966             1.427           713.500
        34   02 Jun 2027 09:50:52.482   02 Jun 2027 09:51:18.920            26.438         12124.281
        35   02 Jun 2027 09:54:33.374   02 Jun 2027 09:54:39.370             5.996          2832.375
        36   02 Jun 2027 09:55:49.554   02 Jun 2027 09:55:51.879             2.325           400.531
        37   02 Jun 2027 09:56:38.022   02 Jun 2027 09:56:41.567             3.545          1203.750
        38   02 Jun 2027 09:57:07.902   02 Jun 2027 09:57:08.893             0.991           170.844
        39   02 Jun 2027 09:57:31.115   02 Jun 2027 09:57:34.317             3.202           694.438
        40   02 Jun 2027 11:27:47.714   02 Jun 2027 11:27:59.648            11.934          5457.906
        41   02 Jun 2027 11:29:46.411   02 Jun 2027 11:29:49.684             3.273          1544.469
        42   02 Jun 2027 11:30:11.982   02 Jun 2027 11:30:15.388             3.406           690.438
        43   02 Jun 2027 11:31:14.136   02 Jun 2027 11:31:18.015             3.879          1458.875
        44   02 Jun 2027 11:31:52.419   02 Jun 2027 11:31:58.464             6.045           676.844
        45   02 Jun 2027 11:33:14.575   02 Jun 2027 11:33:22.549             7.974          2115.188
        46   03 Jun 2027 03:51:45.326   03 Jun 2027 03:53:29.685           104.359         52179.500
        47   03 Jun 2027 03:54:21.532   03 Jun 2027 03:54:51.739            30.207         15103.500
        48   03 Jun 2027 05:15:23.652   03 Jun 2027 05:16:26.507            62.855         31427.500
        49   03 Jun 2027 06:51:51.808   03 Jun 2027 06:54:00.739           128.931         63828.219
        50   03 Jun 2027 06:54:28.189   03 Jun 2027 06:54:28.189             0.000             0.000
        51   03 Jun 2027 06:54:31.308   03 Jun 2027 06:54:33.730             2.422           767.937
        52   03 Jun 2027 08:25:59.736   03 Jun 2027 08:26:06.127             6.391          2826.188
        53   03 Jun 2027 08:27:36.434   03 Jun 2027 08:27:40.169             3.735          1758.156
        54   03 Jun 2027 08:27:52.183   03 Jun 2027 08:27:53.054             0.871           214.875
        55   03 Jun 2027 08:28:05.723   03 Jun 2027 08:28:06.130             0.407           129.438
        56   03 Jun 2027 08:28:44.850   03 Jun 2027 08:28:47.298             2.448          1210.000
        57   03 Jun 2027 08:30:13.878   03 Jun 2027 08:30:17.588             3.710          1638.719
        58   03 Jun 2027 08:30:38.826   03 Jun 2027 08:30:40.405             1.579           650.063
        59   03 Jun 2027 08:31:13.922   03 Jun 2027 08:31:15.260             1.338           429.469
        60   03 Jun 2027 08:31:51.968   03 Jun 2027 08:31:53.201             1.233           423.625
        61   03 Jun 2027 08:32:49.694   03 Jun 2027 08:32:55.751             6.057           575.469
        62   03 Jun 2027 08:33:31.375   03 Jun 2027 08:33:33.789             2.414           535.687
        63   03 Jun 2027 08:33:37.037   03 Jun 2027 08:33:40.664             3.627            59.094
        64   03 Jun 2027 10:02:58.315   03 Jun 2027 10:03:12.983            14.668          6265.969
        65   03 Jun 2027 10:05:36.685   03 Jun 2027 10:05:39.783             3.098           996.344
        66   03 Jun 2027 10:05:50.712   03 Jun 2027 10:05:53.907             3.195           159.188
        67   03 Jun 2027 10:06:02.217   03 Jun 2027 10:06:04.784             2.567           259.688
        68   03 Jun 2027 10:06:39.027   03 Jun 2027 10:06:43.386             4.359           906.594
        69   03 Jun 2027 10:07:16.519   03 Jun 2027 10:07:18.159             1.640           599.437
        70   03 Jun 2027 10:07:51.745   03 Jun 2027 10:07:57.044             5.299           826.906
        71   03 Jun 2027 10:08:05.820   03 Jun 2027 10:08:07.713             1.893           178.250
        72   03 Jun 2027 10:08:50.658   03 Jun 2027 10:08:55.180             4.522           289.531
        73   03 Jun 2027 10:09:11.798   03 Jun 2027 10:09:13.144             1.346           519.312
        74   03 Jun 2027 11:40:34.542   03 Jun 2027 11:40:46.900            12.358          5747.656
        75   03 Jun 2027 11:41:05.346   03 Jun 2027 11:41:14.086             8.740           486.500
        76   03 Jun 2027 11:42:17.231   03 Jun 2027 11:42:21.151             3.920          1034.156
        77   03 Jun 2027 11:43:01.922   03 Jun 2027 11:43:06.085             4.163           596.000
        78   03 Jun 2027 11:43:26.867   03 Jun 2027 11:43:30.388             3.521           433.812
        79   03 Jun 2027 11:44:00.903   03 Jun 2027 11:44:03.274             2.371           953.594
        80   03 Jun 2027 11:45:01.529   03 Jun 2027 11:45:05.152             3.623          1604.781
        81   04 Jun 2027 04:04:13.245   04 Jun 2027 04:04:35.813            22.568         11284.000
        82   04 Jun 2027 04:04:58.524   04 Jun 2027 04:07:48.582           170.058         85029.000
        83   04 Jun 2027 05:27:32.307   04 Jun 2027 05:28:29.039            56.732         28366.000
        84   04 Jun 2027 05:30:26.548   04 Jun 2027 05:30:26.548             0.000             0.000
        85   04 Jun 2027 07:04:02.477   04 Jun 2027 07:05:31.914            89.437         40243.875
        86   04 Jun 2027 07:05:36.361   04 Jun 2027 07:05:37.452             1.091           138.969
        87   04 Jun 2027 07:05:59.194   04 Jun 2027 07:06:01.547             2.353           292.250
        88   04 Jun 2027 07:06:29.968   04 Jun 2027 07:06:33.966             3.998           768.813
        89   04 Jun 2027 08:39:12.730   04 Jun 2027 08:39:21.532             8.802          4063.250
        90   04 Jun 2027 08:39:35.322   04 Jun 2027 08:39:37.267             1.945           140.344
        91   04 Jun 2027 08:40:46.219   04 Jun 2027 08:40:50.539             4.320           388.969
        92   04 Jun 2027 08:42:11.064   04 Jun 2027 08:42:16.485             5.421          1221.844
        93   04 Jun 2027 08:42:41.457   04 Jun 2027 08:42:42.737             1.280           126.250
        94   04 Jun 2027 08:44:29.632   04 Jun 2027 08:44:39.577             9.945          2359.125
        95   04 Jun 2027 08:45:11.184   04 Jun 2027 08:45:13.387             2.203           951.750
        96   04 Jun 2027 08:45:25.575   04 Jun 2027 08:45:26.791             1.216           162.187
        97   04 Jun 2027 10:15:34.561   04 Jun 2027 10:15:46.566            12.005          5239.875
        98   04 Jun 2027 10:18:48.523   04 Jun 2027 10:18:51.909             3.386          1065.938
        99   04 Jun 2027 10:19:45.292   04 Jun 2027 10:19:47.274             1.982           404.875
       100   04 Jun 2027 10:20:52.419   04 Jun 2027 10:20:56.629             4.210          1285.344
       101   04 Jun 2027 10:21:16.127   04 Jun 2027 10:21:16.997             0.870           283.719
       102   04 Jun 2027 10:21:20.044   04 Jun 2027 10:21:21.758             1.714            95.219
       103   04 Jun 2027 10:21:36.226   04 Jun 2027 10:21:39.990             3.764           200.562
       104   04 Jun 2027 11:52:52.949   04 Jun 2027 11:53:12.033            19.084          8638.937
       105   04 Jun 2027 11:53:36.278   04 Jun 2027 11:53:37.841             1.563           592.094
       106   04 Jun 2027 11:54:21.686   04 Jun 2027 11:54:26.874             5.188          1366.344
       107   04 Jun 2027 11:54:40.855   04 Jun 2027 11:54:41.733             0.878             7.562
       108   04 Jun 2027 11:56:08.764   04 Jun 2027 11:56:15.032             6.268          2195.125
       109   04 Jun 2027 11:57:00.930   04 Jun 2027 11:57:05.212             4.282          1163.469
       110   05 Jun 2027 04:16:06.829   05 Jun 2027 04:16:43.807            36.978         18489.000
       111   05 Jun 2027 04:17:32.220   05 Jun 2027 04:19:07.391            95.171         47585.500
       112   05 Jun 2027 04:19:35.172   05 Jun 2027 04:19:39.757             4.585          2292.500
       113   05 Jun 2027 05:40:12.460   05 Jun 2027 05:41:00.714            48.254         24127.000
       114   05 Jun 2027 05:42:29.516   05 Jun 2027 05:42:31.831             2.315          1157.500
       115   05 Jun 2027 07:15:58.086   05 Jun 2027 07:18:10.589           132.503         66251.500
       116   05 Jun 2027 07:18:38.036   05 Jun 2027 07:18:38.709             0.673           336.500
       117   05 Jun 2027 07:19:06.956   05 Jun 2027 07:19:06.956             0.000             0.000
       118   05 Jun 2027 07:19:23.756   05 Jun 2027 07:19:29.311             5.555          2501.375
       119   05 Jun 2027 08:50:55.633   05 Jun 2027 08:51:00.930             5.297          2126.687
       120   05 Jun 2027 08:51:27.550   05 Jun 2027 08:51:29.721             2.171           180.344
       121   05 Jun 2027 08:52:19.780   05 Jun 2027 08:52:22.479             2.699           287.312
       122   05 Jun 2027 08:52:49.385   05 Jun 2027 08:52:51.200             1.815           646.875
       123   05 Jun 2027 08:53:45.416   05 Jun 2027 08:53:49.016             3.600           700.031
       124   05 Jun 2027 08:54:07.050   05 Jun 2027 08:54:07.735             0.685           190.781
       125   05 Jun 2027 08:55:27.414   05 Jun 2027 08:55:31.359             3.945          1788.969
       126   05 Jun 2027 08:56:05.309   05 Jun 2027 08:56:09.386             4.077           742.375
       127   05 Jun 2027 08:56:32.553   05 Jun 2027 08:56:37.442             4.889           458.187
       128   05 Jun 2027 08:57:53.388   05 Jun 2027 08:57:56.487             3.099          1549.500
       129   05 Jun 2027 10:27:07.794   05 Jun 2027 10:27:21.945            14.151          5628.906
       130   05 Jun 2027 10:30:04.324   05 Jun 2027 10:30:08.063             3.739           673.531
       131   05 Jun 2027 10:30:15.528   05 Jun 2027 10:30:18.095             2.567            25.406
       132   05 Jun 2027 10:31:37.197   05 Jun 2027 10:31:43.104             5.907          2024.187
       133   05 Jun 2027 10:32:32.251   05 Jun 2027 10:32:38.218             5.967          1535.844
       134   05 Jun 2027 10:32:49.020   05 Jun 2027 10:32:49.323             0.303           125.969
       135   06 Jun 2027 04:16:59.902   06 Jun 2027 04:17:29.295            29.393         14696.500
       136   06 Jun 2027 04:28:02.718   06 Jun 2027 04:29:33.199            90.481         45240.500
       137   06 Jun 2027 04:30:12.119   06 Jun 2027 04:30:58.439            46.320         23160.000
       138   06 Jun 2027 05:51:02.161   06 Jun 2027 05:51:49.623            47.462         23731.000
       139   06 Jun 2027 05:53:41.280   06 Jun 2027 05:53:53.491            12.211          6105.500
       140   06 Jun 2027 07:26:34.093   06 Jun 2027 07:26:40.173             6.080          3040.000
       141   06 Jun 2027 07:27:43.762   06 Jun 2027 07:29:21.996            98.234         48420.156
       142   06 Jun 2027 07:29:35.566   06 Jun 2027 07:29:37.336             1.770           329.750
       143   06 Jun 2027 07:30:44.520   06 Jun 2027 07:30:48.981             4.461          1095.156
       144   06 Jun 2027 07:31:54.934   06 Jun 2027 07:32:02.209             7.275          1859.531
       145   06 Jun 2027 07:32:04.240   06 Jun 2027 07:32:04.240             0.000             0.000
       146   06 Jun 2027 09:02:29.346   06 Jun 2027 09:02:31.390             2.044          1022.000
       147   06 Jun 2027 09:02:49.036   06 Jun 2027 09:02:56.520             7.484          1772.656
       148   06 Jun 2027 09:04:47.675   06 Jun 2027 09:04:55.787             8.112          3275.844
       149   06 Jun 2027 09:06:01.964   06 Jun 2027 09:06:02.411             0.447            13.125
       150   06 Jun 2027 09:06:46.019   06 Jun 2027 09:06:49.526             3.507           707.094
       151   06 Jun 2027 09:08:28.267   06 Jun 2027 09:08:32.453             4.186          2066.500
       152   06 Jun 2027 09:08:45.464   06 Jun 2027 09:08:47.201             1.737           406.594
       153   06 Jun 2027 09:09:58.449   06 Jun 2027 09:10:02.674             4.225          2040.125
       154   06 Jun 2027 10:39:29.160   06 Jun 2027 10:39:45.900            16.740          7826.500
       155   06 Jun 2027 10:41:28.816   06 Jun 2027 10:41:31.338             2.522            48.188
       156   06 Jun 2027 10:41:43.969   06 Jun 2027 10:41:44.856             0.887           279.094
       157   06 Jun 2027 10:42:19.583   06 Jun 2027 10:42:24.263             4.680          1079.281
       158   06 Jun 2027 10:43:25.094   06 Jun 2027 10:43:28.052             2.958          1402.781
       159   06 Jun 2027 10:43:47.281   06 Jun 2027 10:43:48.472             1.191           178.875
       160   06 Jun 2027 10:44:19.851   06 Jun 2027 10:44:20.580             0.729           309.969
       161   06 Jun 2027 10:44:24.946   06 Jun 2027 10:44:25.859             0.913             3.625
       162   06 Jun 2027 10:45:34.053   06 Jun 2027 10:45:38.052             3.999          1775.062
       163   07 Jun 2027 03:03:23.415   07 Jun 2027 03:04:09.830            46.415         23207.500
       164   07 Jun 2027 03:06:13.855   07 Jun 2027 03:06:16.104             2.249          1124.500
       165   07 Jun 2027 03:06:44.275   07 Jun 2027 03:06:46.755             2.480          1240.000
       166   07 Jun 2027 03:07:18.162   07 Jun 2027 03:07:18.162             0.000             0.000
       167   07 Jun 2027 03:08:01.255   07 Jun 2027 03:08:08.776             7.521          3760.500
       168   07 Jun 2027 03:08:52.031   07 Jun 2027 03:08:59.245             7.214          3607.000
       169   07 Jun 2027 03:09:07.034   07 Jun 2027 03:09:14.747             7.713          3856.500
       170   07 Jun 2027 03:09:37.191   07 Jun 2027 03:09:40.311             3.120          1560.000
       171   07 Jun 2027 03:10:13.236   07 Jun 2027 03:10:38.071            24.835         12417.500
       172   07 Jun 2027 04:28:22.349   07 Jun 2027 04:28:44.628            22.279         11139.500
       173   07 Jun 2027 04:29:41.043   07 Jun 2027 04:29:41.043             0.000             0.000
       174   07 Jun 2027 04:40:04.129   07 Jun 2027 04:41:24.560            80.431         40215.500
       175   07 Jun 2027 06:02:18.382   07 Jun 2027 06:03:32.988            74.606         37303.000
       176   07 Jun 2027 06:04:18.191   07 Jun 2027 06:04:35.496            17.305          8652.500
       177   07 Jun 2027 06:04:46.575   07 Jun 2027 06:05:08.207            21.632         10816.000
       178   07 Jun 2027 06:06:35.171   07 Jun 2027 06:06:56.336            21.165         10582.500
       179   07 Jun 2027 07:37:26.081   07 Jun 2027 07:37:49.703            23.622          9594.500
       180   07 Jun 2027 07:38:38.516   07 Jun 2027 07:38:43.151             4.635          1470.906
       181   07 Jun 2027 07:38:50.195   07 Jun 2027 07:38:51.605             1.410           159.344
       182   07 Jun 2027 07:41:12.119   07 Jun 2027 07:41:22.541            10.422          4169.031
       183   07 Jun 2027 07:42:33.203   07 Jun 2027 07:42:39.468             6.265          2199.469
       184   07 Jun 2027 07:43:05.532   07 Jun 2027 07:43:10.532             5.000           702.188
       185   07 Jun 2027 07:44:06.043   07 Jun 2027 07:44:12.232             6.189          1734.719
       186   07 Jun 2027 09:14:37.480   07 Jun 2027 09:14:47.283             9.803          2481.031
       187   07 Jun 2027 09:15:28.222   07 Jun 2027 09:15:31.366             3.144          1143.813
       188   07 Jun 2027 09:19:04.255   07 Jun 2027 09:19:12.181             7.926          1669.875
       189   07 Jun 2027 09:19:51.988   07 Jun 2027 09:19:54.349             2.361           747.156
       190   07 Jun 2027 09:21:00.502   07 Jun 2027 09:21:04.667             4.165          1640.188
       191   07 Jun 2027 09:21:18.854   07 Jun 2027 09:21:20.942             2.088           443.344
       192   07 Jun 2027 09:22:00.963   07 Jun 2027 09:22:02.722             1.759           537.719
       193   07 Jun 2027 10:51:34.815   07 Jun 2027 10:51:47.038            12.223          5813.344
       194   07 Jun 2027 10:53:16.123   07 Jun 2027 10:53:16.892             0.769           300.406
       195   07 Jun 2027 10:55:06.208   07 Jun 2027 10:55:12.819             6.611          1234.969
       196   07 Jun 2027 10:55:23.404   07 Jun 2027 10:55:24.374             0.970           330.781
       197   07 Jun 2027 10:55:45.437   07 Jun 2027 10:55:46.231             0.794           324.344
       198   07 Jun 2027 10:56:03.602   07 Jun 2027 10:56:12.742             9.140           434.844
       199   07 Jun 2027 10:57:31.998   07 Jun 2027 10:57:36.659             4.661          2245.406
       200   08 Jun 2027 03:15:41.756   08 Jun 2027 03:17:40.359           118.603         59301.500
       201   08 Jun 2027 03:18:45.474   08 Jun 2027 03:18:48.061             2.587          1293.500
       202   08 Jun 2027 03:18:50.614   08 Jun 2027 03:19:11.963            21.349         10674.500
       203   08 Jun 2027 03:19:20.482   08 Jun 2027 03:19:31.066            10.584          5292.000
       204   08 Jun 2027 03:19:44.298   08 Jun 2027 03:20:20.618            36.320         18160.000
       205   08 Jun 2027 03:21:41.711   08 Jun 2027 03:21:54.551            12.840          6420.000
       206   08 Jun 2027 04:39:48.822   08 Jun 2027 04:40:11.316            22.494         11247.000
       207   08 Jun 2027 04:40:34.058   08 Jun 2027 04:40:45.571            11.513          5756.500
       208   08 Jun 2027 04:52:01.059   08 Jun 2027 04:52:40.466            39.407         19703.500
       209   08 Jun 2027 06:14:03.311   08 Jun 2027 06:15:12.235            68.924         32087.750
       210   08 Jun 2027 06:15:20.444   08 Jun 2027 06:15:20.748             0.304           152.000
       211   08 Jun 2027 06:16:06.568   08 Jun 2027 06:16:08.068             1.500           728.406
       212   08 Jun 2027 06:16:47.156   08 Jun 2027 06:16:47.156             0.000             0.000
       213   08 Jun 2027 06:17:19.607   08 Jun 2027 06:17:29.754            10.147          2068.313
       214   08 Jun 2027 06:18:34.501   08 Jun 2027 06:18:37.809             3.308          1654.000
       215   08 Jun 2027 06:18:39.659   08 Jun 2027 06:18:41.100             1.441           256.094
       216   08 Jun 2027 06:19:09.636   08 Jun 2027 06:19:12.026             2.390           891.750
       217   08 Jun 2027 07:48:55.629   08 Jun 2027 07:49:00.750             5.121          1972.687
       218   08 Jun 2027 07:49:12.687   08 Jun 2027 07:49:13.333             0.646           215.844
       219   08 Jun 2027 07:50:55.940   08 Jun 2027 07:50:55.940             0.000             0.000
       220   08 Jun 2027 07:51:16.906   08 Jun 2027 07:51:19.841             2.935          1225.156
       221   08 Jun 2027 07:52:03.497   08 Jun 2027 07:52:06.307             2.810          1215.406
       222   08 Jun 2027 07:52:23.154   08 Jun 2027 07:52:23.756             0.602           163.125
       223   08 Jun 2027 07:52:56.159   08 Jun 2027 07:53:03.763             7.604           241.625
       224   08 Jun 2027 07:54:27.340   08 Jun 2027 07:54:32.376             5.036          2337.812
       225   08 Jun 2027 07:54:47.880   08 Jun 2027 07:54:50.213             2.333           453.000
       226   08 Jun 2027 07:55:20.928   08 Jun 2027 07:55:21.621             0.693           274.594
       227   08 Jun 2027 07:56:19.506   08 Jun 2027 07:56:22.674             3.168          1563.938
       228   08 Jun 2027 09:26:39.024   08 Jun 2027 09:26:50.988            11.964          4719.938
       229   08 Jun 2027 09:27:32.327   08 Jun 2027 09:27:36.299             3.972          1198.969
       230   08 Jun 2027 09:29:44.130   08 Jun 2027 09:29:49.825             5.695          1788.687
       231   08 Jun 2027 09:30:57.292   08 Jun 2027 09:31:00.310             3.018           588.937
       232   08 Jun 2027 09:32:01.456   08 Jun 2027 09:32:08.028             6.572          1875.938
       233   08 Jun 2027 09:33:19.989   08 Jun 2027 09:33:24.901             4.912          2248.781
       234   08 Jun 2027 09:33:37.388   08 Jun 2027 09:33:39.143             1.755           390.219
       235   08 Jun 2027 09:33:59.334   08 Jun 2027 09:34:01.712             2.378           189.719
       236   08 Jun 2027 11:03:27.212   08 Jun 2027 11:03:28.974             1.762           881.000
       237   08 Jun 2027 11:03:39.949   08 Jun 2027 11:03:56.459            16.510          4683.750
       238   08 Jun 2027 11:05:07.374   08 Jun 2027 11:05:09.838             2.464           960.875
       239   08 Jun 2027 11:07:44.957   08 Jun 2027 11:07:47.868             2.911           509.125
       240   08 Jun 2027 11:08:18.250   08 Jun 2027 11:08:22.183             3.933           919.500
       241   08 Jun 2027 11:08:57.420   08 Jun 2027 11:09:08.678            11.258          1003.969
       242   08 Jun 2027 11:09:34.248   08 Jun 2027 11:09:37.452             3.204           790.312
       243   08 Jun 2027 11:09:59.035   08 Jun 2027 11:10:02.609             3.574           674.469
       244   09 Jun 2027 03:27:46.445   09 Jun 2027 03:30:23.136           156.691         78345.500
       245   09 Jun 2027 03:31:37.689   09 Jun 2027 03:32:22.893            45.204         22602.000
       246   09 Jun 2027 04:51:52.789   09 Jun 2027 04:52:04.481            11.692          5846.000
       247   09 Jun 2027 04:52:36.119   09 Jun 2027 04:52:47.222            11.103          5551.500
       248   09 Jun 2027 06:25:38.862   09 Jun 2027 06:27:10.981            92.119         45332.219
       249   09 Jun 2027 06:27:22.143   09 Jun 2027 06:27:22.944             0.801           212.344
       250   09 Jun 2027 06:27:33.887   09 Jun 2027 06:27:37.618             3.731           341.969
       251   09 Jun 2027 06:28:07.991   09 Jun 2027 06:28:07.991             0.000             0.000
       252   09 Jun 2027 06:28:28.611   09 Jun 2027 06:28:32.580             3.969          1305.937
       253   09 Jun 2027 06:28:53.057   09 Jun 2027 06:28:56.960             3.903           454.438
       254   09 Jun 2027 06:29:37.983   09 Jun 2027 06:29:42.607             4.624           518.500
       255   09 Jun 2027 06:31:17.286   09 Jun 2027 06:31:27.659            10.373          2569.187
       256   09 Jun 2027 08:01:39.666   09 Jun 2027 08:01:52.009            12.343          2032.250
       257   09 Jun 2027 08:02:52.345   09 Jun 2027 08:02:53.357             1.012            14.562
       258   09 Jun 2027 08:03:47.937   09 Jun 2027 08:03:52.686             4.749          1414.281
       259   09 Jun 2027 08:04:11.099   09 Jun 2027 08:04:13.578             2.479           440.531
       260   09 Jun 2027 08:06:20.140   09 Jun 2027 08:06:30.217            10.077          3955.062
       261   09 Jun 2027 08:06:50.987   09 Jun 2027 08:06:53.025             2.038           562.469
       262   09 Jun 2027 08:07:56.520   09 Jun 2027 08:07:59.760             3.240          1342.344
       263   09 Jun 2027 08:08:15.027   09 Jun 2027 08:08:17.675             2.648            72.719
       264   09 Jun 2027 08:09:30.224   09 Jun 2027 08:09:35.718             5.494          1712.094
       265   09 Jun 2027 09:38:42.525   09 Jun 2027 09:38:53.226            10.701          5161.812
       266   09 Jun 2027 09:40:45.389   09 Jun 2027 09:40:50.104             4.715          2072.562
       267   09 Jun 2027 09:42:50.463   09 Jun 2027 09:42:56.400             5.937          2497.875
       268   09 Jun 2027 09:44:09.680   09 Jun 2027 09:44:14.789             5.109            82.781
       269   09 Jun 2027 09:44:37.355   09 Jun 2027 09:44:38.601             1.246           375.875
       270   09 Jun 2027 09:45:17.609   09 Jun 2027 09:45:22.069             4.460           356.781
       271   09 Jun 2027 09:45:37.472   09 Jun 2027 09:45:39.465             1.993            29.906
       272   09 Jun 2027 11:15:37.408   09 Jun 2027 11:15:56.875            19.467          7664.125
       273   09 Jun 2027 11:16:10.347   09 Jun 2027 11:16:11.328             0.981           421.000
       274   09 Jun 2027 11:18:24.186   09 Jun 2027 11:18:25.702             1.516           442.844
       275   09 Jun 2027 11:19:28.903   09 Jun 2027 11:19:32.483             3.580          1725.437
       276   09 Jun 2027 11:19:49.390   09 Jun 2027 11:19:51.708             2.318           518.156
       277   09 Jun 2027 11:20:19.213   09 Jun 2027 11:20:24.831             5.618           859.531
       278   09 Jun 2027 11:21:04.437   09 Jun 2027 11:21:07.108             2.671          1176.531
       279   09 Jun 2027 11:21:39.038   09 Jun 2027 11:21:50.416            11.378           997.812
       280   10 Jun 2027 03:40:22.829   10 Jun 2027 03:43:48.457           205.628        102814.000
       281   10 Jun 2027 03:44:50.476   10 Jun 2027 03:45:03.544            13.068          6534.000
       282   10 Jun 2027 05:03:47.662   10 Jun 2027 05:04:32.465            44.803         22401.500
       283   10 Jun 2027 06:40:07.200   10 Jun 2027 06:41:04.792            57.592         27461.875
       284   10 Jun 2027 06:41:34.072   10 Jun 2027 06:41:41.189             7.117           590.063
       285   10 Jun 2027 06:42:57.809   10 Jun 2027 06:43:04.308             6.499          1684.875
       286   10 Jun 2027 08:13:37.222   10 Jun 2027 08:13:47.199             9.977          2434.469
       287   10 Jun 2027 08:14:55.184   10 Jun 2027 08:14:55.392             0.208            76.063
       288   10 Jun 2027 08:16:01.208   10 Jun 2027 08:16:02.993             1.785           864.625
       289   10 Jun 2027 08:16:08.184   10 Jun 2027 08:16:10.569             2.385           127.875
       290   10 Jun 2027 08:17:02.036   10 Jun 2027 08:17:11.890             9.854            50.187
       291   10 Jun 2027 08:18:10.082   10 Jun 2027 08:18:15.431             5.349          1818.500
       292   10 Jun 2027 08:18:53.955   10 Jun 2027 08:18:56.339             2.384           688.969
       293   10 Jun 2027 08:20:27.005   10 Jun 2027 08:20:32.020             5.015          2257.781
       294   10 Jun 2027 08:20:45.561   10 Jun 2027 08:20:46.301             0.740           270.062
       295   10 Jun 2027 08:20:53.956   10 Jun 2027 08:20:55.712             1.756           154.281
       296   10 Jun 2027 08:21:34.351   10 Jun 2027 08:21:38.043             3.692          1067.469
       297   10 Jun 2027 08:22:07.321   10 Jun 2027 08:22:07.602             0.281           116.156
       298   10 Jun 2027 09:51:08.414   10 Jun 2027 09:51:24.507            16.093          5120.906
       299   10 Jun 2027 09:54:42.736   10 Jun 2027 09:54:48.040             5.304          2252.031
       300   10 Jun 2027 09:55:48.519   10 Jun 2027 09:55:49.267             0.748           340.188
       301   10 Jun 2027 09:56:04.893   10 Jun 2027 09:56:05.891             0.998           448.750
       302   10 Jun 2027 09:56:52.303   10 Jun 2027 09:56:56.814             4.511          1107.781
       303   10 Jun 2027 09:57:25.859   10 Jun 2027 09:57:28.541             2.682            88.406
       304   10 Jun 2027 11:28:04.885   10 Jun 2027 11:28:26.164            21.279          6804.969
       305   10 Jun 2027 11:30:30.178   10 Jun 2027 11:30:32.218             2.040           758.969
       306   10 Jun 2027 11:31:08.845   10 Jun 2027 11:31:09.984             1.139            27.594
       307   10 Jun 2027 11:31:31.510   10 Jun 2027 11:31:32.693             1.183           493.281
       308   10 Jun 2027 11:32:09.107   10 Jun 2027 11:32:13.333             4.226           639.969
       309   10 Jun 2027 11:33:29.891   10 Jun 2027 11:33:34.555             4.664          2086.719
       310   11 Jun 2027 03:52:01.370   11 Jun 2027 03:55:42.360           220.990        110495.000
       311   11 Jun 2027 05:15:47.213   11 Jun 2027 05:16:42.318            55.105         27552.500
       312   11 Jun 2027 06:52:09.512   11 Jun 2027 06:53:03.208            53.696         26523.281
       313   11 Jun 2027 06:53:24.737   11 Jun 2027 06:53:28.879             4.142           547.531
       314   11 Jun 2027 06:53:48.410   11 Jun 2027 06:53:48.918             0.508            84.000
       315   11 Jun 2027 06:54:44.568   11 Jun 2027 06:54:48.389             3.821          1093.156
       316   11 Jun 2027 06:55:11.870   11 Jun 2027 06:55:11.870             0.000             0.000
       317   11 Jun 2027 08:26:16.955   11 Jun 2027 08:26:27.433            10.478          3012.031
       318   11 Jun 2027 08:26:58.393   11 Jun 2027 08:27:00.906             2.513           180.781
       319   11 Jun 2027 08:27:20.799   11 Jun 2027 08:27:22.049             1.250           311.594
       320   11 Jun 2027 08:28:16.728   11 Jun 2027 08:28:18.649             1.921           680.594
       321   11 Jun 2027 08:29:38.942   11 Jun 2027 08:29:46.888             7.946          2356.813
       322   11 Jun 2027 08:30:36.786   11 Jun 2027 08:30:38.571             1.785           211.563
       323   11 Jun 2027 08:31:14.968   11 Jun 2027 08:31:19.408             4.440           568.937
       324   11 Jun 2027 08:32:46.279   11 Jun 2027 08:32:51.629             5.350          2343.594
       325   11 Jun 2027 08:33:26.904   11 Jun 2027 08:33:29.424             2.520           679.187
       326   11 Jun 2027 08:33:35.364   11 Jun 2027 08:33:36.031             0.667           185.625
       327   11 Jun 2027 10:03:14.971   11 Jun 2027 10:03:29.613            14.642          4858.188
       328   11 Jun 2027 10:05:16.414   11 Jun 2027 10:05:22.769             6.355          1606.406
       329   11 Jun 2027 10:05:42.358   11 Jun 2027 10:05:45.461             3.103           323.469
       330   11 Jun 2027 10:06:06.721   11 Jun 2027 10:06:08.292             1.571           164.625
       331   11 Jun 2027 10:06:16.816   11 Jun 2027 10:06:19.228             2.412           241.219
       332   11 Jun 2027 10:06:55.194   11 Jun 2027 10:06:58.064             2.870           898.531
       333   11 Jun 2027 10:07:41.904   11 Jun 2027 10:07:43.548             1.644           316.813
       334   11 Jun 2027 10:08:01.489   11 Jun 2027 10:08:06.095             4.606           560.656
       335   11 Jun 2027 10:08:23.108   11 Jun 2027 10:08:26.969             3.861           282.687
       336   11 Jun 2027 10:09:05.738   11 Jun 2027 10:09:10.513             4.775           282.219
       337   11 Jun 2027 10:09:29.306   11 Jun 2027 10:09:32.958             3.652           587.281
       338   11 Jun 2027 11:40:55.587   11 Jun 2027 11:41:05.529             9.942          4862.812
       339   11 Jun 2027 11:42:35.353   11 Jun 2027 11:42:38.296             2.943          1103.688
       340   11 Jun 2027 11:44:26.984   11 Jun 2027 11:44:32.594             5.610          2182.656
       341   11 Jun 2027 11:45:21.195   11 Jun 2027 11:45:22.514             1.319           659.500
       342   12 Jun 2027 04:04:28.336   12 Jun 2027 04:04:52.632            24.296         12148.000
       343   12 Jun 2027 04:05:14.617   12 Jun 2027 04:07:03.058           108.441         54220.500
       344   12 Jun 2027 04:07:44.228   12 Jun 2027 04:08:01.064            16.836          8418.000
       345   12 Jun 2027 05:27:48.105   12 Jun 2027 05:28:44.840            56.735         28367.500
       346   12 Jun 2027 05:28:54.701   12 Jun 2027 05:29:03.859             9.158          4579.000
       347   12 Jun 2027 07:04:18.897   12 Jun 2027 07:06:04.790           105.893         51634.813
       348   12 Jun 2027 07:06:13.982   12 Jun 2027 07:06:17.621             3.639           252.594
       349   12 Jun 2027 07:06:46.331   12 Jun 2027 07:06:48.766             2.435           785.344
       350   12 Jun 2027 07:07:17.653   12 Jun 2027 07:07:17.653             0.000             0.000
       351   12 Jun 2027 08:39:28.871   12 Jun 2027 08:39:35.752             6.881          2857.344
       352   12 Jun 2027 08:40:46.498   12 Jun 2027 08:40:51.240             4.742          1823.969
       353   12 Jun 2027 08:41:03.466   12 Jun 2027 08:41:05.192             1.726           382.062
       354   12 Jun 2027 08:42:51.888   12 Jun 2027 08:42:57.777             5.889           773.594
       355   12 Jun 2027 08:43:31.705   12 Jun 2027 08:43:34.739             3.034          1010.312
       356   12 Jun 2027 08:44:56.011   12 Jun 2027 08:44:58.642             2.631          1179.313
       357   12 Jun 2027 08:46:03.794   12 Jun 2027 08:46:05.719             1.925           962.500
       358   12 Jun 2027 10:15:51.197   12 Jun 2027 10:16:01.784            10.587          5156.375
       359   12 Jun 2027 10:18:03.684   12 Jun 2027 10:18:07.868             4.184           892.656
       360   12 Jun 2027 10:18:29.839   12 Jun 2027 10:18:33.341             3.502           173.531
       361   12 Jun 2027 10:18:56.971   12 Jun 2027 10:18:58.712             1.741           728.375
       362   12 Jun 2027 10:19:01.018   12 Jun 2027 10:19:02.264             1.246            72.062
       363   12 Jun 2027 10:19:48.900   12 Jun 2027 10:19:55.839             6.939          1434.031
       364   12 Jun 2027 10:20:28.516   12 Jun 2027 10:20:32.973             4.457          1003.813
       365   12 Jun 2027 10:21:11.984   12 Jun 2027 10:21:14.022             2.038           105.406
       366   12 Jun 2027 10:21:31.240   12 Jun 2027 10:21:32.488             1.248           263.344
       367   12 Jun 2027 10:21:48.279   12 Jun 2027 10:21:50.817             2.538           337.500
       368   12 Jun 2027 11:53:07.349   12 Jun 2027 11:53:21.282            13.933          5383.156
       369   12 Jun 2027 11:53:52.044   12 Jun 2027 11:53:54.267             2.223           527.719
       370   12 Jun 2027 11:54:57.284   12 Jun 2027 11:55:05.516             8.232            34.563
       371   12 Jun 2027 11:56:25.488   12 Jun 2027 11:56:30.053             4.565          2172.094
       372   12 Jun 2027 11:57:17.388   12 Jun 2027 11:57:20.424             3.036          1161.594
       373   13 Jun 2027 04:16:22.405   13 Jun 2027 04:16:59.965            37.560         18780.000
       374   13 Jun 2027 04:17:29.974   13 Jun 2027 04:18:14.745            44.771         22385.500
       375   13 Jun 2027 04:18:37.346   13 Jun 2027 04:19:31.825            54.479         27239.500
       376   13 Jun 2027 05:40:28.099   13 Jun 2027 05:41:31.553            63.454         31727.000
       377   13 Jun 2027 07:16:13.561   13 Jun 2027 07:18:20.576           127.015         63142.594
       378   13 Jun 2027 07:19:26.115   13 Jun 2027 07:19:31.131             5.016          1854.875
       379   13 Jun 2027 08:51:10.873   13 Jun 2027 08:51:20.118             9.245          2893.687
       380   13 Jun 2027 08:51:45.060   13 Jun 2027 08:51:51.448             6.388           257.656
       381   13 Jun 2027 08:52:43.786   13 Jun 2027 08:52:52.156             8.370           296.344
       382   13 Jun 2027 08:54:12.799   13 Jun 2027 08:54:17.244             4.445          2126.469
       383   13 Jun 2027 08:55:01.757   13 Jun 2027 08:55:05.554             3.797          1209.656
       384   13 Jun 2027 08:56:46.108   13 Jun 2027 08:56:52.002             5.894          2233.750
       385   13 Jun 2027 08:58:09.632   13 Jun 2027 08:58:13.011             3.379          1689.500
       386   13 Jun 2027 10:27:23.481   13 Jun 2027 10:27:34.067            10.586          5165.594
       387   13 Jun 2027 10:28:45.764   13 Jun 2027 10:28:46.512             0.748           204.375
       388   13 Jun 2027 10:30:01.779   13 Jun 2027 10:30:05.537             3.758           766.406
       389   13 Jun 2027 10:30:29.445   13 Jun 2027 10:30:30.174             0.729           305.469
       390   13 Jun 2027 10:31:10.331   13 Jun 2027 10:31:12.921             2.590          1254.906
       391   13 Jun 2027 10:32:06.498   13 Jun 2027 10:32:07.767             1.269           532.219
       392   13 Jun 2027 10:32:45.614   13 Jun 2027 10:32:47.829             2.215           390.188
       393   13 Jun 2027 10:33:04.161   13 Jun 2027 10:33:05.297             1.136           158.344
