uniorb/output/strategy_4/Camera/Camera_KinoSat_110710.txt

KinoSat_110710
-------------------------
    Access    *     Start Time (UTCG)     *     Stop Time (UTCG)  *   Duration (s) *   Data (Mbytes)
         1   01 Jun 2027 04:27:46.414   01 Jun 2027 04:29:53.992           127.578         63789.000
         2   01 Jun 2027 04:30:43.239   01 Jun 2027 04:30:43.239             0.000             0.000
         3   01 Jun 2027 04:30:57.673   01 Jun 2027 04:31:14.438            16.765          8382.500
         4   01 Jun 2027 06:02:44.381   01 Jun 2027 06:04:47.911           123.530         61765.000
         5   01 Jun 2027 06:05:11.626   01 Jun 2027 06:05:15.318             3.692          1846.000
         6   01 Jun 2027 06:08:58.300   01 Jun 2027 06:09:11.145            12.845          6422.500
         7   01 Jun 2027 06:09:43.925   01 Jun 2027 06:09:43.925             0.000             0.000
         8   01 Jun 2027 07:38:56.205   01 Jun 2027 07:41:25.005           148.800         74400.000
         9   01 Jun 2027 07:43:56.831   01 Jun 2027 07:44:07.434            10.603          5301.500
        10   01 Jun 2027 07:44:31.976   01 Jun 2027 07:44:44.984            13.008          6504.000
        11   01 Jun 2027 07:44:51.484   01 Jun 2027 07:44:55.886             4.402          2201.000
        12   01 Jun 2027 09:16:56.218   01 Jun 2027 09:20:16.885           200.667        100333.500
        13   01 Jun 2027 09:20:39.329   01 Jun 2027 09:20:39.329             0.000             0.000
        14   01 Jun 2027 10:52:37.845   01 Jun 2027 10:55:32.413           174.568         87284.000
        15   02 Jun 2027 03:03:08.520   02 Jun 2027 03:03:18.374             9.854          4927.000
        16   02 Jun 2027 03:03:29.190   02 Jun 2027 03:03:33.309             4.119          2059.500
        17   02 Jun 2027 03:03:51.792   02 Jun 2027 03:03:51.792             0.000             0.000
        18   02 Jun 2027 03:05:30.345   02 Jun 2027 03:05:38.710             8.365          4182.500
        19   02 Jun 2027 04:38:22.554   02 Jun 2027 04:38:28.110             5.556          2778.000
        20   02 Jun 2027 04:39:31.880   02 Jun 2027 04:41:34.052           122.172         61086.000
        21   02 Jun 2027 04:43:04.181   02 Jun 2027 04:43:18.882            14.701          7350.500
        22   02 Jun 2027 04:43:25.100   02 Jun 2027 04:43:27.490             2.390          1195.000
        23   02 Jun 2027 06:14:17.973   02 Jun 2027 06:17:50.767           212.794        106397.000
        24   02 Jun 2027 06:19:49.837   02 Jun 2027 06:19:58.281             8.444          4222.000
        25   02 Jun 2027 06:20:30.473   02 Jun 2027 06:20:58.654            28.181         14090.500
        26   02 Jun 2027 06:21:46.724   02 Jun 2027 06:21:50.733             4.009          2004.500
        27   02 Jun 2027 07:51:10.808   02 Jun 2027 07:54:54.183           223.375        111687.500
        28   02 Jun 2027 07:56:29.858   02 Jun 2027 07:57:13.170            43.312         20858.187
        29   02 Jun 2027 09:29:18.044   02 Jun 2027 09:29:43.308            25.264         12544.344
        30   02 Jun 2027 09:31:04.366   02 Jun 2027 09:31:07.559             3.193          1393.500
        31   02 Jun 2027 09:32:07.370   02 Jun 2027 09:32:10.051             2.681           509.094
        32   02 Jun 2027 09:32:37.248   02 Jun 2027 09:32:39.126             1.878           725.000
        33   02 Jun 2027 09:32:54.706   02 Jun 2027 09:32:55.588             0.882           288.781
        34   02 Jun 2027 11:02:33.885   02 Jun 2027 11:02:48.004            14.119          5891.250
        35   03 Jun 2027 03:14:06.629   03 Jun 2027 03:14:32.447            25.818         12909.000
        36   03 Jun 2027 03:16:08.113   03 Jun 2027 03:16:08.113             0.000             0.000
        37   03 Jun 2027 04:49:17.074   03 Jun 2027 04:50:42.377            85.303         42651.500
        38   03 Jun 2027 04:51:15.476   03 Jun 2027 04:53:22.353           126.877         63438.500
        39   03 Jun 2027 04:56:07.572   03 Jun 2027 04:56:11.351             3.779          1889.500
        40   03 Jun 2027 06:26:25.047   03 Jun 2027 06:27:46.257            81.210         39298.125
        41   03 Jun 2027 06:28:56.067   03 Jun 2027 06:29:01.015             4.948           413.531
        42   03 Jun 2027 06:29:21.217   03 Jun 2027 06:29:25.408             4.191           600.625
        43   03 Jun 2027 06:31:17.459   03 Jun 2027 06:31:29.164            11.705          2532.187
        44   03 Jun 2027 06:32:06.887   03 Jun 2027 06:32:06.887             0.000             0.000
        45   03 Jun 2027 06:32:43.694   03 Jun 2027 06:32:48.464             4.770          2329.063
        46   03 Jun 2027 08:03:22.717   03 Jun 2027 08:03:23.580             0.863           395.094
        47   03 Jun 2027 08:04:36.981   03 Jun 2027 08:04:39.141             2.160           554.188
        48   03 Jun 2027 08:05:49.259   03 Jun 2027 08:05:56.571             7.312           371.500
        49   03 Jun 2027 08:07:07.540   03 Jun 2027 08:07:08.012             0.472           132.156
        50   03 Jun 2027 08:07:35.397   03 Jun 2027 08:07:37.430             2.033           777.031
        51   03 Jun 2027 08:08:31.054   03 Jun 2027 08:08:35.707             4.653          1646.125
        52   03 Jun 2027 08:08:55.536   03 Jun 2027 08:08:57.536             2.000           433.437
        53   03 Jun 2027 09:41:15.803   03 Jun 2027 09:41:28.355            12.552          5474.156
        54   03 Jun 2027 09:42:25.739   03 Jun 2027 09:42:28.194             2.455             2.125
        55   03 Jun 2027 09:44:09.615   03 Jun 2027 09:44:10.764             1.149           437.375
        56   03 Jun 2027 09:44:38.877   03 Jun 2027 09:44:40.609             1.732            46.438
        57   03 Jun 2027 09:44:56.579   03 Jun 2027 09:45:01.862             5.283           355.469
        58   03 Jun 2027 11:14:42.548   03 Jun 2027 11:14:49.355             6.807          1782.562
        59   04 Jun 2027 03:25:51.512   04 Jun 2027 03:26:11.407            19.895          9947.500
        60   04 Jun 2027 05:00:44.391   04 Jun 2027 05:04:39.981           235.590        117795.000
        61   04 Jun 2027 05:08:10.219   04 Jun 2027 05:08:10.219             0.000             0.000
        62   04 Jun 2027 05:08:20.488   04 Jun 2027 05:08:27.070             6.582          3291.000
        63   04 Jun 2027 05:09:16.092   04 Jun 2027 05:09:49.053            32.961         16480.500
        64   04 Jun 2027 06:38:26.542   04 Jun 2027 06:38:52.763            26.221         11889.562
        65   04 Jun 2027 06:40:34.229   04 Jun 2027 06:40:37.737             3.508          1560.812
        66   04 Jun 2027 06:41:28.624   04 Jun 2027 06:41:31.128             2.504           498.656
        67   04 Jun 2027 06:42:02.091   04 Jun 2027 06:42:04.025             1.934           704.875
        68   04 Jun 2027 06:43:31.860   04 Jun 2027 06:43:33.636             1.776           505.187
        69   04 Jun 2027 06:44:14.987   04 Jun 2027 06:44:17.723             2.736          1292.219
        70   04 Jun 2027 08:15:14.581   04 Jun 2027 08:15:17.391             2.810           712.125
        71   04 Jun 2027 08:18:09.549   04 Jun 2027 08:18:13.224             3.675          1036.313
        72   04 Jun 2027 08:18:52.871   04 Jun 2027 08:18:54.994             2.123           535.750
        73   04 Jun 2027 08:19:31.129   04 Jun 2027 08:19:35.847             4.718           638.594
        74   04 Jun 2027 08:20:11.325   04 Jun 2027 08:20:13.291             1.966           546.906
        75   04 Jun 2027 08:20:33.936   04 Jun 2027 08:20:35.120             1.184           423.969
        76   04 Jun 2027 08:21:33.189   04 Jun 2027 08:21:38.191             5.002          1401.125
        77   04 Jun 2027 09:53:16.169   04 Jun 2027 09:53:26.116             9.947          3847.844
        78   04 Jun 2027 11:27:09.050   04 Jun 2027 11:27:15.288             6.238          1439.625
        79   05 Jun 2027 03:37:27.245   05 Jun 2027 03:37:34.548             7.303          3651.500
        80   05 Jun 2027 03:38:57.342   05 Jun 2027 03:38:58.657             1.315           657.500
        81   05 Jun 2027 03:39:41.119   05 Jun 2027 03:39:41.119             0.000             0.000
        82   05 Jun 2027 03:40:23.211   05 Jun 2027 03:40:34.733            11.522          5761.000
        83   05 Jun 2027 05:12:19.731   05 Jun 2027 05:15:17.662           177.931         88965.500
        84   05 Jun 2027 05:15:42.595   05 Jun 2027 05:15:42.595             0.000             0.000
        85   05 Jun 2027 05:16:13.352   05 Jun 2027 05:16:26.676            13.324          6662.000
        86   05 Jun 2027 05:17:27.855   05 Jun 2027 05:17:35.450             7.595          3797.500
        87   05 Jun 2027 05:21:28.515   05 Jun 2027 05:21:56.897            28.382         14191.000
        88   05 Jun 2027 06:50:29.699   05 Jun 2027 06:51:47.220            77.521         38050.875
        89   05 Jun 2027 06:52:27.792   05 Jun 2027 06:52:33.668             5.876          1267.875
        90   05 Jun 2027 06:54:10.426   05 Jun 2027 06:54:17.758             7.332          2162.313
        91   05 Jun 2027 06:55:34.377   05 Jun 2027 06:55:37.088             2.711           499.781
        92   05 Jun 2027 06:55:56.945   05 Jun 2027 06:55:59.709             2.764           288.625
        93   05 Jun 2027 08:27:24.464   05 Jun 2027 08:27:29.505             5.041          2213.469
        94   05 Jun 2027 08:29:34.282   05 Jun 2027 08:29:35.153             0.871           116.094
        95   05 Jun 2027 08:30:33.783   05 Jun 2027 08:30:41.662             7.879          1797.344
        96   05 Jun 2027 08:30:47.551   05 Jun 2027 08:30:47.856             0.305           129.312
        97   05 Jun 2027 08:31:21.267   05 Jun 2027 08:31:24.214             2.947           787.500
        98   05 Jun 2027 08:31:59.290   05 Jun 2027 08:32:00.807             1.517            88.656
        99   05 Jun 2027 08:32:07.511   05 Jun 2027 08:32:07.787             0.276            24.500
       100   05 Jun 2027 08:32:51.867   05 Jun 2027 08:32:54.158             2.291           704.094
       101   05 Jun 2027 08:33:26.463   05 Jun 2027 08:33:35.156             8.693          1009.531
       102   05 Jun 2027 10:04:30.944   05 Jun 2027 10:04:42.295            11.351          5539.156
       103   05 Jun 2027 10:06:24.623   05 Jun 2027 10:06:33.090             8.467          1187.594
       104   05 Jun 2027 10:07:48.345   05 Jun 2027 10:07:49.450             1.105           464.375
       105   05 Jun 2027 10:09:08.756   05 Jun 2027 10:09:12.135             3.379           924.281
       106   05 Jun 2027 11:39:29.519   05 Jun 2027 11:39:32.297             2.778           557.969
       107   06 Jun 2027 03:51:54.312   06 Jun 2027 03:52:23.058            28.746         14373.000
       108   06 Jun 2027 05:25:23.553   06 Jun 2027 05:28:05.152           161.599         80799.500
       109   06 Jun 2027 05:33:06.882   06 Jun 2027 05:33:56.137            49.255         24627.500
       110   06 Jun 2027 07:02:55.931   06 Jun 2027 07:04:23.095            87.164         43301.812
       111   06 Jun 2027 07:05:31.093   06 Jun 2027 07:05:32.807             1.714           633.719
       112   06 Jun 2027 07:06:08.501   06 Jun 2027 07:06:10.891             2.390          1115.438
       113   06 Jun 2027 07:08:19.825   06 Jun 2027 07:08:24.825             5.000          2042.219
       114   06 Jun 2027 08:39:51.424   06 Jun 2027 08:40:01.016             9.592          3997.500
       115   06 Jun 2027 08:44:35.350   06 Jun 2027 08:44:40.324             4.974          1964.625
       116   06 Jun 2027 08:45:17.451   06 Jun 2027 08:45:19.301             1.850           572.000
       117   06 Jun 2027 10:16:42.715   06 Jun 2027 10:16:59.544            16.829          7745.250
       118   06 Jun 2027 10:20:31.764   06 Jun 2027 10:20:36.793             5.029          2076.531
       119   06 Jun 2027 11:54:15.430   06 Jun 2027 11:54:24.070             8.640          2157.031
       120   07 Jun 2027 04:03:55.561   07 Jun 2027 04:04:01.805             6.244          3122.000
       121   07 Jun 2027 04:04:51.515   07 Jun 2027 04:04:51.515             0.000             0.000
       122   07 Jun 2027 04:06:26.693   07 Jun 2027 04:06:32.727             6.034          3017.000
       123   07 Jun 2027 05:38:03.088   07 Jun 2027 05:40:05.823           122.735         61367.500
       124   07 Jun 2027 05:40:37.358   07 Jun 2027 05:41:11.701            34.343         17171.500
       125   07 Jun 2027 05:44:33.596   07 Jun 2027 05:44:35.053             1.457           728.500
       126   07 Jun 2027 05:45:00.653   07 Jun 2027 05:45:23.446            22.793         11396.500
       127   07 Jun 2027 05:45:49.551   07 Jun 2027 05:45:50.792             1.241           620.500
       128   07 Jun 2027 07:15:01.650   07 Jun 2027 07:17:10.697           129.047         63952.812
       129   07 Jun 2027 07:19:14.666   07 Jun 2027 07:19:20.111             5.445           387.875
       130   07 Jun 2027 07:21:37.815   07 Jun 2027 07:21:45.220             7.405          1682.406
       131   07 Jun 2027 08:52:38.495   07 Jun 2027 08:52:52.782            14.287          6130.125
       132   07 Jun 2027 08:57:04.376   07 Jun 2027 08:57:05.492             1.116            32.031
       133   07 Jun 2027 10:28:46.276   07 Jun 2027 10:29:00.314            14.038          6453.781
       134   08 Jun 2027 04:16:05.733   08 Jun 2027 04:16:51.292            45.559         22779.500
       135   08 Jun 2027 04:17:10.440   08 Jun 2027 04:17:15.394             4.954          2477.000
       136   08 Jun 2027 05:51:15.867   08 Jun 2027 05:53:21.702           125.835         62917.500
       137   08 Jun 2027 05:53:49.200   08 Jun 2027 05:53:54.141             4.941          2470.500
       138   08 Jun 2027 05:54:08.179   08 Jun 2027 05:54:23.338            15.159          7579.500
       139   08 Jun 2027 05:55:47.022   08 Jun 2027 05:56:28.904            41.882         20941.000
       140   08 Jun 2027 05:57:51.097   08 Jun 2027 05:57:52.674             1.577           788.500
       141   08 Jun 2027 07:27:37.799   08 Jun 2027 07:29:06.152            88.353         43332.718
       142   08 Jun 2027 07:30:59.073   08 Jun 2027 07:30:59.860             0.787           293.156
       143   08 Jun 2027 07:32:04.770   08 Jun 2027 07:32:07.960             3.190          1502.219
       144   08 Jun 2027 09:04:56.069   08 Jun 2027 09:05:12.953            16.884          6549.687
       145   08 Jun 2027 09:06:21.655   08 Jun 2027 09:06:25.701             4.046           707.688
       146   08 Jun 2027 09:08:52.977   08 Jun 2027 09:08:55.419             2.442          1026.812
       147   08 Jun 2027 09:09:04.765   08 Jun 2027 09:09:06.057             1.292           233.937
       148   08 Jun 2027 10:41:07.818   08 Jun 2027 10:41:22.651            14.833          7300.812
       149   08 Jun 2027 10:42:47.315   08 Jun 2027 10:42:47.713             0.398           110.219
       150   09 Jun 2027 04:28:00.948   09 Jun 2027 04:29:52.778           111.830         55915.000
       151   09 Jun 2027 04:31:12.526   09 Jun 2027 04:31:32.968            20.442         10221.000
       152   09 Jun 2027 06:02:58.661   09 Jun 2027 06:05:30.306           151.645         75822.500
       153   09 Jun 2027 06:05:55.020   09 Jun 2027 06:05:59.745             4.725          2362.500
       154   09 Jun 2027 06:06:28.534   09 Jun 2027 06:06:35.852             7.318          3659.000
       155   09 Jun 2027 06:07:31.915   09 Jun 2027 06:07:34.016             2.101          1050.500
       156   09 Jun 2027 06:07:40.166   09 Jun 2027 06:08:03.219            23.053         10376.031
       157   09 Jun 2027 06:08:32.941   09 Jun 2027 06:08:33.894             0.953           262.750
       158   09 Jun 2027 06:09:05.867   09 Jun 2027 06:09:08.883             3.016           889.094
       159   09 Jun 2027 06:09:34.605   09 Jun 2027 06:09:37.345             2.740           226.750
       160   09 Jun 2027 07:39:10.798   09 Jun 2027 07:39:14.304             3.506          1068.281
       161   09 Jun 2027 07:40:42.336   09 Jun 2027 07:40:43.515             1.179           375.844
       162   09 Jun 2027 07:41:39.285   09 Jun 2027 07:41:47.489             8.204          1570.531
       163   09 Jun 2027 07:42:57.514   09 Jun 2027 07:42:59.158             1.644           643.875
       164   09 Jun 2027 07:44:06.352   09 Jun 2027 07:44:10.933             4.581          1626.750
       165   09 Jun 2027 09:17:11.222   09 Jun 2027 09:17:32.331            21.109          6548.906
       166   09 Jun 2027 09:17:54.638   09 Jun 2027 09:17:54.709             0.071             5.156
       167   09 Jun 2027 09:19:19.187   09 Jun 2027 09:19:25.667             6.480          1550.531
       168   09 Jun 2027 09:20:05.752   09 Jun 2027 09:20:08.317             2.565           933.969
       169   09 Jun 2027 10:52:52.140   09 Jun 2027 10:53:01.984             9.844          4461.844
       170   09 Jun 2027 10:54:33.730   09 Jun 2027 10:54:36.268             2.538            20.719
       171   10 Jun 2027 03:03:23.137   10 Jun 2027 03:03:35.377            12.240          6120.000
       172   10 Jun 2027 03:03:44.621   10 Jun 2027 03:03:47.900             3.279          1639.500
       173   10 Jun 2027 03:05:07.117   10 Jun 2027 03:05:15.516             8.399          4199.500
       174   10 Jun 2027 03:06:09.356   10 Jun 2027 03:06:09.356             0.000             0.000
       175   10 Jun 2027 04:38:36.983   10 Jun 2027 04:38:42.975             5.992          2996.000
       176   10 Jun 2027 04:39:46.568   10 Jun 2027 04:41:26.452            99.884         49942.000
       177   10 Jun 2027 04:42:51.652   10 Jun 2027 04:43:52.299            60.647         30323.500
       178   10 Jun 2027 06:14:32.492   10 Jun 2027 06:16:30.700           118.208         58444.750
       179   10 Jun 2027 06:17:11.125   10 Jun 2027 06:17:16.590             5.465           817.844
       180   10 Jun 2027 06:17:40.978   10 Jun 2027 06:17:41.789             0.811           183.344
       181   10 Jun 2027 06:17:50.705   10 Jun 2027 06:17:53.023             2.318           260.469
       182   10 Jun 2027 06:19:33.636   10 Jun 2027 06:19:43.098             9.462          2641.656
       183   10 Jun 2027 06:19:48.972   10 Jun 2027 06:19:48.972             0.000             0.000
       184   10 Jun 2027 06:20:25.768   10 Jun 2027 06:20:29.037             3.269          1333.437
       185   10 Jun 2027 06:21:23.208   10 Jun 2027 06:21:28.694             5.486          1692.844
       186   10 Jun 2027 07:51:31.884   10 Jun 2027 07:51:34.861             2.977          1425.156
       187   10 Jun 2027 07:52:42.504   10 Jun 2027 07:52:48.998             6.494           388.813
       188   10 Jun 2027 07:53:42.894   10 Jun 2027 07:53:44.969             2.075           479.719
       189   10 Jun 2027 07:55:09.112   10 Jun 2027 07:55:15.823             6.711          2403.250
       190   10 Jun 2027 07:55:40.608   10 Jun 2027 07:55:43.196             2.588           676.750
       191   10 Jun 2027 07:56:10.147   10 Jun 2027 07:56:14.306             4.159            78.719
       192   10 Jun 2027 09:29:32.909   10 Jun 2027 09:29:44.893            11.984          5321.781
       193   10 Jun 2027 09:32:17.508   10 Jun 2027 09:32:22.856             5.348          1778.687
       194   10 Jun 2027 09:32:56.390   10 Jun 2027 09:33:00.253             3.863           149.844
       195   10 Jun 2027 11:02:48.115   10 Jun 2027 11:03:01.450            13.335          4944.719
       196   11 Jun 2027 03:14:21.149   11 Jun 2027 03:14:27.285             6.136          3068.000
       197   11 Jun 2027 03:15:27.735   11 Jun 2027 03:15:27.735             0.000             0.000
       198   11 Jun 2027 03:16:22.735   11 Jun 2027 03:16:37.840            15.105          7552.500
       199   11 Jun 2027 04:49:29.715   11 Jun 2027 04:51:00.879            91.164         45582.000
       200   11 Jun 2027 04:51:30.032   11 Jun 2027 04:53:36.844           126.812         63406.000
       201   11 Jun 2027 04:55:05.157   11 Jun 2027 04:55:07.653             2.496          1248.000
       202   11 Jun 2027 04:57:24.763   11 Jun 2027 04:57:29.179             4.416          2208.000
       203   11 Jun 2027 06:26:40.067   11 Jun 2027 06:27:51.290            71.223         34509.907
       204   11 Jun 2027 06:28:58.473   11 Jun 2027 06:29:02.303             3.830          1878.812
       205   11 Jun 2027 06:29:17.456   11 Jun 2027 06:29:21.950             4.494           181.937
       206   11 Jun 2027 06:29:42.958   11 Jun 2027 06:29:44.051             1.093           220.344
       207   11 Jun 2027 06:30:12.299   11 Jun 2027 06:30:13.651             1.352           572.719
       208   11 Jun 2027 06:32:22.891   11 Jun 2027 06:32:22.891             0.000             0.000
       209   11 Jun 2027 06:32:58.832   11 Jun 2027 06:33:05.052             6.220          2694.344
       210   11 Jun 2027 08:03:37.414   11 Jun 2027 08:03:37.687             0.273            85.625
       211   11 Jun 2027 08:06:07.306   11 Jun 2027 08:06:10.093             2.787           472.156
       212   11 Jun 2027 08:07:22.846   11 Jun 2027 08:07:23.332             0.486           145.312
       213   11 Jun 2027 08:07:50.883   11 Jun 2027 08:07:53.509             2.626           792.594
       214   11 Jun 2027 08:08:46.177   11 Jun 2027 08:08:50.520             4.343          1559.281
       215   11 Jun 2027 08:09:09.227   11 Jun 2027 08:09:10.003             0.776           361.469
       216   11 Jun 2027 09:41:30.450   11 Jun 2027 09:41:40.746            10.296          5119.563
       217   11 Jun 2027 09:42:41.930   11 Jun 2027 09:42:43.221             1.291            62.062
       218   11 Jun 2027 09:44:53.934   11 Jun 2027 09:44:56.392             2.458           849.250
       219   11 Jun 2027 09:45:10.890   11 Jun 2027 09:45:11.676             0.786           344.187
       220   11 Jun 2027 11:14:57.837   11 Jun 2027 11:15:01.218             3.381           624.937
       221   12 Jun 2027 03:26:06.105   12 Jun 2027 03:26:27.731            21.626         10813.000
       222   12 Jun 2027 05:00:58.649   12 Jun 2027 05:04:27.712           209.063        104531.500
       223   12 Jun 2027 05:05:41.447   12 Jun 2027 05:05:41.859             0.412           206.000
       224   12 Jun 2027 05:06:07.247   12 Jun 2027 05:06:09.207             1.960           980.000
       225   12 Jun 2027 05:09:13.056   12 Jun 2027 05:09:13.943             0.887           443.500
       226   12 Jun 2027 05:09:33.380   12 Jun 2027 05:10:03.875            30.495         15247.500
       227   12 Jun 2027 06:38:41.327   12 Jun 2027 06:39:37.431            56.104         27525.625
       228   12 Jun 2027 06:40:01.376   12 Jun 2027 06:40:02.559             1.183           563.156
       229   12 Jun 2027 06:41:16.492   12 Jun 2027 06:41:18.165             1.673           801.313
       230   12 Jun 2027 06:41:44.676   12 Jun 2027 06:41:45.785             1.109           542.687
       231   12 Jun 2027 06:41:57.270   12 Jun 2027 06:42:00.080             2.810            62.875
       232   12 Jun 2027 06:43:30.823   12 Jun 2027 06:43:35.588             4.765          2273.687
       233   12 Jun 2027 06:44:30.254   12 Jun 2027 06:44:30.254             0.000             0.000
       234   12 Jun 2027 06:44:45.635   12 Jun 2027 06:44:48.923             3.288           831.219
       235   12 Jun 2027 08:15:29.526   12 Jun 2027 08:15:32.069             2.543           539.719
       236   12 Jun 2027 08:18:58.997   12 Jun 2027 08:19:01.797             2.800           659.344
       237   12 Jun 2027 08:19:25.972   12 Jun 2027 08:19:31.398             5.426            67.875
       238   12 Jun 2027 08:20:11.530   12 Jun 2027 08:20:13.921             2.391           900.813
       239   12 Jun 2027 08:21:04.309   12 Jun 2027 08:21:08.139             3.830          1216.375
       240   12 Jun 2027 09:53:31.274   12 Jun 2027 09:53:42.103            10.829          3672.844
       241   12 Jun 2027 09:54:47.237   12 Jun 2027 09:54:52.768             5.531          1382.094
       242   12 Jun 2027 09:56:55.736   12 Jun 2027 09:56:58.907             3.171           482.250
       243   12 Jun 2027 09:57:30.059   12 Jun 2027 09:57:33.051             2.992           281.875
       244   12 Jun 2027 11:27:23.871   12 Jun 2027 11:27:24.422             0.551            60.125
       245   13 Jun 2027 03:37:41.553   13 Jun 2027 03:37:50.966             9.413          4706.500
       246   13 Jun 2027 03:39:13.052   13 Jun 2027 03:39:15.463             2.411          1205.500
       247   13 Jun 2027 03:40:40.084   13 Jun 2027 03:40:40.084             0.000             0.000
       248   13 Jun 2027 03:40:50.051   13 Jun 2027 03:41:10.840            20.789         10394.500
       249   13 Jun 2027 03:43:42.534   13 Jun 2027 03:43:42.534             0.000             0.000
       250   13 Jun 2027 05:13:42.073   13 Jun 2027 05:16:55.149           193.076         96538.000
       251   13 Jun 2027 05:18:01.018   13 Jun 2027 05:18:08.576             7.558          3779.000
       252   13 Jun 2027 05:21:31.005   13 Jun 2027 05:21:34.504             3.499          1749.500
       253   13 Jun 2027 06:50:44.616   13 Jun 2027 06:52:19.245            94.629         47152.874
       254   13 Jun 2027 06:52:44.015   13 Jun 2027 06:52:45.733             1.718           433.844
       255   13 Jun 2027 06:53:46.075   13 Jun 2027 06:53:50.446             4.371           945.813
       256   13 Jun 2027 06:54:26.504   13 Jun 2027 06:54:28.907             2.403           810.281
       257   13 Jun 2027 06:55:42.906   13 Jun 2027 06:55:47.961             5.055          1978.562
       258   13 Jun 2027 06:56:03.118   13 Jun 2027 06:56:03.118             0.000             0.000
       259   13 Jun 2027 06:56:10.953   13 Jun 2027 06:56:15.760             4.807           620.250
       260   13 Jun 2027 08:27:39.383   13 Jun 2027 08:27:43.069             3.686          1586.969
       261   13 Jun 2027 08:30:41.829   13 Jun 2027 08:30:45.662             3.833          1648.938
       262   13 Jun 2027 08:31:36.191   13 Jun 2027 08:31:38.889             2.698           790.750
       263   13 Jun 2027 08:32:19.701   13 Jun 2027 08:32:21.473             1.772           750.656
       264   13 Jun 2027 08:32:22.380   13 Jun 2027 08:32:22.816             0.436            28.344
       265   13 Jun 2027 08:33:07.023   13 Jun 2027 08:33:09.379             2.356           716.313
       266   13 Jun 2027 08:33:41.055   13 Jun 2027 08:33:49.816             8.761           968.094
       267   13 Jun 2027 10:04:45.630   13 Jun 2027 10:04:56.981            11.351          5613.469
       268   13 Jun 2027 10:06:52.023   13 Jun 2027 10:06:57.754             5.731          1665.594
       269   13 Jun 2027 10:07:48.081   13 Jun 2027 10:07:50.088             2.007            29.219
       270   13 Jun 2027 10:08:42.187   13 Jun 2027 10:08:47.675             5.488          1213.250
       271   13 Jun 2027 10:09:24.308   13 Jun 2027 10:09:26.643             2.335           936.062
       272   13 Jun 2027 11:39:44.969   13 Jun 2027 11:39:47.080             2.111           556.187
