uniorb/output/strategy_4/Camera/Camera_KinoSat_111306.txt

KinoSat_111306
-------------------------
    Access    *     Start Time (UTCG)     *     Stop Time (UTCG)  *   Duration (s) *   Data (Mbytes)
         1   01 Jun 2027 03:17:48.996   01 Jun 2027 03:19:37.018           108.022         54011.000
         2   01 Jun 2027 03:20:15.707   01 Jun 2027 03:20:22.396             6.689          3344.500
         3   01 Jun 2027 03:21:13.979   01 Jun 2027 03:21:20.508             6.529          3264.500
         4   01 Jun 2027 03:21:46.557   01 Jun 2027 03:22:12.552            25.995         12997.500
         5   01 Jun 2027 03:24:38.181   01 Jun 2027 03:24:47.883             9.702          4851.000
         6   01 Jun 2027 04:42:01.762   01 Jun 2027 04:42:44.381            42.619         21309.500
         7   01 Jun 2027 04:54:15.692   01 Jun 2027 04:54:47.747            32.055         16027.500
         8   01 Jun 2027 06:16:12.296   01 Jun 2027 06:17:23.410            71.114         35557.000
         9   01 Jun 2027 06:18:14.848   01 Jun 2027 06:18:20.760             5.912          2956.000
        10   01 Jun 2027 06:21:06.628   01 Jun 2027 06:21:18.826            12.198          6099.000
        11   01 Jun 2027 07:51:00.681   01 Jun 2027 07:53:06.989           126.308         63154.000
        12   01 Jun 2027 07:57:20.410   01 Jun 2027 07:57:20.410             0.000             0.000
        13   01 Jun 2027 07:57:36.436   01 Jun 2027 07:57:41.825             5.389          2694.500
        14   01 Jun 2027 07:58:29.681   01 Jun 2027 07:58:51.927            22.246         11123.000
        15   01 Jun 2027 07:59:24.178   01 Jun 2027 07:59:37.498            13.320          6660.000
        16   01 Jun 2027 09:28:49.114   01 Jun 2027 09:30:55.302           126.188         63094.000
        17   01 Jun 2027 09:34:31.888   01 Jun 2027 09:35:31.114            59.226         29613.000
        18   01 Jun 2027 11:05:33.733   01 Jun 2027 11:05:59.153            25.420         12710.000
        19   01 Jun 2027 11:06:02.525   01 Jun 2027 11:08:03.410           120.885         60442.500
        20   01 Jun 2027 11:08:21.973   01 Jun 2027 11:08:26.240             4.267          2133.500
        21   01 Jun 2027 11:11:07.685   01 Jun 2027 11:11:22.392            14.707          7353.500
        22   01 Jun 2027 11:11:54.350   01 Jun 2027 11:11:55.008             0.658           329.000
        23   02 Jun 2027 03:29:59.384   02 Jun 2027 03:32:38.160           158.776         79388.000
        24   02 Jun 2027 03:32:56.950   02 Jun 2027 03:33:05.721             8.771          4385.500
        25   02 Jun 2027 03:34:00.943   02 Jun 2027 03:34:13.614            12.671          6335.500
        26   02 Jun 2027 04:54:01.274   02 Jun 2027 04:54:40.362            39.088         19544.000
        27   02 Jun 2027 06:29:58.544   02 Jun 2027 06:33:54.256           235.712        117856.000
        28   02 Jun 2027 08:03:48.979   02 Jun 2027 08:06:22.885           153.906         76953.000
        29   02 Jun 2027 08:07:07.253   02 Jun 2027 08:07:35.124            27.871         13935.500
        30   02 Jun 2027 08:11:33.343   02 Jun 2027 08:12:18.991            45.648         22824.000
        31   02 Jun 2027 09:40:55.649   02 Jun 2027 09:41:25.716            30.067         12332.219
        32   02 Jun 2027 09:42:53.695   02 Jun 2027 09:43:02.381             8.686          2048.594
        33   02 Jun 2027 09:44:58.651   02 Jun 2027 09:45:04.386             5.735          2537.938
        34   02 Jun 2027 09:45:51.977   02 Jun 2027 09:45:58.760             6.783           825.594
        35   02 Jun 2027 09:46:11.556   02 Jun 2027 09:46:12.160             0.604           210.906
        36   02 Jun 2027 09:46:19.524   02 Jun 2027 09:46:23.456             3.932            83.156
        37   02 Jun 2027 09:47:14.615   02 Jun 2027 09:47:19.037             4.422          1099.375
        38   02 Jun 2027 09:47:31.241   02 Jun 2027 09:47:31.841             0.600           218.469
        39   02 Jun 2027 09:47:46.564   02 Jun 2027 09:47:47.521             0.957            64.031
        40   02 Jun 2027 09:48:02.237   02 Jun 2027 09:48:04.767             2.530           335.219
        41   02 Jun 2027 11:17:57.649   02 Jun 2027 11:18:11.852            14.203          4656.750
        42   02 Jun 2027 11:18:22.791   02 Jun 2027 11:18:28.277             5.486           171.969
        43   02 Jun 2027 11:20:05.325   02 Jun 2027 11:20:06.289             0.964           222.406
        44   02 Jun 2027 11:20:39.081   02 Jun 2027 11:20:40.420             1.339           189.375
        45   02 Jun 2027 11:22:24.453   02 Jun 2027 11:22:28.778             4.325          1511.094
        46   02 Jun 2027 11:23:42.333   02 Jun 2027 11:23:47.220             4.887          2283.938
        47   03 Jun 2027 03:42:33.983   03 Jun 2027 03:45:45.408           191.425         95712.500
        48   03 Jun 2027 03:46:00.205   03 Jun 2027 03:46:13.360            13.155          6577.500
        49   03 Jun 2027 03:46:59.088   03 Jun 2027 03:47:12.091            13.003          6501.500
        50   03 Jun 2027 05:05:55.831   03 Jun 2027 05:06:04.224             8.393          4196.500
        51   03 Jun 2027 05:06:49.971   03 Jun 2027 05:07:10.748            20.777         10388.500
        52   03 Jun 2027 06:42:19.745   03 Jun 2027 06:43:38.596            78.851         38755.187
        53   03 Jun 2027 06:44:19.807   03 Jun 2027 06:44:29.053             9.246          1043.687
        54   03 Jun 2027 06:44:38.377   03 Jun 2027 06:44:40.365             1.988            47.062
        55   03 Jun 2027 06:44:54.446   03 Jun 2027 06:44:55.107             0.661            69.844
        56   03 Jun 2027 08:15:47.570   03 Jun 2027 08:16:02.310            14.740          2455.687
        57   03 Jun 2027 08:17:03.428   03 Jun 2027 08:17:03.718             0.290            49.188
        58   03 Jun 2027 08:18:16.181   03 Jun 2027 08:18:18.662             2.481           850.750
        59   03 Jun 2027 08:19:25.810   03 Jun 2027 08:19:29.071             3.261           518.250
        60   03 Jun 2027 08:20:41.040   03 Jun 2027 08:20:45.168             4.128          1883.969
        61   03 Jun 2027 08:21:38.768   03 Jun 2027 08:21:41.084             2.316          1137.250
        62   03 Jun 2027 08:22:50.736   03 Jun 2027 08:22:55.838             5.102          2172.750
        63   03 Jun 2027 08:23:07.251   03 Jun 2027 08:23:08.066             0.815            77.063
        64   03 Jun 2027 08:23:45.361   03 Jun 2027 08:23:49.638             4.277           829.469
        65   03 Jun 2027 08:24:16.317   03 Jun 2027 08:24:18.394             2.077           195.969
        66   03 Jun 2027 09:53:21.502   03 Jun 2027 09:53:33.525            12.023          5818.031
        67   03 Jun 2027 09:57:02.489   03 Jun 2027 09:57:04.440             1.951           914.125
        68   03 Jun 2027 09:58:15.407   03 Jun 2027 09:58:15.907             0.500            94.594
        69   03 Jun 2027 09:58:57.183   03 Jun 2027 09:59:08.965            11.782           956.656
        70   03 Jun 2027 09:59:32.865   03 Jun 2027 09:59:36.760             3.895            84.188
        71   03 Jun 2027 11:30:15.319   03 Jun 2027 11:30:27.737            12.418          6085.063
        72   03 Jun 2027 11:31:24.115   03 Jun 2027 11:31:26.797             2.682          1017.000
        73   03 Jun 2027 11:32:03.792   03 Jun 2027 11:32:04.079             0.287            70.500
        74   03 Jun 2027 11:33:29.049   03 Jun 2027 11:33:39.265            10.216          1566.687
        75   03 Jun 2027 11:33:44.082   03 Jun 2027 11:33:46.368             2.286           129.656
        76   03 Jun 2027 11:33:49.859   03 Jun 2027 11:33:54.017             4.158           109.094
        77   03 Jun 2027 11:34:19.653   03 Jun 2027 11:34:22.590             2.937           725.438
        78   03 Jun 2027 11:35:39.431   03 Jun 2027 11:35:48.567             9.136          2056.344
        79   03 Jun 2027 11:35:48.685   03 Jun 2027 11:35:52.467             3.782             3.688
        80   04 Jun 2027 03:54:11.848   04 Jun 2027 03:58:24.733           252.885        126442.500
        81   04 Jun 2027 05:17:43.933   04 Jun 2027 05:17:57.089            13.156          6578.000
        82   04 Jun 2027 06:54:21.210   04 Jun 2027 06:55:33.500            72.290         35540.781
        83   04 Jun 2027 06:56:25.495   04 Jun 2027 06:56:30.876             5.381          1624.844
        84   04 Jun 2027 06:56:57.779   04 Jun 2027 06:57:00.008             2.229           840.719
        85   04 Jun 2027 08:29:16.387   04 Jun 2027 08:29:25.469             9.082          3619.500
        86   04 Jun 2027 08:30:09.067   04 Jun 2027 08:30:10.729             1.662           257.000
        87   04 Jun 2027 08:31:10.882   04 Jun 2027 08:31:17.783             6.901          1085.906
        88   04 Jun 2027 08:32:39.011   04 Jun 2027 08:32:45.417             6.406          1560.687
        89   04 Jun 2027 08:33:22.395   04 Jun 2027 08:33:29.996             7.601          1155.562
        90   04 Jun 2027 08:34:55.160   04 Jun 2027 08:35:00.079             4.919          2364.031
        91   04 Jun 2027 08:35:19.670   04 Jun 2027 08:35:23.028             3.358            60.375
        92   04 Jun 2027 10:05:29.061   04 Jun 2027 10:05:40.226            11.165          4997.969
        93   04 Jun 2027 10:08:41.113   04 Jun 2027 10:08:47.213             6.100           467.375
        94   04 Jun 2027 10:09:13.216   04 Jun 2027 10:09:17.187             3.971           240.781
        95   04 Jun 2027 10:09:53.732   04 Jun 2027 10:09:58.771             5.039           324.031
        96   04 Jun 2027 10:10:15.196   04 Jun 2027 10:10:15.679             0.483           137.344
        97   04 Jun 2027 10:11:23.135   04 Jun 2027 10:11:31.184             8.049          1575.844
        98   04 Jun 2027 10:12:02.395   04 Jun 2027 10:12:04.884             2.489           975.344
        99   04 Jun 2027 11:43:12.078   04 Jun 2027 11:43:25.929            13.851          6648.000
       100   04 Jun 2027 11:45:26.301   04 Jun 2027 11:45:35.046             8.745           424.906
       101   04 Jun 2027 11:45:54.207   04 Jun 2027 11:45:56.153             1.946           340.125
       102   04 Jun 2027 11:46:28.479   04 Jun 2027 11:46:31.312             2.833          1010.188
       103   04 Jun 2027 11:47:25.623   04 Jun 2027 11:47:31.411             5.788          1561.188
       104   05 Jun 2027 04:06:34.817   05 Jun 2027 04:07:05.544            30.727         15363.500
       105   05 Jun 2027 04:07:24.067   05 Jun 2027 04:10:11.543           167.476         83738.000
       106   05 Jun 2027 05:29:57.332   05 Jun 2027 05:30:30.982            33.650         16825.000
       107   05 Jun 2027 07:06:29.217   05 Jun 2027 07:07:53.317            84.100         42050.000
       108   05 Jun 2027 07:08:00.455   05 Jun 2027 07:08:03.154             2.699           545.500
       109   05 Jun 2027 07:08:38.693   05 Jun 2027 07:08:39.253             0.560           280.000
       110   05 Jun 2027 07:09:31.232   05 Jun 2027 07:09:36.745             5.513          1949.625
       111   05 Jun 2027 07:09:55.363   05 Jun 2027 07:09:56.637             1.274           180.063
       112   05 Jun 2027 08:41:39.207   05 Jun 2027 08:41:47.473             8.266          2778.719
       113   05 Jun 2027 08:41:58.456   05 Jun 2027 08:41:59.211             0.755            85.594
       114   05 Jun 2027 08:43:12.171   05 Jun 2027 08:43:12.909             0.738           108.906
       115   05 Jun 2027 08:44:35.970   05 Jun 2027 08:44:41.477             5.507          1118.125
       116   05 Jun 2027 08:45:07.754   05 Jun 2027 08:45:08.769             1.015           335.094
       117   05 Jun 2027 08:45:41.441   05 Jun 2027 08:45:43.907             2.466           104.312
       118   05 Jun 2027 08:46:24.977   05 Jun 2027 08:46:25.680             0.703           223.156
       119   05 Jun 2027 08:47:06.900   05 Jun 2027 08:47:11.998             5.098          1188.625
       120   05 Jun 2027 08:47:53.274   05 Jun 2027 08:47:53.274             0.000             0.000
       121   05 Jun 2027 08:48:04.888   05 Jun 2027 08:48:06.288             1.400           476.406
       122   05 Jun 2027 10:18:04.628   05 Jun 2027 10:18:16.737            12.109          5473.406
       123   05 Jun 2027 10:20:12.898   05 Jun 2027 10:20:14.324             1.426           206.687
       124   05 Jun 2027 10:20:37.703   05 Jun 2027 10:20:38.345             0.642           201.281
       125   05 Jun 2027 10:21:06.960   05 Jun 2027 10:21:09.891             2.931           844.062
       126   05 Jun 2027 10:22:10.432   05 Jun 2027 10:22:12.045             1.613           357.219
       127   05 Jun 2027 10:23:13.870   05 Jun 2027 10:23:17.084             3.214          1120.719
       128   05 Jun 2027 11:55:19.197   05 Jun 2027 11:55:35.479            16.282          6121.187
       129   05 Jun 2027 11:55:59.977   05 Jun 2027 11:56:02.568             2.591           437.687
       130   05 Jun 2027 11:56:48.288   05 Jun 2027 11:56:58.837            10.549           865.406
       131   05 Jun 2027 11:58:34.007   05 Jun 2027 11:58:38.993             4.986          2176.062
       132   05 Jun 2027 11:59:33.327   05 Jun 2027 11:59:39.779             6.452          1697.937
       133   06 Jun 2027 04:18:31.602   06 Jun 2027 04:19:10.554            38.952         19476.000
       134   06 Jun 2027 04:19:34.567   06 Jun 2027 04:22:02.249           147.682         73841.000
       135   06 Jun 2027 04:22:06.872   06 Jun 2027 04:22:07.656             0.784           392.000
       136   06 Jun 2027 05:42:00.152   06 Jun 2027 05:42:37.889            37.737         18868.500
       137   06 Jun 2027 05:43:25.165   06 Jun 2027 05:43:40.333            15.168          7584.000
       138   06 Jun 2027 07:18:22.328   06 Jun 2027 07:20:02.462           100.134         48716.437
       139   06 Jun 2027 07:20:28.130   06 Jun 2027 07:20:28.130             0.000             0.000
       140   06 Jun 2027 07:21:33.113   06 Jun 2027 07:21:40.608             7.495          2562.938
       141   06 Jun 2027 07:22:13.487   06 Jun 2027 07:22:15.425             1.938           899.375
       142   06 Jun 2027 08:53:18.376   06 Jun 2027 08:53:25.587             7.211          3067.031
       143   06 Jun 2027 08:53:52.934   06 Jun 2027 08:53:52.934             0.000             0.000
       144   06 Jun 2027 08:55:13.044   06 Jun 2027 08:55:19.520             6.476          2782.406
       145   06 Jun 2027 08:55:59.819   06 Jun 2027 08:56:02.515             2.696          1020.219
       146   06 Jun 2027 08:56:31.678   06 Jun 2027 08:56:32.866             1.188           499.219
       147   06 Jun 2027 08:56:45.727   06 Jun 2027 08:56:50.955             5.228            88.844
       148   06 Jun 2027 08:57:43.485   06 Jun 2027 08:57:47.091             3.606          1043.000
       149   06 Jun 2027 08:57:50.075   06 Jun 2027 08:57:56.166             6.091            85.281
       150   06 Jun 2027 08:58:22.306   06 Jun 2027 08:58:25.546             3.240           804.250
       151   06 Jun 2027 08:58:48.516   06 Jun 2027 08:58:50.822             2.306           538.750
       152   06 Jun 2027 08:59:12.087   06 Jun 2027 08:59:16.101             4.014           664.531
       153   06 Jun 2027 08:59:56.076   06 Jun 2027 08:59:59.608             3.532           415.656
       154   06 Jun 2027 10:29:37.252   06 Jun 2027 10:29:50.569            13.317          5567.437
       155   06 Jun 2027 10:31:53.960   06 Jun 2027 10:31:55.939             1.979           403.625
       156   06 Jun 2027 10:32:33.803   06 Jun 2027 10:32:37.432             3.629           779.687
       157   06 Jun 2027 10:32:41.653   06 Jun 2027 10:32:42.561             0.908            97.094
       158   06 Jun 2027 10:34:03.759   06 Jun 2027 10:34:08.027             4.268          1906.688
       159   06 Jun 2027 10:34:56.110   06 Jun 2027 10:35:01.896             5.786          1502.594
       160   06 Jun 2027 10:35:09.502   06 Jun 2027 10:35:13.562             4.060           237.688
       161   06 Jun 2027 10:35:34.904   06 Jun 2027 10:35:37.318             2.414           666.937
       162   07 Jun 2027 03:00:00.000   07 Jun 2027 03:00:07.963             7.963          3981.500
       163   07 Jun 2027 03:00:21.492   07 Jun 2027 03:01:04.728            43.236         21618.000
       164   07 Jun 2027 04:19:16.658   07 Jun 2027 04:19:49.581            32.923         16461.500
       165   07 Jun 2027 04:30:28.004   07 Jun 2027 04:32:09.043           101.039         50519.500
       166   07 Jun 2027 04:32:35.057   07 Jun 2027 04:33:09.615            34.558         17279.000
       167   07 Jun 2027 05:53:24.201   07 Jun 2027 05:54:17.250            53.049         26524.500
       168   07 Jun 2027 05:55:42.093   07 Jun 2027 05:56:12.496            30.403         15201.500
       169   07 Jun 2027 07:28:41.047   07 Jun 2027 07:29:19.373            38.326         19163.000
       170   07 Jun 2027 07:30:06.323   07 Jun 2027 07:30:23.374            17.051          8169.875
       171   07 Jun 2027 07:31:37.248   07 Jun 2027 07:31:42.804             5.556          2289.500
       172   07 Jun 2027 07:31:57.753   07 Jun 2027 07:32:00.207             2.454           240.594
       173   07 Jun 2027 07:33:18.704   07 Jun 2027 07:33:22.360             3.656          1156.969
       174   07 Jun 2027 07:34:22.803   07 Jun 2027 07:34:26.000             3.197          1495.938
       175   07 Jun 2027 09:04:51.814   07 Jun 2027 09:04:56.366             4.552          2241.469
       176   07 Jun 2027 09:05:15.383   07 Jun 2027 09:05:20.993             5.610           592.719
       177   07 Jun 2027 09:05:52.547   07 Jun 2027 09:05:58.945             6.398           904.625
       178   07 Jun 2027 09:07:59.113   07 Jun 2027 09:08:04.765             5.652          1427.750
       179   07 Jun 2027 09:09:03.283   07 Jun 2027 09:09:08.055             4.772          1170.781
       180   07 Jun 2027 09:09:49.319   07 Jun 2027 09:09:52.268             2.949          1159.969
       181   07 Jun 2027 09:10:17.471   07 Jun 2027 09:10:18.761             1.290           261.531
       182   07 Jun 2027 09:11:05.048   07 Jun 2027 09:11:07.425             2.377          1005.094
       183   07 Jun 2027 09:11:20.716   07 Jun 2027 09:11:22.316             1.600           110.406
       184   07 Jun 2027 09:11:44.189   07 Jun 2027 09:11:46.410             2.221           187.031
       185   07 Jun 2027 09:12:24.986   07 Jun 2027 09:12:27.544             2.558            59.156
       186   07 Jun 2027 10:41:56.812   07 Jun 2027 10:42:16.002            19.190          7836.969
       187   07 Jun 2027 10:42:54.221   07 Jun 2027 10:42:57.983             3.762          1022.625
       188   07 Jun 2027 10:43:48.464   07 Jun 2027 10:43:50.586             2.122           922.125
       189   07 Jun 2027 10:44:03.668   07 Jun 2027 10:44:06.046             2.378            38.656
       190   07 Jun 2027 10:44:46.321   07 Jun 2027 10:44:50.622             4.301          1103.375
       191   07 Jun 2027 10:45:48.377   07 Jun 2027 10:45:51.776             3.399          1508.000
       192   07 Jun 2027 10:46:08.022   07 Jun 2027 10:46:11.351             3.329           112.250
       193   07 Jun 2027 10:46:46.249   07 Jun 2027 10:46:49.245             2.996           447.969
       194   07 Jun 2027 10:48:00.546   07 Jun 2027 10:48:07.852             7.306          2228.062
       195   08 Jun 2027 03:05:56.311   08 Jun 2027 03:06:38.120            41.809         20904.500
       196   08 Jun 2027 03:07:04.924   08 Jun 2027 03:07:10.826             5.902          2951.000
       197   08 Jun 2027 03:07:58.425   08 Jun 2027 03:08:06.775             8.350          4175.000
       198   08 Jun 2027 03:08:21.840   08 Jun 2027 03:08:22.170             0.330           165.000
       199   08 Jun 2027 03:09:04.477   08 Jun 2027 03:09:14.693            10.216          5108.000
       200   08 Jun 2027 03:09:19.737   08 Jun 2027 03:09:39.500            19.763          9881.500
       201   08 Jun 2027 03:11:16.994   08 Jun 2027 03:11:18.929             1.935           967.500
       202   08 Jun 2027 03:11:46.042   08 Jun 2027 03:11:59.538            13.496          6748.000
       203   08 Jun 2027 03:12:06.226   08 Jun 2027 03:12:06.691             0.465           232.500
       204   08 Jun 2027 03:12:14.379   08 Jun 2027 03:12:22.593             8.214          4107.000
       205   08 Jun 2027 03:12:41.725   08 Jun 2027 03:13:02.612            20.887         10443.500
       206   08 Jun 2027 04:30:47.725   08 Jun 2027 04:31:19.413            31.688         15844.000
       207   08 Jun 2027 04:32:06.032   08 Jun 2027 04:32:20.370            14.338          7169.000
       208   08 Jun 2027 04:42:31.123   08 Jun 2027 04:43:43.884            72.761         36380.500
       209   08 Jun 2027 06:04:43.678   08 Jun 2027 06:05:54.323            70.645         35322.500
       210   08 Jun 2027 06:06:44.404   08 Jun 2027 06:06:44.656             0.252           126.000
       211   08 Jun 2027 06:07:13.588   08 Jun 2027 06:07:27.252            13.664          6832.000
       212   08 Jun 2027 06:07:40.491   08 Jun 2027 06:07:43.790             3.299          1484.937
       213   08 Jun 2027 06:08:37.328   08 Jun 2027 06:08:48.529            11.201          1669.906
       214   08 Jun 2027 07:39:47.486   08 Jun 2027 07:39:56.569             9.083          4287.000
       215   08 Jun 2027 07:40:55.793   08 Jun 2027 07:41:01.137             5.344           388.656
       216   08 Jun 2027 07:41:23.996   08 Jun 2027 07:41:25.393             1.397           511.313
       217   08 Jun 2027 07:42:08.417   08 Jun 2027 07:42:11.204             2.787           850.844
       218   08 Jun 2027 07:43:37.951   08 Jun 2027 07:43:43.970             6.019          2346.375
       219   08 Jun 2027 07:44:58.910   08 Jun 2027 07:45:05.604             6.694          2204.844
       220   08 Jun 2027 07:45:35.346   08 Jun 2027 07:45:35.926             0.580           290.000
       221   08 Jun 2027 07:45:36.648   08 Jun 2027 07:45:36.648             0.000             0.000
       222   08 Jun 2027 07:46:34.393   08 Jun 2027 07:46:39.754             5.361          2294.125
       223   08 Jun 2027 07:47:56.717   08 Jun 2027 07:47:59.707             2.990          1402.562
       224   08 Jun 2027 09:17:10.210   08 Jun 2027 09:17:17.920             7.710          3357.375
       225   08 Jun 2027 09:17:54.637   08 Jun 2027 09:18:02.653             8.016          1147.406
       226   08 Jun 2027 09:19:16.172   08 Jun 2027 09:19:17.980             1.808           534.469
       227   08 Jun 2027 09:19:21.516   08 Jun 2027 09:19:22.781             1.265           110.500
       228   08 Jun 2027 09:20:52.042   08 Jun 2027 09:20:55.166             3.124           494.469
       229   08 Jun 2027 09:21:57.852   08 Jun 2027 09:22:00.692             2.840          1370.875
       230   08 Jun 2027 09:23:30.927   08 Jun 2027 09:23:35.988             5.061          1790.250
       231   08 Jun 2027 09:23:41.246   08 Jun 2027 09:23:46.623             5.377            45.250
       232   08 Jun 2027 09:24:12.332   08 Jun 2027 09:24:15.016             2.684           639.125
       233   08 Jun 2027 10:53:58.475   08 Jun 2027 10:54:11.539            13.064          5924.594
       234   08 Jun 2027 10:56:09.994   08 Jun 2027 10:56:12.616             2.622          1049.344
       235   08 Jun 2027 10:56:22.560   08 Jun 2027 10:56:24.409             1.849           310.750
       236   08 Jun 2027 10:57:35.405   08 Jun 2027 10:57:45.394             9.989          1745.813
       237   08 Jun 2027 10:58:15.764   08 Jun 2027 10:58:17.722             1.958           713.156
       238   08 Jun 2027 10:58:28.901   08 Jun 2027 10:58:29.777             0.876           115.281
       239   08 Jun 2027 10:59:49.641   08 Jun 2027 10:59:54.620             4.979          2016.094
       240   08 Jun 2027 11:00:06.919   08 Jun 2027 11:00:08.489             1.570           202.125
       241   09 Jun 2027 03:18:03.199   09 Jun 2027 03:19:07.514            64.315         32157.500
       242   09 Jun 2027 03:19:34.017   09 Jun 2027 03:20:24.907            50.890         25445.000
       243   09 Jun 2027 03:20:58.919   09 Jun 2027 03:21:46.909            47.990         23995.000
       244   09 Jun 2027 03:22:46.679   09 Jun 2027 03:23:19.304            32.625         16312.500
       245   09 Jun 2027 03:24:05.835   09 Jun 2027 03:24:07.618             1.783           891.500
       246   09 Jun 2027 03:24:54.702   09 Jun 2027 03:25:02.983             8.281          4140.500
       247   09 Jun 2027 04:42:18.401   09 Jun 2027 04:42:35.553            17.152          8576.000
       248   09 Jun 2027 04:54:31.764   09 Jun 2027 04:55:03.509            31.745         15872.500
       249   09 Jun 2027 06:16:27.612   09 Jun 2027 06:17:40.061            72.449         35467.469
       250   09 Jun 2027 06:18:37.917   09 Jun 2027 06:18:41.670             3.753          1808.000
       251   09 Jun 2027 06:19:12.432   09 Jun 2027 06:19:12.432             0.000             0.000
       252   09 Jun 2027 06:19:45.700   09 Jun 2027 06:19:51.032             5.332          1996.719
       253   09 Jun 2027 06:20:59.471   09 Jun 2027 06:21:03.451             3.980          1550.531
       254   09 Jun 2027 06:21:03.959   09 Jun 2027 06:21:03.959             0.000             0.000
       255   09 Jun 2027 06:21:06.067   09 Jun 2027 06:21:07.317             1.250            81.438
       256   09 Jun 2027 07:51:15.717   09 Jun 2027 07:51:21.364             5.647          1683.125
       257   09 Jun 2027 07:51:34.678   09 Jun 2027 07:51:37.805             3.127            79.875
       258   09 Jun 2027 07:53:15.007   09 Jun 2027 07:53:17.342             2.335           256.750
       259   09 Jun 2027 07:53:40.729   09 Jun 2027 07:53:42.704             1.975           730.844
       260   09 Jun 2027 07:54:31.185   09 Jun 2027 07:54:37.158             5.973          1503.031
       261   09 Jun 2027 07:55:06.301   09 Jun 2027 07:55:08.290             1.989           627.250
       262   09 Jun 2027 07:55:49.075   09 Jun 2027 07:55:51.625             2.550           834.625
       263   09 Jun 2027 07:57:14.309   09 Jun 2027 07:57:16.579             2.270           478.938
       264   09 Jun 2027 07:57:54.926   09 Jun 2027 07:57:56.373             1.447           521.969
       265   09 Jun 2027 07:58:48.359   09 Jun 2027 07:58:54.829             6.470          1496.250
       266   09 Jun 2027 07:59:41.234   09 Jun 2027 07:59:44.774             3.540          1009.844
       267   09 Jun 2027 08:00:09.625   09 Jun 2027 08:00:11.138             1.513           259.656
       268   09 Jun 2027 09:29:05.028   09 Jun 2027 09:29:17.675            12.647          4825.313
       269   09 Jun 2027 09:29:59.281   09 Jun 2027 09:29:59.281             0.000             0.000
       270   09 Jun 2027 09:31:12.365   09 Jun 2027 09:31:20.021             7.656          3504.938
       271   09 Jun 2027 09:33:20.558   09 Jun 2027 09:33:26.628             6.070          1218.531
       272   09 Jun 2027 09:35:46.006   09 Jun 2027 09:35:53.260             7.254          2267.250
       273   09 Jun 2027 09:36:15.410   09 Jun 2027 09:36:23.705             8.295           543.500
       274   09 Jun 2027 11:05:49.435   09 Jun 2027 11:05:56.049             6.614          3307.000
       275   09 Jun 2027 11:06:14.833   09 Jun 2027 11:06:19.586             4.753          2193.406
       276   09 Jun 2027 11:07:03.122   09 Jun 2027 11:07:05.355             2.233           298.625
       277   09 Jun 2027 11:07:33.169   09 Jun 2027 11:07:35.098             1.929           857.656
       278   09 Jun 2027 11:08:44.588   09 Jun 2027 11:08:46.125             1.537           209.938
       279   09 Jun 2027 11:09:52.630   09 Jun 2027 11:09:53.663             1.033           200.531
       280   09 Jun 2027 11:10:14.910   09 Jun 2027 11:10:16.112             1.202           380.094
       281   09 Jun 2027 11:10:23.419   09 Jun 2027 11:10:29.964             6.545           228.344
       282   09 Jun 2027 11:11:17.194   09 Jun 2027 11:11:20.178             2.984          1475.937
       283   09 Jun 2027 11:11:35.734   09 Jun 2027 11:11:37.834             2.100           342.281
       284   09 Jun 2027 11:12:03.368   09 Jun 2027 11:12:06.655             3.287           698.062
       285   10 Jun 2027 03:30:15.590   10 Jun 2027 03:32:15.385           119.795         59897.500
       286   10 Jun 2027 03:33:06.515   10 Jun 2027 03:34:15.753            69.238         34619.000
       287   10 Jun 2027 03:34:45.881   10 Jun 2027 03:35:08.731            22.850         11425.000
       288   10 Jun 2027 04:54:17.139   10 Jun 2027 04:54:55.077            37.938         18969.000
       289   10 Jun 2027 06:30:13.829   10 Jun 2027 06:31:31.606            77.777         35329.375
       290   10 Jun 2027 06:31:57.522   10 Jun 2027 06:31:59.222             1.700           314.063
       291   10 Jun 2027 06:33:23.365   10 Jun 2027 06:33:28.674             5.309          1905.062
       292   10 Jun 2027 08:04:04.528   10 Jun 2027 08:04:19.431            14.903          2464.156
       293   10 Jun 2027 08:04:56.932   10 Jun 2027 08:04:56.986             0.054            10.438
       294   10 Jun 2027 08:05:34.174   10 Jun 2027 08:05:35.178             1.004           493.875
       295   10 Jun 2027 08:06:16.629   10 Jun 2027 08:06:17.817             1.188           404.187
       296   10 Jun 2027 08:06:38.360   10 Jun 2027 08:06:40.185             1.825           116.844
       297   10 Jun 2027 08:08:43.967   10 Jun 2027 08:08:53.912             9.945          3819.594
       298   10 Jun 2027 08:10:02.285   10 Jun 2027 08:10:08.550             6.265          1994.750
       299   10 Jun 2027 08:11:04.816   10 Jun 2027 08:11:07.821             3.005          1143.625
       300   10 Jun 2027 08:11:50.568   10 Jun 2027 08:11:53.207             2.639          1256.156
       301   10 Jun 2027 09:41:11.635   10 Jun 2027 09:41:22.210            10.575          5100.281
       302   10 Jun 2027 09:43:10.682   10 Jun 2027 09:43:18.606             7.924          1957.844
       303   10 Jun 2027 09:43:32.646   10 Jun 2027 09:43:33.836             1.190           330.219
       304   10 Jun 2027 09:45:16.403   10 Jun 2027 09:45:22.156             5.753          2613.562
       305   10 Jun 2027 09:46:36.934   10 Jun 2027 09:46:39.496             2.562           146.812
       306   10 Jun 2027 09:47:33.691   10 Jun 2027 09:47:36.563             2.872          1279.344
       307   10 Jun 2027 09:47:59.128   10 Jun 2027 09:48:02.738             3.610           639.313
       308   10 Jun 2027 09:48:09.468   10 Jun 2027 09:48:14.523             5.055           134.094
       309   10 Jun 2027 11:18:14.631   10 Jun 2027 11:18:27.906            13.275          5369.281
       310   10 Jun 2027 11:18:39.577   10 Jun 2027 11:18:41.824             2.247            40.594
       311   10 Jun 2027 11:20:22.953   10 Jun 2027 11:20:26.727             3.774           282.906
       312   10 Jun 2027 11:20:53.547   10 Jun 2027 11:20:55.184             1.637            70.875
       313   10 Jun 2027 11:21:53.698   10 Jun 2027 11:21:57.721             4.023          1731.031
       314   10 Jun 2027 11:23:04.733   10 Jun 2027 11:23:07.687             2.954          1113.781
       315   10 Jun 2027 11:23:43.108   10 Jun 2027 11:23:46.711             3.603          1031.906
       316   10 Jun 2027 11:24:17.058   10 Jun 2027 11:24:20.490             3.432           605.406
       317   11 Jun 2027 03:42:50.274   11 Jun 2027 03:46:06.442           196.168         98084.000
       318   11 Jun 2027 03:47:13.587   11 Jun 2027 03:47:14.230             0.643           321.500
       319   11 Jun 2027 05:06:11.497   11 Jun 2027 05:07:05.787            54.290         27145.000
       320   11 Jun 2027 06:42:35.710   11 Jun 2027 06:43:31.184            55.474         27707.312
       321   11 Jun 2027 06:44:02.284   11 Jun 2027 06:44:08.845             6.561           493.250
       322   11 Jun 2027 06:45:23.404   11 Jun 2027 06:45:29.055             5.651          1616.156
       323   11 Jun 2027 08:16:23.618   11 Jun 2027 08:16:30.178             6.560          2415.031
       324   11 Jun 2027 08:18:05.992   11 Jun 2027 08:18:08.827             2.835          1385.469
       325   11 Jun 2027 08:18:32.385   11 Jun 2027 08:18:32.385             0.000             0.000
       326   11 Jun 2027 08:18:33.439   11 Jun 2027 08:18:34.364             0.925           257.844
       327   11 Jun 2027 08:19:43.166   11 Jun 2027 08:19:48.084             4.918           519.938
       328   11 Jun 2027 08:20:57.216   11 Jun 2027 08:21:04.137             6.921          1847.000
       329   11 Jun 2027 08:21:53.702   11 Jun 2027 08:21:55.899             2.197          1043.000
       330   11 Jun 2027 08:23:07.954   11 Jun 2027 08:23:13.617             5.663          2173.062
       331   11 Jun 2027 08:24:02.765   11 Jun 2027 08:24:05.183             2.418           839.000
       332   11 Jun 2027 08:24:32.085   11 Jun 2027 08:24:33.273             1.188           165.219
       333   11 Jun 2027 09:53:38.081   11 Jun 2027 09:53:49.726            11.645          5736.406
       334   11 Jun 2027 09:58:07.330   11 Jun 2027 09:58:10.658             3.328          1524.813
       335   11 Jun 2027 09:58:43.908   11 Jun 2027 09:58:44.808             0.900           439.531
       336   11 Jun 2027 09:59:48.221   11 Jun 2027 09:59:51.900             3.679          1150.188
       337   11 Jun 2027 10:00:09.940   11 Jun 2027 10:00:11.104             1.164           563.750
       338   11 Jun 2027 11:30:34.886   11 Jun 2027 11:30:47.944            13.058          5678.844
       339   11 Jun 2027 11:31:41.496   11 Jun 2027 11:31:43.854             2.358          1018.750
       340   11 Jun 2027 11:32:30.468   11 Jun 2027 11:32:33.432             2.964           416.750
       341   11 Jun 2027 11:33:46.046   11 Jun 2027 11:33:54.379             8.333          1529.750
       342   11 Jun 2027 11:34:00.776   11 Jun 2027 11:34:02.930             2.154           175.813
       343   11 Jun 2027 11:34:05.827   11 Jun 2027 11:34:09.128             3.301            31.531
       344   11 Jun 2027 11:34:20.115   11 Jun 2027 11:34:29.801             9.686           343.344
       345   11 Jun 2027 11:35:03.937   11 Jun 2027 11:35:11.237             7.300           861.844
       346   11 Jun 2027 11:35:49.400   11 Jun 2027 11:35:53.356             3.956          1096.188
       347   12 Jun 2027 03:54:28.174   12 Jun 2027 03:56:27.853           119.679         59839.500
       348   12 Jun 2027 03:56:58.937   12 Jun 2027 03:57:20.648            21.711         10855.500
       349   12 Jun 2027 03:57:31.011   12 Jun 2027 03:58:08.344            37.333         18666.500
       350   12 Jun 2027 03:59:01.599   12 Jun 2027 03:59:05.237             3.638          1819.000
       351   12 Jun 2027 05:17:58.758   12 Jun 2027 05:19:08.414            69.656         34828.000
       352   12 Jun 2027 06:54:38.700   12 Jun 2027 06:55:37.435            58.735         28581.532
       353   12 Jun 2027 06:55:50.773   12 Jun 2027 06:55:54.006             3.233           416.813
       354   12 Jun 2027 06:56:17.974   12 Jun 2027 06:56:20.329             2.355            22.594
       355   12 Jun 2027 06:57:10.580   12 Jun 2027 06:57:13.303             2.723          1248.094
       356   12 Jun 2027 06:57:38.435   12 Jun 2027 06:57:38.435             0.000             0.000
       357   12 Jun 2027 08:29:37.980   12 Jun 2027 08:29:47.423             9.443          2975.000
       358   12 Jun 2027 08:30:24.377   12 Jun 2027 08:30:25.090             0.713           199.781
       359   12 Jun 2027 08:31:28.154   12 Jun 2027 08:31:34.664             6.510          1080.781
       360   12 Jun 2027 08:32:55.134   12 Jun 2027 08:32:58.451             3.317          1516.375
       361   12 Jun 2027 08:33:15.316   12 Jun 2027 08:33:17.885             2.569            23.781
       362   12 Jun 2027 08:33:33.797   12 Jun 2027 08:33:35.207             1.410           334.469
       363   12 Jun 2027 08:33:56.912   12 Jun 2027 08:33:59.900             2.988           637.562
       364   12 Jun 2027 08:34:54.909   12 Jun 2027 08:34:55.414             0.505            44.719
       365   12 Jun 2027 08:35:32.103   12 Jun 2027 08:35:33.343             1.240           529.531
       366   12 Jun 2027 08:36:15.708   12 Jun 2027 08:36:23.985             8.277          1206.812
       367   12 Jun 2027 10:05:45.783   12 Jun 2027 10:06:02.150            16.367          5029.281
       368   12 Jun 2027 10:07:54.093   12 Jun 2027 10:07:56.620             2.527           730.094
       369   12 Jun 2027 10:07:59.632   12 Jun 2027 10:08:01.373             1.741            94.125
       370   12 Jun 2027 10:08:41.814   12 Jun 2027 10:08:46.457             4.643           554.750
       371   12 Jun 2027 10:09:21.708   12 Jun 2027 10:09:24.160             2.452           909.594
       372   12 Jun 2027 10:10:26.813   12 Jun 2027 10:10:28.789             1.976           515.500
       373   12 Jun 2027 10:10:49.982   12 Jun 2027 10:10:52.722             2.740           655.094
       374   12 Jun 2027 10:11:56.769   12 Jun 2027 10:11:59.462             2.693           733.469
       375   12 Jun 2027 10:12:12.314   12 Jun 2027 10:12:14.372             2.058            41.312
       376   12 Jun 2027 10:12:19.673   12 Jun 2027 10:12:20.681             1.008           155.250
       377   12 Jun 2027 11:43:29.962   12 Jun 2027 11:43:46.959            16.997          7318.312
       378   12 Jun 2027 11:45:02.098   12 Jun 2027 11:45:10.947             8.849          1183.875
       379   12 Jun 2027 11:45:41.669   12 Jun 2027 11:45:42.379             0.710           355.000
       380   12 Jun 2027 11:46:52.456   12 Jun 2027 11:46:56.927             4.471          2231.375
       381   12 Jun 2027 11:47:47.168   12 Jun 2027 11:47:50.481             3.313          1511.094
       382   13 Jun 2027 04:06:50.949   13 Jun 2027 04:07:22.088            31.139         15569.500
       383   13 Jun 2027 04:07:40.560   13 Jun 2027 04:10:32.086           171.526         85763.000
       384   13 Jun 2027 05:30:13.342   13 Jun 2027 05:30:45.193            31.851         15925.500
       385   13 Jun 2027 07:06:45.178   13 Jun 2027 07:08:16.823            91.645         45616.375
       386   13 Jun 2027 07:08:35.403   13 Jun 2027 07:08:37.661             2.258           580.625
       387   13 Jun 2027 07:08:54.554   13 Jun 2027 07:08:56.777             2.223           527.906
       388   13 Jun 2027 07:09:21.865   13 Jun 2027 07:09:21.865             0.000             0.000
       389   13 Jun 2027 07:09:49.086   13 Jun 2027 07:09:53.450             4.364          1622.969
       390   13 Jun 2027 07:10:11.165   13 Jun 2027 07:10:15.118             3.953           214.031
       391   13 Jun 2027 08:41:55.521   13 Jun 2027 08:42:02.765             7.244          1996.250
       392   13 Jun 2027 08:42:13.635   13 Jun 2027 08:42:13.945             0.310            17.937
       393   13 Jun 2027 08:43:29.410   13 Jun 2027 08:43:30.656             1.246            99.781
       394   13 Jun 2027 08:44:52.028   13 Jun 2027 08:44:58.443             6.415          1065.594
       395   13 Jun 2027 08:45:25.662   13 Jun 2027 08:45:28.303             2.641           445.406
       396   13 Jun 2027 08:47:12.152   13 Jun 2027 08:47:19.417             7.265          2322.031
       397   13 Jun 2027 08:47:42.630   13 Jun 2027 08:47:44.350             1.720           638.594
       398   13 Jun 2027 08:48:20.487   13 Jun 2027 08:48:27.522             7.035           427.469
       399   13 Jun 2027 10:18:18.877   13 Jun 2027 10:18:31.944            13.067          5329.437
       400   13 Jun 2027 10:20:52.449   13 Jun 2027 10:20:54.711             2.262           396.875
       401   13 Jun 2027 10:21:28.231   13 Jun 2027 10:21:33.056             4.825          1047.500
       402   13 Jun 2027 10:22:55.222   13 Jun 2027 10:22:57.618             2.396          1079.000
       403   13 Jun 2027 10:23:33.391   13 Jun 2027 10:23:40.002             6.611           127.188
       404   13 Jun 2027 10:23:48.756   13 Jun 2027 10:23:50.761             2.005           248.719
       405   13 Jun 2027 10:23:51.339   13 Jun 2027 10:23:55.791             4.452            18.062
       406   13 Jun 2027 10:24:10.183   13 Jun 2027 10:24:14.147             3.964           251.594
       407   13 Jun 2027 11:55:35.888   13 Jun 2027 11:55:46.824            10.936          5119.937
       408   13 Jun 2027 11:56:39.752   13 Jun 2027 11:56:44.707             4.955           751.281
       409   13 Jun 2027 11:57:21.683   13 Jun 2027 11:57:27.184             5.501           145.437
       410   13 Jun 2027 11:58:50.711   13 Jun 2027 11:58:55.882             5.171          2150.750
       411   13 Jun 2027 11:59:49.077   13 Jun 2027 11:59:55.453             6.376          1662.344
