uniorb/output/strategy_4/Camera/Camera_KinoSat_110905.txt

KinoSat_110905
-------------------------
    Access    *     Start Time (UTCG)     *     Stop Time (UTCG)  *   Duration (s) *   Data (Mbytes)
         1   01 Jun 2027 03:30:50.628   01 Jun 2027 03:31:55.966            65.338         32669.000
         2   01 Jun 2027 03:32:10.499   01 Jun 2027 03:32:13.255             2.756          1378.000
         3   01 Jun 2027 03:32:33.684   01 Jun 2027 03:32:37.358             3.674          1837.000
         4   01 Jun 2027 05:07:28.336   01 Jun 2027 05:09:47.412           139.076         69538.000
         5   01 Jun 2027 05:09:50.519   01 Jun 2027 05:10:00.197             9.678          4839.000
         6   01 Jun 2027 06:42:23.469   01 Jun 2027 06:44:05.726           102.257         51128.500
         7   01 Jun 2027 06:46:19.931   01 Jun 2027 06:46:27.301             7.370          3685.000
         8   01 Jun 2027 06:47:49.283   01 Jun 2027 06:48:06.999            17.716          8858.000
         9   01 Jun 2027 08:18:35.549   01 Jun 2027 08:21:16.369           160.820         80410.000
        10   01 Jun 2027 08:25:05.699   01 Jun 2027 08:25:15.417             9.718          4859.000
        11   01 Jun 2027 09:56:18.702   01 Jun 2027 09:59:11.580           172.878         86439.000
        12   01 Jun 2027 11:32:22.952   01 Jun 2027 11:34:54.609           151.657         75828.500
        13   01 Jun 2027 11:35:39.690   01 Jun 2027 11:35:50.145            10.455          5227.500
        14   01 Jun 2027 11:35:56.207   01 Jun 2027 11:36:15.149            18.942          9471.000
        15   02 Jun 2027 03:43:04.433   02 Jun 2027 03:43:14.467            10.034          5017.000
        16   02 Jun 2027 03:45:13.638   02 Jun 2027 03:45:43.298            29.660         14830.000
        17   02 Jun 2027 05:19:36.339   02 Jun 2027 05:22:28.651           172.312         86156.000
        18   02 Jun 2027 06:54:46.214   02 Jun 2027 06:57:09.731           143.517         71758.500
        19   02 Jun 2027 06:57:38.978   02 Jun 2027 06:59:03.078            84.100         42050.000
        20   02 Jun 2027 06:59:48.807   02 Jun 2027 06:59:52.417             3.610          1805.000
        21   02 Jun 2027 07:00:48.458   02 Jun 2027 07:00:51.294             2.836          1418.000
        22   02 Jun 2027 07:00:59.425   02 Jun 2027 07:01:22.917            23.492         11746.000
        23   02 Jun 2027 08:31:11.434   02 Jun 2027 08:34:18.723           187.289         93644.500
        24   02 Jun 2027 08:35:12.853   02 Jun 2027 08:35:29.077            16.224          7636.124
        25   02 Jun 2027 10:08:25.196   02 Jun 2027 10:08:51.463            26.267         11243.000
        26   02 Jun 2027 10:09:16.701   02 Jun 2027 10:09:21.621             4.920           701.937
        27   02 Jun 2027 10:09:48.874   02 Jun 2027 10:09:50.172             1.298           445.375
        28   02 Jun 2027 10:10:43.729   02 Jun 2027 10:10:47.469             3.740          1327.156
        29   02 Jun 2027 10:11:58.459   02 Jun 2027 10:12:06.012             7.553          1832.687
        30   02 Jun 2027 10:12:20.524   02 Jun 2027 10:12:26.065             5.541             4.250
        31   02 Jun 2027 10:12:50.766   02 Jun 2027 10:12:51.089             0.323           100.406
        32   02 Jun 2027 11:44:40.755   02 Jun 2027 11:44:51.883            11.128          5395.875
        33   02 Jun 2027 11:49:00.677   02 Jun 2027 11:49:03.112             2.435           677.562
        34   03 Jun 2027 03:55:39.546   03 Jun 2027 03:55:49.392             9.846          4923.000
        35   03 Jun 2027 03:57:07.827   03 Jun 2027 03:57:07.827             0.000             0.000
        36   03 Jun 2027 03:57:44.397   03 Jun 2027 03:58:12.762            28.365         14182.500
        37   03 Jun 2027 05:31:29.256   03 Jun 2027 05:34:26.429           177.173         88586.500
        38   03 Jun 2027 05:34:47.139   03 Jun 2027 05:34:54.400             7.261          3630.500
        39   03 Jun 2027 05:35:25.640   03 Jun 2027 05:35:30.113             4.473          2236.500
        40   03 Jun 2027 07:06:25.838   03 Jun 2027 07:08:01.240            95.402         47494.781
        41   03 Jun 2027 07:08:10.295   03 Jun 2027 07:08:11.826             1.531           206.344
        42   03 Jun 2027 07:08:27.309   03 Jun 2027 07:08:27.774             0.465           162.969
        43   03 Jun 2027 07:09:54.450   03 Jun 2027 07:09:55.509             1.059           251.031
        44   03 Jun 2027 07:11:33.115   03 Jun 2027 07:11:38.232             5.117          2286.406
        45   03 Jun 2027 07:12:28.414   03 Jun 2027 07:12:37.108             8.694          1030.000
        46   03 Jun 2027 07:13:02.567   03 Jun 2027 07:13:03.988             1.421           682.844
        47   03 Jun 2027 08:42:43.883   03 Jun 2027 08:42:54.111            10.228          4456.625
        48   03 Jun 2027 08:44:57.869   03 Jun 2027 08:45:01.526             3.657           859.906
        49   03 Jun 2027 08:45:32.788   03 Jun 2027 08:45:35.088             2.300           718.656
        50   03 Jun 2027 08:46:28.322   03 Jun 2027 08:46:31.206             2.884           960.563
        51   03 Jun 2027 08:47:17.697   03 Jun 2027 08:47:20.040             2.343           804.031
        52   03 Jun 2027 08:47:46.777   03 Jun 2027 08:47:47.712             0.935           414.844
        53   03 Jun 2027 08:49:01.587   03 Jun 2027 08:49:07.067             5.480          1942.625
        54   03 Jun 2027 10:20:59.774   03 Jun 2027 10:21:12.520            12.746          6007.187
        55   03 Jun 2027 10:21:32.462   03 Jun 2027 10:21:34.493             2.031           623.188
        56   03 Jun 2027 10:21:41.965   03 Jun 2027 10:21:45.895             3.930           139.156
        57   03 Jun 2027 10:23:00.277   03 Jun 2027 10:23:05.558             5.281           314.500
        58   03 Jun 2027 10:24:30.949   03 Jun 2027 10:24:32.570             1.621           584.156
        59   03 Jun 2027 10:24:50.554   03 Jun 2027 10:24:51.774             1.220           529.719
        60   03 Jun 2027 11:56:19.755   03 Jun 2027 11:56:32.176            12.421          5213.563
        61   03 Jun 2027 11:59:25.159   03 Jun 2027 11:59:28.276             3.117           599.906
        62   04 Jun 2027 04:06:31.448   04 Jun 2027 04:07:07.200            35.752         17876.000
        63   04 Jun 2027 04:10:13.876   04 Jun 2027 04:10:13.876             0.000             0.000
        64   04 Jun 2027 05:41:47.996   04 Jun 2027 05:42:21.279            33.283         16641.500
        65   04 Jun 2027 05:43:13.162   04 Jun 2027 05:45:37.020           143.858         71929.000
        66   04 Jun 2027 05:47:41.568   04 Jun 2027 05:47:41.568             0.000             0.000
        67   04 Jun 2027 07:17:58.998   04 Jun 2027 07:19:47.796           108.798         53276.906
        68   04 Jun 2027 07:20:06.917   04 Jun 2027 07:20:06.917             0.000             0.000
        69   04 Jun 2027 07:20:40.343   04 Jun 2027 07:20:44.513             4.170          1591.844
        70   04 Jun 2027 07:21:09.632   04 Jun 2027 07:21:11.046             1.414           416.844
        71   04 Jun 2027 07:21:48.668   04 Jun 2027 07:21:48.668             0.000             0.000
        72   04 Jun 2027 07:21:56.487   04 Jun 2027 07:22:00.307             3.820          1420.031
        73   04 Jun 2027 07:23:32.252   04 Jun 2027 07:23:38.478             6.226          2142.687
        74   04 Jun 2027 07:23:53.328   04 Jun 2027 07:23:57.351             4.023           464.062
        75   04 Jun 2027 07:24:09.377   04 Jun 2027 07:24:09.377             0.000             0.000
        76   04 Jun 2027 07:24:35.233   04 Jun 2027 07:24:39.675             4.442          1152.094
        77   04 Jun 2027 08:55:03.213   04 Jun 2027 08:55:15.285            12.072          4940.188
        78   04 Jun 2027 08:56:20.169   04 Jun 2027 08:56:25.777             5.608          1166.031
        79   04 Jun 2027 08:56:41.603   04 Jun 2027 08:56:46.279             4.676           256.719
        80   04 Jun 2027 08:58:23.458   04 Jun 2027 08:58:29.384             5.926          1565.938
        81   04 Jun 2027 08:59:20.866   04 Jun 2027 08:59:24.767             3.901          1226.688
        82   04 Jun 2027 08:59:30.586   04 Jun 2027 08:59:31.507             0.921           175.281
        83   04 Jun 2027 08:59:57.583   04 Jun 2027 09:00:00.419             2.836           413.031
        84   04 Jun 2027 10:33:02.413   04 Jun 2027 10:33:16.473            14.060          6289.375
        85   04 Jun 2027 10:33:37.790   04 Jun 2027 10:33:42.519             4.729           666.156
        86   04 Jun 2027 10:35:00.005   04 Jun 2027 10:35:00.498             0.493           122.594
        87   04 Jun 2027 10:36:29.673   04 Jun 2027 10:36:30.549             0.876           340.188
        88   04 Jun 2027 10:36:42.973   04 Jun 2027 10:36:43.797             0.824            89.219
        89   05 Jun 2027 04:17:50.384   05 Jun 2027 04:18:41.272            50.888         25444.000
        90   05 Jun 2027 04:19:51.147   05 Jun 2027 04:20:12.193            21.046         10523.000
        91   05 Jun 2027 04:21:42.586   05 Jun 2027 04:21:53.968            11.382          5691.000
        92   05 Jun 2027 05:52:54.860   05 Jun 2027 05:54:37.984           103.124         51562.000
        93   05 Jun 2027 05:54:57.794   05 Jun 2027 05:55:00.830             3.036          1518.000
        94   05 Jun 2027 05:58:45.911   05 Jun 2027 05:59:32.388            46.477         23238.500
        95   05 Jun 2027 05:59:57.278   05 Jun 2027 05:59:58.743             1.465           732.500
        96   05 Jun 2027 06:00:49.572   05 Jun 2027 06:01:10.504            20.932         10466.000
        97   05 Jun 2027 07:30:15.879   05 Jun 2027 07:31:17.051            61.172         30545.969
        98   05 Jun 2027 07:32:10.047   05 Jun 2027 07:32:13.201             3.154           643.469
        99   05 Jun 2027 07:33:13.549   05 Jun 2027 07:33:15.249             1.700           387.812
       100   05 Jun 2027 07:33:52.076   05 Jun 2027 07:33:54.592             2.516          1150.844
       101   05 Jun 2027 07:34:30.026   05 Jun 2027 07:34:33.236             3.210           993.156
       102   05 Jun 2027 07:36:01.132   05 Jun 2027 07:36:07.762             6.630           952.875
       103   05 Jun 2027 07:37:13.499   05 Jun 2027 07:37:28.529            15.030           564.906
       104   05 Jun 2027 09:07:04.991   05 Jun 2027 09:07:18.212            13.221          6513.594
       105   05 Jun 2027 09:09:17.813   05 Jun 2027 09:09:24.781             6.968          1978.562
       106   05 Jun 2027 09:10:38.318   05 Jun 2027 09:10:42.500             4.182          1172.250
       107   05 Jun 2027 09:10:58.856   05 Jun 2027 09:11:00.250             1.394           511.125
       108   05 Jun 2027 09:11:06.390   05 Jun 2027 09:11:09.342             2.952            76.125
       109   05 Jun 2027 09:11:51.982   05 Jun 2027 09:11:55.762             3.780          1047.062
       110   05 Jun 2027 09:12:17.887   05 Jun 2027 09:12:23.061             5.174           592.375
       111   05 Jun 2027 09:13:06.584   05 Jun 2027 09:13:14.067             7.483          1196.812
       112   05 Jun 2027 09:13:21.719   05 Jun 2027 09:13:24.218             2.499           184.687
       113   05 Jun 2027 10:45:01.911   05 Jun 2027 10:45:13.651            11.740          5408.656
       114   05 Jun 2027 10:45:52.320   05 Jun 2027 10:45:55.979             3.659          1088.875
       115   05 Jun 2027 10:48:06.644   05 Jun 2027 10:48:11.323             4.679          2039.156
       116   05 Jun 2027 10:49:00.530   05 Jun 2027 10:49:01.000             0.470           235.000
       117   06 Jun 2027 03:07:33.963   06 Jun 2027 03:08:11.422            37.459         18729.500
       118   06 Jun 2027 04:29:34.648   06 Jun 2027 04:30:49.559            74.911         37455.500
       119   06 Jun 2027 04:31:37.211   06 Jun 2027 04:32:09.442            32.231         16115.500
       120   06 Jun 2027 04:34:17.378   06 Jun 2027 04:34:31.348            13.970          6985.000
       121   06 Jun 2027 06:04:23.074   06 Jun 2027 06:06:18.746           115.672         57836.000
       122   06 Jun 2027 06:06:37.816   06 Jun 2027 06:06:40.124             2.308          1154.000
       123   06 Jun 2027 06:07:56.781   06 Jun 2027 06:08:04.448             7.667          3833.500
       124   06 Jun 2027 06:09:49.059   06 Jun 2027 06:10:11.235            22.176          8527.531
       125   06 Jun 2027 06:11:56.515   06 Jun 2027 06:12:03.893             7.378          3033.406
       126   06 Jun 2027 06:13:15.407   06 Jun 2027 06:13:20.500             5.093          1777.000
       127   06 Jun 2027 07:42:11.646   06 Jun 2027 07:42:14.883             3.237           356.719
       128   06 Jun 2027 07:42:41.345   06 Jun 2027 07:42:45.649             4.304           825.500
       129   06 Jun 2027 07:44:13.070   06 Jun 2027 07:44:18.853             5.783           754.937
       130   06 Jun 2027 07:44:54.889   06 Jun 2027 07:45:03.009             8.120           810.375
       131   06 Jun 2027 07:45:33.154   06 Jun 2027 07:45:34.778             1.624           509.688
       132   06 Jun 2027 07:45:55.497   06 Jun 2027 07:45:56.773             1.276           631.063
       133   06 Jun 2027 07:46:39.066   06 Jun 2027 07:46:41.750             2.684          1230.906
       134   06 Jun 2027 07:47:37.280   06 Jun 2027 07:47:37.854             0.574           286.125
       135   06 Jun 2027 07:48:10.428   06 Jun 2027 07:48:16.039             5.611           209.938
       136   06 Jun 2027 07:49:12.436   06 Jun 2027 07:49:20.671             8.235           503.156
       137   06 Jun 2027 07:49:33.155   06 Jun 2027 07:49:37.375             4.220            41.813
       138   06 Jun 2027 09:18:56.126   06 Jun 2027 09:19:07.026            10.900          5080.250
       139   06 Jun 2027 09:20:51.081   06 Jun 2027 09:20:52.905             1.824            83.750
       140   06 Jun 2027 09:21:31.515   06 Jun 2027 09:21:32.083             0.568           177.594
       141   06 Jun 2027 09:22:10.928   06 Jun 2027 09:22:13.661             2.733          1050.500
       142   06 Jun 2027 09:22:50.944   06 Jun 2027 09:22:53.382             2.438           321.344
       143   06 Jun 2027 09:23:10.810   06 Jun 2027 09:23:12.542             1.732           411.469
       144   06 Jun 2027 09:23:14.831   06 Jun 2027 09:23:16.708             1.877             1.562
       145   06 Jun 2027 09:23:50.426   06 Jun 2027 09:23:53.381             2.955          1053.688
       146   06 Jun 2027 09:25:16.521   06 Jun 2027 09:25:21.550             5.029          2280.313
       147   06 Jun 2027 10:57:03.504   06 Jun 2027 10:57:14.220            10.716          5255.906
       148   06 Jun 2027 10:59:59.039   06 Jun 2027 11:00:09.711            10.672            57.750
       149   06 Jun 2027 11:00:55.486   06 Jun 2027 11:00:58.621             3.135          1430.469
       150   06 Jun 2027 11:01:02.393   06 Jun 2027 11:01:02.669             0.276            61.188
       151   07 Jun 2027 03:07:23.645   07 Jun 2027 03:07:37.953            14.308          7154.000
       152   07 Jun 2027 04:43:20.496   07 Jun 2027 04:46:23.129           182.633         91316.500
       153   07 Jun 2027 04:46:40.006   07 Jun 2027 04:46:40.006             0.000             0.000
       154   07 Jun 2027 04:46:48.742   07 Jun 2027 04:47:16.543            27.801         13900.500
       155   07 Jun 2027 06:17:11.481   07 Jun 2027 06:18:28.369            76.888         36609.001
       156   07 Jun 2027 06:19:20.147   07 Jun 2027 06:19:22.507             2.360           181.687
       157   07 Jun 2027 06:19:48.093   07 Jun 2027 06:19:48.093             0.000             0.000
       158   07 Jun 2027 06:19:58.961   07 Jun 2027 06:20:00.998             2.037          1018.469
       159   07 Jun 2027 06:21:51.399   07 Jun 2027 06:22:00.971             9.572          3223.094
       160   07 Jun 2027 06:22:39.530   07 Jun 2027 06:22:43.449             3.919          1204.969
       161   07 Jun 2027 06:23:15.261   07 Jun 2027 06:23:18.186             2.925           960.156
       162   07 Jun 2027 06:23:30.728   07 Jun 2027 06:23:37.259             6.531           381.562
       163   07 Jun 2027 06:23:46.866   07 Jun 2027 06:23:47.985             1.119           255.281
       164   07 Jun 2027 06:24:00.277   07 Jun 2027 06:24:05.699             5.422           369.906
       165   07 Jun 2027 06:25:12.370   07 Jun 2027 06:25:15.380             3.010          1393.375
       166   07 Jun 2027 07:54:18.098   07 Jun 2027 07:54:21.296             3.198           275.125
       167   07 Jun 2027 07:55:47.668   07 Jun 2027 07:55:50.395             2.727          1129.344
       168   07 Jun 2027 07:57:58.887   07 Jun 2027 07:58:03.516             4.629          2123.250
       169   07 Jun 2027 07:59:09.215   07 Jun 2027 07:59:12.420             3.205          1375.406
       170   07 Jun 2027 08:00:13.700   07 Jun 2027 08:00:14.364             0.664           181.875
       171   07 Jun 2027 08:00:40.726   07 Jun 2027 08:00:45.663             4.937           214.594
       172   07 Jun 2027 09:31:20.381   07 Jun 2027 09:31:31.250            10.869          5267.031
       173   07 Jun 2027 09:33:28.874   07 Jun 2027 09:33:31.414             2.540           883.844
       174   07 Jun 2027 09:34:06.404   07 Jun 2027 09:34:15.905             9.501          1049.281
       175   07 Jun 2027 09:34:40.801   07 Jun 2027 09:34:41.554             0.753           131.906
       176   07 Jun 2027 09:35:17.490   07 Jun 2027 09:35:18.173             0.683           227.656
       177   07 Jun 2027 09:35:43.935   07 Jun 2027 09:35:46.235             2.300           805.063
       178   07 Jun 2027 09:35:50.356   07 Jun 2027 09:35:51.589             1.233           123.750
       179   07 Jun 2027 09:36:51.524   07 Jun 2027 09:37:00.214             8.690          1868.906
       180   07 Jun 2027 11:08:17.610   07 Jun 2027 11:08:29.474            11.864          5284.969
       181   07 Jun 2027 11:10:53.661   07 Jun 2027 11:10:59.794             6.133          1393.281
       182   07 Jun 2027 11:11:46.299   07 Jun 2027 11:11:50.458             4.159           870.281
       183   07 Jun 2027 11:12:36.407   07 Jun 2027 11:12:39.000             2.593           278.688
       184   07 Jun 2027 11:13:00.702   07 Jun 2027 11:13:02.038             1.336           506.344
       185   07 Jun 2027 11:13:04.761   07 Jun 2027 11:13:06.020             1.259            62.875
       186   08 Jun 2027 03:19:17.906   08 Jun 2027 03:19:27.086             9.180          4590.000
       187   08 Jun 2027 04:55:42.199   08 Jun 2027 04:58:53.269           191.070         95535.000
       188   08 Jun 2027 06:29:10.041   08 Jun 2027 06:30:47.431            97.390         45985.969
       189   08 Jun 2027 06:31:24.911   08 Jun 2027 06:31:31.434             6.523           167.531
       190   08 Jun 2027 06:31:52.507   08 Jun 2027 06:31:53.257             0.750           316.750
       191   08 Jun 2027 06:32:11.537   08 Jun 2027 06:32:13.253             1.716           332.437
       192   08 Jun 2027 06:33:11.453   08 Jun 2027 06:33:11.453             0.000             0.000
       193   08 Jun 2027 06:34:24.641   08 Jun 2027 06:34:31.461             6.820          3410.000
       194   08 Jun 2027 06:35:12.869   08 Jun 2027 06:35:19.478             6.609          1646.656
       195   08 Jun 2027 06:35:48.005   08 Jun 2027 06:35:48.005             0.000             0.000
       196   08 Jun 2027 06:36:03.512   08 Jun 2027 06:36:06.594             3.082          1292.313
       197   08 Jun 2027 06:36:38.006   08 Jun 2027 06:36:38.360             0.354           177.000
       198   08 Jun 2027 06:36:39.348   08 Jun 2027 06:36:40.591             1.243           601.719
       199   08 Jun 2027 06:37:38.132   08 Jun 2027 06:37:38.980             0.848           364.094
       200   08 Jun 2027 08:06:43.913   08 Jun 2027 08:06:46.317             2.404           546.500
       201   08 Jun 2027 08:09:32.139   08 Jun 2027 08:09:38.977             6.838          1986.344
       202   08 Jun 2027 08:09:53.114   08 Jun 2027 08:09:54.836             1.722           404.688
       203   08 Jun 2027 08:10:24.844   08 Jun 2027 08:10:26.528             1.684           635.688
       204   08 Jun 2027 08:11:18.466   08 Jun 2027 08:11:19.548             1.082            56.062
       205   08 Jun 2027 08:12:38.512   08 Jun 2027 08:12:41.400             2.888           890.188
       206   08 Jun 2027 09:43:37.923   08 Jun 2027 09:43:55.679            17.756          7153.000
       207   08 Jun 2027 09:44:14.152   08 Jun 2027 09:44:21.114             6.962            45.000
       208   08 Jun 2027 09:46:48.096   08 Jun 2027 09:46:50.147             2.051           586.625
       209   08 Jun 2027 09:47:24.032   08 Jun 2027 09:47:25.190             1.158           368.594
       210   08 Jun 2027 09:47:55.954   08 Jun 2027 09:47:59.931             3.977           514.625
       211   08 Jun 2027 09:48:55.962   08 Jun 2027 09:48:59.900             3.938          1409.438
       212   08 Jun 2027 11:20:31.526   08 Jun 2027 11:20:48.121            16.595          7995.594
       213   08 Jun 2027 11:23:14.295   08 Jun 2027 11:23:21.829             7.534           786.500
       214   08 Jun 2027 11:24:57.104   08 Jun 2027 11:24:59.796             2.692          1346.000
       215   09 Jun 2027 03:31:05.235   09 Jun 2027 03:31:28.281            23.046         11523.000
       216   09 Jun 2027 05:07:43.700   09 Jun 2027 05:08:15.680            31.980         15990.000
       217   09 Jun 2027 05:10:26.259   09 Jun 2027 05:11:12.316            46.057         23028.500
       218   09 Jun 2027 06:42:38.755   09 Jun 2027 06:46:06.424           207.669        102863.876
       219   09 Jun 2027 06:46:36.085   09 Jun 2027 06:46:36.085             0.000             0.000
       220   09 Jun 2027 06:46:42.587   09 Jun 2027 06:46:44.980             2.393          1130.094
       221   09 Jun 2027 06:48:06.708   09 Jun 2027 06:48:13.216             6.508          2136.500
       222   09 Jun 2027 06:48:51.126   09 Jun 2027 06:48:54.603             3.477           290.750
       223   09 Jun 2027 06:49:27.711   09 Jun 2027 06:49:30.036             2.325           411.844
       224   09 Jun 2027 08:18:51.362   09 Jun 2027 08:18:55.903             4.541          2245.469
       225   09 Jun 2027 08:20:47.597   09 Jun 2027 08:20:50.195             2.598            77.750
       226   09 Jun 2027 08:21:31.018   09 Jun 2027 08:21:32.643             1.625           572.938
       227   09 Jun 2027 08:21:44.398   09 Jun 2027 08:21:50.747             6.349           283.875
       228   09 Jun 2027 08:22:27.708   09 Jun 2027 08:22:29.380             1.672           589.719
       229   09 Jun 2027 08:23:23.156   09 Jun 2027 08:23:26.633             3.477          1485.063
       230   09 Jun 2027 08:24:27.526   09 Jun 2027 08:24:30.283             2.757           711.000
       231   09 Jun 2027 08:24:53.785   09 Jun 2027 08:24:55.184             1.399           423.344
       232   09 Jun 2027 08:24:59.633   09 Jun 2027 08:25:00.739             1.106           139.031
       233   09 Jun 2027 08:25:21.217   09 Jun 2027 08:25:23.838             2.621            11.344
       234   09 Jun 2027 09:56:34.644   09 Jun 2027 09:56:49.426            14.782          5521.937
       235   09 Jun 2027 09:59:30.104   09 Jun 2027 09:59:34.424             4.320          2092.562
       236   09 Jun 2027 09:59:46.479   09 Jun 2027 09:59:47.389             0.910            53.813
       237   09 Jun 2027 10:00:41.907   09 Jun 2027 10:00:46.213             4.306          1209.937
       238   09 Jun 2027 11:32:40.967   09 Jun 2027 11:32:57.837            16.870          6813.219
       239   09 Jun 2027 11:36:10.501   09 Jun 2027 11:36:17.157             6.656          1387.375
       240   09 Jun 2027 11:37:01.706   09 Jun 2027 11:37:02.989             1.283           641.500
       241   10 Jun 2027 03:43:19.471   10 Jun 2027 03:43:29.118             9.647          4823.500
       242   10 Jun 2027 03:45:59.993   10 Jun 2027 03:46:01.255             1.262           631.000
       243   10 Jun 2027 05:19:51.281   10 Jun 2027 05:23:11.257           199.976         99988.000
       244   10 Jun 2027 06:55:01.331   10 Jun 2027 06:56:33.908            92.577         44479.000
       245   10 Jun 2027 06:57:07.118   10 Jun 2027 06:57:13.544             6.426           657.281
       246   10 Jun 2027 06:57:29.967   10 Jun 2027 06:57:31.547             1.580           365.562
       247   10 Jun 2027 06:57:49.258   10 Jun 2027 06:57:53.900             4.642           119.813
       248   10 Jun 2027 06:58:08.895   10 Jun 2027 06:58:08.895             0.000             0.000
       249   10 Jun 2027 06:58:15.700   10 Jun 2027 06:58:17.270             1.570           482.562
       250   10 Jun 2027 06:59:49.036   10 Jun 2027 06:59:56.607             7.571          2796.406
       251   10 Jun 2027 07:01:04.735   10 Jun 2027 07:01:08.682             3.947          1715.750
       252   10 Jun 2027 07:01:21.191   10 Jun 2027 07:01:26.321             5.130           390.906
       253   10 Jun 2027 08:31:26.564   10 Jun 2027 08:31:31.463             4.899          2062.688
       254   10 Jun 2027 08:33:02.684   10 Jun 2027 08:33:05.173             2.489           145.344
       255   10 Jun 2027 08:33:21.845   10 Jun 2027 08:33:25.070             3.225           320.969
       256   10 Jun 2027 08:33:57.891   10 Jun 2027 08:33:59.951             2.060           666.719
       257   10 Jun 2027 08:34:35.225   10 Jun 2027 08:34:36.563             1.338            41.531
       258   10 Jun 2027 08:36:19.603   10 Jun 2027 08:36:21.620             2.017           687.188
       259   10 Jun 2027 08:37:09.656   10 Jun 2027 08:37:12.506             2.850          1340.688
       260   10 Jun 2027 10:08:41.368   10 Jun 2027 10:08:53.792            12.424          5285.406
       261   10 Jun 2027 10:09:31.469   10 Jun 2027 10:09:36.370             4.901           657.187
       262   10 Jun 2027 10:11:09.320   10 Jun 2027 10:11:10.351             1.031           417.594
       263   10 Jun 2027 10:12:13.723   10 Jun 2027 10:12:20.774             7.051          1834.000
       264   10 Jun 2027 10:12:35.731   10 Jun 2027 10:12:38.464             2.733           447.375
       265   10 Jun 2027 10:13:03.385   10 Jun 2027 10:13:06.365             2.980           778.781
       266   10 Jun 2027 10:13:13.962   10 Jun 2027 10:13:16.121             2.159           237.406
       267   10 Jun 2027 11:44:55.811   10 Jun 2027 11:45:07.503            11.692          5715.188
       268   11 Jun 2027 03:55:22.010   11 Jun 2027 03:55:29.549             7.539          3769.500
       269   11 Jun 2027 03:55:39.151   11 Jun 2027 03:55:51.429            12.278          6139.000
       270   11 Jun 2027 03:58:01.127   11 Jun 2027 03:58:04.004             2.877          1438.500
       271   11 Jun 2027 03:58:05.350   11 Jun 2027 03:58:27.990            22.640         11320.000
       272   11 Jun 2027 05:31:44.232   11 Jun 2027 05:34:34.264           170.032         85016.000
       273   11 Jun 2027 05:34:44.380   11 Jun 2027 05:34:44.380             0.000             0.000
       274   11 Jun 2027 05:35:14.603   11 Jun 2027 05:35:40.294            25.691         12845.500
       275   11 Jun 2027 07:06:40.340   11 Jun 2027 07:07:59.110            78.770         37135.531
       276   11 Jun 2027 07:08:26.245   11 Jun 2027 07:08:31.227             4.982           150.781
       277   11 Jun 2027 07:09:41.365   11 Jun 2027 07:09:44.261             2.896           148.969
       278   11 Jun 2027 07:10:02.348   11 Jun 2027 07:10:03.552             1.204           373.219
       279   11 Jun 2027 07:10:11.161   11 Jun 2027 07:10:12.310             1.149           237.781
       280   11 Jun 2027 07:11:48.782   11 Jun 2027 07:12:00.638            11.856          2263.094
       281   11 Jun 2027 07:12:44.336   11 Jun 2027 07:12:54.819            10.483           983.719
       282   11 Jun 2027 07:13:17.319   11 Jun 2027 07:13:18.720             1.401           630.437
       283   11 Jun 2027 07:13:43.718   11 Jun 2027 07:13:45.448             1.730           378.312
       284   11 Jun 2027 08:42:59.203   11 Jun 2027 08:43:08.375             9.172          4488.438
       285   11 Jun 2027 08:45:24.444   11 Jun 2027 08:45:25.315             0.871           289.531
       286   11 Jun 2027 08:46:17.143   11 Jun 2027 08:46:19.907             2.764           910.250
       287   11 Jun 2027 08:47:07.204   11 Jun 2027 08:47:08.795             1.591           738.531
       288   11 Jun 2027 08:47:48.047   11 Jun 2027 08:47:52.380             4.333           452.219
       289   11 Jun 2027 08:48:14.750   11 Jun 2027 08:48:17.896             3.146           404.438
       290   11 Jun 2027 08:48:44.348   11 Jun 2027 08:48:47.866             3.518           713.156
       291   11 Jun 2027 10:21:14.521   11 Jun 2027 10:21:27.257            12.736          5719.906
       292   11 Jun 2027 10:21:52.731   11 Jun 2027 10:21:57.447             4.716           149.781
       293   11 Jun 2027 10:23:07.187   11 Jun 2027 10:23:15.477             8.290          2179.375
       294   11 Jun 2027 10:24:27.594   11 Jun 2027 10:24:35.906             8.312          2253.656
       295   11 Jun 2027 10:24:49.021   11 Jun 2027 10:24:49.873             0.852             4.094
       296   11 Jun 2027 11:56:34.721   11 Jun 2027 11:56:47.664            12.943          5227.875
       297   11 Jun 2027 11:59:20.826   11 Jun 2027 11:59:22.690             1.864           796.062
       298   12 Jun 2027 04:06:45.793   12 Jun 2027 04:07:22.642            36.849         18424.500
       299   12 Jun 2027 04:10:29.097   12 Jun 2027 04:10:40.227            11.130          5565.000
       300   12 Jun 2027 05:42:02.919   12 Jun 2027 05:42:36.739            33.820         16910.000
       301   12 Jun 2027 05:43:28.175   12 Jun 2027 05:45:18.384           110.209         55104.500
       302   12 Jun 2027 05:47:05.575   12 Jun 2027 05:47:30.085            24.510         12255.000
       303   12 Jun 2027 05:47:57.354   12 Jun 2027 05:47:57.354             0.000             0.000
       304   12 Jun 2027 07:18:13.705   12 Jun 2027 07:19:59.837           106.132         52918.312
       305   12 Jun 2027 07:20:24.631   12 Jun 2027 07:20:24.631             0.000             0.000
       306   12 Jun 2027 07:20:56.413   12 Jun 2027 07:21:06.270             9.857          1594.437
       307   12 Jun 2027 07:21:26.078   12 Jun 2027 07:21:26.078             0.000             0.000
       308   12 Jun 2027 07:21:26.803   12 Jun 2027 07:21:28.133             1.330           443.062
       309   12 Jun 2027 07:22:06.923   12 Jun 2027 07:22:12.257             5.334           970.750
       310   12 Jun 2027 07:22:40.232   12 Jun 2027 07:22:43.352             3.120           845.406
       311   12 Jun 2027 07:24:15.753   12 Jun 2027 07:24:19.943             4.190          1949.344
       312   12 Jun 2027 07:24:51.813   12 Jun 2027 07:24:54.550             2.737           823.250
       313   12 Jun 2027 08:55:18.576   12 Jun 2027 08:55:31.380            12.804          5807.219
       314   12 Jun 2027 08:56:35.802   12 Jun 2027 08:56:40.633             4.831          1194.656
       315   12 Jun 2027 08:58:56.938   12 Jun 2027 08:59:00.408             3.470           457.625
       316   12 Jun 2027 08:59:37.605   12 Jun 2027 08:59:38.022             0.417            70.281
       317   12 Jun 2027 08:59:45.929   12 Jun 2027 08:59:47.135             1.206           179.625
       318   12 Jun 2027 09:00:13.012   12 Jun 2027 09:00:16.902             3.890           548.313
       319   12 Jun 2027 10:33:17.592   12 Jun 2027 10:33:31.386            13.794          5919.813
       320   12 Jun 2027 10:33:52.719   12 Jun 2027 10:33:53.938             1.219           571.438
       321   12 Jun 2027 10:35:15.181   12 Jun 2027 10:35:17.840             2.659            67.781
       322   12 Jun 2027 10:36:57.446   12 Jun 2027 10:37:05.150             7.704           721.844
       323   13 Jun 2027 04:18:05.402   13 Jun 2027 04:18:58.222            52.820         26410.000
       324   13 Jun 2027 04:20:34.948   13 Jun 2027 04:20:40.681             5.733          2866.500
       325   13 Jun 2027 04:21:38.723   13 Jun 2027 04:21:38.723             0.000             0.000
       326   13 Jun 2027 04:21:56.921   13 Jun 2027 04:22:09.245            12.324          6162.000
       327   13 Jun 2027 04:22:43.780   13 Jun 2027 04:23:00.089            16.309          8154.500
       328   13 Jun 2027 05:53:09.399   13 Jun 2027 05:54:52.765           103.366         51683.000
       329   13 Jun 2027 05:55:12.591   13 Jun 2027 05:55:15.526             2.935          1467.500
       330   13 Jun 2027 05:55:56.532   13 Jun 2027 05:56:09.974            13.442          6721.000
       331   13 Jun 2027 05:56:19.701   13 Jun 2027 05:56:24.934             5.233          2616.500
       332   13 Jun 2027 05:56:54.879   13 Jun 2027 05:57:00.911             6.032          3016.000
       333   13 Jun 2027 05:58:40.377   13 Jun 2027 05:59:00.540            20.163         10081.500
       334   13 Jun 2027 05:59:42.728   13 Jun 2027 06:00:14.014            31.286         15643.000
       335   13 Jun 2027 06:01:04.348   13 Jun 2027 06:01:25.701            21.353         10676.500
       336   13 Jun 2027 07:30:31.688   13 Jun 2027 07:31:00.851            29.163         14134.562
       337   13 Jun 2027 07:33:04.997   13 Jun 2027 07:33:08.316             3.319          1163.937
       338   13 Jun 2027 07:33:28.498   13 Jun 2027 07:33:30.555             2.057           335.813
       339   13 Jun 2027 07:33:31.462   13 Jun 2027 07:33:31.551             0.089            28.344
       340   13 Jun 2027 07:34:14.918   13 Jun 2027 07:34:19.362             4.444           143.437
       341   13 Jun 2027 07:35:46.241   13 Jun 2027 07:35:52.418             6.177          1860.281
       342   13 Jun 2027 07:36:18.504   13 Jun 2027 07:36:22.190             3.686           310.094
       343   13 Jun 2027 07:37:13.477   13 Jun 2027 07:37:18.864             5.387           160.250
       344   13 Jun 2027 09:07:20.103   13 Jun 2027 09:07:33.620            13.517          4783.594
       345   13 Jun 2027 09:09:34.930   13 Jun 2027 09:09:40.566             5.636          2028.781
       346   13 Jun 2027 09:10:51.012   13 Jun 2027 09:10:53.577             2.565          1051.969
       347   13 Jun 2027 09:11:14.275   13 Jun 2027 09:11:15.489             1.214           416.000
       348   13 Jun 2027 09:11:21.763   13 Jun 2027 09:11:26.484             4.721           106.219
       349   13 Jun 2027 09:12:06.915   13 Jun 2027 09:12:09.180             2.265          1049.469
       350   13 Jun 2027 09:12:33.382   13 Jun 2027 09:12:38.563             5.181           591.219
       351   13 Jun 2027 09:13:19.750   13 Jun 2027 09:13:24.492             4.742          1165.937
       352   13 Jun 2027 09:13:36.609   13 Jun 2027 09:13:40.067             3.458           130.750
       353   13 Jun 2027 10:45:17.224   13 Jun 2027 10:45:29.855            12.631          5159.594
       354   13 Jun 2027 10:46:21.116   13 Jun 2027 10:46:24.667             3.551           906.344
       355   13 Jun 2027 10:48:24.167   13 Jun 2027 10:48:25.926             1.759            14.656
       356   13 Jun 2027 10:48:50.986   13 Jun 2027 10:48:53.352             2.366           369.000
       357   13 Jun 2027 10:49:06.532   13 Jun 2027 10:49:10.754             4.222            16.937
