uniorb/output/strategy_4/Camera/Camera_KinoSat_111605.txt

KinoSat_111605
-------------------------
    Access    *     Start Time (UTCG)     *     Stop Time (UTCG)  *   Duration (s) *   Data (Mbytes)
         1   01 Jun 2027 03:13:58.604   01 Jun 2027 03:14:00.134             1.530           765.000
         2   01 Jun 2027 03:14:20.222   01 Jun 2027 03:15:18.621            58.399         29199.500
         3   01 Jun 2027 03:15:24.468   01 Jun 2027 03:16:04.417            39.949         19974.500
         4   01 Jun 2027 03:16:13.615   01 Jun 2027 03:16:23.561             9.946          4973.000
         5   01 Jun 2027 03:19:04.748   01 Jun 2027 03:19:08.447             3.699          1849.500
         6   01 Jun 2027 03:19:50.787   01 Jun 2027 03:19:54.205             3.418          1709.000
         7   01 Jun 2027 04:52:46.086   01 Jun 2027 04:54:11.507            85.421         42710.500
         8   01 Jun 2027 04:54:20.563   01 Jun 2027 04:54:22.449             1.886           943.000
         9   01 Jun 2027 04:54:30.903   01 Jun 2027 04:54:34.886             3.983          1991.500
        10   01 Jun 2027 04:54:56.023   01 Jun 2027 04:55:02.198             6.175          3087.500
        11   01 Jun 2027 04:55:32.250   01 Jun 2027 04:55:44.599            12.349          6174.500
        12   01 Jun 2027 04:57:20.278   01 Jun 2027 04:57:27.842             7.564          3782.000
        13   01 Jun 2027 06:16:12.830   01 Jun 2027 06:17:23.410            70.580         35290.000
        14   01 Jun 2027 06:18:24.744   01 Jun 2027 06:18:32.871             8.127          4063.500
        15   01 Jun 2027 07:52:26.242   01 Jun 2027 07:54:37.646           131.404         65702.000
        16   01 Jun 2027 07:54:57.863   01 Jun 2027 07:55:05.014             7.151          3575.500
        17   01 Jun 2027 09:25:59.217   01 Jun 2027 09:28:24.781           145.564         72782.000
        18   01 Jun 2027 09:34:31.888   01 Jun 2027 09:34:32.928             1.040           520.000
        19   01 Jun 2027 11:03:31.764   01 Jun 2027 11:05:25.908           114.144         57072.000
        20   01 Jun 2027 11:05:38.326   01 Jun 2027 11:05:38.326             0.000             0.000
        21   01 Jun 2027 11:07:31.222   01 Jun 2027 11:08:21.722            50.500         25250.000
        22   01 Jun 2027 11:08:26.240   01 Jun 2027 11:09:03.130            36.890         18445.000
        23   02 Jun 2027 03:26:22.197   02 Jun 2027 03:26:50.303            28.106         14053.000
        24   02 Jun 2027 03:26:53.965   02 Jun 2027 03:27:54.604            60.639         30319.500
        25   02 Jun 2027 03:28:14.660   02 Jun 2027 03:29:03.902            49.242         24621.000
        26   02 Jun 2027 03:29:11.660   02 Jun 2027 03:29:17.382             5.722          2861.000
        27   02 Jun 2027 03:30:51.234   02 Jun 2027 03:31:13.005            21.771         10885.500
        28   02 Jun 2027 05:04:24.920   02 Jun 2027 05:09:13.771           288.851        144425.500
        29   02 Jun 2027 06:28:03.997   02 Jun 2027 06:28:35.032            31.035         15517.500
        30   02 Jun 2027 08:04:31.243   02 Jun 2027 08:08:06.651           215.408        107704.000
        31   02 Jun 2027 09:36:39.526   02 Jun 2027 09:36:49.523             9.997          4998.500
        32   02 Jun 2027 09:38:38.184   02 Jun 2027 09:39:32.807            54.623         23450.813
        33   02 Jun 2027 09:40:43.961   02 Jun 2027 09:40:45.658             1.697           621.875
        34   02 Jun 2027 09:41:47.833   02 Jun 2027 09:41:51.061             3.228          1365.719
        35   02 Jun 2027 09:44:58.651   02 Jun 2027 09:45:07.782             9.131          3904.875
        36   02 Jun 2027 09:45:51.977   02 Jun 2027 09:45:58.760             6.783           825.594
        37   02 Jun 2027 09:46:11.556   02 Jun 2027 09:46:12.160             0.604           210.906
        38   02 Jun 2027 09:46:19.524   02 Jun 2027 09:46:23.456             3.932            83.156
        39   02 Jun 2027 11:15:36.654   02 Jun 2027 11:15:50.052            13.398          6607.719
        40   02 Jun 2027 11:17:47.452   02 Jun 2027 11:17:48.026             0.574           224.125
        41   02 Jun 2027 11:18:49.014   02 Jun 2027 11:18:56.310             7.296           916.375
        42   02 Jun 2027 11:20:18.848   02 Jun 2027 11:20:24.841             5.993          1885.469
        43   02 Jun 2027 11:20:31.205   02 Jun 2027 11:20:33.021             1.816           198.875
        44   02 Jun 2027 11:20:39.081   02 Jun 2027 11:20:40.420             1.339           189.375
        45   02 Jun 2027 11:21:38.472   02 Jun 2027 11:21:42.159             3.687          1761.656
        46   02 Jun 2027 11:21:57.146   02 Jun 2027 11:21:59.613             2.467           468.344
        47   03 Jun 2027 03:38:30.055   03 Jun 2027 03:39:30.594            60.539         30269.500
        48   03 Jun 2027 03:39:39.109   03 Jun 2027 03:41:18.225            99.116         49558.000
        49   03 Jun 2027 03:41:53.299   03 Jun 2027 03:42:01.573             8.274          4137.000
        50   03 Jun 2027 03:42:29.294   03 Jun 2027 03:43:07.751            38.457         19228.500
        51   03 Jun 2027 05:17:44.705   03 Jun 2027 05:19:31.265           106.560         53280.000
        52   03 Jun 2027 05:20:20.749   03 Jun 2027 05:20:31.327            10.578          2893.531
        53   03 Jun 2027 06:40:12.361   03 Jun 2027 06:40:23.097            10.736          5368.000
        54   03 Jun 2027 06:41:31.796   03 Jun 2027 06:41:37.908             6.112          2197.781
        55   03 Jun 2027 06:42:11.004   03 Jun 2027 06:42:12.039             1.035           517.500
        56   03 Jun 2027 06:42:31.681   03 Jun 2027 06:42:42.887            11.206          1130.563
        57   03 Jun 2027 06:43:05.238   03 Jun 2027 06:43:07.319             2.081           491.875
        58   03 Jun 2027 08:16:41.272   03 Jun 2027 08:16:50.396             9.124          2523.781
        59   03 Jun 2027 08:17:28.551   03 Jun 2027 08:17:30.750             2.199           983.062
        60   03 Jun 2027 08:18:35.705   03 Jun 2027 08:18:43.497             7.792          1671.594
        61   03 Jun 2027 08:19:25.810   03 Jun 2027 08:19:29.071             3.261           518.250
        62   03 Jun 2027 09:51:52.436   03 Jun 2027 09:52:02.063             9.627          4301.219
        63   03 Jun 2027 09:53:04.938   03 Jun 2027 09:53:08.464             3.526          1566.937
        64   03 Jun 2027 09:55:32.854   03 Jun 2027 09:55:39.986             7.132          1923.469
        65   03 Jun 2027 09:56:19.224   03 Jun 2027 09:56:22.592             3.368           773.906
        66   03 Jun 2027 09:57:02.489   03 Jun 2027 09:57:04.440             1.951           914.125
        67   03 Jun 2027 09:58:14.514   03 Jun 2027 09:58:15.907             1.393           659.000
        68   03 Jun 2027 11:28:11.488   03 Jun 2027 11:28:23.539            12.051          4757.000
        69   03 Jun 2027 11:30:07.675   03 Jun 2027 11:30:08.354             0.679            84.906
        70   03 Jun 2027 11:30:51.571   03 Jun 2027 11:31:00.427             8.856          1205.719
        71   03 Jun 2027 11:32:01.536   03 Jun 2027 11:32:03.226             1.690           656.156
        72   03 Jun 2027 11:32:20.063   03 Jun 2027 11:32:22.753             2.690           508.469
        73   03 Jun 2027 11:32:56.009   03 Jun 2027 11:32:58.456             2.447           827.562
        74   03 Jun 2027 11:33:22.908   03 Jun 2027 11:33:23.222             0.314            47.031
        75   04 Jun 2027 03:50:34.899   04 Jun 2027 03:50:52.971            18.072          9036.000
        76   04 Jun 2027 03:51:37.637   04 Jun 2027 03:55:09.405           211.768        105884.000
        77   04 Jun 2027 03:58:52.153   04 Jun 2027 03:59:19.598            27.445         13722.500
        78   04 Jun 2027 05:28:46.585   04 Jun 2027 05:29:23.640            37.055         18527.500
        79   04 Jun 2027 05:29:52.644   04 Jun 2027 05:30:39.437            46.793         23171.688
        80   04 Jun 2027 05:31:35.693   04 Jun 2027 05:31:38.843             3.150          1071.906
        81   04 Jun 2027 06:52:55.054   04 Jun 2027 06:53:08.170            13.116          6108.531
        82   04 Jun 2027 06:53:33.538   04 Jun 2027 06:53:35.788             2.250           230.375
        83   04 Jun 2027 06:54:49.991   04 Jun 2027 06:54:55.761             5.770          2318.844
        84   04 Jun 2027 06:55:19.954   04 Jun 2027 06:55:22.628             2.674           441.531
        85   04 Jun 2027 08:28:39.158   04 Jun 2027 08:28:46.801             7.643          1624.844
        86   04 Jun 2027 08:30:17.219   04 Jun 2027 08:30:22.785             5.566          2713.719
        87   04 Jun 2027 08:30:36.133   04 Jun 2027 08:30:41.599             5.466           325.719
        88   04 Jun 2027 08:31:18.947   04 Jun 2027 08:31:23.771             4.824           879.469
        89   04 Jun 2027 10:03:42.988   04 Jun 2027 10:03:51.071             8.083          2448.875
        90   04 Jun 2027 10:05:07.158   04 Jun 2027 10:05:12.359             5.201          2035.875
        91   04 Jun 2027 10:05:53.174   04 Jun 2027 10:05:57.666             4.492           623.844
        92   04 Jun 2027 10:06:46.186   04 Jun 2027 10:06:47.372             1.186           593.000
        93   04 Jun 2027 10:08:59.222   04 Jun 2027 10:09:09.067             9.845          4637.500
        94   04 Jun 2027 10:09:42.441   04 Jun 2027 10:09:45.172             2.731           660.656
        95   04 Jun 2027 10:10:16.923   04 Jun 2027 10:10:19.503             2.580           808.281
        96   04 Jun 2027 11:39:48.554   04 Jun 2027 11:39:58.162             9.608          4746.000
        97   04 Jun 2027 11:41:53.354   04 Jun 2027 11:41:58.906             5.552          1513.469
        98   04 Jun 2027 11:43:05.979   04 Jun 2027 11:43:07.761             1.782           891.000
        99   04 Jun 2027 11:43:33.203   04 Jun 2027 11:43:35.810             2.607          1042.594
       100   04 Jun 2027 11:43:56.474   04 Jun 2027 11:43:57.782             1.308           645.750
       101   04 Jun 2027 11:44:02.577   04 Jun 2027 11:44:05.147             2.570             4.813
       102   04 Jun 2027 11:44:43.992   04 Jun 2027 11:44:48.381             4.389          1114.063
       103   04 Jun 2027 11:45:12.704   04 Jun 2027 11:45:18.192             5.488           366.688
       104   05 Jun 2027 04:03:40.036   05 Jun 2027 04:05:52.645           132.609         66304.500
       105   05 Jun 2027 04:06:21.459   05 Jun 2027 04:07:02.436            40.977         20488.500
       106   05 Jun 2027 04:08:45.458   05 Jun 2027 04:08:46.098             0.640           320.000
       107   05 Jun 2027 04:10:17.837   05 Jun 2027 04:10:34.717            16.880          8440.000
       108   05 Jun 2027 04:10:37.506   05 Jun 2027 04:11:17.935            40.429         20214.500
       109   05 Jun 2027 05:29:43.788   05 Jun 2027 05:30:01.706            17.918          8959.000
       110   05 Jun 2027 05:40:42.600   05 Jun 2027 05:42:26.351           103.751         51875.500
       111   05 Jun 2027 05:42:35.583   05 Jun 2027 05:42:48.125            12.542          5917.938
       112   05 Jun 2027 05:43:37.973   05 Jun 2027 05:43:39.963             1.990           964.219
       113   05 Jun 2027 07:04:01.359   05 Jun 2027 07:04:19.170            17.811          7265.094
       114   05 Jun 2027 07:05:26.430   05 Jun 2027 07:05:34.421             7.991          1806.469
       115   05 Jun 2027 07:06:10.511   05 Jun 2027 07:06:13.818             3.307          1097.625
       116   05 Jun 2027 07:07:34.965   05 Jun 2027 07:07:34.965             0.000             0.000
       117   05 Jun 2027 08:39:16.858   05 Jun 2027 08:39:19.036             2.178          1089.000
       118   05 Jun 2027 08:40:23.944   05 Jun 2027 08:40:26.528             2.584          1189.156
       119   05 Jun 2027 08:42:47.003   05 Jun 2027 08:42:58.446            11.443          3937.844
       120   05 Jun 2027 08:43:08.686   05 Jun 2027 08:43:11.166             2.480           281.625
       121   05 Jun 2027 08:44:00.190   05 Jun 2027 08:44:07.978             7.788          1500.594
       122   05 Jun 2027 10:15:09.862   05 Jun 2027 10:15:16.315             6.453          2392.187
       123   05 Jun 2027 10:15:44.174   05 Jun 2027 10:15:46.037             1.863           801.000
       124   05 Jun 2027 10:17:42.869   05 Jun 2027 10:17:42.869             0.000             0.000
       125   05 Jun 2027 10:18:04.074   05 Jun 2027 10:18:08.763             4.689          1750.906
       126   05 Jun 2027 10:18:51.873   05 Jun 2027 10:18:54.619             2.746           795.594
       127   05 Jun 2027 10:19:54.968   05 Jun 2027 10:19:58.124             3.156          1119.312
       128   05 Jun 2027 10:20:12.898   05 Jun 2027 10:20:14.324             1.426           206.687
       129   05 Jun 2027 10:20:38.345   05 Jun 2027 10:20:39.950             1.605            20.062
       130   05 Jun 2027 10:21:06.960   05 Jun 2027 10:21:09.891             2.931           844.062
       131   05 Jun 2027 10:22:05.478   05 Jun 2027 10:22:10.432             4.954          1421.219
       132   05 Jun 2027 11:51:59.937   05 Jun 2027 11:52:12.153            12.216          4501.437
       133   05 Jun 2027 11:52:44.671   05 Jun 2027 11:52:45.471             0.800           292.625
       134   05 Jun 2027 11:53:25.666   05 Jun 2027 11:53:28.873             3.207             5.500
       135   05 Jun 2027 11:54:54.154   05 Jun 2027 11:54:58.855             4.701          2165.344
       136   05 Jun 2027 11:55:45.971   05 Jun 2027 11:55:50.166             4.195          1348.844
       137   05 Jun 2027 11:56:20.629   05 Jun 2027 11:56:23.040             2.411           827.156
       138   05 Jun 2027 11:57:01.414   05 Jun 2027 11:57:05.219             3.805           706.875
       139   05 Jun 2027 11:58:01.260   05 Jun 2027 11:58:06.543             5.283          1751.281
       140   05 Jun 2027 11:58:09.669   05 Jun 2027 11:58:12.831             3.162            97.688
       141   06 Jun 2027 04:16:03.736   06 Jun 2027 04:18:41.475           157.739         78869.500
       142   06 Jun 2027 04:19:09.472   06 Jun 2027 04:19:11.753             2.281          1140.500
       143   06 Jun 2027 04:21:47.650   06 Jun 2027 04:21:55.929             8.279          4139.500
       144   06 Jun 2027 04:22:53.042   06 Jun 2027 04:23:06.529            13.487          6743.500
       145   06 Jun 2027 05:41:03.507   06 Jun 2027 05:41:35.589            32.082         16041.000
       146   06 Jun 2027 05:52:44.281   06 Jun 2027 05:54:04.584            80.303         40151.500
       147   06 Jun 2027 07:14:59.531   06 Jun 2027 07:15:43.765            44.234         21210.375
       148   06 Jun 2027 07:16:57.202   06 Jun 2027 07:16:58.982             1.780           737.781
       149   06 Jun 2027 07:17:38.837   06 Jun 2027 07:17:42.976             4.139           816.344
       150   06 Jun 2027 07:18:49.375   06 Jun 2027 07:18:57.804             8.429          2074.969
       151   06 Jun 2027 07:19:33.567   06 Jun 2027 07:19:35.843             2.276           597.875
       152   06 Jun 2027 08:50:11.496   06 Jun 2027 08:50:18.637             7.141          2476.594
       153   06 Jun 2027 08:50:28.887   06 Jun 2027 08:50:28.981             0.094            47.000
       154   06 Jun 2027 08:51:35.701   06 Jun 2027 08:51:36.599             0.898           449.000
       155   06 Jun 2027 08:52:08.230   06 Jun 2027 08:52:11.876             3.646          1667.188
       156   06 Jun 2027 08:52:59.051   06 Jun 2027 08:53:02.188             3.137          1474.219
       157   06 Jun 2027 08:53:44.007   06 Jun 2027 08:53:46.369             2.362           980.250
       158   06 Jun 2027 08:55:13.044   06 Jun 2027 08:55:19.520             6.476          2503.438
       159   06 Jun 2027 08:55:28.801   06 Jun 2027 08:55:29.706             0.905           259.250
       160   06 Jun 2027 08:56:14.266   06 Jun 2027 08:56:15.703             1.437           451.469
       161   06 Jun 2027 08:56:31.678   06 Jun 2027 08:56:31.678             0.000             0.000
       162   06 Jun 2027 10:27:16.889   06 Jun 2027 10:27:23.802             6.913          3279.094
       163   06 Jun 2027 10:27:59.312   06 Jun 2027 10:28:01.156             1.844           140.156
       164   06 Jun 2027 10:29:22.242   06 Jun 2027 10:29:28.503             6.261           868.844
       165   06 Jun 2027 10:30:45.428   06 Jun 2027 10:30:48.540             3.112           324.500
       166   06 Jun 2027 10:30:50.180   06 Jun 2027 10:30:50.563             0.383            50.188
       167   06 Jun 2027 10:32:06.286   06 Jun 2027 10:32:07.813             1.527           669.906
       168   06 Jun 2027 10:32:57.123   06 Jun 2027 10:32:57.123             0.000             0.000
       169   06 Jun 2027 10:33:48.190   06 Jun 2027 10:33:56.340             8.150          3080.344
       170   06 Jun 2027 10:34:31.944   06 Jun 2027 10:34:41.287             9.343          1054.875
       171   07 Jun 2027 04:28:22.638   07 Jun 2027 04:30:26.858           124.220         62110.000
       172   07 Jun 2027 04:30:47.372   07 Jun 2027 04:30:49.827             2.455          1227.500
       173   07 Jun 2027 04:31:06.240   07 Jun 2027 04:31:06.240             0.000             0.000
       174   07 Jun 2027 04:31:58.914   07 Jun 2027 04:32:08.305             9.391          4695.500
       175   07 Jun 2027 04:32:16.521   07 Jun 2027 04:32:36.566            20.045         10022.500
       176   07 Jun 2027 04:34:08.668   07 Jun 2027 04:34:10.684             2.016          1008.000
       177   07 Jun 2027 05:52:27.747   07 Jun 2027 05:53:04.117            36.370         18185.000
       178   07 Jun 2027 05:54:20.359   07 Jun 2027 05:54:43.023            22.664         11332.000
       179   07 Jun 2027 06:04:41.272   07 Jun 2027 06:05:20.415            39.143         19571.500
       180   07 Jun 2027 07:26:43.136   07 Jun 2027 07:27:50.417            67.281         33640.500
       181   07 Jun 2027 07:28:52.229   07 Jun 2027 07:29:01.120             8.891          2847.751
       182   07 Jun 2027 07:29:14.586   07 Jun 2027 07:29:15.739             1.153           200.000
       183   07 Jun 2027 07:30:23.984   07 Jun 2027 07:30:30.540             6.556          1893.969
       184   07 Jun 2027 07:31:13.023   07 Jun 2027 07:31:14.755             1.732           779.875
       185   07 Jun 2027 07:31:17.262   07 Jun 2027 07:31:24.974             7.712            47.094
       186   07 Jun 2027 09:01:37.804   07 Jun 2027 09:01:44.032             6.228          2622.281
       187   07 Jun 2027 09:02:19.525   07 Jun 2027 09:02:23.016             3.491           378.375
       188   07 Jun 2027 09:03:33.859   07 Jun 2027 09:03:34.989             1.130           471.750
       189   07 Jun 2027 09:05:33.282   07 Jun 2027 09:05:33.282             0.000             0.000
       190   07 Jun 2027 09:07:08.414   07 Jun 2027 09:07:20.672            12.258          5659.656
       191   07 Jun 2027 09:07:58.250   07 Jun 2027 09:07:59.113             0.863           195.000
       192   07 Jun 2027 09:08:25.818   07 Jun 2027 09:08:30.262             4.444           834.531
       193   07 Jun 2027 09:09:03.283   07 Jun 2027 09:09:08.055             4.772           993.937
       194   07 Jun 2027 09:09:51.620   07 Jun 2027 09:09:54.515             2.895          1159.969
       195   07 Jun 2027 10:39:19.076   07 Jun 2027 10:39:27.256             8.180          3915.781
       196   07 Jun 2027 10:41:06.289   07 Jun 2027 10:41:07.334             1.045           292.875
       197   07 Jun 2027 10:42:25.423   07 Jun 2027 10:42:30.412             4.989          2413.531
       198   07 Jun 2027 10:43:37.828   07 Jun 2027 10:43:41.743             3.915          1362.719
       199   07 Jun 2027 10:44:26.952   07 Jun 2027 10:44:28.162             1.210           282.844
       200   07 Jun 2027 10:44:40.099   07 Jun 2027 10:44:42.532             2.433           373.031
       201   07 Jun 2027 10:45:27.040   07 Jun 2027 10:45:29.271             2.231          1009.656
       202   07 Jun 2027 10:46:31.914   07 Jun 2027 10:46:35.695             3.781          1359.281
       203   08 Jun 2027 03:01:44.608   08 Jun 2027 03:01:46.242             1.634           817.000
       204   08 Jun 2027 03:02:06.059   08 Jun 2027 03:02:20.772            14.713          7356.500
       205   08 Jun 2027 03:02:46.439   08 Jun 2027 03:03:19.041            32.602         16301.000
       206   08 Jun 2027 03:05:20.632   08 Jun 2027 03:05:38.614            17.982          8991.000
       207   08 Jun 2027 04:40:27.118   08 Jun 2027 04:43:17.716           170.598         85299.000
       208   08 Jun 2027 04:44:18.573   08 Jun 2027 04:44:34.865            16.292          8146.000
       209   08 Jun 2027 04:44:59.544   08 Jun 2027 04:45:27.335            27.791         13895.500
       210   08 Jun 2027 04:45:38.311   08 Jun 2027 04:46:05.961            27.650         13825.000
       211   08 Jun 2027 06:04:33.463   08 Jun 2027 06:05:04.791            31.328         15664.000
       212   08 Jun 2027 07:38:20.673   08 Jun 2027 07:38:40.539            19.866          9790.000
       213   08 Jun 2027 07:39:29.190   08 Jun 2027 07:39:30.967             1.777           725.063
       214   08 Jun 2027 07:40:21.154   08 Jun 2027 07:40:23.787             2.633           916.656
       215   08 Jun 2027 07:40:43.356   08 Jun 2027 07:40:44.539             1.183           588.656
       216   08 Jun 2027 07:41:11.607   08 Jun 2027 07:41:16.146             4.539           494.188
       217   08 Jun 2027 07:41:52.151   08 Jun 2027 07:41:55.308             3.157          1125.156
       218   08 Jun 2027 07:43:37.951   08 Jun 2027 07:43:43.970             6.019          2797.938
       219   08 Jun 2027 09:13:12.656   08 Jun 2027 09:13:18.977             6.321          2204.844
       220   08 Jun 2027 09:14:03.334   08 Jun 2027 09:14:06.857             3.523          1386.156
       221   08 Jun 2027 09:15:28.793   08 Jun 2027 09:15:34.211             5.418          2560.500
       222   08 Jun 2027 09:16:52.218   08 Jun 2027 09:16:53.814             1.596           784.188
       223   08 Jun 2027 09:17:54.637   08 Jun 2027 09:18:02.653             8.016          1147.406
       224   08 Jun 2027 09:19:17.980   08 Jun 2027 09:19:20.328             2.348          1080.031
       225   08 Jun 2027 09:19:35.347   08 Jun 2027 09:19:35.958             0.611           259.156
       226   08 Jun 2027 09:20:36.219   08 Jun 2027 09:20:37.958             1.739           571.688
       227   08 Jun 2027 09:21:22.613   08 Jun 2027 09:21:26.236             3.623          1300.375
       228   08 Jun 2027 09:22:19.752   08 Jun 2027 09:22:22.015             2.263           993.344
       229   08 Jun 2027 10:51:22.223   08 Jun 2027 10:51:35.229            13.006          5326.062
       230   08 Jun 2027 10:52:26.757   08 Jun 2027 10:52:31.885             5.128           829.031
       231   08 Jun 2027 10:52:58.581   08 Jun 2027 10:53:01.715             3.134           588.688
       232   08 Jun 2027 10:54:12.276   08 Jun 2027 10:54:17.700             5.424          2032.125
       233   08 Jun 2027 10:55:33.918   08 Jun 2027 10:55:34.299             0.381           190.500
       234   08 Jun 2027 10:56:11.045   08 Jun 2027 10:56:14.500             3.455          1567.250
       235   08 Jun 2027 10:56:35.697   08 Jun 2027 10:56:36.928             1.231           535.094
       236   08 Jun 2027 10:56:39.539   08 Jun 2027 10:56:46.190             6.651            81.594
       237   08 Jun 2027 10:56:53.832   08 Jun 2027 10:56:54.062             0.230            82.781
       238   08 Jun 2027 10:57:34.664   08 Jun 2027 10:57:45.394            10.730          1268.813
       239   08 Jun 2027 10:57:55.422   08 Jun 2027 10:57:57.522             2.100           161.125
       240   08 Jun 2027 10:58:11.802   08 Jun 2027 10:58:12.842             1.040           387.188
       241   09 Jun 2027 03:14:38.253   09 Jun 2027 03:15:31.339            53.086         26543.000
       242   09 Jun 2027 03:15:41.099   09 Jun 2027 03:16:17.180            36.081         18040.500
       243   09 Jun 2027 03:16:22.290   09 Jun 2027 03:16:22.922             0.632           316.000
       244   09 Jun 2027 03:16:23.493   09 Jun 2027 03:16:28.394             4.901          2450.500
       245   09 Jun 2027 03:16:46.842   09 Jun 2027 03:17:16.403            29.561         14780.500
       246   09 Jun 2027 03:19:34.017   09 Jun 2027 03:19:51.134            17.117          8558.500
       247   09 Jun 2027 04:53:03.152   09 Jun 2027 04:55:49.781           166.629         82086.125
       248   09 Jun 2027 04:56:46.794   09 Jun 2027 04:56:52.582             5.788          1781.656
       249   09 Jun 2027 06:16:28.566   09 Jun 2027 06:16:42.044            13.478          6141.281
       250   09 Jun 2027 06:17:40.061   09 Jun 2027 06:17:40.061             0.000             0.000
       251   09 Jun 2027 06:17:46.818   09 Jun 2027 06:17:50.219             3.401          1508.625
       252   09 Jun 2027 06:18:41.805   09 Jun 2027 06:18:45.019             3.214          1583.469
       253   09 Jun 2027 07:52:44.154   09 Jun 2027 07:52:50.639             6.485          3242.500
       254   09 Jun 2027 07:53:21.653   09 Jun 2027 07:53:25.605             3.952          1730.375
       255   09 Jun 2027 07:53:43.088   09 Jun 2027 07:53:43.088             0.000             0.000
       256   09 Jun 2027 07:53:44.133   09 Jun 2027 07:53:47.903             3.770           579.000
       257   09 Jun 2027 07:54:42.769   09 Jun 2027 07:54:45.343             2.574          1245.250
       258   09 Jun 2027 07:55:06.301   09 Jun 2027 07:55:08.290             1.989           627.250
       259   09 Jun 2027 07:55:49.075   09 Jun 2027 07:55:51.625             2.550           834.625
       260   09 Jun 2027 09:26:16.541   09 Jun 2027 09:26:22.260             5.719          2430.250
       261   09 Jun 2027 09:28:07.543   09 Jun 2027 09:28:09.190             1.647           616.875
       262   09 Jun 2027 09:29:20.207   09 Jun 2027 09:29:23.006             2.799           878.031
       263   09 Jun 2027 09:29:37.289   09 Jun 2027 09:29:38.028             0.739           119.156
       264   09 Jun 2027 09:31:12.365   09 Jun 2027 09:31:17.515             5.150          2283.875
       265   09 Jun 2027 09:33:15.400   09 Jun 2027 09:33:19.614             4.214          2107.000
       266   09 Jun 2027 09:34:09.207   09 Jun 2027 09:34:13.231             4.024          1571.000
       267   09 Jun 2027 11:03:48.986   09 Jun 2027 11:03:57.687             8.701          3878.531
       268   09 Jun 2027 11:07:37.592   09 Jun 2027 11:07:48.337            10.745          3173.250
       269   09 Jun 2027 11:08:44.588   09 Jun 2027 11:08:46.125             1.537           209.938
       270   09 Jun 2027 11:09:46.213   09 Jun 2027 11:09:50.533             4.320          1287.000
       271   09 Jun 2027 11:10:07.124   09 Jun 2027 11:10:09.339             2.215           452.937
       272   10 Jun 2027 03:26:38.875   10 Jun 2027 03:27:07.005            28.130         14065.000
       273   10 Jun 2027 03:27:09.240   10 Jun 2027 03:29:55.726           166.486         83243.000
       274   10 Jun 2027 03:30:10.112   10 Jun 2027 03:30:19.932             9.820          4910.000
       275   10 Jun 2027 03:31:55.066   10 Jun 2027 03:32:07.946            12.880          6440.000
       276   10 Jun 2027 05:04:41.923   10 Jun 2027 05:06:19.903            97.980         48990.000
       277   10 Jun 2027 05:07:13.549   10 Jun 2027 05:07:17.130             3.581          1772.593
       278   10 Jun 2027 05:07:44.405   10 Jun 2027 05:07:49.552             5.147           681.687
       279   10 Jun 2027 05:08:09.178   10 Jun 2027 05:08:11.321             2.143           593.844
       280   10 Jun 2027 06:28:20.428   10 Jun 2027 06:28:32.445            12.017          5538.406
       281   10 Jun 2027 06:29:41.227   10 Jun 2027 06:29:44.701             3.474          1603.062
       282   10 Jun 2027 06:29:58.340   10 Jun 2027 06:29:58.340             0.000             0.000
       283   10 Jun 2027 06:30:39.191   10 Jun 2027 06:30:43.878             4.687          1700.437
       284   10 Jun 2027 06:30:58.701   10 Jun 2027 06:31:00.198             1.497           404.000
       285   10 Jun 2027 08:04:48.239   10 Jun 2027 08:04:55.480             7.241          3620.500
       286   10 Jun 2027 08:05:23.819   10 Jun 2027 08:05:27.273             3.454           916.125
       287   10 Jun 2027 08:06:41.740   10 Jun 2027 08:06:46.410             4.670          1776.000
       288   10 Jun 2027 08:07:52.301   10 Jun 2027 08:07:59.715             7.414           866.281
       289   10 Jun 2027 09:38:56.283   10 Jun 2027 09:39:05.601             9.318          4333.469
       290   10 Jun 2027 09:40:42.949   10 Jun 2027 09:40:43.153             0.204            84.188
       291   10 Jun 2027 09:42:06.583   10 Jun 2027 09:42:14.349             7.766          1386.656
       292   10 Jun 2027 09:43:52.769   10 Jun 2027 09:43:56.759             3.990          1315.219
       293   10 Jun 2027 09:44:59.482   10 Jun 2027 09:45:00.608             1.126           420.875
       294   10 Jun 2027 09:45:46.047   10 Jun 2027 09:45:51.615             5.568           878.000
       295   10 Jun 2027 09:46:23.538   10 Jun 2027 09:46:24.828             1.290           382.937
       296   10 Jun 2027 09:46:44.109   10 Jun 2027 09:46:44.123             0.014             7.000
       297   10 Jun 2027 11:15:54.883   10 Jun 2027 11:16:10.247            15.364          6690.469
       298   10 Jun 2027 11:17:55.452   10 Jun 2027 11:17:58.626             3.174           287.094
       299   10 Jun 2027 11:19:06.404   10 Jun 2027 11:19:12.350             5.946           951.719
       300   10 Jun 2027 11:20:34.920   10 Jun 2027 11:20:39.339             4.419          1851.781
       301   10 Jun 2027 11:20:48.199   10 Jun 2027 11:20:51.279             3.080           248.094
       302   10 Jun 2027 11:20:53.547   10 Jun 2027 11:20:55.184             1.637            70.875
       303   10 Jun 2027 11:21:53.698   10 Jun 2027 11:21:57.721             4.023          1731.031
       304   10 Jun 2027 11:22:14.985   10 Jun 2027 11:22:17.506             2.521           504.312
       305   11 Jun 2027 03:38:47.043   11 Jun 2027 03:39:47.313            60.270         30135.000
       306   11 Jun 2027 03:39:56.100   11 Jun 2027 03:40:05.080             8.980          4490.000
       307   11 Jun 2027 03:40:10.261   11 Jun 2027 03:41:50.091            99.830         49915.000
       308   11 Jun 2027 03:42:17.545   11 Jun 2027 03:42:44.374            26.829         13414.500
       309   11 Jun 2027 03:44:16.690   11 Jun 2027 03:44:30.274            13.584          6792.000
       310   11 Jun 2027 05:17:07.576   11 Jun 2027 05:17:33.624            26.048         13024.000
       311   11 Jun 2027 05:18:00.722   11 Jun 2027 05:19:07.349            66.627         33042.562
       312   11 Jun 2027 05:19:50.625   11 Jun 2027 05:19:51.273             0.648           324.000
       313   11 Jun 2027 05:20:35.507   11 Jun 2027 05:20:40.749             5.242          2302.875
       314   11 Jun 2027 06:40:29.073   11 Jun 2027 06:40:37.872             8.799          4399.500
       315   11 Jun 2027 06:41:42.143   11 Jun 2027 06:41:49.872             7.729          2171.094
       316   11 Jun 2027 06:42:48.645   11 Jun 2027 06:42:59.824            11.179          1836.656
       317   11 Jun 2027 06:43:22.663   11 Jun 2027 06:43:25.116             2.453           545.125
       318   11 Jun 2027 08:16:59.108   11 Jun 2027 08:17:04.645             5.537          2109.406
       319   11 Jun 2027 08:17:46.606   11 Jun 2027 08:17:48.885             2.279          1041.313
       320   11 Jun 2027 08:18:54.629   11 Jun 2027 08:19:01.655             7.026          1669.625
       321   11 Jun 2027 08:19:37.398   11 Jun 2027 08:19:37.398             0.000             0.000
       322   11 Jun 2027 08:20:33.161   11 Jun 2027 08:20:35.801             2.640          1320.000
       323   11 Jun 2027 09:52:09.449   11 Jun 2027 09:52:17.990             8.541          3579.625
       324   11 Jun 2027 09:53:23.883   11 Jun 2027 09:53:28.302             4.419          1662.937
       325   11 Jun 2027 09:55:08.025   11 Jun 2027 09:55:11.806             3.781          1605.687
       326   11 Jun 2027 09:57:16.920   11 Jun 2027 09:57:25.133             8.213          3273.906
       327   11 Jun 2027 09:58:07.245   11 Jun 2027 09:58:08.892             1.647           175.188
       328   11 Jun 2027 09:58:38.097   11 Jun 2027 09:58:41.020             2.923           650.313
       329   11 Jun 2027 11:28:31.122   11 Jun 2027 11:28:49.530            18.408          5546.187
       330   11 Jun 2027 11:30:30.595   11 Jun 2027 11:30:31.241             0.646           170.094
       331   11 Jun 2027 11:30:41.266   11 Jun 2027 11:30:42.564             1.298           136.625
       332   11 Jun 2027 11:31:41.496   11 Jun 2027 11:31:43.854             2.358          1018.750
       333   11 Jun 2027 11:32:30.468   11 Jun 2027 11:32:33.432             2.964           416.750
       334   11 Jun 2027 11:32:46.615   11 Jun 2027 11:32:50.890             4.275           335.000
       335   11 Jun 2027 11:33:46.046   11 Jun 2027 11:33:54.379             8.333          1529.750
       336   11 Jun 2027 11:34:00.776   11 Jun 2027 11:34:02.930             2.154           175.813
       337   11 Jun 2027 11:34:05.827   11 Jun 2027 11:34:09.128             3.301            31.531
       338   11 Jun 2027 11:34:20.115   11 Jun 2027 11:34:29.801             9.686           343.344
       339   12 Jun 2027 03:50:51.750   12 Jun 2027 03:51:06.891            15.141          7570.500
       340   12 Jun 2027 03:51:54.269   12 Jun 2027 03:54:32.889           158.620         79310.000
       341   12 Jun 2027 03:56:55.817   12 Jun 2027 03:56:57.504             1.687           843.500
       342   12 Jun 2027 03:59:05.534   12 Jun 2027 03:59:43.234            37.700         18850.000
       343   12 Jun 2027 05:29:03.023   12 Jun 2027 05:29:40.818            37.795         18897.500
       344   12 Jun 2027 05:30:10.616   12 Jun 2027 05:31:13.593            62.977         31338.250
       345   12 Jun 2027 05:31:53.011   12 Jun 2027 05:31:56.074             3.063          1050.031
       346   12 Jun 2027 05:32:37.890   12 Jun 2027 05:32:38.081             0.191            95.500
       347   12 Jun 2027 06:53:12.087   12 Jun 2027 06:53:24.951            12.864          6432.000
       348   12 Jun 2027 06:53:52.016   12 Jun 2027 06:53:54.111             2.095          1035.406
       349   12 Jun 2027 06:55:05.691   12 Jun 2027 06:55:12.039             6.348          2236.875
       350   12 Jun 2027 08:28:55.019   12 Jun 2027 08:29:01.690             6.671          1789.844
       351   12 Jun 2027 08:30:36.512   12 Jun 2027 08:30:42.964             6.452          2815.219
       352   12 Jun 2027 08:30:53.569   12 Jun 2027 08:30:55.632             2.063           331.406
       353   12 Jun 2027 08:31:35.946   12 Jun 2027 08:31:38.603             2.657           812.406
       354   12 Jun 2027 10:03:52.476   12 Jun 2027 10:03:58.211             5.735          2387.063
       355   12 Jun 2027 10:05:25.164   12 Jun 2027 10:05:30.489             5.325          2110.531
       356   12 Jun 2027 10:06:12.985   12 Jun 2027 10:06:14.592             1.607           638.750
       357   12 Jun 2027 10:07:00.220   12 Jun 2027 10:07:03.495             3.275           956.562
       358   12 Jun 2027 10:09:16.867   12 Jun 2027 10:09:27.576            10.709          4146.656
       359   12 Jun 2027 10:10:26.079   12 Jun 2027 10:10:29.968             3.889          1828.219
       360   12 Jun 2027 10:10:47.272   12 Jun 2027 10:10:49.982             2.710           443.250
       361   12 Jun 2027 11:40:04.624   12 Jun 2027 11:40:15.189            10.565          4965.813
       362   12 Jun 2027 11:42:10.166   12 Jun 2027 11:42:14.932             4.766          1578.781
       363   12 Jun 2027 11:42:36.379   12 Jun 2027 11:42:38.368             1.989           670.219
       364   12 Jun 2027 11:43:52.710   12 Jun 2027 11:43:55.922             3.212          1425.344
       365   12 Jun 2027 11:44:33.584   12 Jun 2027 11:44:37.196             3.612           671.781
       366   12 Jun 2027 11:45:00.387   12 Jun 2027 11:45:02.098             1.711           439.031
       367   12 Jun 2027 11:45:42.379   12 Jun 2027 11:45:50.575             8.196          1258.781
       368   12 Jun 2027 11:45:56.350   12 Jun 2027 11:45:58.214             1.864           180.469
       369   12 Jun 2027 11:46:12.579   12 Jun 2027 11:46:14.065             1.486           407.406
       370   13 Jun 2027 04:03:57.200   13 Jun 2027 04:07:12.832           195.632         97816.000
       371   13 Jun 2027 04:08:46.493   13 Jun 2027 04:08:46.493             0.000             0.000
       372   13 Jun 2027 04:09:00.045   13 Jun 2027 04:09:00.045             0.000             0.000
       373   13 Jun 2027 04:10:07.609   13 Jun 2027 04:10:07.609             0.000             0.000
       374   13 Jun 2027 04:10:55.481   13 Jun 2027 04:11:33.500            38.019         19009.500
       375   13 Jun 2027 05:29:57.752   13 Jun 2027 05:30:11.961            14.209          7104.500
       376   13 Jun 2027 05:40:59.252   13 Jun 2027 05:42:42.086           102.834         51417.000
       377   13 Jun 2027 05:42:55.830   13 Jun 2027 05:43:10.756            14.926          7348.406
       378   13 Jun 2027 05:43:40.016   13 Jun 2027 05:43:43.918             3.902           472.844
       379   13 Jun 2027 07:03:59.214   13 Jun 2027 07:04:21.901            22.687          6321.594
       380   13 Jun 2027 07:04:55.621   13 Jun 2027 07:04:57.452             1.831           140.000
       381   13 Jun 2027 07:04:59.666   13 Jun 2027 07:05:01.748             2.082            43.531
       382   13 Jun 2027 07:05:27.299   13 Jun 2027 07:05:27.299             0.000             0.000
       383   13 Jun 2027 07:05:52.429   13 Jun 2027 07:05:53.477             1.048           524.000
       384   13 Jun 2027 07:06:28.303   13 Jun 2027 07:06:34.353             6.050          1671.937
       385   13 Jun 2027 07:07:52.222   13 Jun 2027 07:07:52.222             0.000             0.000
       386   13 Jun 2027 08:39:31.020   13 Jun 2027 08:39:37.164             6.144          2911.438
       387   13 Jun 2027 08:40:40.724   13 Jun 2027 08:40:43.131             2.407          1003.813
       388   13 Jun 2027 08:43:06.562   13 Jun 2027 08:43:17.310            10.748          4054.063
       389   13 Jun 2027 08:43:26.217   13 Jun 2027 08:43:27.836             1.619           278.344
       390   13 Jun 2027 08:43:32.145   13 Jun 2027 08:43:32.906             0.761           134.656
       391   13 Jun 2027 08:43:52.887   13 Jun 2027 08:43:58.271             5.384           602.812
       392   13 Jun 2027 08:44:52.028   13 Jun 2027 08:44:58.443             6.415          1065.594
       393   13 Jun 2027 10:15:26.130   13 Jun 2027 10:15:35.698             9.568          3017.344
       394   13 Jun 2027 10:17:26.003   13 Jun 2027 10:17:32.134             6.131          2706.688
       395   13 Jun 2027 10:18:45.645   13 Jun 2027 10:18:51.232             5.587          1660.750
       396   13 Jun 2027 10:21:16.147   13 Jun 2027 10:21:25.271             9.124          4291.375
       397   13 Jun 2027 10:22:20.694   13 Jun 2027 10:22:25.381             4.687          1386.063
       398   13 Jun 2027 11:52:26.163   13 Jun 2027 11:52:40.177            14.014          6403.938
       399   13 Jun 2027 11:53:03.148   13 Jun 2027 11:53:07.207             4.059           361.312
       400   13 Jun 2027 11:53:41.914   13 Jun 2027 11:53:43.812             1.898             0.656
       401   13 Jun 2027 11:54:01.314   13 Jun 2027 11:54:03.906             2.592           512.375
       402   13 Jun 2027 11:54:19.531   13 Jun 2027 11:54:24.495             4.964           488.281
       403   13 Jun 2027 11:54:53.279   13 Jun 2027 11:54:57.608             4.329           265.469
       404   13 Jun 2027 11:56:09.731   13 Jun 2027 11:56:14.727             4.996          1978.719
       405   13 Jun 2027 11:56:21.432   13 Jun 2027 11:56:23.221             1.789           209.531
       406   13 Jun 2027 11:56:53.183   13 Jun 2027 11:56:58.342             5.159           470.438
       407   13 Jun 2027 11:57:41.887   13 Jun 2027 11:57:45.004             3.117          1111.437
       408   13 Jun 2027 11:57:57.238   13 Jun 2027 11:58:00.110             2.872           353.188
       409   13 Jun 2027 11:58:14.194   13 Jun 2027 11:58:14.994             0.800           289.000
       410   13 Jun 2027 11:58:22.853   13 Jun 2027 11:58:24.078             1.225           102.844
