uniorb/output/strategy_4/Camera/Camera_KinoSat_110708.txt

KinoSat_110708
-------------------------
    Access    *     Start Time (UTCG)     *     Stop Time (UTCG)  *   Duration (s) *   Data (Mbytes)
         1   01 Jun 2027 03:09:38.426   01 Jun 2027 03:10:29.692            51.266         25633.000
         2   01 Jun 2027 03:11:34.269   01 Jun 2027 03:11:34.269             0.000             0.000
         3   01 Jun 2027 03:12:13.872   01 Jun 2027 03:12:20.037             6.165          3082.500
         4   01 Jun 2027 03:12:47.740   01 Jun 2027 03:13:02.893            15.153          7576.500
         5   01 Jun 2027 03:13:27.124   01 Jun 2027 03:13:34.003             6.879          3439.500
         6   01 Jun 2027 03:14:13.261   01 Jun 2027 03:14:18.102             4.841          2420.500
         7   01 Jun 2027 04:44:59.319   01 Jun 2027 04:45:56.893            57.574         28787.000
         8   01 Jun 2027 04:46:30.400   01 Jun 2027 04:46:52.521            22.121         11060.500
         9   01 Jun 2027 04:47:00.269   01 Jun 2027 04:47:15.917            15.648          7824.000
        10   01 Jun 2027 04:48:41.811   01 Jun 2027 04:48:42.422             0.611           305.500
        11   01 Jun 2027 04:49:54.573   01 Jun 2027 04:50:07.172            12.599          6299.500
        12   01 Jun 2027 04:50:29.232   01 Jun 2027 04:50:35.350             6.118          3059.000
        13   01 Jun 2027 04:50:44.825   01 Jun 2027 04:50:51.728             6.903          3451.500
        14   01 Jun 2027 06:21:27.982   01 Jun 2027 06:22:54.263            86.281         43140.500
        15   01 Jun 2027 06:23:31.559   01 Jun 2027 06:23:45.434            13.875          6937.500
        16   01 Jun 2027 06:23:57.053   01 Jun 2027 06:23:57.362             0.309           154.500
        17   01 Jun 2027 06:24:14.210   01 Jun 2027 06:24:33.069            18.859          9429.500
        18   01 Jun 2027 06:24:43.372   01 Jun 2027 06:24:57.590            14.218          7109.000
        19   01 Jun 2027 06:28:58.284   01 Jun 2027 06:28:58.826             0.542           271.000
        20   01 Jun 2027 07:58:33.390   01 Jun 2027 08:00:46.512           133.122         66561.000
        21   01 Jun 2027 08:02:12.513   01 Jun 2027 08:02:37.367            24.854         12427.000
        22   01 Jun 2027 09:36:27.452   01 Jun 2027 09:39:36.680           189.228         94614.000
        23   01 Jun 2027 09:40:02.547   01 Jun 2027 09:40:14.634            12.087          6043.500
        24   01 Jun 2027 11:09:35.256   01 Jun 2027 11:12:03.800           148.544         74272.000
        25   01 Jun 2027 11:14:11.379   01 Jun 2027 11:14:20.199             8.820          4410.000
        26   01 Jun 2027 11:14:47.833   01 Jun 2027 11:14:58.614            10.781          5390.500
        27   02 Jun 2027 03:21:14.327   02 Jun 2027 03:22:12.481            58.154         29077.000
        28   02 Jun 2027 04:56:08.364   02 Jun 2027 04:58:10.769           122.405         61202.500
        29   02 Jun 2027 04:58:17.238   02 Jun 2027 04:58:40.536            23.298         11649.000
        30   02 Jun 2027 04:59:00.355   02 Jun 2027 04:59:07.728             7.373          3686.500
        31   02 Jun 2027 04:59:19.741   02 Jun 2027 04:59:19.741             0.000             0.000
        32   02 Jun 2027 05:01:40.600   02 Jun 2027 05:01:53.516            12.916          6458.000
        33   02 Jun 2027 05:02:19.455   02 Jun 2027 05:02:19.455             0.000             0.000
        34   02 Jun 2027 05:04:31.976   02 Jun 2027 05:04:37.259             5.283          2641.500
        35   02 Jun 2027 06:33:41.802   02 Jun 2027 06:35:46.313           124.511         62255.500
        36   02 Jun 2027 06:36:41.785   02 Jun 2027 06:37:52.521            70.736         35368.000
        37   02 Jun 2027 06:37:56.957   02 Jun 2027 06:37:57.348             0.391           195.500
        38   02 Jun 2027 06:38:10.320   02 Jun 2027 06:38:17.616             7.296          3648.000
        39   02 Jun 2027 06:39:13.392   02 Jun 2027 06:39:35.269            21.877         10938.500
        40   02 Jun 2027 06:39:50.262   02 Jun 2027 06:40:06.282            16.020          8010.000
        41   02 Jun 2027 06:41:01.875   02 Jun 2027 06:41:02.224             0.349           174.500
        42   02 Jun 2027 08:10:24.275   02 Jun 2027 08:14:00.058           215.783        107891.500
        43   02 Jun 2027 08:15:37.514   02 Jun 2027 08:15:46.120             8.606          4303.000
        44   02 Jun 2027 08:15:48.760   02 Jun 2027 08:16:01.792            13.032          4871.875
        45   02 Jun 2027 09:48:27.348   02 Jun 2027 09:48:51.567            24.219         11553.938
        46   02 Jun 2027 09:50:11.781   02 Jun 2027 09:50:15.578             3.797          1065.344
        47   02 Jun 2027 09:51:35.992   02 Jun 2027 09:51:39.613             3.621           398.563
        48   02 Jun 2027 09:51:44.319   02 Jun 2027 09:51:46.006             1.687            15.094
        49   02 Jun 2027 09:51:49.069   02 Jun 2027 09:51:49.747             0.678             8.937
        50   02 Jun 2027 09:52:34.373   02 Jun 2027 09:52:36.712             2.339           289.063
        51   02 Jun 2027 11:22:04.329   02 Jun 2027 11:22:07.202             2.873          1319.375
        52   03 Jun 2027 03:32:43.802   03 Jun 2027 03:33:01.738            17.936          8968.000
        53   03 Jun 2027 03:33:11.812   03 Jun 2027 03:33:20.548             8.736          4368.000
        54   03 Jun 2027 05:07:39.006   03 Jun 2027 05:11:12.555           213.549        106774.500
        55   03 Jun 2027 05:11:20.547   03 Jun 2027 05:11:32.170            11.623          5811.500
        56   03 Jun 2027 05:11:48.086   03 Jun 2027 05:12:17.285            29.199         14599.500
        57   03 Jun 2027 05:16:33.712   03 Jun 2027 05:16:34.488             0.776           388.000
        58   03 Jun 2027 06:45:35.753   03 Jun 2027 06:46:27.652            51.899         25541.874
        59   03 Jun 2027 06:46:54.642   03 Jun 2027 06:46:56.126             1.484           564.344
        60   03 Jun 2027 06:47:39.077   03 Jun 2027 06:47:47.282             8.205           256.875
        61   03 Jun 2027 06:48:21.985   03 Jun 2027 06:48:22.814             0.829           209.000
        62   03 Jun 2027 06:49:14.197   03 Jun 2027 06:49:15.560             1.363           681.500
        63   03 Jun 2027 06:50:23.190   03 Jun 2027 06:50:29.244             6.054          2553.531
        64   03 Jun 2027 06:50:33.032   03 Jun 2027 06:50:34.980             1.948            40.375
        65   03 Jun 2027 06:51:41.856   03 Jun 2027 06:51:48.945             7.089          1934.906
        66   03 Jun 2027 08:22:27.435   03 Jun 2027 08:22:33.335             5.900          1826.469
        67   03 Jun 2027 08:25:27.964   03 Jun 2027 08:25:39.720            11.756           856.844
        68   03 Jun 2027 08:25:53.002   03 Jun 2027 08:25:53.910             0.908           336.375
        69   03 Jun 2027 08:26:21.168   03 Jun 2027 08:26:26.296             5.128           774.438
        70   03 Jun 2027 08:27:05.672   03 Jun 2027 08:27:07.746             2.074           283.906
        71   03 Jun 2027 08:28:11.248   03 Jun 2027 08:28:16.711             5.463           669.125
        72   03 Jun 2027 08:28:24.601   03 Jun 2027 08:28:25.569             0.968           221.688
        73   03 Jun 2027 10:00:13.888   03 Jun 2027 10:00:24.396            10.508          4918.875
        74   03 Jun 2027 10:00:36.946   03 Jun 2027 10:00:38.148             1.202           174.094
        75   03 Jun 2027 10:00:57.479   03 Jun 2027 10:00:59.286             1.807           604.094
        76   03 Jun 2027 10:03:08.352   03 Jun 2027 10:03:09.394             1.042            16.625
        77   03 Jun 2027 10:03:50.264   03 Jun 2027 10:03:51.652             1.388           604.781
        78   03 Jun 2027 11:36:13.375   03 Jun 2027 11:36:16.483             3.108          1187.469
        79   04 Jun 2027 03:46:46.938   04 Jun 2027 03:46:59.410            12.472          6236.000
        80   04 Jun 2027 03:47:46.650   04 Jun 2027 03:47:51.146             4.496          2248.000
        81   04 Jun 2027 05:20:33.029   04 Jun 2027 05:23:38.721           185.692         92846.000
        82   04 Jun 2027 05:27:46.780   04 Jun 2027 05:28:14.617            27.837         13918.500
        83   04 Jun 2027 05:28:42.868   04 Jun 2027 05:29:05.948            23.080         11540.000
        84   04 Jun 2027 06:57:55.826   04 Jun 2027 06:59:02.649            66.823         32246.969
        85   04 Jun 2027 07:00:53.276   04 Jun 2027 07:00:55.419             2.143           430.094
        86   04 Jun 2027 07:01:54.002   04 Jun 2027 07:01:56.849             2.847           876.406
        87   04 Jun 2027 07:02:18.989   04 Jun 2027 07:02:20.004             1.015           492.594
        88   04 Jun 2027 07:03:32.729   04 Jun 2027 07:03:39.933             7.204          2012.063
        89   04 Jun 2027 08:35:00.411   04 Jun 2027 08:35:05.001             4.590          2072.531
        90   04 Jun 2027 08:38:27.637   04 Jun 2027 08:38:28.549             0.912           142.500
        91   04 Jun 2027 08:39:23.147   04 Jun 2027 08:39:24.189             1.042           311.500
        92   04 Jun 2027 08:40:30.447   04 Jun 2027 08:40:33.772             3.325           761.969
        93   04 Jun 2027 10:11:44.663   04 Jun 2027 10:11:56.957            12.294          6105.781
        94   04 Jun 2027 10:15:43.829   04 Jun 2027 10:15:46.566             2.737           497.094
        95   04 Jun 2027 10:16:14.972   04 Jun 2027 10:16:17.660             2.688           472.000
        96   04 Jun 2027 11:47:00.530   04 Jun 2027 11:47:02.328             1.798           681.063
        97   05 Jun 2027 03:59:01.182   05 Jun 2027 03:59:16.964            15.782          7891.000
        98   05 Jun 2027 05:31:18.104   05 Jun 2027 05:31:36.973            18.869          9434.500
        99   05 Jun 2027 05:33:05.197   05 Jun 2027 05:35:44.381           159.184         79592.000
       100   05 Jun 2027 05:40:50.781   05 Jun 2027 05:41:03.322            12.541          6270.500
       101   05 Jun 2027 07:10:09.661   05 Jun 2027 07:12:07.069           117.408         58692.219
       102   05 Jun 2027 07:13:14.587   05 Jun 2027 07:13:17.557             2.970           591.875
       103   05 Jun 2027 07:13:26.684   05 Jun 2027 07:13:29.491             2.807           144.719
       104   05 Jun 2027 07:13:53.569   05 Jun 2027 07:13:59.142             5.573            86.875
       105   05 Jun 2027 08:47:05.844   05 Jun 2027 08:47:15.110             9.266          4225.094
       106   05 Jun 2027 08:51:59.900   05 Jun 2027 08:52:00.238             0.338            56.375
       107   05 Jun 2027 10:23:52.446   05 Jun 2027 10:24:06.103            13.657          6663.531
       108   05 Jun 2027 10:26:07.215   05 Jun 2027 10:26:09.162             1.947           381.937
       109   06 Jun 2027 04:11:11.698   06 Jun 2027 04:11:56.775            45.077         22538.500
       110   06 Jun 2027 05:46:16.581   06 Jun 2027 05:48:26.877           130.296         65148.000
       111   06 Jun 2027 05:49:23.791   06 Jun 2027 05:49:47.136            23.345         11672.500
       112   06 Jun 2027 05:50:09.446   06 Jun 2027 05:50:38.080            28.634         14317.000
       113   06 Jun 2027 05:52:55.000   06 Jun 2027 05:53:04.431             9.431          4715.500
       114   06 Jun 2027 07:22:38.302   06 Jun 2027 07:24:10.364            92.062         45715.031
       115   06 Jun 2027 07:26:24.277   06 Jun 2027 07:26:25.748             1.471           638.563
       116   06 Jun 2027 09:00:08.876   06 Jun 2027 09:00:23.488            14.612          5743.938
       117   06 Jun 2027 09:01:09.054   06 Jun 2027 09:01:11.618             2.564          1183.688
       118   06 Jun 2027 09:02:26.097   06 Jun 2027 09:02:30.657             4.560          2043.531
       119   06 Jun 2027 09:04:05.598   06 Jun 2027 09:04:07.274             1.676           828.469
       120   06 Jun 2027 09:04:26.053   06 Jun 2027 09:04:26.327             0.274           101.188
       121   06 Jun 2027 10:36:13.466   06 Jun 2027 10:36:26.059            12.593          5313.188
       122   06 Jun 2027 10:40:23.254   06 Jun 2027 10:40:27.396             4.142          1017.156
       123   07 Jun 2027 04:24:47.069   07 Jun 2027 04:26:10.707            83.638         41819.000
       124   07 Jun 2027 04:26:24.815   07 Jun 2027 04:26:40.600            15.785          7892.500
       125   07 Jun 2027 05:58:26.612   07 Jun 2027 06:00:57.795           151.183         75591.500
       126   07 Jun 2027 06:02:39.519   07 Jun 2027 06:02:47.610             8.091          4045.500
       127   07 Jun 2027 06:03:50.236   07 Jun 2027 06:04:00.852            10.616          5308.000
       128   07 Jun 2027 07:34:42.250   07 Jun 2027 07:35:44.253            62.003         30998.125
       129   07 Jun 2027 07:36:51.795   07 Jun 2027 07:36:57.251             5.456           599.500
       130   07 Jun 2027 07:37:12.131   07 Jun 2027 07:37:20.338             8.207           276.906
       131   07 Jun 2027 07:37:36.194   07 Jun 2027 07:37:39.601             3.407           112.344
       132   07 Jun 2027 07:38:06.904   07 Jun 2027 07:38:08.061             1.157           492.750
       133   07 Jun 2027 07:38:52.911   07 Jun 2027 07:38:54.205             1.294           483.156
       134   07 Jun 2027 07:39:26.707   07 Jun 2027 07:39:27.333             0.626           108.594
       135   07 Jun 2027 07:39:46.088   07 Jun 2027 07:39:47.531             1.443           247.062
       136   07 Jun 2027 07:40:14.632   07 Jun 2027 07:40:17.346             2.714             3.625
       137   07 Jun 2027 09:12:14.389   07 Jun 2027 09:12:27.544            13.155          5563.250
       138   07 Jun 2027 09:13:35.507   07 Jun 2027 09:13:43.568             8.061           670.125
       139   07 Jun 2027 09:14:23.547   07 Jun 2027 09:14:24.244             0.697           343.031
       140   07 Jun 2027 09:15:10.494   07 Jun 2027 09:15:20.710            10.216          1327.438
       141   07 Jun 2027 09:16:01.069   07 Jun 2027 09:16:01.396             0.327           145.719
       142   07 Jun 2027 10:48:15.673   07 Jun 2027 10:48:26.107            10.434          5181.125
       143   08 Jun 2027 03:00:00.000   08 Jun 2027 03:00:15.486            15.486          7743.000
       144   08 Jun 2027 04:34:59.956   08 Jun 2027 04:35:20.581            20.625         10312.500
       145   08 Jun 2027 04:35:29.409   08 Jun 2027 04:37:18.561           109.152         54576.000
       146   08 Jun 2027 04:38:27.737   08 Jun 2027 04:39:13.883            46.146         23073.000
       147   08 Jun 2027 06:09:51.263   08 Jun 2027 06:11:42.193           110.930         54994.593
       148   08 Jun 2027 06:11:47.428   08 Jun 2027 06:11:47.428             0.000             0.000
       149   08 Jun 2027 06:12:25.054   08 Jun 2027 06:12:28.142             3.088          1339.406
       150   08 Jun 2027 06:13:17.380   08 Jun 2027 06:13:22.609             5.229           889.969
       151   08 Jun 2027 06:14:42.825   08 Jun 2027 06:14:50.583             7.758           536.375
       152   08 Jun 2027 06:15:40.957   08 Jun 2027 06:15:42.811             1.854           927.000
       153   08 Jun 2027 06:16:26.535   08 Jun 2027 06:16:30.852             4.317          2013.562
       154   08 Jun 2027 06:16:37.273   08 Jun 2027 06:16:37.849             0.576             3.406
       155   08 Jun 2027 07:50:12.672   08 Jun 2027 07:50:18.102             5.430          2240.281
       156   08 Jun 2027 07:51:10.405   08 Jun 2027 07:51:16.906             6.501           211.375
       157   08 Jun 2027 07:52:06.307   08 Jun 2027 07:52:13.868             7.561           897.844
       158   08 Jun 2027 09:24:44.481   08 Jun 2027 09:24:53.331             8.850          4403.781
       159   08 Jun 2027 09:25:00.370   08 Jun 2027 09:25:01.900             1.530           213.937
       160   08 Jun 2027 09:26:28.317   08 Jun 2027 09:26:33.453             5.136          1438.469
       161   08 Jun 2027 09:27:41.985   08 Jun 2027 09:27:45.462             3.477           625.406
       162   08 Jun 2027 10:58:44.185   08 Jun 2027 10:58:58.116            13.931          5300.750
       163   08 Jun 2027 11:04:09.385   08 Jun 2027 11:04:16.156             6.771           706.188
       164   09 Jun 2027 03:09:53.111   09 Jun 2027 03:10:08.703            15.592          7796.000
       165   09 Jun 2027 03:11:28.732   09 Jun 2027 03:11:32.326             3.594          1797.000
       166   09 Jun 2027 04:45:13.255   09 Jun 2027 04:46:11.859            58.604         29302.000
       167   09 Jun 2027 04:46:44.995   09 Jun 2027 04:48:55.953           130.958         65479.000
       168   09 Jun 2027 04:49:13.895   09 Jun 2027 04:49:22.199             8.304          4152.000
       169   09 Jun 2027 04:50:41.660   09 Jun 2027 04:50:46.025             4.365          2182.500
       170   09 Jun 2027 04:50:50.619   09 Jun 2027 04:50:50.619             0.000             0.000
       171   09 Jun 2027 04:51:31.109   09 Jun 2027 04:51:31.328             0.219           109.500
       172   09 Jun 2027 06:21:43.093   09 Jun 2027 06:23:17.412            94.319         43725.031
       173   09 Jun 2027 06:24:29.716   09 Jun 2027 06:24:31.251             1.535           523.750
       174   09 Jun 2027 06:24:50.981   09 Jun 2027 06:24:51.400             0.419           100.156
       175   09 Jun 2027 06:25:19.553   09 Jun 2027 06:25:23.732             4.179           576.250
       176   09 Jun 2027 06:26:53.459   09 Jun 2027 06:27:01.177             7.718           355.750
       177   09 Jun 2027 06:27:33.887   09 Jun 2027 06:27:37.618             3.731           341.969
       178   09 Jun 2027 06:28:19.611   09 Jun 2027 06:28:21.649             2.038           576.969
       179   09 Jun 2027 07:58:47.939   09 Jun 2027 07:58:48.359             0.420            85.719
       180   09 Jun 2027 08:01:05.826   09 Jun 2027 08:01:06.125             0.299           139.969
       181   09 Jun 2027 08:02:58.214   09 Jun 2027 08:03:02.680             4.466          1044.406
       182   09 Jun 2027 08:03:15.677   09 Jun 2027 08:03:17.079             1.402           225.812
       183   09 Jun 2027 08:03:52.686   09 Jun 2027 08:03:54.913             2.227          1112.719
       184   09 Jun 2027 08:04:18.121   09 Jun 2027 08:04:20.526             2.405           456.063
       185   09 Jun 2027 08:04:54.101   09 Jun 2027 08:04:55.379             1.278           472.281
       186   09 Jun 2027 09:36:42.142   09 Jun 2027 09:36:56.577            14.435          6228.594
       187   09 Jun 2027 09:38:27.870   09 Jun 2027 09:38:32.465             4.595          1233.312
       188   09 Jun 2027 09:40:02.008   09 Jun 2027 09:40:05.268             3.260           944.844
       189   09 Jun 2027 11:09:50.533   09 Jun 2027 11:10:02.747            12.214          5382.187
       190   10 Jun 2027 03:21:28.930   10 Jun 2027 03:21:36.249             7.319          3659.500
       191   10 Jun 2027 03:23:24.341   10 Jun 2027 03:23:34.187             9.846          4923.000
       192   10 Jun 2027 03:24:16.168   10 Jun 2027 03:24:18.534             2.366          1183.000
       193   10 Jun 2027 04:56:22.820   10 Jun 2027 04:58:25.562           122.742         61371.000
       194   10 Jun 2027 04:58:32.021   10 Jun 2027 04:59:57.343            85.322         42661.000
       195   10 Jun 2027 05:00:49.043   10 Jun 2027 05:01:00.634            11.591          5795.500
       196   10 Jun 2027 05:01:56.666   10 Jun 2027 05:01:58.245             1.579           789.500
       197   10 Jun 2027 05:04:37.924   10 Jun 2027 05:04:52.388            14.464          7232.000
       198   10 Jun 2027 06:33:56.402   10 Jun 2027 06:34:52.340            55.938         27969.000
       199   10 Jun 2027 06:35:08.761   10 Jun 2027 06:35:15.009             6.248          1563.125
       200   10 Jun 2027 06:36:40.113   10 Jun 2027 06:36:42.124             2.011           698.875
       201   10 Jun 2027 06:36:52.812   10 Jun 2027 06:36:54.224             1.412           140.094
       202   10 Jun 2027 06:37:24.254   10 Jun 2027 06:37:24.254             0.000             0.000
       203   10 Jun 2027 06:38:40.615   10 Jun 2027 06:38:46.919             6.304          3006.719
       204   10 Jun 2027 06:38:56.201   10 Jun 2027 06:39:02.615             6.414           290.062
       205   10 Jun 2027 06:39:50.477   10 Jun 2027 06:39:53.510             3.033          1420.906
       206   10 Jun 2027 06:41:00.302   10 Jun 2027 06:41:04.792             4.490            73.750
       207   10 Jun 2027 08:10:38.883   10 Jun 2027 08:10:42.945             4.062           692.156
       208   10 Jun 2027 08:13:28.348   10 Jun 2027 08:13:37.222             8.874           862.156
       209   10 Jun 2027 08:14:15.305   10 Jun 2027 08:14:17.387             2.082            92.500
       210   10 Jun 2027 08:14:53.478   10 Jun 2027 08:14:55.392             1.914           863.469
       211   10 Jun 2027 08:15:51.435   10 Jun 2027 08:15:54.188             2.753          1088.375
       212   10 Jun 2027 08:16:59.055   10 Jun 2027 08:17:11.890            12.835          1515.187
       213   10 Jun 2027 09:48:42.016   10 Jun 2027 09:48:54.020            12.004          5201.562
       214   10 Jun 2027 09:49:53.932   10 Jun 2027 09:49:56.043             2.111           857.094
       215   10 Jun 2027 09:51:38.700   10 Jun 2027 09:51:40.343             1.643           134.031
       216   10 Jun 2027 09:51:50.768   10 Jun 2027 09:51:54.719             3.951           325.781
       217   10 Jun 2027 09:52:02.569   10 Jun 2027 09:52:03.301             0.732            43.781
       218   10 Jun 2027 09:52:04.034   10 Jun 2027 09:52:04.629             0.595            22.906
       219   10 Jun 2027 09:52:20.432   10 Jun 2027 09:52:21.439             1.007            48.469
       220   10 Jun 2027 09:52:49.521   10 Jun 2027 09:52:51.506             1.985           290.937
       221   10 Jun 2027 11:22:19.281   10 Jun 2027 11:22:22.138             2.857          1239.781
       222   11 Jun 2027 03:32:58.178   11 Jun 2027 03:33:16.807            18.629          9314.500
       223   11 Jun 2027 03:34:09.182   11 Jun 2027 03:34:10.668             1.486           743.000
       224   11 Jun 2027 03:36:19.593   11 Jun 2027 03:36:19.593             0.000             0.000
       225   11 Jun 2027 03:38:50.638   11 Jun 2027 03:38:58.706             8.068          4034.000
       226   11 Jun 2027 05:07:53.477   11 Jun 2027 05:11:27.600           214.123        107061.500
       227   11 Jun 2027 05:15:20.426   11 Jun 2027 05:15:22.896             2.470          1235.000
       228   11 Jun 2027 05:16:47.759   11 Jun 2027 05:16:48.357             0.598           299.000
       229   11 Jun 2027 05:16:48.586   11 Jun 2027 05:17:18.069            29.483         14741.500
       230   11 Jun 2027 06:45:50.313   11 Jun 2027 06:46:50.321            60.008         28318.562
       231   11 Jun 2027 06:47:11.731   11 Jun 2027 06:47:13.690             1.959           616.938
       232   11 Jun 2027 06:47:55.245   11 Jun 2027 06:48:01.895             6.650           268.187
       233   11 Jun 2027 06:48:37.769   11 Jun 2027 06:48:42.596             4.827           245.844
       234   11 Jun 2027 06:49:07.713   11 Jun 2027 06:49:09.519             1.806           417.625
       235   11 Jun 2027 06:50:38.304   11 Jun 2027 06:50:43.640             5.336          2139.625
       236   11 Jun 2027 06:50:49.986   11 Jun 2027 06:50:54.481             4.495            28.781
       237   11 Jun 2027 06:51:36.269   11 Jun 2027 06:51:41.166             4.897          1171.438
       238   11 Jun 2027 08:22:43.905   11 Jun 2027 08:22:50.421             6.516          1951.969
       239   11 Jun 2027 08:24:59.099   11 Jun 2027 08:25:03.688             4.589          1327.750
       240   11 Jun 2027 08:25:57.267   11 Jun 2027 08:26:05.863             8.596          1666.094
       241   11 Jun 2027 08:26:14.563   11 Jun 2027 08:26:16.955             2.392           168.188
       242   11 Jun 2027 08:27:09.796   11 Jun 2027 08:27:13.941             4.145          1042.594
       243   11 Jun 2027 08:28:25.767   11 Jun 2027 08:28:29.489             3.722          1746.531
       244   11 Jun 2027 08:28:41.063   11 Jun 2027 08:28:42.884             1.821           217.188
       245   11 Jun 2027 10:00:28.389   11 Jun 2027 10:00:40.265            11.876          5029.094
       246   11 Jun 2027 10:00:51.525   11 Jun 2027 10:00:52.727             1.202           153.031
       247   11 Jun 2027 10:03:22.771   11 Jun 2027 10:03:23.307             0.536            14.594
       248   11 Jun 2027 10:04:05.495   11 Jun 2027 10:04:07.632             2.137           548.094
       249   11 Jun 2027 10:04:35.674   11 Jun 2027 10:04:39.195             3.521           201.406
       250   11 Jun 2027 11:34:42.298   11 Jun 2027 11:34:45.081             2.783          1231.406
       251   12 Jun 2027 03:47:01.699   12 Jun 2027 03:47:10.361             8.662          4331.000
       252   12 Jun 2027 03:48:20.273   12 Jun 2027 03:48:20.273             0.000             0.000
       253   12 Jun 2027 03:48:47.932   12 Jun 2027 03:48:48.450             0.518           259.000
       254   12 Jun 2027 03:49:01.259   12 Jun 2027 03:49:08.939             7.680          3840.000
       255   12 Jun 2027 05:20:47.107   12 Jun 2027 05:23:53.446           186.339         93169.500
       256   12 Jun 2027 05:28:57.716   12 Jun 2027 05:29:20.601            22.885         11442.500
       257   12 Jun 2027 06:58:11.009   12 Jun 2027 06:59:49.743            98.734         47907.562
       258   12 Jun 2027 07:00:55.535   12 Jun 2027 07:00:59.900             4.365          2056.000
       259   12 Jun 2027 07:01:11.005   12 Jun 2027 07:01:11.005             0.000             0.000
       260   12 Jun 2027 07:01:41.676   12 Jun 2027 07:01:45.756             4.080          1259.062
       261   12 Jun 2027 07:02:34.971   12 Jun 2027 07:02:36.206             1.235           498.250
       262   12 Jun 2027 07:03:45.746   12 Jun 2027 07:03:52.476             6.730          1953.719
       263   12 Jun 2027 08:35:14.969   12 Jun 2027 08:35:20.210             5.241          2163.531
       264   12 Jun 2027 08:38:48.083   12 Jun 2027 08:38:51.816             3.733           305.187
       265   12 Jun 2027 08:39:38.323   12 Jun 2027 08:39:39.477             1.154           310.719
       266   12 Jun 2027 08:40:45.020   12 Jun 2027 08:40:46.498             1.478           720.438
       267   12 Jun 2027 10:11:59.553   12 Jun 2027 10:12:12.314            12.761          6172.406
       268   12 Jun 2027 10:16:06.335   12 Jun 2027 10:16:11.266             4.931           360.563
       269   12 Jun 2027 11:47:15.639   12 Jun 2027 11:47:21.756             6.117           766.000
       270   13 Jun 2027 03:59:15.956   13 Jun 2027 03:59:25.615             9.659          4829.500
       271   13 Jun 2027 04:00:56.927   13 Jun 2027 04:00:56.927             0.000             0.000
       272   13 Jun 2027 05:33:19.929   13 Jun 2027 05:36:00.714           160.785         80392.500
       273   13 Jun 2027 05:36:57.585   13 Jun 2027 05:37:06.695             9.110          4555.000
       274   13 Jun 2027 05:37:17.780   13 Jun 2027 05:37:20.423             2.643          1321.500
       275   13 Jun 2027 05:40:32.373   13 Jun 2027 05:40:47.192            14.819          7409.500
       276   13 Jun 2027 05:40:57.693   13 Jun 2027 05:41:08.444            10.751          5375.500
       277   13 Jun 2027 05:41:15.346   13 Jun 2027 05:41:17.927             2.581          1290.500
       278   13 Jun 2027 07:10:24.515   13 Jun 2027 07:12:10.711           106.196         52806.719
       279   13 Jun 2027 07:14:40.309   13 Jun 2027 07:14:41.872             1.563           296.844
       280   13 Jun 2027 07:16:25.752   13 Jun 2027 07:16:26.320             0.568             7.719
       281   13 Jun 2027 08:47:20.449   13 Jun 2027 08:47:29.497             9.048          4052.469
       282   13 Jun 2027 08:49:26.673   13 Jun 2027 08:49:32.582             5.909          2337.531
       283   13 Jun 2027 08:51:39.519   13 Jun 2027 08:51:41.829             2.310           606.281
       284   13 Jun 2027 10:24:07.006   13 Jun 2027 10:24:18.124            11.118          5384.281
       285   13 Jun 2027 10:28:06.491   13 Jun 2027 10:28:11.612             5.121           172.281
