uniorb/output/strategy_4/Camera/Camera_KinoSat_111702.txt

KinoSat_111702
-------------------------
    Access    *     Start Time (UTCG)     *     Stop Time (UTCG)  *   Duration (s) *   Data (Mbytes)
         1   01 Jun 2027 03:39:21.857   01 Jun 2027 03:40:15.541            53.684         26842.000
         2   01 Jun 2027 03:40:25.028   01 Jun 2027 03:41:06.760            41.732         20866.000
         3   01 Jun 2027 03:41:07.357   01 Jun 2027 03:41:57.982            50.625         25312.500
         4   01 Jun 2027 03:43:49.619   01 Jun 2027 03:44:00.331            10.712          5356.000
         5   01 Jun 2027 05:17:47.061   01 Jun 2027 05:19:33.625           106.564         53282.000
         6   01 Jun 2027 05:20:42.899   01 Jun 2027 05:21:03.729            20.830         10415.000
         7   01 Jun 2027 06:41:13.096   01 Jun 2027 06:42:25.476            72.380         36190.000
         8   01 Jun 2027 06:43:13.593   01 Jun 2027 06:43:13.593             0.000             0.000
         9   01 Jun 2027 08:17:27.701   01 Jun 2027 08:19:51.125           143.424         71712.000
        10   01 Jun 2027 09:51:00.177   01 Jun 2027 09:52:52.622           112.445         56222.500
        11   01 Jun 2027 09:55:54.044   01 Jun 2027 09:56:49.520            55.476         27738.000
        12   01 Jun 2027 09:57:58.490   01 Jun 2027 09:57:59.049             0.559           279.500
        13   01 Jun 2027 09:59:32.718   01 Jun 2027 09:59:33.752             1.034           517.000
        14   01 Jun 2027 11:28:32.805   01 Jun 2027 11:30:30.509           117.704         58852.000
        15   01 Jun 2027 11:32:29.568   01 Jun 2027 11:33:14.318            44.750         22375.000
        16   01 Jun 2027 11:34:16.759   01 Jun 2027 11:34:18.932             2.173          1086.500
        17   01 Jun 2027 11:34:54.609   01 Jun 2027 11:34:59.770             5.161          2580.500
        18   01 Jun 2027 11:35:16.014   01 Jun 2027 11:35:17.060             1.046           523.000
        19   02 Jun 2027 03:51:22.770   02 Jun 2027 03:51:49.483            26.713         13356.500
        20   02 Jun 2027 03:51:53.238   02 Jun 2027 03:53:19.623            86.385         43192.500
        21   02 Jun 2027 03:53:53.627   02 Jun 2027 03:54:25.274            31.647         15823.500
        22   02 Jun 2027 03:54:47.205   02 Jun 2027 03:54:54.091             6.886          3443.000
        23   02 Jun 2027 03:57:08.724   02 Jun 2027 03:57:34.355            25.631         12815.500
        24   02 Jun 2027 05:29:25.744   02 Jun 2027 05:31:49.276           143.532         71766.000
        25   02 Jun 2027 05:32:51.371   02 Jun 2027 05:34:08.677            77.306         38653.000
        26   02 Jun 2027 06:53:04.816   02 Jun 2027 06:54:04.954            60.138         30069.000
        27   02 Jun 2027 08:29:32.020   02 Jun 2027 08:33:07.558           215.538        107769.000
        28   02 Jun 2027 10:01:46.620   02 Jun 2027 10:01:49.971             3.351          1675.500
        29   02 Jun 2027 10:03:39.415   02 Jun 2027 10:04:18.373            38.958         17632.907
        30   02 Jun 2027 10:06:38.226   02 Jun 2027 10:06:44.271             6.045          2257.812
        31   02 Jun 2027 10:08:38.967   02 Jun 2027 10:08:46.007             7.040          3356.000
        32   02 Jun 2027 10:10:30.770   02 Jun 2027 10:10:35.762             4.992          2160.906
        33   02 Jun 2027 10:10:41.438   02 Jun 2027 10:10:42.727             1.289            94.906
        34   02 Jun 2027 10:11:00.932   02 Jun 2027 10:11:03.063             2.131           265.594
        35   02 Jun 2027 10:11:28.451   02 Jun 2027 10:11:28.589             0.138            69.000
        36   02 Jun 2027 11:40:37.836   02 Jun 2027 11:40:49.651            11.815          5729.844
        37   02 Jun 2027 11:42:50.600   02 Jun 2027 11:42:52.388             1.788           332.062
        38   02 Jun 2027 11:43:22.935   02 Jun 2027 11:43:24.512             1.577           438.594
        39   02 Jun 2027 11:44:39.776   02 Jun 2027 11:44:46.467             6.691          1836.500
        40   02 Jun 2027 11:44:46.968   02 Jun 2027 11:44:47.946             0.978            15.656
        41   02 Jun 2027 11:44:56.225   02 Jun 2027 11:44:57.548             1.323            79.062
        42   02 Jun 2027 11:45:23.355   02 Jun 2027 11:45:23.730             0.375            77.813
        43   02 Jun 2027 11:45:41.159   02 Jun 2027 11:45:45.396             4.237           351.375
        44   02 Jun 2027 11:45:58.432   02 Jun 2027 11:46:01.317             2.885           370.656
        45   02 Jun 2027 11:46:27.165   02 Jun 2027 11:46:28.235             1.070           232.188
        46   02 Jun 2027 11:46:35.172   02 Jun 2027 11:46:35.491             0.319           135.031
        47   02 Jun 2027 11:47:03.680   02 Jun 2027 11:47:10.744             7.064           858.062
        48   03 Jun 2027 04:03:30.921   03 Jun 2027 04:04:31.286            60.365         30182.500
        49   03 Jun 2027 04:04:39.969   03 Jun 2027 04:06:09.490            89.521         44760.500
        50   03 Jun 2027 04:06:54.199   03 Jun 2027 04:07:26.522            32.323         16161.500
        51   03 Jun 2027 04:08:21.021   03 Jun 2027 04:08:48.371            27.350         13675.000
        52   03 Jun 2027 04:09:07.634   03 Jun 2027 04:09:09.947             2.313          1156.500
        53   03 Jun 2027 05:43:08.193   03 Jun 2027 05:45:01.387           113.194         55842.031
        54   03 Jun 2027 07:05:13.154   03 Jun 2027 07:05:33.583            20.429          7701.562
        55   03 Jun 2027 07:06:07.733   03 Jun 2027 07:06:10.413             2.680           754.344
        56   03 Jun 2027 07:06:39.878   03 Jun 2027 07:06:45.653             5.775           920.781
        57   03 Jun 2027 07:07:48.850   03 Jun 2027 07:07:51.733             2.883          1441.500
        58   03 Jun 2027 07:08:02.117   03 Jun 2027 07:08:02.117             0.000             0.000
        59   03 Jun 2027 07:08:03.691   03 Jun 2027 07:08:03.691             0.000             0.000
        60   03 Jun 2027 08:41:42.371   03 Jun 2027 08:41:48.361             5.990          2859.000
        61   03 Jun 2027 08:42:47.716   03 Jun 2027 08:42:48.883             1.167           583.500
        62   03 Jun 2027 08:43:24.762   03 Jun 2027 08:43:34.779            10.017          1905.875
        63   03 Jun 2027 08:44:07.859   03 Jun 2027 08:44:12.119             4.260           113.250
        64   03 Jun 2027 08:45:19.499   03 Jun 2027 08:45:19.499             0.000             0.000
        65   03 Jun 2027 10:16:53.740   03 Jun 2027 10:17:03.183             9.443          3603.656
        66   03 Jun 2027 10:18:04.775   03 Jun 2027 10:18:08.492             3.717          1509.187
        67   03 Jun 2027 10:18:47.533   03 Jun 2027 10:18:52.725             5.192          1193.969
        68   03 Jun 2027 10:21:50.878   03 Jun 2027 10:21:50.878             0.000             0.000
        69   03 Jun 2027 10:22:59.820   03 Jun 2027 10:23:13.240            13.420          5931.563
        70   03 Jun 2027 10:23:22.580   03 Jun 2027 10:23:23.252             0.672           211.469
        71   03 Jun 2027 11:53:12.880   03 Jun 2027 11:53:27.152            14.272          5861.969
        72   03 Jun 2027 11:54:59.216   03 Jun 2027 11:55:06.867             7.651          2367.281
        73   03 Jun 2027 11:55:50.196   03 Jun 2027 11:55:53.957             3.761          1207.750
        74   03 Jun 2027 11:57:16.467   03 Jun 2027 11:57:20.152             3.685          1603.000
        75   03 Jun 2027 11:57:28.237   03 Jun 2027 11:57:29.462             1.225            65.250
        76   04 Jun 2027 04:15:35.667   04 Jun 2027 04:15:51.237            15.570          7785.000
        77   04 Jun 2027 04:16:38.242   04 Jun 2027 04:17:55.489            77.247         38623.500
        78   04 Jun 2027 04:18:24.114   04 Jun 2027 04:18:53.028            28.914         14457.000
        79   04 Jun 2027 04:20:49.560   04 Jun 2027 04:20:55.805             6.245          3122.500
        80   04 Jun 2027 04:21:06.946   04 Jun 2027 04:21:14.319             7.373          3686.500
        81   04 Jun 2027 04:23:50.919   04 Jun 2027 04:24:24.735            33.816         16908.000
        82   04 Jun 2027 05:53:47.009   04 Jun 2027 05:54:24.678            37.669         18834.500
        83   04 Jun 2027 05:54:54.658   04 Jun 2027 05:56:28.000            93.342         46583.219
        84   04 Jun 2027 05:57:10.620   04 Jun 2027 05:57:15.588             4.968          1331.875
        85   04 Jun 2027 07:17:55.981   04 Jun 2027 07:18:10.342            14.361          5774.813
        86   04 Jun 2027 07:19:47.796   04 Jun 2027 07:19:49.404             1.608           804.000
        87   04 Jun 2027 07:20:06.917   04 Jun 2027 07:20:16.357             9.440          2225.812
        88   04 Jun 2027 08:53:39.605   04 Jun 2027 08:53:47.468             7.863          2869.406
        89   04 Jun 2027 08:55:15.285   04 Jun 2027 08:55:23.106             7.821          2592.219
        90   04 Jun 2027 08:55:39.570   04 Jun 2027 08:55:41.930             2.360           473.031
        91   04 Jun 2027 08:56:50.226   04 Jun 2027 08:56:53.725             3.499          1270.312
        92   04 Jun 2027 10:28:38.084   04 Jun 2027 10:28:45.195             7.111          3181.937
        93   04 Jun 2027 10:30:31.295   04 Jun 2027 10:30:39.102             7.807          2742.250
        94   04 Jun 2027 10:30:59.711   04 Jun 2027 10:31:00.262             0.551            50.906
        95   04 Jun 2027 10:32:32.404   04 Jun 2027 10:32:40.737             8.333          1856.500
        96   04 Jun 2027 10:32:45.410   04 Jun 2027 10:32:47.773             2.363           146.031
        97   04 Jun 2027 10:33:16.888   04 Jun 2027 10:33:20.566             3.678           678.031
        98   04 Jun 2027 10:34:06.971   04 Jun 2027 10:34:12.162             5.191           889.500
        99   04 Jun 2027 10:35:07.720   04 Jun 2027 10:35:11.424             3.704          1732.406
       100   04 Jun 2027 10:35:33.649   04 Jun 2027 10:35:35.689             2.040           475.281
       101   05 Jun 2027 04:28:41.139   05 Jun 2027 04:30:42.372           121.233         60616.500
       102   05 Jun 2027 04:32:06.634   05 Jun 2027 04:32:20.082            13.448          6724.000
       103   05 Jun 2027 04:32:50.934   05 Jun 2027 04:32:53.213             2.279          1139.500
       104   05 Jun 2027 04:33:01.589   05 Jun 2027 04:33:47.037            45.448         22724.000
       105   05 Jun 2027 05:54:43.975   05 Jun 2027 05:55:17.219            33.244         16622.000
       106   05 Jun 2027 06:05:43.329   05 Jun 2027 06:07:30.852           107.523         53694.500
       107   05 Jun 2027 06:08:24.953   05 Jun 2027 06:08:29.531             4.578          1690.656
       108   05 Jun 2027 07:29:39.839   05 Jun 2027 07:29:52.530            12.691          4584.469
       109   05 Jun 2027 07:30:12.754   05 Jun 2027 07:30:12.754             0.000             0.000
       110   05 Jun 2027 07:30:38.390   05 Jun 2027 07:30:46.263             7.873          1295.937
       111   05 Jun 2027 07:32:33.741   05 Jun 2027 07:32:38.950             5.209          2604.500
       112   05 Jun 2027 09:04:15.855   05 Jun 2027 09:04:20.672             4.817          2408.500
       113   05 Jun 2027 09:07:45.039   05 Jun 2027 09:08:00.155            15.116          6486.406
       114   05 Jun 2027 09:08:07.354   05 Jun 2027 09:08:10.765             3.411           124.031
       115   05 Jun 2027 09:09:01.480   05 Jun 2027 09:09:05.802             4.322          1579.812
       116   05 Jun 2027 10:40:29.335   05 Jun 2027 10:40:38.043             8.708          3178.250
       117   05 Jun 2027 10:41:29.143   05 Jun 2027 10:41:37.676             8.533          1365.969
       118   05 Jun 2027 10:43:02.113   05 Jun 2027 10:43:04.792             2.679           715.250
       119   05 Jun 2027 10:43:41.216   05 Jun 2027 10:43:45.110             3.894           821.969
       120   05 Jun 2027 10:45:50.561   05 Jun 2027 10:45:59.542             8.981          3531.719
       121   05 Jun 2027 10:47:02.593   05 Jun 2027 10:47:14.720            12.127          1405.000
       122   06 Jun 2027 03:02:03.705   06 Jun 2027 03:02:21.743            18.038          9019.000
       123   06 Jun 2027 03:04:10.935   06 Jun 2027 03:04:21.496            10.561          5280.500
       124   06 Jun 2027 03:04:52.670   06 Jun 2027 03:05:06.781            14.111          7055.500
       125   06 Jun 2027 03:05:18.374   06 Jun 2027 03:05:22.320             3.946          1973.000
       126   06 Jun 2027 03:07:19.925   06 Jun 2027 03:07:41.009            21.084         10542.000
       127   06 Jun 2027 03:08:15.235   06 Jun 2027 03:08:23.712             8.477          4238.500
       128   06 Jun 2027 04:41:07.115   06 Jun 2027 04:44:04.062           176.947         88473.500
       129   06 Jun 2027 04:44:59.073   06 Jun 2027 04:45:55.792            56.719         27658.157
       130   06 Jun 2027 04:46:24.729   06 Jun 2027 04:46:28.462             3.733           904.281
       131   06 Jun 2027 04:47:05.727   06 Jun 2027 04:47:10.105             4.378           371.875
       132   06 Jun 2027 06:06:04.182   06 Jun 2027 06:06:09.869             5.687          2843.500
       133   06 Jun 2027 06:06:40.124   06 Jun 2027 06:06:51.709            11.585          5792.500
       134   06 Jun 2027 06:17:45.558   06 Jun 2027 06:18:01.218            15.660          7515.375
       135   06 Jun 2027 07:40:00.077   06 Jun 2027 07:40:13.076            12.999          6309.687
       136   06 Jun 2027 07:40:31.795   06 Jun 2027 07:40:32.726             0.931           424.219
       137   06 Jun 2027 07:40:44.410   06 Jun 2027 07:40:48.063             3.653           285.781
       138   06 Jun 2027 07:42:28.480   06 Jun 2027 07:42:34.811             6.331          2314.219
       139   06 Jun 2027 07:43:48.912   06 Jun 2027 07:43:53.664             4.752          2111.469
       140   06 Jun 2027 07:44:28.957   06 Jun 2027 07:44:33.979             5.022           496.469
       141   06 Jun 2027 09:15:10.642   06 Jun 2027 09:15:17.095             6.453          2548.344
       142   06 Jun 2027 09:15:51.740   06 Jun 2027 09:15:55.237             3.497           709.406
       143   06 Jun 2027 09:17:08.914   06 Jun 2027 09:17:13.133             4.219          1196.406
       144   06 Jun 2027 09:18:43.190   06 Jun 2027 09:18:48.472             5.282          2300.250
       145   06 Jun 2027 09:20:31.185   06 Jun 2027 09:20:35.364             4.179           603.875
       146   06 Jun 2027 09:21:15.702   06 Jun 2027 09:21:17.550             1.848           541.031
       147   06 Jun 2027 09:21:33.838   06 Jun 2027 09:21:37.312             3.474           509.000
       148   06 Jun 2027 10:52:18.155   06 Jun 2027 10:52:18.365             0.210           105.000
       149   06 Jun 2027 10:52:28.430   06 Jun 2027 10:52:34.676             6.246          2534.938
       150   06 Jun 2027 10:55:25.548   06 Jun 2027 10:55:31.053             5.505          1900.500
       151   06 Jun 2027 10:57:16.926   06 Jun 2027 10:57:27.292            10.366          3237.500
       152   06 Jun 2027 10:57:42.015   06 Jun 2027 10:57:42.530             0.515           248.906
       153   06 Jun 2027 10:57:49.324   06 Jun 2027 10:57:49.872             0.548           212.312
       154   06 Jun 2027 10:58:56.850   06 Jun 2027 10:59:06.183             9.333          2093.062
       155   07 Jun 2027 03:14:21.536   07 Jun 2027 03:16:25.889           124.353         62176.500
       156   07 Jun 2027 03:16:59.511   07 Jun 2027 03:17:04.512             5.001          2500.500
       157   07 Jun 2027 03:18:52.247   07 Jun 2027 03:19:46.002            53.755         26877.500
       158   07 Jun 2027 04:53:22.372   07 Jun 2027 04:53:27.508             5.136          2568.000
       159   07 Jun 2027 04:54:04.971   07 Jun 2027 04:55:44.427            99.456         49728.000
       160   07 Jun 2027 04:57:03.999   07 Jun 2027 04:57:40.755            36.756         15947.907
       161   07 Jun 2027 04:58:06.931   07 Jun 2027 04:58:08.267             1.336           208.937
       162   07 Jun 2027 04:59:32.463   07 Jun 2027 04:59:34.323             1.860           813.406
       163   07 Jun 2027 04:59:44.233   07 Jun 2027 04:59:47.852             3.619           309.687
       164   07 Jun 2027 06:17:29.209   07 Jun 2027 06:17:41.412            12.203          5636.500
       165   07 Jun 2027 06:19:14.333   07 Jun 2027 06:19:20.147             5.814          2746.938
       166   07 Jun 2027 06:29:42.577   07 Jun 2027 06:29:52.066             9.489          3734.062
       167   07 Jun 2027 07:51:45.003   07 Jun 2027 07:51:56.594            11.591          5534.500
       168   07 Jun 2027 07:52:21.450   07 Jun 2027 07:52:22.992             1.542           427.687
       169   07 Jun 2027 07:52:58.575   07 Jun 2027 07:53:01.412             2.837           391.500
       170   07 Jun 2027 07:53:48.352   07 Jun 2027 07:53:50.001             1.649           510.344
       171   07 Jun 2027 07:55:07.560   07 Jun 2027 07:55:16.373             8.813          2399.875
       172   07 Jun 2027 07:56:36.138   07 Jun 2027 07:56:42.450             6.312          2253.719
       173   07 Jun 2027 07:56:50.943   07 Jun 2027 07:56:53.571             2.628             8.969
       174   07 Jun 2027 09:26:37.584   07 Jun 2027 09:26:49.822            12.238          2926.219
       175   07 Jun 2027 09:28:14.401   07 Jun 2027 09:28:16.241             1.840           147.594
       176   07 Jun 2027 09:29:12.639   07 Jun 2027 09:29:15.915             3.276          1541.187
       177   07 Jun 2027 09:30:23.771   07 Jun 2027 09:30:25.713             1.942           788.375
       178   07 Jun 2027 09:32:12.305   07 Jun 2027 09:32:31.124            18.819          2752.531
       179   07 Jun 2027 09:33:27.938   07 Jun 2027 09:33:30.538             2.600           764.656
       180   07 Jun 2027 09:34:01.647   07 Jun 2027 09:34:03.616             1.969           893.219
       181   07 Jun 2027 09:34:52.609   07 Jun 2027 09:34:58.598             5.989          1274.187
       182   07 Jun 2027 11:04:20.056   07 Jun 2027 11:04:31.919            11.863          4400.969
       183   07 Jun 2027 11:06:30.208   07 Jun 2027 11:06:33.459             3.251           969.281
       184   07 Jun 2027 11:07:52.856   07 Jun 2027 11:07:55.195             2.339           990.938
       185   07 Jun 2027 11:08:19.566   07 Jun 2027 11:08:19.566             0.000             0.000
       186   07 Jun 2027 11:09:47.166   07 Jun 2027 11:09:57.447            10.281          3499.094
       187   07 Jun 2027 11:10:37.344   07 Jun 2027 11:10:40.803             3.459           965.000
       188   07 Jun 2027 11:10:56.201   07 Jun 2027 11:10:59.794             3.593           481.187
       189   07 Jun 2027 11:11:18.450   07 Jun 2027 11:11:19.036             0.586           249.000
       190   07 Jun 2027 11:11:36.162   07 Jun 2027 11:11:46.299            10.137           535.188
       191   08 Jun 2027 03:27:07.572   08 Jun 2027 03:27:32.397            24.825         12412.500
       192   08 Jun 2027 03:27:34.990   08 Jun 2027 03:30:34.533           179.543         89771.500
       193   08 Jun 2027 03:31:03.899   08 Jun 2027 03:31:08.222             4.323          2161.500
       194   08 Jun 2027 03:31:19.574   08 Jun 2027 03:31:31.417            11.843          5921.500
       195   08 Jun 2027 05:05:30.170   08 Jun 2027 05:07:03.168            92.998         45231.969
       196   08 Jun 2027 05:07:18.220   08 Jun 2027 05:07:19.370             1.150           469.250
       197   08 Jun 2027 05:09:09.449   08 Jun 2027 05:09:17.585             8.136          2716.594
       198   08 Jun 2027 05:10:01.729   08 Jun 2027 05:10:05.716             3.987           896.000
       199   08 Jun 2027 06:29:34.394   08 Jun 2027 06:29:42.355             7.961          3820.219
       200   08 Jun 2027 06:30:20.962   08 Jun 2027 06:30:20.962             0.000             0.000
       201   08 Jun 2027 06:31:31.434   08 Jun 2027 06:31:35.193             3.759          1879.500
       202   08 Jun 2027 08:03:20.889   08 Jun 2027 08:03:37.149            16.260          7934.000
       203   08 Jun 2027 08:04:24.579   08 Jun 2027 08:04:28.640             4.061           533.875
       204   08 Jun 2027 08:05:24.966   08 Jun 2027 08:05:27.423             2.457          1170.281
       205   08 Jun 2027 08:06:06.165   08 Jun 2027 08:06:10.445             4.280          1162.969
       206   08 Jun 2027 08:06:55.067   08 Jun 2027 08:06:58.359             3.292          1144.625
       207   08 Jun 2027 08:08:36.900   08 Jun 2027 08:08:43.820             6.920          2758.219
       208   08 Jun 2027 09:39:21.162   08 Jun 2027 09:39:27.930             6.768          3131.094
       209   08 Jun 2027 09:40:40.925   08 Jun 2027 09:40:44.634             3.709           513.188
       210   08 Jun 2027 09:41:25.710   08 Jun 2027 09:41:31.002             5.292           877.937
       211   08 Jun 2027 09:41:54.729   08 Jun 2027 09:41:55.007             0.278            62.906
       212   08 Jun 2027 09:45:19.968   08 Jun 2027 09:45:30.746            10.778          4815.562
       213   08 Jun 2027 09:45:53.795   08 Jun 2027 09:45:57.972             4.177           400.594
       214   08 Jun 2027 09:46:52.706   08 Jun 2027 09:46:57.470             4.764          1475.063
       215   08 Jun 2027 09:47:26.296   08 Jun 2027 09:47:27.754             1.458           287.125
       216   08 Jun 2027 11:16:23.669   08 Jun 2027 11:16:51.570            27.901          6246.719
       217   08 Jun 2027 11:19:11.709   08 Jun 2027 11:19:23.755            12.046          4000.812
       218   08 Jun 2027 11:20:10.536   08 Jun 2027 11:20:12.079             1.543           398.906
       219   08 Jun 2027 11:21:08.819   08 Jun 2027 11:21:08.819             0.000             0.000
       220   08 Jun 2027 11:21:43.899   08 Jun 2027 11:21:49.870             5.971          2595.625
       221   08 Jun 2027 11:22:23.745   08 Jun 2027 11:22:26.119             2.374          1058.594
       222   08 Jun 2027 11:22:49.127   08 Jun 2027 11:22:50.494             1.367           643.562
       223   08 Jun 2027 11:23:12.878   08 Jun 2027 11:23:14.295             1.417           554.125
       224   08 Jun 2027 11:23:25.607   08 Jun 2027 11:23:26.692             1.085           353.500
       225   09 Jun 2027 03:39:41.948   09 Jun 2027 03:40:31.535            49.587         24793.500
       226   09 Jun 2027 03:40:41.646   09 Jun 2027 03:41:23.858            42.212         21106.000
       227   09 Jun 2027 03:41:24.485   09 Jun 2027 03:43:37.823           133.338         66669.000
       228   09 Jun 2027 03:44:04.897   09 Jun 2027 03:44:19.341            14.444          7222.000
       229   09 Jun 2027 03:44:27.188   09 Jun 2027 03:44:31.895             4.707          2353.500
       230   09 Jun 2027 05:18:04.304   09 Jun 2027 05:19:18.312            74.008         37004.000
       231   09 Jun 2027 05:19:51.823   09 Jun 2027 05:20:02.891            11.068          2281.812
       232   09 Jun 2027 05:20:19.115   09 Jun 2027 05:20:20.254             1.139           151.469
       233   09 Jun 2027 05:20:48.599   09 Jun 2027 05:20:52.226             3.627           317.406
       234   09 Jun 2027 05:21:47.945   09 Jun 2027 05:21:54.732             6.787          1624.375
       235   09 Jun 2027 05:22:19.603   09 Jun 2027 05:22:22.141             2.538           602.562
       236   09 Jun 2027 06:41:29.403   09 Jun 2027 06:41:45.784            16.381          5926.469
       237   09 Jun 2027 06:42:42.435   09 Jun 2027 06:42:42.435             0.000             0.000
       238   09 Jun 2027 06:42:50.366   09 Jun 2027 06:42:55.057             4.691          1799.781
       239   09 Jun 2027 06:43:30.910   09 Jun 2027 06:43:33.985             3.075           967.719
       240   09 Jun 2027 06:43:43.423   09 Jun 2027 06:43:43.423             0.000             0.000
       241   09 Jun 2027 08:17:48.281   09 Jun 2027 08:17:57.205             8.924          3619.312
       242   09 Jun 2027 08:18:19.669   09 Jun 2027 08:18:21.939             2.270           425.531
       243   09 Jun 2027 08:19:21.299   09 Jun 2027 08:19:25.942             4.643          1792.156
       244   09 Jun 2027 08:20:21.176   09 Jun 2027 08:20:35.217            14.041          1271.094
       245   09 Jun 2027 09:51:18.079   09 Jun 2027 09:51:28.945            10.866          3234.906
       246   09 Jun 2027 09:52:49.647   09 Jun 2027 09:52:53.922             4.275           762.938
       247   09 Jun 2027 09:53:49.439   09 Jun 2027 09:53:55.894             6.455          1177.719
       248   09 Jun 2027 09:54:50.060   09 Jun 2027 09:54:50.060             0.000             0.000
       249   09 Jun 2027 09:56:11.374   09 Jun 2027 09:56:20.590             9.216          4233.750
       250   09 Jun 2027 09:57:04.554   09 Jun 2027 09:57:05.743             1.189           214.031
       251   09 Jun 2027 09:58:07.034   09 Jun 2027 09:58:10.651             3.617          1807.125
       252   09 Jun 2027 09:58:24.856   09 Jun 2027 09:58:27.873             3.017           208.281
       253   09 Jun 2027 09:59:49.586   09 Jun 2027 09:59:50.771             1.185           592.500
       254   09 Jun 2027 11:28:49.997   09 Jun 2027 11:29:03.552            13.555          3900.562
       255   09 Jun 2027 11:30:51.770   09 Jun 2027 11:30:55.726             3.956          1334.687
       256   09 Jun 2027 11:32:34.033   09 Jun 2027 11:32:39.846             5.813          2831.125
       257   09 Jun 2027 11:32:54.022   09 Jun 2027 11:32:57.837             3.815           353.531
       258   09 Jun 2027 11:33:13.486   09 Jun 2027 11:33:15.362             1.876           370.219
       259   09 Jun 2027 11:33:30.313   09 Jun 2027 11:33:32.557             2.244           466.219
       260   09 Jun 2027 11:33:40.188   09 Jun 2027 11:33:41.190             1.002           162.906
       261   09 Jun 2027 11:33:49.982   09 Jun 2027 11:33:53.024             3.042           138.969
       262   09 Jun 2027 11:34:35.760   09 Jun 2027 11:34:40.368             4.608          1098.656
       263   09 Jun 2027 11:35:07.622   09 Jun 2027 11:35:09.498             1.876           771.375
       264   09 Jun 2027 11:35:26.105   09 Jun 2027 11:35:29.327             3.222           368.031
       265   10 Jun 2027 03:51:39.821   10 Jun 2027 03:51:47.120             7.299          3649.500
       266   10 Jun 2027 03:51:55.565   10 Jun 2027 03:55:14.170           198.605         99302.500
       267   10 Jun 2027 03:55:21.651   10 Jun 2027 03:55:32.176            10.525          5262.500
       268   10 Jun 2027 03:56:07.648   10 Jun 2027 03:56:28.540            20.892         10446.000
       269   10 Jun 2027 05:29:43.205   10 Jun 2027 05:31:15.388            92.183         45348.562
       270   10 Jun 2027 05:31:30.594   10 Jun 2027 05:31:32.260             1.666           475.188
       271   10 Jun 2027 05:32:44.131   10 Jun 2027 05:32:47.558             3.427          1640.875
       272   10 Jun 2027 05:33:54.004   10 Jun 2027 05:33:55.880             1.876           117.500
       273   10 Jun 2027 06:53:21.282   10 Jun 2027 06:53:30.358             9.076          4417.094
       274   10 Jun 2027 06:55:17.418   10 Jun 2027 06:55:24.140             6.722          2897.187
       275   10 Jun 2027 08:29:49.919   10 Jun 2027 08:29:57.089             7.170          3585.000
       276   10 Jun 2027 08:30:20.477   10 Jun 2027 08:30:24.123             3.646          1129.969
       277   10 Jun 2027 08:31:13.273   10 Jun 2027 08:31:16.949             3.676          1409.063
       278   10 Jun 2027 08:31:20.008   10 Jun 2027 08:31:20.508             0.500            95.594
       279   10 Jun 2027 08:32:23.446   10 Jun 2027 08:32:28.917             5.471          1716.781
       280   10 Jun 2027 10:03:58.013   10 Jun 2027 10:04:09.908            11.895          5409.063
       281   10 Jun 2027 10:05:42.259   10 Jun 2027 10:05:47.540             5.281          2400.938
       282   10 Jun 2027 10:06:01.280   10 Jun 2027 10:06:09.248             7.968           429.375
       283   10 Jun 2027 10:07:12.811   10 Jun 2027 10:07:14.392             1.581           497.500
       284   10 Jun 2027 10:07:32.735   10 Jun 2027 10:07:37.751             5.016           543.969
       285   10 Jun 2027 10:08:00.871   10 Jun 2027 10:08:05.021             4.150           456.437
       286   10 Jun 2027 10:08:54.457   10 Jun 2027 10:08:54.457             0.000             0.000
       287   10 Jun 2027 10:10:08.162   10 Jun 2027 10:10:16.310             8.148          3700.062
       288   10 Jun 2027 10:10:38.940   10 Jun 2027 10:10:40.957             2.017           589.781
       289   10 Jun 2027 10:11:17.185   10 Jun 2027 10:11:19.903             2.718           954.687
       290   10 Jun 2027 10:11:45.209   10 Jun 2027 10:11:45.279             0.070            35.000
       291   10 Jun 2027 11:40:56.426   10 Jun 2027 11:41:10.652            14.226          6045.281
       292   10 Jun 2027 11:42:09.284   10 Jun 2027 11:42:12.245             2.961           597.719
       293   10 Jun 2027 11:43:08.297   10 Jun 2027 11:43:09.583             1.286           404.844
       294   10 Jun 2027 11:43:40.019   10 Jun 2027 11:43:41.714             1.695           516.344
       295   10 Jun 2027 11:44:36.907   10 Jun 2027 11:44:42.161             5.254           989.188
       296   10 Jun 2027 11:45:01.945   10 Jun 2027 11:45:02.589             0.644           180.813
       297   10 Jun 2027 11:45:09.383   10 Jun 2027 11:45:13.010             3.627           212.312
       298   10 Jun 2027 11:45:47.166   10 Jun 2027 11:45:49.443             2.277          1037.125
       299   10 Jun 2027 11:46:49.428   10 Jun 2027 11:46:54.014             4.586          1769.687
       300   10 Jun 2027 11:47:01.255   10 Jun 2027 11:47:01.837             0.582           121.125
       301   11 Jun 2027 04:03:48.250   11 Jun 2027 04:04:47.991            59.741         29870.500
       302   11 Jun 2027 04:04:57.460   11 Jun 2027 04:06:03.306            65.846         32923.000
       303   11 Jun 2027 04:06:22.120   11 Jun 2027 04:06:24.133             2.013          1006.500
       304   11 Jun 2027 04:06:34.004   11 Jun 2027 04:07:11.347            37.343         18671.500
       305   11 Jun 2027 04:08:27.394   11 Jun 2027 04:09:06.065            38.671         19335.500
       306   11 Jun 2027 04:09:38.287   11 Jun 2027 04:09:38.287             0.000             0.000
       307   11 Jun 2027 05:43:21.366   11 Jun 2027 05:45:25.918           124.552         58219.125
       308   11 Jun 2027 07:05:30.114   11 Jun 2027 07:05:41.335            11.221          5159.437
       309   11 Jun 2027 07:06:24.802   11 Jun 2027 07:06:26.484             1.682           807.531
       310   11 Jun 2027 07:06:56.268   11 Jun 2027 07:07:00.291             4.023           930.750
       311   11 Jun 2027 07:08:04.861   11 Jun 2027 07:08:07.532             2.671          1335.500
       312   11 Jun 2027 07:08:19.910   11 Jun 2027 07:08:21.420             1.510           624.188
       313   11 Jun 2027 07:08:26.245   11 Jun 2027 07:08:31.227             4.982           150.781
       314   11 Jun 2027 08:42:00.529   11 Jun 2027 08:42:08.913             8.384          2497.938
       315   11 Jun 2027 08:42:40.634   11 Jun 2027 08:42:44.015             3.381           784.250
       316   11 Jun 2027 08:43:18.684   11 Jun 2027 08:43:25.564             6.880           419.188
       317   11 Jun 2027 08:44:22.123   11 Jun 2027 08:44:25.452             3.329          1558.125
       318   11 Jun 2027 10:17:10.692   11 Jun 2027 10:17:22.216            11.524          4367.656
       319   11 Jun 2027 10:18:24.242   11 Jun 2027 10:18:29.184             4.942          1615.000
       320   11 Jun 2027 10:19:06.461   11 Jun 2027 10:19:10.175             3.714          1162.063
       321   11 Jun 2027 10:22:08.818   11 Jun 2027 10:22:19.401            10.583          3801.375
       322   11 Jun 2027 10:23:26.830   11 Jun 2027 10:23:33.698             6.868          2083.500
       323   11 Jun 2027 10:23:39.193   11 Jun 2027 10:23:39.964             0.771           126.125
       324   11 Jun 2027 11:53:32.853   11 Jun 2027 11:53:43.345            10.492          4495.563
       325   11 Jun 2027 11:55:15.847   11 Jun 2027 11:55:21.194             5.347          1110.906
       326   11 Jun 2027 11:56:07.814   11 Jun 2027 11:56:11.007             3.193          1188.750
       327   11 Jun 2027 11:57:17.811   11 Jun 2027 11:57:24.091             6.280          1090.750
       328   11 Jun 2027 11:57:41.904   11 Jun 2027 11:57:45.593             3.689           542.156
       329   11 Jun 2027 11:58:42.379   11 Jun 2027 11:58:47.858             5.479          1702.000
       330   11 Jun 2027 11:59:03.242   11 Jun 2027 11:59:06.515             3.273           480.750
       331   12 Jun 2027 04:15:53.212   12 Jun 2027 04:16:05.413            12.201          6100.500
       332   12 Jun 2027 04:16:55.295   12 Jun 2027 04:19:08.991           133.696         66848.000
       333   12 Jun 2027 04:21:21.579   12 Jun 2027 04:21:28.785             7.206          3603.000
       334   12 Jun 2027 04:24:01.831   12 Jun 2027 04:24:46.068            44.237         22118.500
       335   12 Jun 2027 05:54:03.999   12 Jun 2027 05:54:42.293            38.294         19147.000
       336   12 Jun 2027 05:55:11.027   12 Jun 2027 05:56:38.123            87.096         43469.188
       337   12 Jun 2027 05:57:27.936   12 Jun 2027 05:57:30.819             2.883          1415.469
       338   12 Jun 2027 07:18:10.271   12 Jun 2027 07:18:27.373            17.102          7933.469
       339   12 Jun 2027 07:18:50.381   12 Jun 2027 07:18:53.234             2.853           718.344
       340   12 Jun 2027 07:20:05.391   12 Jun 2027 07:20:11.079             5.688          2216.531
       341   12 Jun 2027 08:53:55.834   12 Jun 2027 08:54:02.729             6.895          2133.281
       342   12 Jun 2027 08:55:35.040   12 Jun 2027 08:55:41.606             6.566          2700.844
       343   12 Jun 2027 08:55:57.486   12 Jun 2027 08:55:58.571             1.085           476.250
       344   12 Jun 2027 08:57:19.279   12 Jun 2027 08:57:25.786             6.507          2513.625
       345   12 Jun 2027 10:28:53.006   12 Jun 2027 10:29:02.114             9.108          3461.313
       346   12 Jun 2027 10:30:51.096   12 Jun 2027 10:30:58.745             7.649          2867.625
       347   12 Jun 2027 10:32:00.562   12 Jun 2027 10:32:03.398             2.836          1310.375
       348   12 Jun 2027 10:34:08.922   12 Jun 2027 10:34:17.934             9.012          3922.625
       349   12 Jun 2027 10:35:23.233   12 Jun 2027 10:35:28.091             4.858          1770.750
       350   12 Jun 2027 10:35:51.256   12 Jun 2027 10:35:54.052             2.796           587.094
       351   13 Jun 2027 04:28:58.567   13 Jun 2027 04:31:10.340           131.773         65886.500
       352   13 Jun 2027 04:32:10.683   13 Jun 2027 04:32:37.037            26.354         13177.000
       353   13 Jun 2027 04:35:32.559   13 Jun 2027 04:35:43.015            10.456          5228.000
       354   13 Jun 2027 04:35:57.441   13 Jun 2027 04:36:37.335            39.894         19947.000
       355   13 Jun 2027 05:54:57.869   13 Jun 2027 05:55:21.190            23.321         11660.500
       356   13 Jun 2027 06:06:00.351   13 Jun 2027 06:07:37.670            97.319         48466.219
       357   13 Jun 2027 06:08:39.573   13 Jun 2027 06:08:40.385             0.812           406.000
       358   13 Jun 2027 06:08:57.709   13 Jun 2027 06:09:04.627             6.918          1785.938
       359   13 Jun 2027 07:28:59.506   13 Jun 2027 07:29:11.505            11.999          4875.562
       360   13 Jun 2027 07:29:53.350   13 Jun 2027 07:29:57.384             4.034          1182.469
       361   13 Jun 2027 07:30:10.746   13 Jun 2027 07:30:14.733             3.987           414.625
       362   13 Jun 2027 07:30:55.072   13 Jun 2027 07:31:00.851             5.779           790.125
       363   13 Jun 2027 07:31:57.941   13 Jun 2027 07:31:57.941             0.000             0.000
       364   13 Jun 2027 07:32:51.284   13 Jun 2027 07:32:57.285             6.001          2850.937
       365   13 Jun 2027 09:04:31.618   13 Jun 2027 09:04:36.815             5.197          2585.344
       366   13 Jun 2027 09:05:41.870   13 Jun 2027 09:05:45.833             3.963          1103.969
       367   13 Jun 2027 09:08:05.087   13 Jun 2027 09:08:16.280            11.193          3943.313
       368   13 Jun 2027 09:08:28.451   13 Jun 2027 09:08:29.138             0.687           216.281
       369   13 Jun 2027 09:08:37.705   13 Jun 2027 09:08:38.109             0.404           150.812
       370   13 Jun 2027 09:08:54.005   13 Jun 2027 09:08:57.666             3.661           496.750
       371   13 Jun 2027 09:09:54.484   13 Jun 2027 09:09:57.891             3.407          1089.844
       372   13 Jun 2027 10:40:57.142   13 Jun 2027 10:41:09.107            11.965          4158.719
       373   13 Jun 2027 10:43:22.292   13 Jun 2027 10:43:28.771             6.479          3137.813
       374   13 Jun 2027 10:43:58.127   13 Jun 2027 10:44:00.308             2.181           741.188
       375   13 Jun 2027 10:44:21.775   13 Jun 2027 10:44:21.775             0.000             0.000
       376   13 Jun 2027 10:46:08.376   13 Jun 2027 10:46:20.053            11.677          3416.813
       377   13 Jun 2027 10:46:52.255   13 Jun 2027 10:46:57.244             4.989           723.844
       378   13 Jun 2027 10:47:34.225   13 Jun 2027 10:47:41.601             7.376           732.063
