uniorb/output/strategy_4/Camera/Camera_KinoSat_110406.txt

KinoSat_110406
-------------------------
    Access    *     Start Time (UTCG)     *     Stop Time (UTCG)  *   Duration (s) *   Data (Mbytes)
         1   01 Jun 2027 03:40:58.918   01 Jun 2027 03:42:08.333            69.415         34707.500
         2   01 Jun 2027 03:42:16.178   01 Jun 2027 03:42:23.230             7.052          3526.000
         3   01 Jun 2027 03:42:48.276   01 Jun 2027 03:43:17.507            29.231         14615.500
         4   01 Jun 2027 03:44:04.111   01 Jun 2027 03:44:04.111             0.000             0.000
         5   01 Jun 2027 03:44:27.866   01 Jun 2027 03:44:27.866             0.000             0.000
         6   01 Jun 2027 03:44:46.766   01 Jun 2027 03:44:54.359             7.593          3796.500
         7   01 Jun 2027 03:46:06.013   01 Jun 2027 03:46:37.435            31.422         15711.000
         8   01 Jun 2027 03:47:39.106   01 Jun 2027 03:47:58.178            19.072          9536.000
         9   01 Jun 2027 03:48:22.821   01 Jun 2027 03:48:57.009            34.188         17094.000
        10   01 Jun 2027 03:49:27.846   01 Jun 2027 03:49:29.823             1.977           988.500
        11   01 Jun 2027 05:18:29.731   01 Jun 2027 05:20:47.914           138.183         69091.500
        12   01 Jun 2027 05:20:55.988   01 Jun 2027 05:21:10.792            14.804          7402.000
        13   01 Jun 2027 05:21:18.347   01 Jun 2027 05:21:21.081             2.734          1367.000
        14   01 Jun 2027 05:23:51.255   01 Jun 2027 05:24:34.025            42.770         21385.000
        15   01 Jun 2027 05:25:04.813   01 Jun 2027 05:25:14.818            10.005          5002.500
        16   01 Jun 2027 06:55:26.057   01 Jun 2027 06:57:49.203           143.146         71573.000
        17   01 Jun 2027 06:58:21.032   01 Jun 2027 06:58:24.838             3.806          1903.000
        18   01 Jun 2027 06:58:45.409   01 Jun 2027 06:59:02.130            16.721          8360.500
        19   01 Jun 2027 06:59:40.294   01 Jun 2027 06:59:49.641             9.347          4673.500
        20   01 Jun 2027 06:59:57.614   01 Jun 2027 07:00:10.264            12.650          6325.000
        21   01 Jun 2027 07:00:45.716   01 Jun 2027 07:00:50.615             4.899          2449.500
        22   01 Jun 2027 08:32:16.512   01 Jun 2027 08:34:49.884           153.372         76686.000
        23   01 Jun 2027 08:35:34.616   01 Jun 2027 08:35:35.021             0.405           202.500
        24   01 Jun 2027 10:09:53.525   01 Jun 2027 10:11:36.161           102.636         51318.000
        25   02 Jun 2027 03:53:48.459   02 Jun 2027 04:00:18.169           389.710        194855.000
        26   02 Jun 2027 04:00:26.764   02 Jun 2027 04:01:01.118            34.354         17177.000
        27   02 Jun 2027 04:01:22.967   02 Jun 2027 04:01:25.005             2.038          1019.000
        28   02 Jun 2027 05:30:36.220   02 Jun 2027 05:34:16.205           219.985        109992.500
        29   02 Jun 2027 05:35:17.635   02 Jun 2027 05:36:36.150            78.515         39257.500
        30   02 Jun 2027 07:08:17.204   02 Jun 2027 07:12:44.986           267.782        133891.000
        31   02 Jun 2027 08:44:23.041   02 Jun 2027 08:49:06.905           283.864        141932.000
        32   03 Jun 2027 04:06:49.762   03 Jun 2027 04:13:26.681           396.919        198459.500
        33   03 Jun 2027 05:43:12.166   03 Jun 2027 05:49:25.347           373.181        186590.500
        34   03 Jun 2027 07:20:43.593   03 Jun 2027 07:25:05.452           261.859        130929.500
        35   03 Jun 2027 08:56:42.141   03 Jun 2027 09:01:25.346           283.205        141602.500
        36   04 Jun 2027 04:18:31.561   04 Jun 2027 04:21:02.206           150.645         75322.500
        37   04 Jun 2027 04:21:23.885   04 Jun 2027 04:25:33.968           250.083        125041.500
        38   04 Jun 2027 05:54:44.163   04 Jun 2027 06:01:11.745           387.582        193791.000
        39   04 Jun 2027 07:32:56.381   04 Jun 2027 07:36:55.846           239.465        119732.500
        40   04 Jun 2027 09:08:37.748   04 Jun 2027 09:12:48.744           250.996        125498.000
        41   04 Jun 2027 09:13:10.676   04 Jun 2027 09:13:52.728            42.052         21026.000
        42   05 Jun 2027 04:30:05.055   05 Jun 2027 04:37:38.902           453.847        226923.500
        43   05 Jun 2027 06:07:06.080   05 Jun 2027 06:13:13.742           367.662        183831.000
        44   05 Jun 2027 07:45:06.385   05 Jun 2027 07:49:03.311           236.926        118463.000
        45   05 Jun 2027 09:18:20.154   05 Jun 2027 09:26:13.093           472.939        236469.500
        46   06 Jun 2027 03:05:01.503   06 Jun 2027 03:06:35.799            94.296         47148.000
        47   06 Jun 2027 03:07:03.105   06 Jun 2027 03:12:01.405           298.300        149150.000
        48   06 Jun 2027 03:13:00.793   06 Jun 2027 03:13:12.113            11.320          5660.000
        49   06 Jun 2027 04:42:14.088   06 Jun 2027 04:49:39.857           445.769        222884.500
        50   06 Jun 2027 06:19:11.055   06 Jun 2027 06:25:19.797           368.742        184371.000
        51   06 Jun 2027 07:57:29.529   06 Jun 2027 08:01:05.625           216.096        108048.000
        52   06 Jun 2027 09:30:46.463   06 Jun 2027 09:37:58.164           431.701        215850.500
        53   07 Jun 2027 03:16:31.057   07 Jun 2027 03:24:22.067           471.010        235505.000
        54   07 Jun 2027 03:24:49.624   07 Jun 2027 03:25:40.628            51.004         25502.000
        55   07 Jun 2027 04:54:15.934   07 Jun 2027 05:01:41.599           445.665        222832.500
        56   07 Jun 2027 06:31:03.683   07 Jun 2027 06:36:57.024           353.341        176670.500
        57   07 Jun 2027 06:37:21.852   07 Jun 2027 06:37:46.169            24.317         12158.500
        58   07 Jun 2027 08:09:24.848   07 Jun 2027 08:13:15.020           230.172        115086.000
        59   07 Jun 2027 09:42:57.865   07 Jun 2027 09:48:43.883           346.018        173009.000
        60   08 Jun 2027 03:29:15.694   08 Jun 2027 03:36:35.314           439.620        219810.000
        61   08 Jun 2027 03:36:58.673   08 Jun 2027 03:37:45.192            46.519         23259.500
        62   08 Jun 2027 05:06:18.840   08 Jun 2027 05:13:38.881           440.041        220020.500
        63   08 Jun 2027 06:43:13.252   08 Jun 2027 06:48:16.162           302.910        151455.000
        64   08 Jun 2027 06:48:27.118   08 Jun 2027 06:49:33.755            66.637         33318.500
        65   08 Jun 2027 08:20:34.845   08 Jun 2027 08:25:12.883           278.038        139019.000
        66   08 Jun 2027 09:57:05.023   08 Jun 2027 10:00:20.579           195.556         97778.000
        67   09 Jun 2027 03:41:13.645   09 Jun 2027 03:49:44.448           510.803        255401.500
        68   09 Jun 2027 05:18:44.561   09 Jun 2027 05:25:29.427           404.866        202433.000
        69   09 Jun 2027 06:55:40.662   09 Jun 2027 07:00:04.050           263.388        131694.000
        70   09 Jun 2027 07:00:09.933   09 Jun 2027 07:01:27.495            77.562         38781.000
        71   09 Jun 2027 08:32:36.720   09 Jun 2027 08:37:03.661           266.941        133470.500
        72   09 Jun 2027 10:10:08.190   09 Jun 2027 10:11:51.169           102.979         51489.500
        73   10 Jun 2027 03:54:03.393   10 Jun 2027 04:00:38.595           395.202        197601.000
        74   10 Jun 2027 04:00:41.498   10 Jun 2027 04:01:39.742            58.244         29122.000
        75   10 Jun 2027 05:30:51.434   10 Jun 2027 05:37:34.150           402.716        201358.000
        76   10 Jun 2027 07:08:32.446   10 Jun 2027 07:13:00.839           268.393        134196.500
        77   10 Jun 2027 08:44:37.962   10 Jun 2027 08:49:21.313           283.351        141675.500
        78   11 Jun 2027 04:07:04.418   11 Jun 2027 04:13:41.385           396.967        198483.500
        79   11 Jun 2027 05:43:27.026   11 Jun 2027 05:49:39.949           372.923        186461.500
        80   11 Jun 2027 07:20:50.060   11 Jun 2027 07:25:20.187           270.127        135063.500
        81   11 Jun 2027 08:56:56.998   11 Jun 2027 09:01:40.492           283.494        141747.000
        82   12 Jun 2027 04:18:46.199   12 Jun 2027 04:25:48.618           422.419        211209.500
        83   12 Jun 2027 05:54:58.820   12 Jun 2027 06:01:26.535           387.715        193857.500
        84   12 Jun 2027 07:33:11.734   12 Jun 2027 07:37:10.372           238.638        119319.000
        85   12 Jun 2027 09:08:53.053   12 Jun 2027 09:13:03.179           250.126        125063.000
        86   12 Jun 2027 09:13:29.187   12 Jun 2027 09:14:07.597            38.410         19205.000
        87   13 Jun 2027 03:00:00.000   13 Jun 2027 03:00:03.392             3.392          1696.000
        88   13 Jun 2027 04:30:19.509   13 Jun 2027 04:37:53.437           453.928        226964.000
        89   13 Jun 2027 06:07:20.808   13 Jun 2027 06:13:28.546           367.738        183869.000
        90   13 Jun 2027 07:45:20.894   13 Jun 2027 07:49:17.909           237.015        118507.500
        91   13 Jun 2027 09:18:34.355   13 Jun 2027 09:24:44.478           370.123        185061.500
        92   13 Jun 2027 09:24:46.103   13 Jun 2027 09:26:27.632           101.529         50764.500
