uniorb/output/strategy_4/Camera/Camera_KinoSat_110202.txt

KinoSat_110202
-------------------------
    Access    *     Start Time (UTCG)     *     Stop Time (UTCG)  *   Duration (s) *   Data (Mbytes)
         1   01 Jun 2027 03:00:00.000   01 Jun 2027 03:00:13.544            13.544          6772.000
         2   01 Jun 2027 03:00:58.708   01 Jun 2027 03:01:14.388            15.680          7840.000
         3   01 Jun 2027 04:30:52.365   01 Jun 2027 04:33:23.479           151.114         75557.000
         4   01 Jun 2027 04:34:16.554   01 Jun 2027 04:34:17.115             0.561           280.500
         5   01 Jun 2027 04:34:23.372   01 Jun 2027 04:34:25.771             2.399          1199.500
         6   01 Jun 2027 04:35:26.008   01 Jun 2027 04:35:38.778            12.770          6385.000
         7   01 Jun 2027 04:36:04.842   01 Jun 2027 04:36:34.856            30.014         15007.000
         8   01 Jun 2027 06:08:25.908   01 Jun 2027 06:11:13.121           167.213         83606.500
         9   01 Jun 2027 06:12:28.728   01 Jun 2027 06:12:57.305            28.577         14288.500
        10   01 Jun 2027 07:44:27.213   01 Jun 2027 07:47:04.819           157.606         78803.000
        11   01 Jun 2027 07:47:16.953   01 Jun 2027 07:47:24.209             7.256          3628.000
        12   01 Jun 2027 07:47:42.532   01 Jun 2027 07:47:51.686             9.154          4577.000
        13   01 Jun 2027 07:48:17.206   01 Jun 2027 07:48:21.129             3.923          1961.500
        14   01 Jun 2027 07:48:23.584   01 Jun 2027 07:48:28.415             4.831          2415.500
        15   01 Jun 2027 07:48:56.062   01 Jun 2027 07:49:16.142            20.080         10040.000
        16   02 Jun 2027 03:06:02.329   02 Jun 2027 03:13:24.734           442.405        221202.500
        17   02 Jun 2027 04:42:38.183   02 Jun 2027 04:45:11.657           153.474         76737.000
        18   02 Jun 2027 04:46:24.360   02 Jun 2027 04:48:54.374           150.014         75007.000
        19   02 Jun 2027 06:20:55.869   02 Jun 2027 06:24:50.705           234.836        117418.000
        20   02 Jun 2027 07:54:24.141   02 Jun 2027 07:54:26.447             2.306          1153.000
        21   02 Jun 2027 07:57:06.237   02 Jun 2027 08:00:28.219           201.982        100991.000
        22   02 Jun 2027 08:00:58.892   02 Jun 2027 08:01:45.825            46.933         23466.500
        23   03 Jun 2027 03:17:55.228   03 Jun 2027 03:25:25.109           449.881        224940.500
        24   03 Jun 2027 04:54:59.271   03 Jun 2027 05:00:49.945           350.674        175337.000
        25   03 Jun 2027 05:00:52.234   03 Jun 2027 05:01:10.211            17.977          8988.500
        26   03 Jun 2027 06:32:53.551   03 Jun 2027 06:36:53.226           239.675        119837.500
        27   03 Jun 2027 08:06:46.626   03 Jun 2027 08:12:27.418           340.792        170396.000
        28   03 Jun 2027 08:13:11.892   03 Jun 2027 08:13:58.687            46.795         23397.500
        29   04 Jun 2027 03:30:07.678   04 Jun 2027 03:37:28.596           440.918        220459.000
        30   04 Jun 2027 05:06:50.365   04 Jun 2027 05:13:03.594           373.229        186614.500
        31   04 Jun 2027 05:13:12.318   04 Jun 2027 05:13:28.261            15.943          7971.500
        32   04 Jun 2027 06:44:53.391   04 Jun 2027 06:49:02.920           249.529        124764.500
        33   04 Jun 2027 08:18:31.120   04 Jun 2027 08:25:54.144           443.024        221512.000
        34   05 Jun 2027 03:42:01.619   05 Jun 2027 03:49:30.007           448.388        224194.000
        35   05 Jun 2027 05:18:56.257   05 Jun 2027 05:24:17.481           321.224        160612.000
        36   05 Jun 2027 05:24:44.528   05 Jun 2027 05:25:27.680            43.152         21576.000
        37   05 Jun 2027 06:56:42.304   05 Jun 2027 07:01:01.432           259.128        129564.000
        38   05 Jun 2027 08:30:54.263   05 Jun 2027 08:31:54.413            60.150         30075.000
        39   05 Jun 2027 08:32:41.183   05 Jun 2027 08:36:14.105           212.922        106461.000
        40   06 Jun 2027 03:54:22.653   06 Jun 2027 04:01:23.446           420.793        210396.500
        41   06 Jun 2027 05:31:26.291   06 Jun 2027 05:35:55.581           269.290        134645.000
        42   06 Jun 2027 05:36:28.003   06 Jun 2027 05:37:16.611            48.608         24304.000
        43   06 Jun 2027 07:08:11.282   06 Jun 2027 07:12:59.535           288.253        144126.500
        44   06 Jun 2027 08:43:32.482   06 Jun 2027 08:43:35.518             3.036          1518.000
        45   06 Jun 2027 08:45:33.706   06 Jun 2027 08:47:59.018           145.312         72656.000
        46   07 Jun 2027 04:06:36.054   07 Jun 2027 04:13:18.636           402.582        201291.000
        47   07 Jun 2027 05:43:31.939   07 Jun 2027 05:48:32.537           300.598        150299.000
        48   07 Jun 2027 07:20:18.387   07 Jun 2027 07:25:00.973           282.586        141293.000
        49   07 Jun 2027 08:58:30.925   07 Jun 2027 08:59:28.177            57.252         28626.000
        50   08 Jun 2027 04:19:05.448   08 Jun 2027 04:25:25.163           379.715        189857.500
        51   08 Jun 2027 05:56:34.623   08 Jun 2027 06:01:01.581           266.958        133479.000
        52   08 Jun 2027 07:32:40.051   08 Jun 2027 07:36:54.396           254.345        127172.500
        53   09 Jun 2027 03:00:00.000   09 Jun 2027 03:01:29.191            89.191         44595.500
        54   09 Jun 2027 04:31:06.408   09 Jun 2027 04:36:43.890           337.482        168741.000
        55   09 Jun 2027 04:36:48.391   09 Jun 2027 04:36:57.785             9.394          4697.000
        56   09 Jun 2027 04:37:06.614   09 Jun 2027 04:37:14.393             7.779          3889.500
        57   09 Jun 2027 06:08:40.822   09 Jun 2027 06:13:11.945           271.123        135561.500
        58   09 Jun 2027 07:44:42.158   09 Jun 2027 07:48:53.755           251.597        125798.500
        59   09 Jun 2027 07:48:57.756   09 Jun 2027 07:49:42.667            44.911         22455.500
        60   10 Jun 2027 03:06:16.885   10 Jun 2027 03:13:39.615           442.730        221365.000
        61   10 Jun 2027 04:42:52.978   10 Jun 2027 04:49:16.850           383.872        191936.000
        62   10 Jun 2027 06:22:14.590   10 Jun 2027 06:25:05.538           170.948         85474.000
        63   10 Jun 2027 07:54:30.886   10 Jun 2027 07:54:42.617            11.731          5865.500
        64   10 Jun 2027 07:56:30.503   10 Jun 2027 08:00:43.400           252.897        126448.500
        65   10 Jun 2027 08:01:33.336   10 Jun 2027 08:02:00.778            27.442         13721.000
        66   11 Jun 2027 03:18:10.627   11 Jun 2027 03:25:39.998           449.371        224685.500
        67   11 Jun 2027 04:55:14.107   11 Jun 2027 05:01:04.886           350.779        175389.500
        68   11 Jun 2027 05:01:07.878   11 Jun 2027 05:01:24.573            16.695          8347.500
        69   11 Jun 2027 06:33:08.381   11 Jun 2027 06:37:08.037           239.656        119828.000
        70   11 Jun 2027 08:07:01.442   11 Jun 2027 08:12:42.721           341.279        170639.500
        71   11 Jun 2027 08:13:00.703   11 Jun 2027 08:14:14.117            73.414         36707.000
        72   12 Jun 2027 03:30:22.312   12 Jun 2027 03:37:43.507           441.195        220597.500
        73   12 Jun 2027 05:07:05.146   12 Jun 2027 05:13:18.311           373.165        186582.500
        74   12 Jun 2027 05:13:22.496   12 Jun 2027 05:13:43.105            20.609         10304.500
        75   12 Jun 2027 06:45:08.215   12 Jun 2027 06:49:17.710           249.495        124747.500
        76   12 Jun 2027 08:18:49.184   12 Jun 2027 08:25:46.591           417.407        208703.500
        77   13 Jun 2027 03:42:16.402   13 Jun 2027 03:49:44.911           448.509        224254.500
        78   13 Jun 2027 05:19:11.489   13 Jun 2027 05:24:31.493           320.004        160002.000
        79   13 Jun 2027 05:24:59.284   13 Jun 2027 05:25:42.243            42.959         21479.500
        80   13 Jun 2027 06:57:00.106   13 Jun 2027 07:01:16.193           256.087        128043.500
        81   13 Jun 2027 08:31:09.504   13 Jun 2027 08:32:22.816            73.312         36656.000
        82   13 Jun 2027 08:32:55.791   13 Jun 2027 08:36:28.470           212.679        106339.500
