uniorb/output/strategy_4/Camera/Camera_KinoSat_110803.txt

KinoSat_110803
-------------------------
    Access    *     Start Time (UTCG)     *     Stop Time (UTCG)  *   Duration (s) *   Data (Mbytes)
         1   01 Jun 2027 03:52:59.609   01 Jun 2027 03:54:06.109            66.500         33250.000
         2   01 Jun 2027 03:54:54.983   01 Jun 2027 03:55:41.456            46.473         23236.500
         3   01 Jun 2027 03:57:31.173   01 Jun 2027 03:57:50.818            19.645          9822.500
         4   01 Jun 2027 05:27:53.293   01 Jun 2027 05:29:26.431            93.138         46569.000
         5   01 Jun 2027 05:29:44.999   01 Jun 2027 05:29:53.416             8.417          4208.500
         6   01 Jun 2027 05:30:23.870   01 Jun 2027 05:30:45.352            21.482         10741.000
         7   01 Jun 2027 05:31:32.511   01 Jun 2027 05:31:32.511             0.000             0.000
         8   01 Jun 2027 05:32:28.012   01 Jun 2027 05:32:44.561            16.549          8274.500
         9   01 Jun 2027 07:05:27.075   01 Jun 2027 07:07:21.406           114.331         57165.500
        10   01 Jun 2027 07:09:41.309   01 Jun 2027 07:09:47.460             6.151          3075.500
        11   01 Jun 2027 07:10:06.574   01 Jun 2027 07:10:15.749             9.175          4587.500
        12   01 Jun 2027 07:12:26.159   01 Jun 2027 07:12:47.818            21.659         10829.500
        13   01 Jun 2027 08:42:09.638   01 Jun 2027 08:44:37.209           147.571         73785.500
        14   01 Jun 2027 08:45:58.052   01 Jun 2027 08:46:09.581            11.529          5764.500
        15   01 Jun 2027 08:47:37.463   01 Jun 2027 08:47:48.655            11.192          5596.000
        16   01 Jun 2027 08:48:29.926   01 Jun 2027 08:48:43.928            14.002          7001.000
        17   01 Jun 2027 10:20:12.738   01 Jun 2027 10:22:13.461           120.723         60361.500
        18   01 Jun 2027 10:23:01.823   01 Jun 2027 10:23:11.436             9.613          4806.500
        19   01 Jun 2027 10:24:09.860   01 Jun 2027 10:24:11.245             1.385           692.500
        20   01 Jun 2027 11:53:50.200   01 Jun 2027 11:55:23.657            93.457         46728.500
        21   01 Jun 2027 11:56:38.168   01 Jun 2027 11:56:38.168             0.000             0.000
        22   01 Jun 2027 11:57:29.808   01 Jun 2027 11:57:43.359            13.551          6775.500
        23   01 Jun 2027 11:58:43.275   01 Jun 2027 11:58:43.379             0.104            52.000
        24   02 Jun 2027 04:04:28.695   02 Jun 2027 04:05:21.155            52.460         26230.000
        25   02 Jun 2027 04:08:40.500   02 Jun 2027 04:08:40.500             0.000             0.000
        26   02 Jun 2027 04:09:01.684   02 Jun 2027 04:09:08.282             6.598          3299.000
        27   02 Jun 2027 05:39:24.005   02 Jun 2027 05:41:59.483           155.478         77739.000
        28   02 Jun 2027 05:42:11.919   02 Jun 2027 05:42:36.390            24.471         12235.500
        29   02 Jun 2027 05:44:59.216   02 Jun 2027 05:45:11.698            12.482          6241.000
        30   02 Jun 2027 05:48:18.540   02 Jun 2027 05:48:21.354             2.814          1407.000
        31   02 Jun 2027 07:17:20.998   02 Jun 2027 07:20:32.689           191.691         95845.500
        32   02 Jun 2027 07:22:32.115   02 Jun 2027 07:22:50.560            18.445          9222.500
        33   02 Jun 2027 08:54:15.390   02 Jun 2027 08:58:10.884           235.494        117747.000
        34   02 Jun 2027 09:00:11.968   02 Jun 2027 09:00:44.555            32.587         15395.124
        35   02 Jun 2027 10:31:59.046   02 Jun 2027 10:32:31.513            32.467         16076.563
        36   02 Jun 2027 10:33:55.492   02 Jun 2027 10:34:00.562             5.070          1955.312
        37   02 Jun 2027 10:34:48.308   02 Jun 2027 10:34:54.867             6.559          1492.062
        38   02 Jun 2027 10:35:01.915   02 Jun 2027 10:35:05.902             3.987           220.250
        39   02 Jun 2027 10:35:27.018   02 Jun 2027 10:35:28.646             1.628           647.656
        40   02 Jun 2027 10:35:35.269   02 Jun 2027 10:35:35.588             0.319             9.375
        41   02 Jun 2027 10:36:08.780   02 Jun 2027 10:36:11.609             2.829           518.312
        42   02 Jun 2027 10:36:19.327   02 Jun 2027 10:36:19.469             0.142            19.469
        43   03 Jun 2027 04:18:32.540   03 Jun 2027 04:19:14.734            42.194         21097.000
        44   03 Jun 2027 04:19:50.630   03 Jun 2027 04:20:24.376            33.746         16873.000
        45   03 Jun 2027 05:52:17.426   03 Jun 2027 05:53:57.188            99.762         49881.000
        46   03 Jun 2027 05:54:38.581   03 Jun 2027 05:55:11.804            33.223         16611.500
        47   03 Jun 2027 05:56:05.082   03 Jun 2027 05:56:40.813            35.731         17865.500
        48   03 Jun 2027 05:59:56.429   03 Jun 2027 06:00:09.657            13.228          6614.000
        49   03 Jun 2027 07:29:41.881   03 Jun 2027 07:31:04.519            82.638         40693.313
        50   03 Jun 2027 07:31:07.657   03 Jun 2027 07:31:08.570             0.913            98.063
        51   03 Jun 2027 07:31:41.715   03 Jun 2027 07:31:44.111             2.396          1035.781
        52   03 Jun 2027 07:32:50.171   03 Jun 2027 07:32:54.723             4.552          1866.281
        53   03 Jun 2027 07:35:33.826   03 Jun 2027 07:35:36.361             2.535           311.281
        54   03 Jun 2027 09:06:45.663   03 Jun 2027 09:07:00.067            14.404          6368.938
        55   03 Jun 2027 09:07:53.870   03 Jun 2027 09:07:57.336             3.466          1467.719
        56   03 Jun 2027 09:08:50.379   03 Jun 2027 09:08:51.614             1.235           563.219
        57   03 Jun 2027 09:10:00.253   03 Jun 2027 09:10:02.917             2.664           950.063
        58   03 Jun 2027 09:10:54.991   03 Jun 2027 09:10:59.139             4.148           932.656
        59   03 Jun 2027 09:11:12.976   03 Jun 2027 09:11:13.455             0.479           109.094
        60   03 Jun 2027 10:43:30.468   03 Jun 2027 10:43:45.144            14.676          6590.313
        61   03 Jun 2027 10:46:41.383   03 Jun 2027 10:46:43.349             1.966            95.719
        62   03 Jun 2027 10:47:52.373   03 Jun 2027 10:47:57.685             5.312          2157.000
        63   04 Jun 2027 04:30:46.831   04 Jun 2027 04:32:15.383            88.552         44276.000
        64   04 Jun 2027 04:34:15.646   04 Jun 2027 04:34:21.675             6.029          3014.500
        65   04 Jun 2027 06:04:50.834   04 Jun 2027 06:07:22.773           151.939         75969.500
        66   04 Jun 2027 06:08:15.211   04 Jun 2027 06:08:53.138            37.927         18963.500
        67   04 Jun 2027 06:10:05.999   04 Jun 2027 06:10:09.425             3.426          1713.000
        68   04 Jun 2027 06:10:48.167   04 Jun 2027 06:10:48.167             0.000             0.000
        69   04 Jun 2027 06:11:16.041   04 Jun 2027 06:11:29.946            13.905          5358.094
        70   04 Jun 2027 06:12:17.166   04 Jun 2027 06:12:27.301            10.135          1332.625
        71   04 Jun 2027 06:12:46.159   04 Jun 2027 06:12:48.743             2.584           165.687
        72   04 Jun 2027 07:42:00.901   04 Jun 2027 07:42:04.494             3.593          1635.563
        73   04 Jun 2027 07:47:36.186   04 Jun 2027 07:47:37.964             1.778           223.375
        74   04 Jun 2027 07:48:19.913   04 Jun 2027 07:48:22.542             2.629          1310.906
        75   04 Jun 2027 09:18:51.220   04 Jun 2027 09:19:03.123            11.903          5936.063
        76   04 Jun 2027 09:20:41.502   04 Jun 2027 09:20:47.914             6.412           788.187
        77   04 Jun 2027 10:55:37.726   04 Jun 2027 10:55:53.450            15.724          7719.750
        78   04 Jun 2027 10:58:03.564   04 Jun 2027 10:58:04.711             1.147           361.969
        79   05 Jun 2027 03:06:28.315   05 Jun 2027 03:06:46.349            18.034          9017.000
        80   05 Jun 2027 03:07:12.249   05 Jun 2027 03:07:12.249             0.000             0.000
        81   05 Jun 2027 03:09:03.835   05 Jun 2027 03:09:07.862             4.027          2013.500
        82   05 Jun 2027 04:42:57.288   05 Jun 2027 04:45:56.648           179.360         89680.000
        83   05 Jun 2027 04:46:18.567   05 Jun 2027 04:46:27.204             8.637          4318.500
        84   05 Jun 2027 06:18:02.423   05 Jun 2027 06:19:37.049            94.626         46784.781
        85   05 Jun 2027 06:20:52.006   05 Jun 2027 06:20:55.569             3.563          1557.875
        86   05 Jun 2027 06:20:57.067   05 Jun 2027 06:20:57.067             0.000             0.000
        87   05 Jun 2027 06:21:26.761   05 Jun 2027 06:21:30.938             4.177           974.750
        88   05 Jun 2027 06:21:55.561   05 Jun 2027 06:21:57.729             2.168           553.187
        89   05 Jun 2027 06:23:53.238   05 Jun 2027 06:23:58.881             5.643          2150.406
        90   05 Jun 2027 06:24:21.957   05 Jun 2027 06:24:25.255             3.298           529.781
        91   05 Jun 2027 07:54:24.504   05 Jun 2027 07:54:29.208             4.704           639.031
        92   05 Jun 2027 07:59:25.682   05 Jun 2027 07:59:27.148             1.466           101.000
        93   05 Jun 2027 07:59:49.729   05 Jun 2027 07:59:52.099             2.370            68.563
        94   05 Jun 2027 09:31:54.467   05 Jun 2027 09:32:04.179             9.712          4362.062
        95   05 Jun 2027 09:35:41.265   05 Jun 2027 09:35:47.078             5.813            22.000
        96   05 Jun 2027 09:35:55.900   05 Jun 2027 09:35:57.039             1.139           211.875
        97   05 Jun 2027 09:36:18.206   05 Jun 2027 09:36:19.337             1.131           419.594
        98   05 Jun 2027 11:07:59.213   05 Jun 2027 11:08:11.102            11.889          5155.031
        99   05 Jun 2027 11:11:51.842   05 Jun 2027 11:11:54.207             2.365           140.000
       100   06 Jun 2027 03:18:24.061   06 Jun 2027 03:18:48.578            24.517         12258.500
       101   06 Jun 2027 03:19:07.118   06 Jun 2027 03:19:09.541             2.423          1211.500
       102   06 Jun 2027 04:55:01.737   06 Jun 2027 04:58:16.635           194.898         97449.000
       103   06 Jun 2027 06:30:12.194   06 Jun 2027 06:31:38.825            86.631         42467.531
       104   06 Jun 2027 06:32:40.667   06 Jun 2027 06:32:44.588             3.921          1820.188
       105   06 Jun 2027 06:32:52.772   06 Jun 2027 06:32:55.605             2.833           124.812
       106   06 Jun 2027 06:33:00.203   06 Jun 2027 06:33:07.467             7.264            63.250
       107   06 Jun 2027 06:33:25.498   06 Jun 2027 06:33:25.498             0.000             0.000
       108   06 Jun 2027 06:34:44.627   06 Jun 2027 06:34:52.358             7.731          2919.594
       109   06 Jun 2027 06:35:54.984   06 Jun 2027 06:35:58.450             3.466          1711.594
       110   06 Jun 2027 06:36:09.904   06 Jun 2027 06:36:10.583             0.679           326.969
       111   06 Jun 2027 08:06:26.183   06 Jun 2027 08:06:30.622             4.439           479.125
       112   06 Jun 2027 09:44:00.104   06 Jun 2027 09:44:12.111            12.007          5245.062
       113   06 Jun 2027 09:44:59.362   06 Jun 2027 09:45:03.581             4.219           438.500
       114   06 Jun 2027 09:45:09.492   06 Jun 2027 09:45:10.662             1.170            47.750
       115   06 Jun 2027 09:47:29.026   06 Jun 2027 09:47:29.758             0.732            15.719
       116   06 Jun 2027 09:47:59.285   06 Jun 2027 09:48:00.486             1.201            39.937
       117   06 Jun 2027 09:48:23.749   06 Jun 2027 09:48:24.467             0.718           328.844
       118   06 Jun 2027 11:20:01.410   06 Jun 2027 11:20:14.111            12.701          6322.250
       119   06 Jun 2027 11:22:09.658   06 Jun 2027 11:22:11.806             2.148           712.750
       120   06 Jun 2027 11:23:35.230   06 Jun 2027 11:23:37.441             2.211          1052.812
       121   07 Jun 2027 03:30:59.599   07 Jun 2027 03:31:04.338             4.739          2369.500
       122   07 Jun 2027 03:31:54.367   07 Jun 2027 03:31:56.165             1.798           899.000
       123   07 Jun 2027 03:33:28.718   07 Jun 2027 03:33:44.084            15.366          7683.000
       124   07 Jun 2027 05:06:45.655   07 Jun 2027 05:10:03.489           197.834         98917.000
       125   07 Jun 2027 05:10:53.316   07 Jun 2027 05:10:55.520             2.204          1102.000
       126   07 Jun 2027 06:41:36.353   07 Jun 2027 06:43:03.085            86.732         41997.500
       127   07 Jun 2027 06:43:38.682   07 Jun 2027 06:43:40.539             1.857           772.813
       128   07 Jun 2027 06:44:46.142   07 Jun 2027 06:44:47.408             1.266            57.313
       129   07 Jun 2027 06:45:26.663   07 Jun 2027 06:45:29.391             2.728           820.437
       130   07 Jun 2027 06:46:44.287   07 Jun 2027 06:46:47.721             3.434          1523.781
       131   07 Jun 2027 06:47:38.761   07 Jun 2027 06:47:41.168             2.407          1111.656
       132   07 Jun 2027 06:48:22.603   07 Jun 2027 06:48:27.402             4.799          1107.562
       133   07 Jun 2027 08:18:12.295   07 Jun 2027 08:18:15.778             3.483           938.281
       134   07 Jun 2027 08:19:55.929   07 Jun 2027 08:20:00.506             4.577           480.875
       135   07 Jun 2027 08:23:40.606   07 Jun 2027 08:23:47.414             6.808           489.531
       136   07 Jun 2027 08:24:00.347   07 Jun 2027 08:24:03.219             2.872           404.156
       137   07 Jun 2027 09:56:30.053   07 Jun 2027 09:56:44.133            14.080          6809.625
       138   07 Jun 2027 09:57:56.216   07 Jun 2027 09:58:00.372             4.156          1984.594
       139   07 Jun 2027 09:59:38.960   07 Jun 2027 09:59:44.331             5.371          2365.906
       140   07 Jun 2027 10:00:02.182   07 Jun 2027 10:00:03.722             1.540           557.844
       141   07 Jun 2027 11:29:50.391   07 Jun 2027 11:30:01.155            10.764          5382.000
       142   07 Jun 2027 11:31:49.858   07 Jun 2027 11:31:53.708             3.850          1537.219
       143   08 Jun 2027 03:41:38.664   08 Jun 2027 03:41:47.029             8.365          4182.500
       144   08 Jun 2027 03:43:14.092   08 Jun 2027 03:43:25.929            11.837          5918.500
       145   08 Jun 2027 03:45:29.612   08 Jun 2027 03:45:33.743             4.131          2065.500
       146   08 Jun 2027 05:16:56.166   08 Jun 2027 05:17:56.920            60.754         30377.000
       147   08 Jun 2027 05:18:29.915   08 Jun 2027 05:19:08.577            38.662         19331.000
       148   08 Jun 2027 05:19:12.704   08 Jun 2027 05:20:03.013            50.309         25154.500
       149   08 Jun 2027 05:20:58.827   08 Jun 2027 05:21:43.796            44.969         22484.500
       150   08 Jun 2027 05:21:50.623   08 Jun 2027 05:21:57.574             6.951          3475.500
       151   08 Jun 2027 06:53:29.620   08 Jun 2027 06:55:05.737            96.117         47682.625
       152   08 Jun 2027 06:56:09.266   08 Jun 2027 06:56:12.940             3.674          1629.906
       153   08 Jun 2027 06:57:06.787   08 Jun 2027 06:57:12.104             5.317           890.437
       154   08 Jun 2027 06:58:43.303   08 Jun 2027 06:58:50.266             6.963          2280.344
       155   08 Jun 2027 06:59:41.590   08 Jun 2027 06:59:45.693             4.103          1110.969
       156   08 Jun 2027 08:30:33.424   08 Jun 2027 08:30:37.382             3.958          1435.719
       157   08 Jun 2027 08:32:52.913   08 Jun 2027 08:32:55.984             3.071          1201.625
       158   08 Jun 2027 08:36:18.103   08 Jun 2027 08:36:18.455             0.352            66.875
       159   08 Jun 2027 08:36:33.259   08 Jun 2027 08:36:34.019             0.760           313.719
       160   08 Jun 2027 10:08:27.699   08 Jun 2027 10:08:43.456            15.757          6466.562
       161   08 Jun 2027 10:10:02.028   08 Jun 2027 10:10:06.212             4.184           360.062
       162   08 Jun 2027 10:11:25.621   08 Jun 2027 10:11:31.195             5.574          2071.656
       163   08 Jun 2027 10:12:03.388   08 Jun 2027 10:12:04.562             1.174           480.062
       164   08 Jun 2027 10:12:07.517   08 Jun 2027 10:12:10.959             3.442            92.344
       165   08 Jun 2027 11:41:40.304   08 Jun 2027 11:41:52.574            12.270          5737.906
       166   09 Jun 2027 03:53:14.368   09 Jun 2027 03:53:36.461            22.093         11046.500
       167   09 Jun 2027 03:57:05.467   09 Jun 2027 03:57:05.467             0.000             0.000
       168   09 Jun 2027 03:57:26.281   09 Jun 2027 03:57:30.727             4.446          2223.000
       169   09 Jun 2027 05:28:07.635   09 Jun 2027 05:30:12.311           124.676         62338.000
       170   09 Jun 2027 05:30:17.553   09 Jun 2027 05:31:03.006            45.453         22726.500
       171   09 Jun 2027 05:31:12.317   09 Jun 2027 05:31:17.447             5.130          2565.000
       172   09 Jun 2027 05:32:04.699   09 Jun 2027 05:32:15.560            10.861          5430.500
       173   09 Jun 2027 07:05:41.756   09 Jun 2027 07:07:39.926           118.170         58830.750
       174   09 Jun 2027 07:08:27.363   09 Jun 2027 07:08:30.275             2.912           816.187
       175   09 Jun 2027 07:08:46.624   09 Jun 2027 07:08:48.200             1.576           510.906
       176   09 Jun 2027 07:09:10.146   09 Jun 2027 07:09:13.779             3.633           188.906
       177   09 Jun 2027 07:10:41.549   09 Jun 2027 07:10:47.932             6.383          2029.687
       178   09 Jun 2027 07:11:08.744   09 Jun 2027 07:11:10.264             1.520           173.875
       179   09 Jun 2027 07:11:49.702   09 Jun 2027 07:11:51.470             1.768           355.469
       180   09 Jun 2027 07:12:36.935   09 Jun 2027 07:12:40.262             3.327           718.125
       181   09 Jun 2027 08:42:24.513   09 Jun 2027 08:42:33.057             8.544          3753.469
       182   09 Jun 2027 08:45:44.514   09 Jun 2027 08:45:49.043             4.529          1635.469
       183   09 Jun 2027 08:46:13.247   09 Jun 2027 08:46:15.769             2.522           711.719
       184   09 Jun 2027 08:46:32.583   09 Jun 2027 08:46:34.024             1.441           237.219
       185   09 Jun 2027 08:47:14.548   09 Jun 2027 08:47:19.453             4.905          1184.969
       186   09 Jun 2027 08:48:22.522   09 Jun 2027 08:48:26.846             4.324          1467.656
       187   09 Jun 2027 08:48:44.535   09 Jun 2027 08:48:45.270             0.735           225.719
       188   09 Jun 2027 10:20:27.529   09 Jun 2027 10:20:45.074            17.545          6424.031
       189   09 Jun 2027 10:21:14.232   09 Jun 2027 10:21:16.352             2.120           830.000
       190   09 Jun 2027 10:23:54.571   09 Jun 2027 10:23:55.847             1.276           428.000
       191   09 Jun 2027 10:24:06.405   09 Jun 2027 10:24:09.095             2.690           324.000
       192   09 Jun 2027 10:24:32.887   09 Jun 2027 10:24:34.577             1.690           228.375
       193   09 Jun 2027 11:54:05.567   09 Jun 2027 11:54:08.860             3.293          1110.469
       194   10 Jun 2027 04:04:43.132   10 Jun 2027 04:04:54.950            11.818          5909.000
       195   10 Jun 2027 04:05:10.761   10 Jun 2027 04:05:35.646            24.885         12442.500
       196   10 Jun 2027 04:09:16.740   10 Jun 2027 04:09:24.289             7.549          3774.500
       197   10 Jun 2027 05:39:38.277   10 Jun 2027 05:40:41.365            63.088         31544.000
       198   10 Jun 2027 05:41:52.504   10 Jun 2027 05:43:25.128            92.624         46312.000
       199   10 Jun 2027 05:45:13.706   10 Jun 2027 05:45:28.039            14.333          7166.500
       200   10 Jun 2027 05:48:33.030   10 Jun 2027 05:48:36.605             3.575          1787.500
       201   10 Jun 2027 07:17:35.752   10 Jun 2027 07:19:41.579           125.827         62913.500
       202   10 Jun 2027 07:20:02.368   10 Jun 2027 07:20:09.854             7.486          2732.469
       203   10 Jun 2027 07:21:45.559   10 Jun 2027 07:21:51.705             6.146          2687.094
       204   10 Jun 2027 07:22:48.416   10 Jun 2027 07:22:52.202             3.786           297.875
       205   10 Jun 2027 07:23:21.013   10 Jun 2027 07:23:23.078             2.065           304.750
       206   10 Jun 2027 07:24:12.146   10 Jun 2027 07:24:13.425             1.279           638.313
       207   10 Jun 2027 08:54:30.574   10 Jun 2027 08:54:43.498            12.924          5578.437
       208   10 Jun 2027 08:56:31.628   10 Jun 2027 08:56:38.494             6.866          2167.938
       209   10 Jun 2027 08:56:52.490   10 Jun 2027 08:56:53.034             0.544            66.750
       210   10 Jun 2027 08:57:52.077   10 Jun 2027 08:57:57.743             5.666          1375.813
       211   10 Jun 2027 08:58:33.598   10 Jun 2027 08:58:35.741             2.143           878.375
       212   10 Jun 2027 08:58:46.654   10 Jun 2027 08:58:47.646             0.992           341.031
       213   10 Jun 2027 08:58:58.051   10 Jun 2027 08:59:02.898             4.847            58.969
       214   10 Jun 2027 08:59:36.223   10 Jun 2027 08:59:40.007             3.784           316.719
       215   10 Jun 2027 10:32:13.674   10 Jun 2027 10:32:25.072            11.398          5612.813
       216   10 Jun 2027 10:34:01.078   10 Jun 2027 10:34:03.678             2.600           219.719
       217   10 Jun 2027 10:35:03.911   10 Jun 2027 10:35:08.918             5.007          1513.156
       218   10 Jun 2027 10:35:17.091   10 Jun 2027 10:35:20.826             3.735           255.406
       219   10 Jun 2027 10:36:10.326   10 Jun 2027 10:36:14.482             4.156           614.063
       220   10 Jun 2027 10:36:33.411   10 Jun 2027 10:36:34.290             0.879           328.313
       221   11 Jun 2027 04:18:47.393   11 Jun 2027 04:19:30.491            43.098         21549.000
       222   11 Jun 2027 04:21:33.461   11 Jun 2027 04:22:04.179            30.718         15359.000
       223   11 Jun 2027 05:52:31.667   11 Jun 2027 05:54:11.828           100.161         50080.500
       224   11 Jun 2027 05:54:53.219   11 Jun 2027 05:55:26.407            33.188         16594.000
       225   11 Jun 2027 05:55:38.659   11 Jun 2027 05:55:50.744            12.085          6042.500
       226   11 Jun 2027 05:58:37.124   11 Jun 2027 05:58:50.475            13.351          6675.500
       227   11 Jun 2027 05:59:44.456   11 Jun 2027 06:00:00.659            16.203          8101.500
       228   11 Jun 2027 06:00:43.512   11 Jun 2027 06:00:47.070             3.558          1779.000
       229   11 Jun 2027 06:00:54.646   11 Jun 2027 06:01:03.604             8.958          4479.000
       230   11 Jun 2027 06:01:05.174   11 Jun 2027 06:01:06.154             0.980           490.000
       231   11 Jun 2027 07:29:56.871   11 Jun 2027 07:30:55.378            58.507         28411.407
       232   11 Jun 2027 07:31:25.951   11 Jun 2027 07:31:32.357             6.406            65.500
       233   11 Jun 2027 07:32:05.052   11 Jun 2027 07:32:07.443             2.391           208.094
       234   11 Jun 2027 07:35:48.413   11 Jun 2027 07:35:52.143             3.730           244.188
       235   11 Jun 2027 09:07:00.448   11 Jun 2027 09:07:16.759            16.311          6720.563
       236   11 Jun 2027 09:08:07.862   11 Jun 2027 09:08:12.193             4.331          1420.875
       237   11 Jun 2027 09:11:15.075   11 Jun 2027 09:11:17.378             2.303          1076.688
       238   11 Jun 2027 09:11:28.454   11 Jun 2027 09:11:29.710             1.256           111.719
       239   11 Jun 2027 09:11:54.459   11 Jun 2027 09:11:56.740             2.281           195.531
       240   11 Jun 2027 10:43:45.528   11 Jun 2027 10:44:00.515            14.987          6553.094
       241   11 Jun 2027 10:46:53.683   11 Jun 2027 10:46:57.112             3.429          1169.125
       242   11 Jun 2027 10:47:42.367   11 Jun 2027 10:47:44.781             2.414           922.187
       243   11 Jun 2027 10:48:10.229   11 Jun 2027 10:48:18.025             7.796           795.250
       244   12 Jun 2027 04:31:01.900   12 Jun 2027 04:32:52.792           110.892         55446.000
       245   12 Jun 2027 04:34:02.688   12 Jun 2027 04:34:05.353             2.665          1332.500
       246   12 Jun 2027 06:05:05.991   12 Jun 2027 06:08:02.047           176.056         88028.000
       247   12 Jun 2027 06:08:17.828   12 Jun 2027 06:08:23.793             5.965          2485.938
       248   12 Jun 2027 06:08:30.024   12 Jun 2027 06:08:30.689             0.665           163.719
       249   12 Jun 2027 06:11:29.699   12 Jun 2027 06:11:40.099            10.400          5157.281
       250   12 Jun 2027 06:12:32.942   12 Jun 2027 06:12:32.942             0.000             0.000
       251   12 Jun 2027 06:13:00.894   12 Jun 2027 06:13:03.391             2.497          1248.500
       252   12 Jun 2027 07:42:10.070   12 Jun 2027 07:42:12.637             2.567           971.219
       253   12 Jun 2027 07:47:51.066   12 Jun 2027 07:47:54.565             3.499           233.219
       254   12 Jun 2027 07:48:34.309   12 Jun 2027 07:48:36.821             2.512          1242.000
       255   12 Jun 2027 07:48:49.028   12 Jun 2027 07:48:52.784             3.756           252.500
       256   12 Jun 2027 09:19:06.174   12 Jun 2027 09:19:21.786            15.612          5844.781
       257   12 Jun 2027 09:22:24.573   12 Jun 2027 09:22:26.347             1.774            99.313
       258   12 Jun 2027 09:23:18.908   12 Jun 2027 09:23:23.579             4.671          1240.469
       259   12 Jun 2027 09:23:47.105   12 Jun 2027 09:23:49.115             2.010           672.500
       260   12 Jun 2027 10:55:52.515   12 Jun 2027 10:56:08.287            15.772          7577.969
       261   12 Jun 2027 10:58:06.840   12 Jun 2027 10:58:11.627             4.787           711.062
       262   12 Jun 2027 11:00:15.557   12 Jun 2027 11:00:16.752             1.195           231.406
       263   13 Jun 2027 03:06:43.300   13 Jun 2027 03:07:02.174            18.874          9437.000
       264   13 Jun 2027 03:09:18.910   13 Jun 2027 03:09:22.988             4.078          2039.000
       265   13 Jun 2027 04:43:12.225   13 Jun 2027 04:46:01.226           169.001         84500.500
       266   13 Jun 2027 04:46:32.987   13 Jun 2027 04:46:32.987             0.000             0.000
       267   13 Jun 2027 06:18:17.674   13 Jun 2027 06:20:16.323           118.649         58582.344
       268   13 Jun 2027 06:21:06.933   13 Jun 2027 06:21:10.259             3.326          1543.031
       269   13 Jun 2027 06:21:12.166   13 Jun 2027 06:21:14.253             2.087            25.312
       270   13 Jun 2027 06:21:42.629   13 Jun 2027 06:21:45.569             2.940           861.469
       271   13 Jun 2027 06:23:14.246   13 Jun 2027 06:23:24.700            10.454          2535.531
       272   13 Jun 2027 06:24:20.493   13 Jun 2027 06:24:21.393             0.900           364.062
       273   13 Jun 2027 06:24:55.125   13 Jun 2027 06:24:58.256             3.131           551.812
       274   13 Jun 2027 07:54:39.819   13 Jun 2027 07:54:45.105             5.286           964.344
       275   13 Jun 2027 07:59:40.643   13 Jun 2027 07:59:40.886             0.243           114.250
       276   13 Jun 2027 08:00:06.233   13 Jun 2027 08:00:06.660             0.427           128.937
       277   13 Jun 2027 09:32:08.472   13 Jun 2027 09:32:20.232            11.760          4746.969
       278   13 Jun 2027 09:33:33.248   13 Jun 2027 09:33:33.985             0.737           295.094
       279   13 Jun 2027 09:36:11.462   13 Jun 2027 09:36:13.049             1.587           227.875
       280   13 Jun 2027 09:36:33.194   13 Jun 2027 09:36:35.923             2.729           480.000
       281   13 Jun 2027 11:08:14.406   13 Jun 2027 11:08:25.634            11.228          5120.125
       282   13 Jun 2027 11:12:07.224   13 Jun 2027 11:12:11.989             4.765           108.375
