uniorb/output/strategy_4/Camera/Camera_KinoSat_111103.txt

KinoSat_111103
-------------------------
    Access    *     Start Time (UTCG)     *     Stop Time (UTCG)  *   Duration (s) *   Data (Mbytes)
         1   01 Jun 2027 03:43:01.034   01 Jun 2027 03:44:27.866            86.832         43416.000
         2   01 Jun 2027 03:54:45.136   01 Jun 2027 03:55:43.299            58.163         29081.500
         3   01 Jun 2027 05:16:58.684   01 Jun 2027 05:18:04.908            66.224         33112.000
         4   01 Jun 2027 05:18:56.787   01 Jun 2027 05:19:19.434            22.647         11323.500
         5   01 Jun 2027 06:51:54.219   01 Jun 2027 06:53:32.272            98.053         49026.500
         6   01 Jun 2027 06:54:10.347   01 Jun 2027 06:54:19.374             9.027          4513.500
         7   01 Jun 2027 06:54:38.629   01 Jun 2027 06:55:05.473            26.844         13422.000
         8   01 Jun 2027 06:58:28.189   01 Jun 2027 06:58:38.138             9.949          4974.500
         9   01 Jun 2027 06:58:53.664   01 Jun 2027 06:59:07.863            14.199          7099.500
        10   01 Jun 2027 08:29:24.952   01 Jun 2027 08:31:05.452           100.500         50250.000
        11   01 Jun 2027 08:31:25.292   01 Jun 2027 08:31:48.887            23.595         11797.500
        12   01 Jun 2027 08:35:03.357   01 Jun 2027 08:35:18.147            14.790          7395.000
        13   01 Jun 2027 08:35:31.268   01 Jun 2027 08:35:34.616             3.348          1674.000
        14   01 Jun 2027 08:36:12.703   01 Jun 2027 08:36:20.207             7.504          3752.000
        15   01 Jun 2027 10:06:10.268   01 Jun 2027 10:08:34.116           143.848         71924.000
        16   01 Jun 2027 10:09:30.587   01 Jun 2027 10:09:48.472            17.885          8942.500
        17   01 Jun 2027 10:09:52.257   01 Jun 2027 10:09:54.090             1.833           916.500
        18   01 Jun 2027 10:10:53.180   01 Jun 2027 10:10:58.509             5.329          2664.500
        19   01 Jun 2027 11:44:09.292   01 Jun 2027 11:46:13.851           124.559         62279.500
        20   01 Jun 2027 11:47:38.938   01 Jun 2027 11:47:44.049             5.111          2555.500
        21   01 Jun 2027 11:47:56.793   01 Jun 2027 11:47:59.267             2.474          1237.000
        22   02 Jun 2027 03:54:34.232   02 Jun 2027 03:54:48.696            14.464          7232.000
        23   02 Jun 2027 03:55:18.445   02 Jun 2027 03:55:31.776            13.331          6665.500
        24   02 Jun 2027 03:55:38.014   02 Jun 2027 03:55:46.998             8.984          4492.000
        25   02 Jun 2027 04:06:49.921   02 Jun 2027 04:07:17.573            27.652         13826.000
        26   02 Jun 2027 05:28:30.789   02 Jun 2027 05:29:50.469            79.680         39840.000
        27   02 Jun 2027 05:30:38.694   02 Jun 2027 05:31:24.584            45.890         22945.000
        28   02 Jun 2027 05:31:47.507   02 Jun 2027 05:32:15.567            28.060         14030.000
        29   02 Jun 2027 05:33:48.092   02 Jun 2027 05:33:52.595             4.503          2251.500
        30   02 Jun 2027 07:03:24.129   02 Jun 2027 07:06:04.452           160.323         80161.500
        31   02 Jun 2027 07:06:47.402   02 Jun 2027 07:07:43.807            56.405         28202.500
        32   02 Jun 2027 07:09:52.332   02 Jun 2027 07:09:52.332             0.000             0.000
        33   02 Jun 2027 07:10:06.055   02 Jun 2027 07:10:09.707             3.652          1826.000
        34   02 Jun 2027 07:12:18.637   02 Jun 2027 07:12:30.714            12.077          6038.500
        35   02 Jun 2027 08:41:19.578   02 Jun 2027 08:43:27.026           127.448         63724.000
        36   02 Jun 2027 08:44:12.023   02 Jun 2027 08:44:12.023             0.000             0.000
        37   02 Jun 2027 08:45:29.486   02 Jun 2027 08:45:35.137             5.651          2825.500
        38   02 Jun 2027 08:46:19.654   02 Jun 2027 08:47:02.437            42.783         21391.500
        39   02 Jun 2027 08:47:45.673   02 Jun 2027 08:48:20.196            34.523         17261.500
        40   02 Jun 2027 08:48:30.934   02 Jun 2027 08:48:44.950            14.016          7008.000
        41   02 Jun 2027 10:18:06.792   02 Jun 2027 10:18:24.846            18.054          9027.000
        42   02 Jun 2027 10:18:39.490   02 Jun 2027 10:19:08.981            29.491         12353.124
        43   02 Jun 2027 10:19:37.922   02 Jun 2027 10:19:40.368             2.446           898.437
        44   02 Jun 2027 10:21:00.359   02 Jun 2027 10:21:03.622             3.263           441.406
        45   02 Jun 2027 10:21:43.683   02 Jun 2027 10:21:55.915            12.232          1165.000
        46   02 Jun 2027 10:22:25.266   02 Jun 2027 10:22:28.022             2.756           469.219
        47   02 Jun 2027 10:22:56.133   02 Jun 2027 10:22:57.872             1.739           216.938
        48   02 Jun 2027 10:22:58.686   02 Jun 2027 10:23:00.265             1.579            25.437
        49   02 Jun 2027 10:24:17.374   02 Jun 2027 10:24:22.104             4.730          1847.656
        50   02 Jun 2027 11:55:57.209   02 Jun 2027 11:56:11.496            14.287          7028.187
        51   02 Jun 2027 11:57:53.614   02 Jun 2027 11:57:54.549             0.935            29.344
        52   02 Jun 2027 11:58:51.554   02 Jun 2027 11:58:55.199             3.645           408.344
        53   02 Jun 2027 11:59:55.102   02 Jun 2027 11:59:59.821             4.719          1598.156
        54   03 Jun 2027 04:06:29.831   03 Jun 2027 04:06:51.582            21.751         10875.500
        55   03 Jun 2027 04:06:57.678   03 Jun 2027 04:06:59.314             1.636           818.000
        56   03 Jun 2027 04:07:20.053   03 Jun 2027 04:07:25.335             5.282          2641.000
        57   03 Jun 2027 04:07:43.254   03 Jun 2027 04:07:48.141             4.887          2443.500
        58   03 Jun 2027 04:08:21.971   03 Jun 2027 04:08:21.971             0.000             0.000
        59   03 Jun 2027 05:42:29.540   03 Jun 2027 05:45:15.551           166.011         83005.500
        60   03 Jun 2027 07:16:17.507   03 Jun 2027 07:18:26.773           129.266         64348.030
        61   03 Jun 2027 07:18:45.954   03 Jun 2027 07:18:50.087             4.133           577.063
        62   03 Jun 2027 07:19:22.163   03 Jun 2027 07:19:24.594             2.431          1002.375
        63   03 Jun 2027 07:19:57.086   03 Jun 2027 07:19:57.086             0.000             0.000
        64   03 Jun 2027 07:20:15.403   03 Jun 2027 07:20:19.158             3.755          1405.375
        65   03 Jun 2027 07:21:53.561   03 Jun 2027 07:21:58.883             5.322          2609.250
        66   03 Jun 2027 07:22:27.800   03 Jun 2027 07:22:27.800             0.000             0.000
        67   03 Jun 2027 07:23:03.029   03 Jun 2027 07:23:08.676             5.647          1641.812
        68   03 Jun 2027 07:23:48.321   03 Jun 2027 07:23:50.344             2.023          1011.500
        69   03 Jun 2027 07:23:57.909   03 Jun 2027 07:24:00.940             3.031           265.625
        70   03 Jun 2027 08:53:30.801   03 Jun 2027 08:53:43.107            12.306          5322.219
        71   03 Jun 2027 08:55:29.931   03 Jun 2027 08:55:29.931             0.000             0.000
        72   03 Jun 2027 08:55:58.517   03 Jun 2027 08:56:06.416             7.899          1327.500
        73   03 Jun 2027 08:57:30.282   03 Jun 2027 08:57:35.647             5.365          2520.438
        74   03 Jun 2027 08:58:54.796   03 Jun 2027 08:58:58.916             4.120           397.313
        75   03 Jun 2027 08:59:57.858   03 Jun 2027 09:00:05.185             7.327          1795.531
        76   03 Jun 2027 09:00:16.128   03 Jun 2027 09:00:17.810             1.682           341.969
        77   03 Jun 2027 10:30:43.612   03 Jun 2027 10:30:48.114             4.502          2251.000
        78   03 Jun 2027 10:30:57.879   03 Jun 2027 10:31:10.998            13.119          4155.063
        79   03 Jun 2027 10:33:01.138   03 Jun 2027 10:33:03.550             2.412           567.156
        80   03 Jun 2027 10:34:34.246   03 Jun 2027 10:34:36.737             2.491           926.844
        81   03 Jun 2027 10:35:22.541   03 Jun 2027 10:35:27.398             4.857          1360.125
        82   03 Jun 2027 10:36:14.396   03 Jun 2027 10:36:17.580             3.184          1026.437
        83   03 Jun 2027 10:36:25.440   03 Jun 2027 10:36:32.979             7.539           106.250
        84   04 Jun 2027 04:18:21.767   04 Jun 2027 04:19:20.000            58.233         29116.500
        85   04 Jun 2027 04:20:56.045   04 Jun 2027 04:20:56.045             0.000             0.000
        86   04 Jun 2027 05:54:43.222   04 Jun 2027 05:57:31.797           168.575         84287.500
        87   04 Jun 2027 07:28:47.413   04 Jun 2027 07:30:07.128            79.715         38207.094
        88   04 Jun 2027 07:30:42.222   04 Jun 2027 07:30:44.629             2.407           163.094
        89   04 Jun 2027 07:30:49.683   04 Jun 2027 07:30:49.683             0.000             0.000
        90   04 Jun 2027 07:31:25.566   04 Jun 2027 07:31:28.616             3.050          1279.281
        91   04 Jun 2027 07:32:02.880   04 Jun 2027 07:32:02.880             0.000             0.000
        92   04 Jun 2027 07:33:05.465   04 Jun 2027 07:33:12.554             7.089          2912.875
        93   04 Jun 2027 07:33:34.855   04 Jun 2027 07:33:40.832             5.977           153.594
        94   04 Jun 2027 07:35:05.018   04 Jun 2027 07:35:09.639             4.621          2202.813
        95   04 Jun 2027 07:35:25.305   04 Jun 2027 07:35:28.845             3.540           292.094
        96   04 Jun 2027 07:36:09.113   04 Jun 2027 07:36:12.118             3.005          1254.281
        97   04 Jun 2027 07:36:40.934   04 Jun 2027 07:36:42.602             1.668           621.656
        98   04 Jun 2027 07:36:44.445   04 Jun 2027 07:36:44.928             0.483            57.594
        99   04 Jun 2027 09:05:52.868   04 Jun 2027 09:06:04.408            11.540          5175.719
       100   04 Jun 2027 09:10:57.068   04 Jun 2027 09:11:00.510             3.442           255.469
       101   04 Jun 2027 09:11:53.264   04 Jun 2027 09:11:57.778             4.514          1648.562
       102   04 Jun 2027 09:12:29.356   04 Jun 2027 09:12:30.513             1.157            33.188
       103   04 Jun 2027 10:42:50.471   04 Jun 2027 10:43:01.172            10.701          4890.000
       104   04 Jun 2027 10:45:12.228   04 Jun 2027 10:45:16.723             4.495          1062.969
       105   04 Jun 2027 10:45:54.177   04 Jun 2027 10:46:00.449             6.272            89.562
       106   04 Jun 2027 10:46:15.591   04 Jun 2027 10:46:18.749             3.158           378.594
       107   04 Jun 2027 10:46:20.893   04 Jun 2027 10:46:23.085             2.192             0.562
       108   04 Jun 2027 10:47:13.490   04 Jun 2027 10:47:16.319             2.829           854.063
       109   04 Jun 2027 10:47:40.110   04 Jun 2027 10:47:44.844             4.734           106.031
       110   05 Jun 2027 03:07:19.775   05 Jun 2027 03:08:17.001            57.226         28613.000
       111   05 Jun 2027 03:08:51.777   05 Jun 2027 03:08:57.184             5.407          2703.500
       112   05 Jun 2027 03:09:34.644   05 Jun 2027 03:09:44.746            10.102          5051.000
       113   05 Jun 2027 04:30:24.582   05 Jun 2027 04:31:24.578            59.996         29998.000
       114   05 Jun 2027 06:06:49.887   05 Jun 2027 06:09:51.988           182.101         90142.438
       115   05 Jun 2027 07:41:57.930   05 Jun 2027 07:42:07.221             9.291          4430.406
       116   05 Jun 2027 07:42:40.499   05 Jun 2027 07:42:42.420             1.921           319.219
       117   05 Jun 2027 07:43:28.989   05 Jun 2027 07:43:32.680             3.691           229.156
       118   05 Jun 2027 07:44:11.354   05 Jun 2027 07:44:14.542             3.188          1175.000
       119   05 Jun 2027 07:45:14.477   05 Jun 2027 07:45:15.266             0.789           353.938
       120   05 Jun 2027 07:45:50.541   05 Jun 2027 07:45:55.175             4.634           408.375
       121   05 Jun 2027 07:47:16.454   05 Jun 2027 07:47:22.520             6.066          2215.719
       122   05 Jun 2027 07:47:59.164   05 Jun 2027 07:48:01.731             2.567           956.062
       123   05 Jun 2027 07:48:32.346   05 Jun 2027 07:48:34.979             2.633           248.781
       124   05 Jun 2027 09:18:18.856   05 Jun 2027 09:18:32.874            14.018          6321.781
       125   05 Jun 2027 09:20:20.559   05 Jun 2027 09:20:24.149             3.590          1575.563
       126   05 Jun 2027 09:20:28.237   05 Jun 2027 09:20:29.025             0.788            36.406
       127   05 Jun 2027 09:20:50.204   05 Jun 2027 09:20:56.213             6.009           661.844
       128   05 Jun 2027 09:21:36.796   05 Jun 2027 09:21:38.913             2.117           136.219
       129   05 Jun 2027 09:22:01.201   05 Jun 2027 09:22:03.530             2.329           669.750
       130   05 Jun 2027 09:23:16.482   05 Jun 2027 09:23:30.472            13.990          1766.844
       131   05 Jun 2027 09:24:00.487   05 Jun 2027 09:24:01.755             1.268           502.562
       132   05 Jun 2027 10:55:52.342   05 Jun 2027 10:56:06.302            13.960          4789.219
       133   05 Jun 2027 10:57:16.936   05 Jun 2027 10:57:21.465             4.529          1417.188
       134   05 Jun 2027 10:57:50.811   05 Jun 2027 10:57:52.611             1.800           722.781
       135   05 Jun 2027 10:58:30.566   05 Jun 2027 10:58:32.952             2.386            70.125
       136   05 Jun 2027 10:59:11.396   05 Jun 2027 10:59:13.688             2.292           505.750
       137   05 Jun 2027 10:59:53.608   05 Jun 2027 11:00:00.883             7.275          1247.500
       138   06 Jun 2027 03:19:03.591   06 Jun 2027 03:19:38.471            34.880         17440.000
       139   06 Jun 2027 03:19:52.155   06 Jun 2027 03:21:40.156           108.001         54000.500
       140   06 Jun 2027 03:22:41.199   06 Jun 2027 03:22:49.398             8.199          4099.500
       141   06 Jun 2027 04:42:22.880   06 Jun 2027 04:43:11.626            48.746         24373.000
       142   06 Jun 2027 04:45:18.456   06 Jun 2027 04:45:28.956            10.500          5250.000
       143   06 Jun 2027 06:18:59.800   06 Jun 2027 06:20:29.056            89.256         44106.688
       144   06 Jun 2027 06:20:53.892   06 Jun 2027 06:20:53.892             0.000             0.000
       145   06 Jun 2027 06:21:01.948   06 Jun 2027 06:21:03.326             1.378           660.688
       146   06 Jun 2027 06:22:00.500   06 Jun 2027 06:22:03.136             2.636          1318.000
       147   06 Jun 2027 07:54:09.833   06 Jun 2027 07:54:16.741             6.908          2762.344
       148   06 Jun 2027 07:55:29.253   06 Jun 2027 07:55:33.230             3.977          1909.625
       149   06 Jun 2027 07:56:08.064   06 Jun 2027 07:56:16.256             8.192          1036.906
       150   06 Jun 2027 07:56:59.787   06 Jun 2027 07:57:03.215             3.428          1160.812
       151   06 Jun 2027 07:58:06.701   06 Jun 2027 07:58:08.632             1.931           837.875
       152   06 Jun 2027 07:59:31.743   06 Jun 2027 07:59:35.609             3.866           478.719
       153   06 Jun 2027 08:00:05.230   06 Jun 2027 08:00:06.599             1.369           640.969
       154   06 Jun 2027 08:00:31.700   06 Jun 2027 08:00:34.140             2.440           231.437
       155   06 Jun 2027 09:30:27.060   06 Jun 2027 09:30:42.470            15.410          5926.875
       156   06 Jun 2027 09:33:15.614   06 Jun 2027 09:33:18.644             3.030           379.563
       157   06 Jun 2027 09:33:44.131   06 Jun 2027 09:33:46.699             2.568           621.625
       158   06 Jun 2027 09:35:13.809   06 Jun 2027 09:35:17.726             3.917          1525.687
       159   06 Jun 2027 09:35:32.143   06 Jun 2027 09:35:35.150             3.007           450.531
       160   06 Jun 2027 09:35:38.634   06 Jun 2027 09:35:39.550             0.916           108.875
       161   06 Jun 2027 11:07:57.923   06 Jun 2027 11:08:08.124            10.201          4896.969
       162   06 Jun 2027 11:11:15.241   06 Jun 2027 11:11:18.037             2.796          1257.219
       163   06 Jun 2027 11:12:09.102   06 Jun 2027 11:12:10.305             1.203           132.813
       164   07 Jun 2027 03:20:13.593   07 Jun 2027 03:20:22.509             8.916          4458.000
       165   07 Jun 2027 03:31:00.178   07 Jun 2027 03:31:41.051            40.873         20436.500
       166   07 Jun 2027 03:31:50.174   07 Jun 2027 03:34:34.997           164.823         82411.500
       167   07 Jun 2027 04:54:58.990   07 Jun 2027 04:55:17.724            18.734          9367.000
       168   07 Jun 2027 06:30:43.811   07 Jun 2027 06:31:54.850            71.039         33655.219
       169   07 Jun 2027 06:32:05.337   07 Jun 2027 06:32:14.888             9.551           204.844
       170   07 Jun 2027 06:32:51.263   07 Jun 2027 06:32:54.095             2.832          1136.719
       171   07 Jun 2027 06:33:22.236   07 Jun 2027 06:33:24.257             2.021           679.813
       172   07 Jun 2027 06:34:04.904   07 Jun 2027 06:34:09.203             4.299          1159.500
       173   07 Jun 2027 08:05:38.182   07 Jun 2027 08:05:44.785             6.603          2865.500
       174   07 Jun 2027 08:06:23.769   07 Jun 2027 08:06:30.153             6.384           981.156
       175   07 Jun 2027 08:07:35.589   07 Jun 2027 08:07:39.841             4.252          2044.875
       176   07 Jun 2027 08:07:59.160   07 Jun 2027 08:08:00.497             1.337           482.500
       177   07 Jun 2027 08:08:49.843   07 Jun 2027 08:08:52.217             2.374           404.781
       178   07 Jun 2027 08:09:04.155   07 Jun 2027 08:09:05.084             0.929           282.406
       179   07 Jun 2027 08:10:10.365   07 Jun 2027 08:10:12.551             2.186           884.406
       180   07 Jun 2027 08:11:34.800   07 Jun 2027 08:11:36.020             1.220           594.375
       181   07 Jun 2027 08:12:21.942   07 Jun 2027 08:12:22.596             0.654           107.531
       182   07 Jun 2027 09:42:10.297   07 Jun 2027 09:42:23.459            13.162          5659.062
       183   07 Jun 2027 09:44:52.002   07 Jun 2027 09:44:52.541             0.539           176.125
       184   07 Jun 2027 09:45:09.387   07 Jun 2027 09:45:13.355             3.968           176.563
       185   07 Jun 2027 09:46:29.523   07 Jun 2027 09:46:36.549             7.026          1502.844
       186   07 Jun 2027 09:47:04.217   07 Jun 2027 09:47:07.385             3.168           864.625
       187   07 Jun 2027 09:47:23.332   07 Jun 2027 09:47:28.473             5.141           419.594
       188   07 Jun 2027 09:47:47.941   07 Jun 2027 09:47:51.723             3.782           608.375
       189   07 Jun 2027 11:20:27.757   07 Jun 2027 11:20:41.314            13.557          6036.219
       190   07 Jun 2027 11:22:31.595   07 Jun 2027 11:22:34.162             2.567             5.344
       191   07 Jun 2027 11:22:35.567   07 Jun 2027 11:22:35.874             0.307             5.094
       192   07 Jun 2027 11:23:40.337   07 Jun 2027 11:23:49.394             9.057          1852.125
       193   07 Jun 2027 11:23:59.580   07 Jun 2027 11:24:00.249             0.669           285.844
       194   08 Jun 2027 03:31:31.348   08 Jun 2027 03:31:34.107             2.759          1379.500
       195   08 Jun 2027 03:32:06.325   08 Jun 2027 03:32:12.463             6.138          3069.000
       196   08 Jun 2027 03:42:57.010   08 Jun 2027 03:44:36.774            99.764         49882.000
       197   08 Jun 2027 05:05:34.594   08 Jun 2027 05:06:35.441            60.847         30423.500
       198   08 Jun 2027 05:06:49.516   08 Jun 2027 05:07:36.789            47.273         23636.500
       199   08 Jun 2027 05:09:23.999   08 Jun 2027 05:09:33.132             9.133          4566.500
       200   08 Jun 2027 05:09:58.513   08 Jun 2027 05:10:07.658             9.145          4572.500
       201   08 Jun 2027 06:40:58.326   08 Jun 2027 06:41:53.974            55.648         27824.000
       202   08 Jun 2027 06:42:29.380   08 Jun 2027 06:42:49.614            20.234         10064.063
       203   08 Jun 2027 06:43:59.650   08 Jun 2027 06:44:05.973             6.323          2082.938
       204   08 Jun 2027 06:45:08.820   08 Jun 2027 06:45:08.820             0.000             0.000
       205   08 Jun 2027 06:45:12.384   08 Jun 2027 06:45:17.534             5.150          2043.781
       206   08 Jun 2027 06:45:40.328   08 Jun 2027 06:45:40.328             0.000             0.000
       207   08 Jun 2027 06:46:10.159   08 Jun 2027 06:46:13.274             3.115          1471.687
       208   08 Jun 2027 06:46:51.141   08 Jun 2027 06:46:53.013             1.872           889.594
       209   08 Jun 2027 08:17:24.495   08 Jun 2027 08:17:35.735            11.240          2034.500
       210   08 Jun 2027 08:17:54.927   08 Jun 2027 08:17:55.629             0.702           267.125
       211   08 Jun 2027 08:20:30.117   08 Jun 2027 08:20:34.138             4.021          1596.969
       212   08 Jun 2027 08:20:48.812   08 Jun 2027 08:20:51.764             2.952           251.187
       213   08 Jun 2027 08:21:43.963   08 Jun 2027 08:21:53.393             9.430          1552.750
       214   08 Jun 2027 08:22:31.752   08 Jun 2027 08:22:34.038             2.286           868.250
       215   08 Jun 2027 08:23:18.299   08 Jun 2027 08:23:23.795             5.496          1326.531
       216   08 Jun 2027 08:24:08.751   08 Jun 2027 08:24:15.025             6.274           969.812
       217   08 Jun 2027 09:54:30.882   08 Jun 2027 09:54:46.046            15.164          7243.375
       218   08 Jun 2027 09:57:04.671   08 Jun 2027 09:57:05.023             0.352            65.281
       219   08 Jun 2027 09:57:36.015   08 Jun 2027 09:57:37.634             1.619            59.156
       220   08 Jun 2027 09:58:23.746   08 Jun 2027 09:58:24.615             0.869           290.750
       221   08 Jun 2027 09:58:36.706   08 Jun 2027 09:58:39.416             2.710           377.844
       222   08 Jun 2027 09:59:07.760   08 Jun 2027 09:59:14.447             6.687           416.688
       223   08 Jun 2027 10:00:23.088   08 Jun 2027 10:00:27.844             4.756          2057.937
       224   08 Jun 2027 11:32:25.626   08 Jun 2027 11:32:40.053            14.427          5627.344
       225   08 Jun 2027 11:32:56.695   08 Jun 2027 11:32:57.558             0.863           168.250
       226   08 Jun 2027 11:34:30.977   08 Jun 2027 11:34:36.239             5.262          2228.000
       227   08 Jun 2027 11:34:58.279   08 Jun 2027 11:35:01.744             3.465           681.625
       228   08 Jun 2027 11:35:54.329   08 Jun 2027 11:35:57.085             2.756           231.094
       229   08 Jun 2027 11:36:21.339   08 Jun 2027 11:36:23.073             1.734           694.281
       230   09 Jun 2027 03:43:04.265   09 Jun 2027 03:43:34.191            29.926         14963.000
       231   09 Jun 2027 03:54:57.305   09 Jun 2027 03:55:58.246            60.941         30470.500
       232   09 Jun 2027 05:17:13.527   09 Jun 2027 05:18:19.928            66.401         33200.500
       233   09 Jun 2027 05:19:07.955   09 Jun 2027 05:19:49.072            41.117         20558.500
       234   09 Jun 2027 05:21:46.748   09 Jun 2027 05:21:46.748             0.000             0.000
       235   09 Jun 2027 06:52:07.667   09 Jun 2027 06:54:08.979           121.312         60592.781
       236   09 Jun 2027 06:54:31.743   09 Jun 2027 06:54:32.654             0.911           414.906
       237   09 Jun 2027 06:54:56.380   09 Jun 2027 06:54:57.825             1.445           702.844
       238   09 Jun 2027 06:55:33.789   09 Jun 2027 06:55:40.662             6.873           412.906
       239   09 Jun 2027 06:56:03.954   09 Jun 2027 06:56:08.399             4.445           662.844
       240   09 Jun 2027 06:57:20.408   09 Jun 2027 06:57:23.450             3.042          1521.000
       241   09 Jun 2027 06:57:43.472   09 Jun 2027 06:57:43.472             0.000             0.000
       242   09 Jun 2027 06:58:38.218   09 Jun 2027 06:58:44.608             6.390          3054.719
       243   09 Jun 2027 08:29:39.910   09 Jun 2027 08:29:47.683             7.773          3063.656
       244   09 Jun 2027 08:32:33.942   09 Jun 2027 08:32:43.679             9.737          3969.188
       245   09 Jun 2027 08:33:15.029   09 Jun 2027 08:33:15.462             0.433           215.062
       246   09 Jun 2027 08:33:55.419   09 Jun 2027 08:33:56.951             1.532           676.844
       247   09 Jun 2027 08:34:42.089   09 Jun 2027 08:34:46.281             4.192          1106.719
       248   09 Jun 2027 08:36:01.614   09 Jun 2027 08:36:10.121             8.507          1352.125
       249   09 Jun 2027 08:36:53.410   09 Jun 2027 08:36:54.404             0.994           340.406
       250   09 Jun 2027 10:06:25.987   09 Jun 2027 10:06:40.143            14.156          5393.188
       251   09 Jun 2027 10:07:38.517   09 Jun 2027 10:07:40.322             1.805           512.656
       252   09 Jun 2027 10:09:10.842   09 Jun 2027 10:09:16.570             5.728           219.687
       253   09 Jun 2027 10:09:37.902   09 Jun 2027 10:09:40.002             2.100           656.125
       254   09 Jun 2027 10:10:03.663   09 Jun 2027 10:10:05.546             1.883           557.062
       255   09 Jun 2027 10:10:10.364   09 Jun 2027 10:10:13.167             2.803           150.563
       256   09 Jun 2027 10:10:30.715   09 Jun 2027 10:10:30.962             0.247            71.625
       257   09 Jun 2027 10:10:44.629   09 Jun 2027 10:10:46.633             2.004           233.812
       258   09 Jun 2027 10:11:10.528   09 Jun 2027 10:11:12.657             2.129            39.000
       259   09 Jun 2027 10:11:53.569   09 Jun 2027 10:11:56.701             3.132          1255.688
       260   09 Jun 2027 10:12:28.781   09 Jun 2027 10:12:32.620             3.839           636.656
       261   09 Jun 2027 10:12:43.036   09 Jun 2027 10:12:44.610             1.574           233.125
       262   09 Jun 2027 11:44:25.773   09 Jun 2027 11:44:39.284            13.511          5778.719
       263   09 Jun 2027 11:45:38.899   09 Jun 2027 11:45:41.982             3.083          1061.438
       264   09 Jun 2027 11:46:34.894   09 Jun 2027 11:46:37.344             2.450           567.281
       265   09 Jun 2027 11:47:23.196   09 Jun 2027 11:47:27.091             3.895           613.625
       266   09 Jun 2027 11:47:44.777   09 Jun 2027 11:47:46.491             1.714           466.313
       267   09 Jun 2027 11:48:14.474   09 Jun 2027 11:48:16.076             1.602           796.125
       268   09 Jun 2027 11:48:20.557   09 Jun 2027 11:48:21.971             1.414           140.031
       269   09 Jun 2027 11:48:30.693   09 Jun 2027 11:48:31.998             1.305           272.563
       270   10 Jun 2027 03:54:49.721   10 Jun 2027 03:54:53.662             3.941          1970.500
       271   10 Jun 2027 03:55:35.170   10 Jun 2027 03:55:35.170             0.000             0.000
       272   10 Jun 2027 03:55:37.930   10 Jun 2027 03:55:46.383             8.453          4226.500
       273   10 Jun 2027 03:55:54.841   10 Jun 2027 03:56:02.228             7.387          3693.500
       274   10 Jun 2027 04:07:05.242   10 Jun 2027 04:07:32.721            27.479         13739.500
       275   10 Jun 2027 05:28:45.003   10 Jun 2027 05:30:05.631            80.628         40314.000
       276   10 Jun 2027 05:30:53.935   10 Jun 2027 05:31:39.339            45.404         22702.000
       277   10 Jun 2027 05:32:01.844   10 Jun 2027 05:32:08.262             6.418          3209.000
       278   10 Jun 2027 05:32:36.836   10 Jun 2027 05:32:56.843            20.007         10003.500
       279   10 Jun 2027 07:03:38.682   10 Jun 2027 07:05:43.889           125.207         61987.812
       280   10 Jun 2027 07:06:29.655   10 Jun 2027 07:06:31.978             2.323          1083.063
       281   10 Jun 2027 07:07:13.334   10 Jun 2027 07:07:16.778             3.444          1046.813
       282   10 Jun 2027 07:07:24.759   10 Jun 2027 07:07:27.861             3.102           249.406
       283   10 Jun 2027 07:07:45.058   10 Jun 2027 07:07:48.574             3.516           477.594
       284   10 Jun 2027 07:08:45.468   10 Jun 2027 07:08:45.468             0.000             0.000
       285   10 Jun 2027 07:09:14.393   10 Jun 2027 07:09:19.884             5.491          2313.438
       286   10 Jun 2027 07:09:46.518   10 Jun 2027 07:09:46.518             0.000             0.000
       287   10 Jun 2027 07:10:22.751   10 Jun 2027 07:10:23.731             0.980           490.000
       288   10 Jun 2027 07:10:27.057   10 Jun 2027 07:10:32.844             5.787          1471.375
       289   10 Jun 2027 07:11:20.217   10 Jun 2027 07:11:27.506             7.289          1480.406
       290   10 Jun 2027 07:11:36.624   10 Jun 2027 07:11:36.624             0.000             0.000
       291   10 Jun 2027 07:12:04.670   10 Jun 2027 07:12:06.329             1.659           829.500
       292   10 Jun 2027 07:12:33.479   10 Jun 2027 07:12:37.370             3.891          1074.062
       293   10 Jun 2027 08:41:34.863   10 Jun 2027 08:41:39.447             4.584          2087.937
       294   10 Jun 2027 08:42:32.323   10 Jun 2027 08:42:36.029             3.706          1031.562
       295   10 Jun 2027 08:43:45.224   10 Jun 2027 08:43:47.679             2.455           339.750
       296   10 Jun 2027 08:45:39.450   10 Jun 2027 08:45:44.325             4.875          2188.937
       297   10 Jun 2027 08:47:17.401   10 Jun 2027 08:47:20.273             2.872           824.937
       298   10 Jun 2027 08:48:19.530   10 Jun 2027 08:48:21.972             2.442           652.156
       299   10 Jun 2027 08:48:45.223   10 Jun 2027 08:48:46.008             0.785           306.375
       300   10 Jun 2027 10:18:22.788   10 Jun 2027 10:18:37.794            15.006          5794.094
       301   10 Jun 2027 10:18:55.624   10 Jun 2027 10:18:56.925             1.301           524.156
       302   10 Jun 2027 10:21:46.848   10 Jun 2027 10:21:50.857             4.009           899.844
       303   10 Jun 2027 10:22:44.079   10 Jun 2027 10:22:46.398             2.319           553.281
       304   10 Jun 2027 10:23:12.494   10 Jun 2027 10:23:13.336             0.842           265.594
       305   10 Jun 2027 10:23:19.128   10 Jun 2027 10:23:19.566             0.438           181.000
       306   10 Jun 2027 10:24:33.928   10 Jun 2027 10:24:38.161             4.233          1909.313
       307   10 Jun 2027 11:56:12.991   10 Jun 2027 11:56:26.289            13.298          5019.813
       308   10 Jun 2027 11:58:32.175   10 Jun 2027 11:58:34.692             2.517           416.000
       309   10 Jun 2027 11:59:30.167   10 Jun 2027 11:59:36.322             6.155           758.469
       310   11 Jun 2027 04:06:45.706   11 Jun 2027 04:07:06.361            20.655         10327.500
       311   11 Jun 2027 04:07:12.543   11 Jun 2027 04:07:13.937             1.394           697.000
       312   11 Jun 2027 04:07:36.804   11 Jun 2027 04:07:57.728            20.924         10462.000
       313   11 Jun 2027 04:08:26.021   11 Jun 2027 04:08:26.021             0.000             0.000
       314   11 Jun 2027 05:42:45.054   11 Jun 2027 05:45:31.339           166.285         83142.500
       315   11 Jun 2027 07:16:32.434   11 Jun 2027 07:18:30.097           117.663         58711.500
       316   11 Jun 2027 07:19:02.367   11 Jun 2027 07:19:05.809             3.442           580.375
       317   11 Jun 2027 07:19:11.593   11 Jun 2027 07:19:16.421             4.828           180.750
       318   11 Jun 2027 07:20:12.550   11 Jun 2027 07:20:17.944             5.394          1751.000
       319   11 Jun 2027 07:21:22.556   11 Jun 2027 07:21:22.556             0.000             0.000
       320   11 Jun 2027 07:21:49.446   11 Jun 2027 07:22:00.029            10.583          2431.781
       321   11 Jun 2027 07:22:27.042   11 Jun 2027 07:22:33.095             6.053           736.250
       322   11 Jun 2027 07:24:04.371   11 Jun 2027 07:24:08.192             3.821          1910.500
       323   11 Jun 2027 07:24:12.419   11 Jun 2027 07:24:15.724             3.305           780.438
       324   11 Jun 2027 08:53:47.252   11 Jun 2027 08:53:58.015            10.763          4115.656
       325   11 Jun 2027 08:55:48.110   11 Jun 2027 08:55:49.499             1.389           489.219
       326   11 Jun 2027 08:56:27.218   11 Jun 2027 08:56:28.430             1.212           429.781
       327   11 Jun 2027 08:57:46.077   11 Jun 2027 08:57:53.051             6.974           854.625
       328   11 Jun 2027 08:59:15.336   11 Jun 2027 08:59:19.158             3.822           215.969
       329   11 Jun 2027 09:00:20.550   11 Jun 2027 09:00:28.415             7.865           268.469
       330   11 Jun 2027 10:30:59.415   11 Jun 2027 10:31:07.196             7.781          3890.500
       331   11 Jun 2027 10:31:13.833   11 Jun 2027 10:31:27.263            13.430          2703.437
       332   11 Jun 2027 10:33:15.264   11 Jun 2027 10:33:19.163             3.899           523.250
       333   11 Jun 2027 10:34:16.998   11 Jun 2027 10:34:20.646             3.648          1645.500
       334   11 Jun 2027 10:34:55.384   11 Jun 2027 10:34:57.767             2.383           682.313
       335   11 Jun 2027 10:35:15.681   11 Jun 2027 10:35:20.012             4.331           476.500
       336   11 Jun 2027 10:35:58.101   11 Jun 2027 10:36:00.695             2.594          1190.281
       337   11 Jun 2027 10:36:26.971   11 Jun 2027 10:36:27.646             0.675           219.031
       338   11 Jun 2027 10:36:40.361   11 Jun 2027 10:36:46.030             5.669            56.156
       339   12 Jun 2027 04:18:37.378   12 Jun 2027 04:19:11.831            34.453         17226.500
       340   12 Jun 2027 04:19:34.909   12 Jun 2027 04:19:36.767             1.858           929.000
       341   12 Jun 2027 04:19:38.904   12 Jun 2027 04:19:38.904             0.000             0.000
       342   12 Jun 2027 04:20:23.402   12 Jun 2027 04:20:35.618            12.216          6108.000
       343   12 Jun 2027 04:21:10.795   12 Jun 2027 04:21:10.795             0.000             0.000
       344   12 Jun 2027 05:54:59.461   12 Jun 2027 05:57:44.852           165.391         82695.500
       345   12 Jun 2027 05:57:50.430   12 Jun 2027 05:57:58.503             8.073          4036.500
       346   12 Jun 2027 05:58:18.204   12 Jun 2027 05:58:31.320            13.116          6558.000
       347   12 Jun 2027 07:27:17.653   12 Jun 2027 07:27:51.640            33.987         16993.500
       348   12 Jun 2027 07:29:04.050   12 Jun 2027 07:29:47.383            43.333         20464.406
       349   12 Jun 2027 07:30:53.581   12 Jun 2027 07:30:55.124             1.543           311.219
       350   12 Jun 2027 07:31:01.062   12 Jun 2027 07:31:04.648             3.586            83.062
       351   12 Jun 2027 07:31:43.820   12 Jun 2027 07:31:47.672             3.852          1224.125
       352   12 Jun 2027 07:33:21.075   12 Jun 2027 07:33:26.869             5.794          2879.562
       353   12 Jun 2027 07:33:52.231   12 Jun 2027 07:33:55.602             3.371           189.187
       354   12 Jun 2027 07:35:23.070   12 Jun 2027 07:35:32.266             9.196          2229.094
       355   12 Jun 2027 07:35:43.302   12 Jun 2027 07:35:45.326             2.024           344.875
       356   12 Jun 2027 07:36:25.727   12 Jun 2027 07:36:29.018             3.291          1262.531
       357   12 Jun 2027 07:36:57.215   12 Jun 2027 07:36:59.113             1.898           734.250
       358   12 Jun 2027 07:36:59.708   12 Jun 2027 07:36:59.941             0.233            18.594
       359   12 Jun 2027 09:06:08.035   12 Jun 2027 09:06:19.029            10.994          3586.688
       360   12 Jun 2027 09:08:59.659   12 Jun 2027 09:09:00.609             0.950            90.969
       361   12 Jun 2027 09:09:57.503   12 Jun 2027 09:09:59.462             1.959           285.750
       362   12 Jun 2027 09:11:14.039   12 Jun 2027 09:11:15.185             1.146            64.656
       363   12 Jun 2027 09:12:44.141   12 Jun 2027 09:12:50.626             6.485          1105.344
       364   12 Jun 2027 10:43:05.971   12 Jun 2027 10:43:18.224            12.253          5508.063
       365   12 Jun 2027 10:45:58.964   12 Jun 2027 10:46:06.512             7.548          2105.531
       366   12 Jun 2027 10:46:10.724   12 Jun 2027 10:46:14.289             3.565           123.563
       367   12 Jun 2027 10:46:31.020   12 Jun 2027 10:46:33.591             2.571           410.594
       368   12 Jun 2027 10:47:13.822   12 Jun 2027 10:47:14.952             1.130           272.063
       369   12 Jun 2027 10:47:47.802   12 Jun 2027 10:47:50.513             2.711           837.344
       370   13 Jun 2027 03:07:38.956   13 Jun 2027 03:08:17.893            38.937         19468.500
       371   13 Jun 2027 03:09:31.048   13 Jun 2027 03:09:46.620            15.572          7786.000
       372   13 Jun 2027 03:10:29.822   13 Jun 2027 03:10:40.964            11.142          5571.000
       373   13 Jun 2027 04:30:40.620   13 Jun 2027 04:31:19.953            39.333         19666.500
       374   13 Jun 2027 04:31:41.357   13 Jun 2027 04:31:42.263             0.906           453.000
       375   13 Jun 2027 04:32:05.041   13 Jun 2027 04:32:05.041             0.000             0.000
       376   13 Jun 2027 04:32:09.988   13 Jun 2027 04:32:16.833             6.845          3422.500
       377   13 Jun 2027 04:32:47.016   13 Jun 2027 04:33:12.752            25.736         12868.000
       378   13 Jun 2027 06:07:06.817   13 Jun 2027 06:09:41.881           155.064         77532.000
       379   13 Jun 2027 06:09:48.068   13 Jun 2027 06:10:04.106            16.038          5914.719
       380   13 Jun 2027 06:10:08.426   13 Jun 2027 06:10:08.426             0.000             0.000
       381   13 Jun 2027 06:10:09.184   13 Jun 2027 06:10:11.518             2.334            64.094
       382   13 Jun 2027 07:42:14.144   13 Jun 2027 07:42:21.270             7.126          3046.250
       383   13 Jun 2027 07:42:55.386   13 Jun 2027 07:42:57.147             1.761           261.063
       384   13 Jun 2027 07:43:47.238   13 Jun 2027 07:43:48.148             0.910           288.656
       385   13 Jun 2027 07:44:28.157   13 Jun 2027 07:44:30.572             2.415          1179.719
       386   13 Jun 2027 07:45:30.895   13 Jun 2027 07:45:34.340             3.445           380.469
       387   13 Jun 2027 07:46:04.918   13 Jun 2027 07:46:05.585             0.667           315.188
       388   13 Jun 2027 07:47:32.733   13 Jun 2027 07:47:38.382             5.649          2197.156
       389   13 Jun 2027 07:48:15.662   13 Jun 2027 07:48:30.014            14.352           909.531
       390   13 Jun 2027 07:48:49.035   13 Jun 2027 07:48:50.042             1.007           246.688
       391   13 Jun 2027 09:18:35.745   13 Jun 2027 09:18:46.476            10.731          4717.469
       392   13 Jun 2027 09:19:43.472   13 Jun 2027 09:19:45.237             1.765           685.844
       393   13 Jun 2027 09:22:35.864   13 Jun 2027 09:22:37.791             1.927           637.063
       394   13 Jun 2027 09:23:07.077   13 Jun 2027 09:23:11.390             4.313           390.156
       395   13 Jun 2027 09:24:00.050   13 Jun 2027 09:24:10.460            10.410          1520.625
       396   13 Jun 2027 09:24:56.226   13 Jun 2027 09:24:56.793             0.567           283.500
       397   13 Jun 2027 10:56:07.563   13 Jun 2027 10:56:22.250            14.687          5322.562
       398   13 Jun 2027 10:57:34.426   13 Jun 2027 10:57:38.630             4.204          1483.187
       399   13 Jun 2027 10:58:07.570   13 Jun 2027 10:58:12.078             4.508           754.063
       400   13 Jun 2027 10:58:24.421   13 Jun 2027 10:58:25.593             1.172           151.187
       401   13 Jun 2027 10:58:51.609   13 Jun 2027 10:58:53.137             1.528           666.188
       402   13 Jun 2027 10:59:28.230   13 Jun 2027 10:59:29.447             1.217           529.156
       403   13 Jun 2027 11:00:12.415   13 Jun 2027 11:00:16.027             3.612          1342.750
       404   13 Jun 2027 11:00:29.735   13 Jun 2027 11:00:30.110             0.375           186.406
