uniorb/output/strategy_4/Camera/Camera_KinoSat_110103.txt

KinoSat_110103
-------------------------
    Access    *     Start Time (UTCG)     *     Stop Time (UTCG)  *   Duration (s) *   Data (Mbytes)
         1   01 Jun 2027 04:26:01.110   01 Jun 2027 04:28:23.880           142.770         71385.000
         2   01 Jun 2027 04:29:25.420   01 Jun 2027 04:29:33.469             8.049          4024.500
         3   01 Jun 2027 04:30:44.770   01 Jun 2027 04:31:08.628            23.858         11929.000
         4   01 Jun 2027 04:31:33.565   01 Jun 2027 04:31:48.406            14.841          7420.500
         5   01 Jun 2027 04:32:11.206   01 Jun 2027 04:32:15.393             4.187          2093.500
         6   01 Jun 2027 06:04:04.639   01 Jun 2027 06:07:22.898           198.259         99129.500
         7   01 Jun 2027 06:07:53.337   01 Jun 2027 06:08:03.823            10.486          5243.000
         8   01 Jun 2027 07:37:48.352   01 Jun 2027 07:40:37.021           168.669         84334.500
         9   01 Jun 2027 07:42:18.725   01 Jun 2027 07:42:22.897             4.172          2086.000
        10   01 Jun 2027 07:42:41.061   01 Jun 2027 07:42:43.000             1.939           969.500
        11   01 Jun 2027 07:42:47.130   01 Jun 2027 07:42:55.664             8.534          4267.000
        12   01 Jun 2027 07:44:00.167   01 Jun 2027 07:44:15.322            15.155          7577.500
        13   02 Jun 2027 03:01:13.259   02 Jun 2027 03:08:41.948           448.689        224344.500
        14   02 Jun 2027 04:38:08.120   02 Jun 2027 04:41:47.703           219.583        109791.500
        15   02 Jun 2027 04:41:50.421   02 Jun 2027 04:41:53.140             2.719          1359.500
        16   02 Jun 2027 04:42:43.620   02 Jun 2027 04:42:53.722            10.102          5051.000
        17   02 Jun 2027 04:44:15.390   02 Jun 2027 04:44:37.746            22.356         11178.000
        18   02 Jun 2027 06:15:42.137   02 Jun 2027 06:20:12.796           270.659        135329.500
        19   02 Jun 2027 07:50:04.953   02 Jun 2027 07:51:17.004            72.051         36025.500
        20   02 Jun 2027 07:52:50.644   02 Jun 2027 07:55:23.338           152.694         76347.000
        21   03 Jun 2027 03:13:35.307   03 Jun 2027 03:20:26.474           411.167        205583.500
        22   03 Jun 2027 04:50:37.422   03 Jun 2027 04:55:06.704           269.282        134641.000
        23   03 Jun 2027 04:55:12.939   03 Jun 2027 04:56:28.071            75.132         37566.000
        24   03 Jun 2027 06:27:28.969   03 Jun 2027 06:32:10.666           281.697        140848.500
        25   03 Jun 2027 08:04:28.392   03 Jun 2027 08:07:09.765           161.373         80686.500
        26   04 Jun 2027 03:25:46.191   04 Jun 2027 03:32:30.700           404.509        202254.500
        27   04 Jun 2027 05:02:52.864   04 Jun 2027 05:07:10.221           257.357        128678.500
        28   04 Jun 2027 05:07:13.945   04 Jun 2027 05:07:47.896            33.951         16975.500
        29   04 Jun 2027 06:39:47.924   04 Jun 2027 06:44:38.119           290.195        145097.500
        30   04 Jun 2027 08:17:51.044   04 Jun 2027 08:18:38.535            47.491         23745.500
        31   05 Jun 2027 03:38:19.943   05 Jun 2027 03:44:37.136           377.193        188596.500
        32   05 Jun 2027 05:15:45.019   05 Jun 2027 05:20:14.977           269.958        134979.000
        33   05 Jun 2027 06:52:05.922   05 Jun 2027 06:56:07.008           241.086        120543.000
        34   06 Jun 2027 03:50:00.393   06 Jun 2027 03:55:47.658           347.265        173632.500
        35   06 Jun 2027 03:55:49.844   06 Jun 2027 03:56:16.975            27.131         13565.500
        36   06 Jun 2027 05:27:53.057   06 Jun 2027 05:32:22.760           269.703        134851.500
        37   06 Jun 2027 07:03:50.401   06 Jun 2027 07:08:04.004           253.603        126801.500
        38   06 Jun 2027 07:08:09.056   06 Jun 2027 07:08:57.791            48.735         24367.500
        39   07 Jun 2027 04:02:06.522   07 Jun 2027 04:08:28.269           381.747        190873.500
        40   07 Jun 2027 05:40:22.047   07 Jun 2027 05:44:17.159           235.112        117556.000
        41   07 Jun 2027 07:13:40.627   07 Jun 2027 07:15:11.157            90.530         45265.000
        42   07 Jun 2027 07:15:40.528   07 Jun 2027 07:19:55.780           255.252        127626.000
        43   07 Jun 2027 07:20:40.412   07 Jun 2027 07:21:21.115            40.703         20351.500
        44   08 Jun 2027 04:14:26.881   08 Jun 2027 04:20:17.555           350.674        175337.000
        45   08 Jun 2027 04:20:23.356   08 Jun 2027 04:20:34.220            10.864          5432.000
        46   08 Jun 2027 05:52:20.499   08 Jun 2027 05:56:19.283           238.784        119392.000
        47   08 Jun 2027 07:25:37.629   08 Jun 2027 07:31:55.926           378.297        189148.500
        48   08 Jun 2027 07:32:37.008   08 Jun 2027 07:33:27.020            50.012         25006.000
        49   09 Jun 2027 04:26:15.633   09 Jun 2027 04:32:55.841           400.208        200104.000
        50   09 Jun 2027 06:04:19.529   09 Jun 2027 06:08:29.180           249.651        124825.500
        51   09 Jun 2027 07:38:03.697   09 Jun 2027 07:44:55.811           412.114        206057.000
        52   10 Jun 2027 03:01:28.512   10 Jun 2027 03:08:56.944           448.432        224216.000
        53   10 Jun 2027 04:38:22.801   10 Jun 2027 04:43:33.576           310.775        155387.500
        54   10 Jun 2027 04:44:11.295   10 Jun 2027 04:44:52.314            41.019         20509.500
        55   10 Jun 2027 06:16:07.240   10 Jun 2027 06:20:27.665           260.425        130212.500
        56   10 Jun 2027 07:50:19.388   10 Jun 2027 07:51:19.979            60.591         30295.500
        57   10 Jun 2027 07:52:10.031   10 Jun 2027 07:55:38.084           208.053        104026.500
        58   11 Jun 2027 03:13:50.559   11 Jun 2027 03:20:41.539           410.980        205490.000
        59   11 Jun 2027 04:50:52.186   11 Jun 2027 04:55:21.183           268.997        134498.500
        60   11 Jun 2027 04:55:27.648   11 Jun 2027 04:56:43.054            75.406         37703.000
        61   11 Jun 2027 06:27:45.175   11 Jun 2027 06:32:25.458           280.283        140141.500
        62   11 Jun 2027 08:04:54.871   11 Jun 2027 08:07:24.606           149.735         74867.500
        63   12 Jun 2027 03:26:01.097   12 Jun 2027 03:32:45.832           404.735        202367.500
        64   12 Jun 2027 05:03:11.891   12 Jun 2027 05:07:25.794           253.903        126951.500
        65   12 Jun 2027 05:07:36.215   12 Jun 2027 05:08:03.654            27.439         13719.500
        66   12 Jun 2027 06:40:02.361   12 Jun 2027 06:44:53.234           290.873        145436.500
        67   12 Jun 2027 08:18:06.012   12 Jun 2027 08:18:53.065            47.053         23526.500
        68   13 Jun 2027 03:38:35.137   13 Jun 2027 03:44:52.185           377.048        188524.000
        69   13 Jun 2027 05:15:59.753   13 Jun 2027 05:20:30.250           270.497        135248.500
        70   13 Jun 2027 06:52:23.853   13 Jun 2027 06:56:22.536           238.683        119341.500
