uniorb/output/strategy_4/Camera/Camera_KinoSat_111002.txt

KinoSat_111002
-------------------------
    Access    *     Start Time (UTCG)     *     Stop Time (UTCG)  *   Duration (s) *   Data (Mbytes)
         1   01 Jun 2027 03:55:44.924   01 Jun 2027 03:57:31.173           106.249         53124.500
         2   01 Jun 2027 03:57:50.818   01 Jun 2027 03:58:07.571            16.753          8376.500
         3   01 Jun 2027 05:32:11.980   01 Jun 2027 05:33:54.739           102.759         51379.500
         4   01 Jun 2027 05:34:14.751   01 Jun 2027 05:34:19.890             5.139          2569.500
         5   01 Jun 2027 05:35:07.403   01 Jun 2027 05:35:37.023            29.620         14810.000
         6   01 Jun 2027 07:04:19.879   01 Jun 2027 07:04:30.955            11.076          5538.000
         7   01 Jun 2027 07:06:18.810   01 Jun 2027 07:07:50.265            91.455         45727.500
         8   01 Jun 2027 07:08:01.626   01 Jun 2027 07:08:11.282             9.656          4828.000
         9   01 Jun 2027 07:08:47.744   01 Jun 2027 07:08:49.891             2.147          1073.500
        10   01 Jun 2027 07:10:11.416   01 Jun 2027 07:10:26.195            14.779          7389.500
        11   01 Jun 2027 07:10:47.050   01 Jun 2027 07:10:47.050             0.000             0.000
        12   01 Jun 2027 07:10:51.679   01 Jun 2027 07:10:58.613             6.934          3467.000
        13   01 Jun 2027 07:12:22.200   01 Jun 2027 07:12:26.159             3.959          1979.500
        14   01 Jun 2027 07:13:51.693   01 Jun 2027 07:13:58.880             7.187          3593.500
        15   01 Jun 2027 07:14:07.802   01 Jun 2027 07:14:07.993             0.191            95.500
        16   01 Jun 2027 08:43:17.446   01 Jun 2027 08:46:04.472           167.026         83513.000
        17   01 Jun 2027 08:46:41.751   01 Jun 2027 08:46:57.374            15.623          7811.500
        18   01 Jun 2027 08:47:05.811   01 Jun 2027 08:47:21.420            15.609          7804.500
        19   01 Jun 2027 10:20:43.933   01 Jun 2027 10:22:50.172           126.239         63119.500
        20   01 Jun 2027 10:23:35.729   01 Jun 2027 10:23:53.291            17.562          8781.000
        21   01 Jun 2027 10:24:09.860   01 Jun 2027 10:24:10.499             0.639           319.500
        22   01 Jun 2027 11:57:04.719   01 Jun 2027 11:58:51.420           106.701         53350.500
        23   01 Jun 2027 11:58:53.892   01 Jun 2027 11:59:15.618            21.726         10863.000
        24   02 Jun 2027 04:07:53.145   02 Jun 2027 04:08:40.500            47.355         23677.500
        25   02 Jun 2027 05:44:21.788   02 Jun 2027 05:46:15.216           113.428         56714.000
        26   02 Jun 2027 05:47:07.538   02 Jun 2027 05:47:41.882            34.344         17172.000
        27   02 Jun 2027 07:19:32.841   02 Jun 2027 07:23:59.534           266.693        133346.500
        28   02 Jun 2027 07:26:07.655   02 Jun 2027 07:26:07.772             0.117            58.500
        29   02 Jun 2027 08:55:51.724   02 Jun 2027 08:59:31.591           219.867        109747.124
        30   02 Jun 2027 09:01:02.159   02 Jun 2027 09:01:10.946             8.787          2478.812
        31   02 Jun 2027 10:33:14.819   02 Jun 2027 10:33:41.643            26.824         13123.219
        32   02 Jun 2027 10:35:27.018   02 Jun 2027 10:35:28.646             1.628           647.656
        33   02 Jun 2027 10:35:53.145   02 Jun 2027 10:35:54.686             1.541           558.625
        34   02 Jun 2027 10:36:18.704   02 Jun 2027 10:36:19.469             0.765           342.437
        35   02 Jun 2027 10:36:42.869   02 Jun 2027 10:36:43.392             0.523           124.313
        36   02 Jun 2027 10:37:25.374   02 Jun 2027 10:37:28.517             3.143           218.062
        37   03 Jun 2027 04:20:35.518   03 Jun 2027 04:21:11.131            35.613         17806.500
        38   03 Jun 2027 04:21:16.605   03 Jun 2027 04:21:17.098             0.493           246.500
        39   03 Jun 2027 04:21:20.339   03 Jun 2027 04:21:21.642             1.303           651.500
        40   03 Jun 2027 04:21:50.167   03 Jun 2027 04:22:40.660            50.493         25246.500
        41   03 Jun 2027 05:56:20.321   03 Jun 2027 05:59:06.697           166.376         83188.000
        42   03 Jun 2027 05:59:33.046   03 Jun 2027 05:59:45.966            12.920          6460.000
        43   03 Jun 2027 07:31:25.976   03 Jun 2027 07:32:09.519            43.543         21764.875
        44   03 Jun 2027 07:33:04.633   03 Jun 2027 07:33:05.668             1.035           517.188
        45   03 Jun 2027 07:34:03.930   03 Jun 2027 07:34:05.639             1.709           723.812
        46   03 Jun 2027 07:34:19.266   03 Jun 2027 07:34:19.824             0.558           140.313
        47   03 Jun 2027 07:34:56.542   03 Jun 2027 07:35:00.680             4.138          1147.438
        48   03 Jun 2027 07:36:32.530   03 Jun 2027 07:36:40.891             8.361          2196.406
        49   03 Jun 2027 07:36:56.422   03 Jun 2027 07:36:59.012             2.590           128.719
        50   03 Jun 2027 07:37:19.826   03 Jun 2027 07:37:22.258             2.432           650.438
        51   03 Jun 2027 07:37:41.365   03 Jun 2027 07:37:42.462             1.097           542.688
        52   03 Jun 2027 07:37:58.671   03 Jun 2027 07:37:58.671             0.000             0.000
        53   03 Jun 2027 09:07:30.204   03 Jun 2027 09:07:42.074            11.870          5316.750
        54   03 Jun 2027 09:10:00.253   03 Jun 2027 09:10:02.917             2.664           950.063
        55   03 Jun 2027 09:12:53.843   03 Jun 2027 09:12:58.350             4.507          2067.469
        56   03 Jun 2027 09:13:06.695   03 Jun 2027 09:13:08.631             1.936           260.781
        57   03 Jun 2027 10:45:27.994   03 Jun 2027 10:45:40.756            12.762          5653.031
        58   03 Jun 2027 10:46:41.383   03 Jun 2027 10:46:43.349             1.966            95.719
        59   03 Jun 2027 10:48:55.677   03 Jun 2027 10:49:02.226             6.549          1964.187
        60   03 Jun 2027 10:49:29.094   03 Jun 2027 10:49:30.384             1.290           540.719
        61   03 Jun 2027 10:49:31.938   03 Jun 2027 10:49:32.692             0.754            48.562
        62   03 Jun 2027 10:49:38.995   03 Jun 2027 10:49:41.046             2.051           129.125
        63   04 Jun 2027 03:09:10.356   04 Jun 2027 03:10:35.143            84.787         42393.500
        64   04 Jun 2027 03:10:40.915   04 Jun 2027 03:11:02.613            21.698         10849.000
        65   04 Jun 2027 04:31:42.235   04 Jun 2027 04:32:36.641            54.406         27203.000
        66   04 Jun 2027 04:33:43.807   04 Jun 2027 04:33:49.158             5.351          2675.500
        67   04 Jun 2027 06:08:04.887   04 Jun 2027 06:10:34.841           149.954         74159.219
        68   04 Jun 2027 06:11:16.041   04 Jun 2027 06:11:20.244             4.203          1216.500
        69   04 Jun 2027 07:42:50.149   04 Jun 2027 07:42:58.430             8.281          3040.719
        70   04 Jun 2027 07:43:30.188   04 Jun 2027 07:43:33.773             3.585           592.406
        71   04 Jun 2027 07:46:58.624   04 Jun 2027 07:47:01.763             3.139          1372.656
        72   04 Jun 2027 07:47:26.168   04 Jun 2027 07:47:29.038             2.870           610.594
        73   04 Jun 2027 07:47:37.964   04 Jun 2027 07:47:43.765             5.801            55.562
        74   04 Jun 2027 07:48:22.542   04 Jun 2027 07:48:26.210             3.668            82.156
        75   04 Jun 2027 07:48:32.135   04 Jun 2027 07:48:37.952             5.817           185.156
        76   04 Jun 2027 07:49:19.516   04 Jun 2027 07:49:26.144             6.628           980.187
        77   04 Jun 2027 07:49:56.830   04 Jun 2027 07:50:01.065             4.235           758.062
        78   04 Jun 2027 07:50:18.454   04 Jun 2027 07:50:19.020             0.566           283.000
        79   04 Jun 2027 09:19:39.499   04 Jun 2027 09:19:53.278            13.779          6795.500
        80   04 Jun 2027 09:23:25.186   04 Jun 2027 09:23:26.436             1.250           122.156
        81   04 Jun 2027 09:24:01.754   04 Jun 2027 09:24:05.029             3.275           886.875
        82   04 Jun 2027 09:24:21.024   04 Jun 2027 09:24:22.379             1.355           499.844
        83   04 Jun 2027 09:24:48.097   04 Jun 2027 09:24:51.330             3.233           689.969
        84   04 Jun 2027 09:25:05.305   04 Jun 2027 09:25:07.198             1.893           381.750
        85   04 Jun 2027 09:25:56.072   04 Jun 2027 09:25:58.921             2.849          1306.094
        86   04 Jun 2027 10:57:50.312   04 Jun 2027 10:58:03.564            13.252          6091.063
        87   04 Jun 2027 10:59:31.061   04 Jun 2027 10:59:32.020             0.959           448.813
        88   04 Jun 2027 10:59:52.743   04 Jun 2027 10:59:53.899             1.156           319.688
        89   04 Jun 2027 11:00:16.355   04 Jun 2027 11:00:18.190             1.835           701.750
        90   04 Jun 2027 11:00:43.473   04 Jun 2027 11:00:45.551             2.078           703.562
        91   04 Jun 2027 11:01:20.218   04 Jun 2027 11:01:25.405             5.187           255.750
        92   04 Jun 2027 11:01:38.378   04 Jun 2027 11:01:42.529             4.151           335.813
        93   05 Jun 2027 03:08:43.892   05 Jun 2027 03:08:49.841             5.949          2974.500
        94   05 Jun 2027 03:20:24.488   05 Jun 2027 03:21:49.667            85.179         42589.500
        95   05 Jun 2027 04:42:40.489   05 Jun 2027 04:43:56.107            75.618         37809.000
        96   05 Jun 2027 04:44:37.241   05 Jun 2027 04:45:07.472            30.231         15115.500
        97   05 Jun 2027 04:46:18.567   05 Jun 2027 04:46:18.567             0.000             0.000
        98   05 Jun 2027 04:46:46.048   05 Jun 2027 04:46:50.084             4.036          2018.000
        99   05 Jun 2027 04:47:25.751   05 Jun 2027 04:47:26.805             1.054           527.000
       100   05 Jun 2027 06:17:53.199   05 Jun 2027 06:19:17.598            84.399         42199.500
       101   05 Jun 2027 06:19:48.819   05 Jun 2027 06:19:57.135             8.316          4080.844
       102   05 Jun 2027 06:20:52.006   05 Jun 2027 06:20:55.569             3.563          1557.875
       103   05 Jun 2027 06:20:57.067   05 Jun 2027 06:20:59.518             2.451            46.812
       104   05 Jun 2027 06:22:42.784   05 Jun 2027 06:22:48.542             5.758          2750.281
       105   05 Jun 2027 06:23:23.016   05 Jun 2027 06:23:28.525             5.509           830.781
       106   05 Jun 2027 06:24:05.004   05 Jun 2027 06:24:07.215             2.211           367.687
       107   05 Jun 2027 06:24:40.423   05 Jun 2027 06:24:42.944             2.521           577.063
       108   05 Jun 2027 07:54:57.337   05 Jun 2027 07:55:06.106             8.769          1767.187
       109   05 Jun 2027 07:56:50.855   05 Jun 2027 07:56:59.394             8.539          2196.344
       110   05 Jun 2027 07:57:39.863   05 Jun 2027 07:57:42.173             2.310           352.406
       111   05 Jun 2027 07:58:07.816   05 Jun 2027 07:58:08.584             0.768           209.125
       112   05 Jun 2027 07:59:00.425   05 Jun 2027 07:59:04.430             4.005          1475.313
       113   05 Jun 2027 07:59:25.682   05 Jun 2027 07:59:27.148             1.466           101.000
       114   05 Jun 2027 08:00:30.186   05 Jun 2027 08:00:34.239             4.053          1796.250
       115   05 Jun 2027 08:01:20.875   05 Jun 2027 08:01:27.695             6.820          1457.375
       116   05 Jun 2027 08:01:54.445   05 Jun 2027 08:01:57.026             2.581           713.063
       117   05 Jun 2027 09:31:55.343   05 Jun 2027 09:32:09.093            13.750          6806.875
       118   05 Jun 2027 09:33:12.563   05 Jun 2027 09:33:19.274             6.711          1227.062
       119   05 Jun 2027 09:35:40.561   05 Jun 2027 09:35:41.265             0.704            24.344
       120   05 Jun 2027 09:35:50.754   05 Jun 2027 09:35:53.822             3.068           296.531
       121   05 Jun 2027 09:36:24.396   05 Jun 2027 09:36:26.187             1.791           523.937
       122   05 Jun 2027 09:36:55.158   05 Jun 2027 09:37:12.311            17.153           905.344
       123   05 Jun 2027 11:09:51.768   05 Jun 2027 11:10:06.301            14.533          4979.625
       124   05 Jun 2027 11:10:35.817   05 Jun 2027 11:10:38.192             2.375           904.719
       125   05 Jun 2027 11:11:33.145   05 Jun 2027 11:11:35.204             2.059           764.313
       126   05 Jun 2027 11:11:51.842   05 Jun 2027 11:11:54.207             2.365           140.000
       127   05 Jun 2027 11:12:16.815   05 Jun 2027 11:12:19.744             2.929           689.656
       128   05 Jun 2027 11:12:40.087   05 Jun 2027 11:12:42.181             2.094           635.719
       129   05 Jun 2027 11:13:12.421   05 Jun 2027 11:13:17.344             4.923           130.344
       130   05 Jun 2027 11:13:35.275   05 Jun 2027 11:13:38.054             2.779            95.312
       131   05 Jun 2027 11:13:48.573   05 Jun 2027 11:13:50.275             1.702           149.719
       132   06 Jun 2027 03:20:06.113   06 Jun 2027 03:20:08.711             2.598          1299.000
       133   06 Jun 2027 03:21:28.090   06 Jun 2027 03:22:19.778            51.688         25844.000
       134   06 Jun 2027 03:32:21.786   06 Jun 2027 03:33:17.054            55.268         27634.000
       135   06 Jun 2027 04:54:21.064   06 Jun 2027 04:55:43.359            82.295         41147.500
       136   06 Jun 2027 04:56:27.518   06 Jun 2027 04:56:51.918            24.400         12200.000
       137   06 Jun 2027 04:58:03.766   06 Jun 2027 04:58:16.635            12.869          6434.500
       138   06 Jun 2027 04:59:47.446   06 Jun 2027 04:59:47.446             0.000             0.000
       139   06 Jun 2027 06:29:20.615   06 Jun 2027 06:30:38.550            77.935         38967.500
       140   06 Jun 2027 06:30:50.112   06 Jun 2027 06:30:51.938             1.826           913.000
       141   06 Jun 2027 06:31:02.725   06 Jun 2027 06:31:06.370             3.645          1263.656
       142   06 Jun 2027 06:31:42.421   06 Jun 2027 06:31:45.919             3.498           990.281
       143   06 Jun 2027 06:32:13.688   06 Jun 2027 06:32:15.468             1.780           728.000
       144   06 Jun 2027 06:32:42.640   06 Jun 2027 06:32:43.806             1.166            61.656
       145   06 Jun 2027 06:32:52.772   06 Jun 2027 06:32:55.605             2.833           124.812
       146   06 Jun 2027 06:33:00.203   06 Jun 2027 06:33:00.203             0.000             0.000
       147   06 Jun 2027 06:33:11.200   06 Jun 2027 06:33:13.307             2.107           406.906
       148   06 Jun 2027 06:34:06.032   06 Jun 2027 06:34:09.254             3.222          1587.594
       149   06 Jun 2027 06:35:18.534   06 Jun 2027 06:35:18.968             0.434           217.000
       150   06 Jun 2027 06:35:24.519   06 Jun 2027 06:35:27.290             2.771          1162.469
       151   06 Jun 2027 06:36:09.904   06 Jun 2027 06:36:12.355             2.451           466.250
       152   06 Jun 2027 06:36:56.128   06 Jun 2027 06:36:58.904             2.776          1198.969
       153   06 Jun 2027 08:06:59.351   06 Jun 2027 08:07:05.626             6.275          2398.562
       154   06 Jun 2027 08:08:50.344   06 Jun 2027 08:08:57.862             7.518          2082.250
       155   06 Jun 2027 08:09:53.774   06 Jun 2027 08:09:58.623             4.849          1417.750
       156   06 Jun 2027 08:12:27.738   06 Jun 2027 08:12:31.176             3.438          1430.719
       157   06 Jun 2027 08:13:02.396   06 Jun 2027 08:13:04.954             2.558           957.781
       158   06 Jun 2027 08:14:06.189   06 Jun 2027 08:14:09.988             3.799          1460.781
       159   06 Jun 2027 09:43:45.770   06 Jun 2027 09:44:00.104            14.334          5741.688
       160   06 Jun 2027 09:46:46.087   06 Jun 2027 09:46:48.219             2.132           558.031
       161   06 Jun 2027 09:47:31.462   06 Jun 2027 09:47:32.385             0.923           229.969
       162   06 Jun 2027 09:47:52.388   06 Jun 2027 09:47:55.127             2.739           215.500
       163   06 Jun 2027 09:48:01.567   06 Jun 2027 09:48:06.740             5.173           177.969
       164   06 Jun 2027 09:48:36.652   06 Jun 2027 09:48:38.527             1.875           403.219
       165   06 Jun 2027 09:49:19.326   06 Jun 2027 09:49:25.071             5.745          1274.969
       166   06 Jun 2027 09:50:19.183   06 Jun 2027 09:50:24.037             4.854          1042.813
       167   06 Jun 2027 11:21:49.877   06 Jun 2027 11:22:06.066            16.189          7581.781
       168   06 Jun 2027 11:22:37.305   06 Jun 2027 11:22:39.268             1.963           163.656
       169   06 Jun 2027 11:23:01.540   06 Jun 2027 11:23:02.221             0.681           140.156
       170   06 Jun 2027 11:24:14.375   06 Jun 2027 11:24:16.473             2.098           578.844
       171   06 Jun 2027 11:25:09.024   06 Jun 2027 11:25:09.860             0.836           313.750
       172   06 Jun 2027 11:25:35.856   06 Jun 2027 11:25:41.351             5.495           653.594
       173   06 Jun 2027 11:25:56.047   06 Jun 2027 11:25:59.267             3.220           353.375
       174   07 Jun 2027 03:32:13.185   07 Jun 2027 03:32:24.354            11.169          5584.500
       175   07 Jun 2027 03:33:09.273   07 Jun 2027 03:33:19.266             9.993          4996.500
       176   07 Jun 2027 03:34:01.941   07 Jun 2027 03:34:07.517             5.576          2788.000
       177   07 Jun 2027 03:44:45.898   07 Jun 2027 03:44:48.629             2.731          1365.500
       178   07 Jun 2027 05:06:01.985   07 Jun 2027 05:09:10.298           188.313         94156.500
       179   07 Jun 2027 05:09:25.713   07 Jun 2027 05:09:43.784            18.071          9035.500
       180   07 Jun 2027 06:40:54.343   07 Jun 2027 06:42:15.879            81.536         40225.813
       181   07 Jun 2027 06:42:57.360   07 Jun 2027 06:42:59.892             2.532          1224.562
       182   07 Jun 2027 06:43:38.682   07 Jun 2027 06:43:40.539             1.857           772.813
       183   07 Jun 2027 06:44:22.894   07 Jun 2027 06:44:27.184             4.290          1192.875
       184   07 Jun 2027 06:44:44.308   07 Jun 2027 06:44:45.720             1.412           514.562
       185   07 Jun 2027 06:45:00.409   07 Jun 2027 06:45:02.197             1.788           445.844
       186   07 Jun 2027 06:46:44.287   07 Jun 2027 06:46:55.109            10.822          3151.031
       187   07 Jun 2027 06:47:38.761   07 Jun 2027 06:47:41.168             2.407          1111.656
       188   07 Jun 2027 06:47:59.906   07 Jun 2027 06:48:01.439             1.533           508.563
       189   07 Jun 2027 06:48:33.961   07 Jun 2027 06:48:36.034             2.073           706.750
       190   07 Jun 2027 06:49:51.612   07 Jun 2027 06:49:56.996             5.384          1852.906
       191   07 Jun 2027 06:50:29.025   07 Jun 2027 06:50:29.428             0.403           201.500
       192   07 Jun 2027 08:19:00.803   07 Jun 2027 08:19:06.959             6.156          2277.687
       193   07 Jun 2027 08:19:49.432   07 Jun 2027 08:19:54.984             5.552           467.062
       194   07 Jun 2027 08:23:27.365   07 Jun 2027 08:23:29.598             2.233           762.312
       195   07 Jun 2027 08:24:14.016   07 Jun 2027 08:24:17.002             2.986          1044.063
       196   07 Jun 2027 08:25:07.152   07 Jun 2027 08:25:20.087            12.935           482.750
       197   07 Jun 2027 08:26:06.519   07 Jun 2027 08:26:12.223             5.704          1401.406
       198   07 Jun 2027 09:55:55.773   07 Jun 2027 09:56:06.664            10.891          4233.656
       199   07 Jun 2027 09:59:04.302   07 Jun 2027 09:59:16.274            11.972           908.156
       200   07 Jun 2027 10:00:08.567   07 Jun 2027 10:00:11.454             2.887           884.781
       201   07 Jun 2027 10:00:11.894   07 Jun 2027 10:00:15.205             3.311            13.750
       202   07 Jun 2027 10:00:28.786   07 Jun 2027 10:00:29.674             0.888           370.125
       203   07 Jun 2027 10:00:48.157   07 Jun 2027 10:00:51.518             3.361           542.594
       204   07 Jun 2027 10:01:41.149   07 Jun 2027 10:01:43.695             2.546          1256.500
       205   07 Jun 2027 10:02:05.136   07 Jun 2027 10:02:09.529             4.393           509.750
       206   07 Jun 2027 11:33:03.632   07 Jun 2027 11:33:14.878            11.246          5242.906
       207   07 Jun 2027 11:34:41.756   07 Jun 2027 11:34:44.635             2.879           932.250
       208   07 Jun 2027 11:35:56.440   07 Jun 2027 11:35:59.927             3.487           598.563
       209   07 Jun 2027 11:36:20.801   07 Jun 2027 11:36:21.321             0.520           250.281
       210   07 Jun 2027 11:37:33.592   07 Jun 2027 11:37:40.860             7.268          2258.469
       211   07 Jun 2027 11:37:56.325   07 Jun 2027 11:37:57.601             1.276           343.812
       212   08 Jun 2027 03:44:08.637   08 Jun 2027 03:44:18.161             9.524          4762.000
       213   08 Jun 2027 03:46:13.107   08 Jun 2027 03:46:17.218             4.111          2055.500
       214   08 Jun 2027 05:20:23.063   08 Jun 2027 05:23:55.250           212.187        106093.500
       215   08 Jun 2027 06:53:55.482   08 Jun 2027 06:55:14.387            78.905         37659.000
       216   08 Jun 2027 06:56:10.104   08 Jun 2027 06:56:12.940             2.836            26.188
       217   08 Jun 2027 06:56:38.293   08 Jun 2027 06:56:42.598             4.305           484.375
       218   08 Jun 2027 06:57:14.836   08 Jun 2027 06:57:18.828             3.992           799.719
       219   08 Jun 2027 06:58:43.303   08 Jun 2027 06:58:50.266             6.963          2280.344
       220   08 Jun 2027 06:59:19.981   08 Jun 2027 06:59:19.981             0.000             0.000
       221   08 Jun 2027 06:59:24.318   08 Jun 2027 06:59:26.981             2.663           571.219
       222   08 Jun 2027 07:00:11.973   08 Jun 2027 07:00:15.812             3.839          1406.000
       223   08 Jun 2027 07:01:02.142   08 Jun 2027 07:01:03.694             1.552           456.750
       224   08 Jun 2027 07:02:11.126   08 Jun 2027 07:02:17.142             6.016          1172.531
       225   08 Jun 2027 08:31:28.014   08 Jun 2027 08:31:36.451             8.437          1761.656
       226   08 Jun 2027 08:33:07.190   08 Jun 2027 08:33:07.484             0.294            86.437
       227   08 Jun 2027 08:34:49.177   08 Jun 2027 08:34:50.046             0.869            90.563
       228   08 Jun 2027 08:36:18.103   08 Jun 2027 08:36:18.455             0.352            66.875
       229   08 Jun 2027 08:37:01.757   08 Jun 2027 08:37:05.928             4.171           403.719
       230   08 Jun 2027 08:37:20.958   08 Jun 2027 08:37:28.317             7.359            95.281
       231   08 Jun 2027 08:37:43.617   08 Jun 2027 08:37:46.744             3.127           478.125
       232   08 Jun 2027 10:08:22.957   08 Jun 2027 10:08:37.459            14.502          6850.031
       233   08 Jun 2027 10:08:44.400   08 Jun 2027 10:08:48.792             4.392           216.906
       234   08 Jun 2027 10:12:03.388   08 Jun 2027 10:12:04.562             1.174           480.062
       235   08 Jun 2027 10:12:07.517   08 Jun 2027 10:12:10.959             3.442            92.344
       236   08 Jun 2027 10:12:17.711   08 Jun 2027 10:12:18.826             1.115           211.000
       237   08 Jun 2027 10:12:29.731   08 Jun 2027 10:12:31.989             2.258           324.094
       238   08 Jun 2027 10:13:26.634   08 Jun 2027 10:13:28.843             2.209          1013.937
       239   08 Jun 2027 10:13:50.752   08 Jun 2027 10:13:55.278             4.526           268.344
       240   08 Jun 2027 10:13:55.324   08 Jun 2027 10:13:55.476             0.152             1.438
       241   08 Jun 2027 11:45:17.428   08 Jun 2027 11:45:33.750            16.322          5524.250
       242   08 Jun 2027 11:46:49.282   08 Jun 2027 11:46:49.524             0.242            75.156
       243   08 Jun 2027 11:48:16.639   08 Jun 2027 11:48:20.234             3.595          1055.812
       244   08 Jun 2027 11:49:17.196   08 Jun 2027 11:49:21.620             4.424          1655.031
       245   09 Jun 2027 03:56:00.143   09 Jun 2027 03:56:50.668            50.525         25262.500
       246   09 Jun 2027 05:32:27.382   09 Jun 2027 05:35:30.692           183.310         91655.000
       247   09 Jun 2027 07:04:35.077   09 Jun 2027 07:04:45.903            10.826          5413.000
       248   09 Jun 2027 07:06:34.222   09 Jun 2027 07:07:46.930            72.708         35442.437
       249   09 Jun 2027 07:08:27.363   09 Jun 2027 07:08:30.275             2.912           585.125
       250   09 Jun 2027 07:09:04.101   09 Jun 2027 07:09:08.188             4.087          1057.063
       251   09 Jun 2027 07:09:36.599   09 Jun 2027 07:09:38.704             2.105           826.656
       252   09 Jun 2027 07:10:03.264   09 Jun 2027 07:10:07.429             4.165           197.031
       253   09 Jun 2027 07:11:03.180   09 Jun 2027 07:11:05.056             1.876           675.969
       254   09 Jun 2027 07:11:38.327   09 Jun 2027 07:11:43.293             4.966           924.469
       255   09 Jun 2027 07:12:48.330   09 Jun 2027 07:12:53.907             5.577          1832.125
       256   09 Jun 2027 07:13:32.482   09 Jun 2027 07:13:36.915             4.433           943.063
       257   09 Jun 2027 07:14:15.225   09 Jun 2027 07:14:17.111             1.886           897.031
       258   09 Jun 2027 08:43:32.691   09 Jun 2027 08:43:43.942            11.251          4937.375
       259   09 Jun 2027 08:46:12.179   09 Jun 2027 08:46:15.769             3.590          1637.625
       260   09 Jun 2027 08:46:32.583   09 Jun 2027 08:46:34.024             1.441           237.219
       261   09 Jun 2027 08:47:14.548   09 Jun 2027 08:47:19.453             4.905          1184.969
       262   09 Jun 2027 08:48:37.312   09 Jun 2027 08:48:38.867             1.555           462.187
       263   09 Jun 2027 08:49:24.923   09 Jun 2027 08:49:27.644             2.721          1262.125
       264   09 Jun 2027 08:49:32.361   09 Jun 2027 08:49:36.961             4.600           147.406
       265   09 Jun 2027 10:21:02.265   09 Jun 2027 10:21:14.232            11.967          5903.031
       266   09 Jun 2027 10:22:46.616   09 Jun 2027 10:22:51.040             4.424          1047.781
       267   09 Jun 2027 10:23:44.208   09 Jun 2027 10:23:47.593             3.385            29.406
       268   09 Jun 2027 10:24:10.447   09 Jun 2027 10:24:12.040             1.593           270.250
       269   09 Jun 2027 10:24:29.741   09 Jun 2027 10:24:30.407             0.666            33.313
       270   09 Jun 2027 10:24:48.409   09 Jun 2027 10:24:49.537             1.128           485.063
       271   09 Jun 2027 11:57:21.235   09 Jun 2027 11:57:37.188            15.953          7762.750
       272   10 Jun 2027 04:08:08.267   10 Jun 2027 04:08:56.957            48.690         24345.000
       273   10 Jun 2027 05:44:37.218   10 Jun 2027 05:47:19.533           162.315         81157.500
       274   10 Jun 2027 07:19:48.228   10 Jun 2027 07:21:29.336           101.108         50554.000
       275   10 Jun 2027 07:21:45.559   10 Jun 2027 07:21:48.172             2.613          1255.844
       276   10 Jun 2027 07:22:12.970   10 Jun 2027 07:22:14.893             1.923           664.531
       277   10 Jun 2027 07:23:23.271   10 Jun 2027 07:23:28.340             5.069          2136.812
       278   10 Jun 2027 07:24:48.673   10 Jun 2027 07:24:56.074             7.401          2226.219
       279   10 Jun 2027 07:25:52.970   10 Jun 2027 07:26:00.914             7.944          1387.156
       280   10 Jun 2027 07:26:16.669   10 Jun 2027 07:26:20.003             3.334           486.156
       281   10 Jun 2027 08:56:07.206   10 Jun 2027 08:56:21.967            14.761          7180.031
       282   10 Jun 2027 08:57:32.092   10 Jun 2027 08:57:34.506             2.414           747.375
       283   10 Jun 2027 08:58:56.164   10 Jun 2027 08:58:58.051             1.887           535.531
       284   10 Jun 2027 09:00:28.204   10 Jun 2027 09:00:37.065             8.861          2138.281
       285   10 Jun 2027 09:01:16.773   10 Jun 2027 09:01:19.251             2.478          1195.156
       286   10 Jun 2027 09:01:36.139   10 Jun 2027 09:01:38.836             2.697           527.750
       287   10 Jun 2027 09:02:12.453   10 Jun 2027 09:02:14.105             1.652           620.062
       288   10 Jun 2027 10:33:30.495   10 Jun 2027 10:33:44.376            13.881          5371.094
       289   10 Jun 2027 10:36:10.326   10 Jun 2027 10:36:14.482             4.156           614.063
       290   10 Jun 2027 10:36:33.411   10 Jun 2027 10:36:34.290             0.879           328.313
       291   10 Jun 2027 10:36:43.690   10 Jun 2027 10:36:44.373             0.683           268.344
       292   10 Jun 2027 10:36:58.369   10 Jun 2027 10:37:00.471             2.102           128.250
       293   10 Jun 2027 10:37:52.184   10 Jun 2027 10:37:53.187             1.003           479.688
       294   11 Jun 2027 03:00:00.000   11 Jun 2027 03:00:14.396            14.396          7198.000
       295   11 Jun 2027 04:20:50.762   11 Jun 2027 04:21:33.461            42.699         21349.500
       296   11 Jun 2027 04:22:00.261   11 Jun 2027 04:22:05.018             4.757          2378.500
       297   11 Jun 2027 04:22:56.202   11 Jun 2027 04:23:11.386            15.184          7592.000
       298   11 Jun 2027 05:56:34.946   11 Jun 2027 05:59:44.456           189.510         94755.000
       299   11 Jun 2027 07:31:39.400   11 Jun 2027 07:32:15.898            36.498         17932.376
       300   11 Jun 2027 07:33:14.154   11 Jun 2027 07:33:16.838             2.684           239.656
       301   11 Jun 2027 07:34:28.100   11 Jun 2027 07:34:31.703             3.603           248.219
       302   11 Jun 2027 07:34:35.741   11 Jun 2027 07:34:36.988             1.247            20.094
       303   11 Jun 2027 07:35:38.987   11 Jun 2027 07:35:40.599             1.612           794.250
       304   11 Jun 2027 07:36:04.547   11 Jun 2027 07:36:05.967             1.420           504.187
       305   11 Jun 2027 07:36:39.449   11 Jun 2027 07:36:44.775             5.326           971.344
       306   11 Jun 2027 07:36:51.473   11 Jun 2027 07:36:55.839             4.366           140.344
       307   11 Jun 2027 07:37:10.615   11 Jun 2027 07:37:10.838             0.223           107.656
       308   11 Jun 2027 07:37:39.997   11 Jun 2027 07:37:43.555             3.558           885.375
       309   11 Jun 2027 07:38:15.135   11 Jun 2027 07:38:15.135             0.000             0.000
       310   11 Jun 2027 09:07:44.771   11 Jun 2027 09:07:59.707            14.936          5501.500
       311   11 Jun 2027 09:11:15.075   11 Jun 2027 09:11:17.378             2.303          1076.688
       312   11 Jun 2027 09:12:33.082   11 Jun 2027 09:12:34.708             1.626            83.156
       313   11 Jun 2027 09:13:11.697   11 Jun 2027 09:13:12.931             1.234           278.219
       314   11 Jun 2027 09:13:21.431   11 Jun 2027 09:13:22.568             1.137           265.625
       315   11 Jun 2027 10:45:43.058   11 Jun 2027 10:45:57.647            14.589          6516.406
       316   11 Jun 2027 10:47:44.781   11 Jun 2027 10:47:45.537             0.756            75.438
       317   11 Jun 2027 10:48:09.694   11 Jun 2027 10:48:10.229             0.535            44.656
       318   11 Jun 2027 10:48:10.564   11 Jun 2027 10:48:18.025             7.461            10.469
       319   11 Jun 2027 10:48:43.885   11 Jun 2027 10:48:46.347             2.462           541.687
       320   11 Jun 2027 10:49:02.836   11 Jun 2027 10:49:03.484             0.648           238.812
       321   11 Jun 2027 10:49:47.386   11 Jun 2027 10:49:49.385             1.999           628.781
       322   11 Jun 2027 10:49:54.319   11 Jun 2027 10:49:56.065             1.746           154.187
       323   12 Jun 2027 03:08:39.028   12 Jun 2027 03:09:47.569            68.541         34270.500
       324   12 Jun 2027 03:10:51.036   12 Jun 2027 03:11:06.869            15.833          7916.500
       325   12 Jun 2027 04:31:57.108   12 Jun 2027 04:32:52.792            55.684         27842.000
       326   12 Jun 2027 04:33:59.811   12 Jun 2027 04:34:02.688             2.877          1438.500
       327   12 Jun 2027 04:35:21.776   12 Jun 2027 04:35:34.150            12.374          6187.000
       328   12 Jun 2027 06:08:19.607   12 Jun 2027 06:10:53.927           154.320         76249.969
       329   12 Jun 2027 06:11:29.699   12 Jun 2027 06:11:29.699             0.000             0.000
       330   12 Jun 2027 06:11:39.130   12 Jun 2027 06:11:42.326             3.196          1412.594
       331   12 Jun 2027 06:12:32.942   12 Jun 2027 06:12:32.942             0.000             0.000
       332   12 Jun 2027 07:43:05.337   12 Jun 2027 07:43:12.413             7.076          3171.375
       333   12 Jun 2027 07:43:56.775   12 Jun 2027 07:44:07.918            11.143           379.938
       334   12 Jun 2027 07:45:20.114   12 Jun 2027 07:45:21.296             1.182           408.219
       335   12 Jun 2027 07:47:15.632   12 Jun 2027 07:47:18.529             2.897          1428.563
       336   12 Jun 2027 07:47:43.065   12 Jun 2027 07:47:47.850             4.785           620.500
       337   12 Jun 2027 07:47:54.565   12 Jun 2027 07:48:01.072             6.507           109.344
       338   12 Jun 2027 07:48:41.895   12 Jun 2027 07:48:44.443             2.548           237.062
       339   12 Jun 2027 07:49:02.418   12 Jun 2027 07:49:03.945             1.527           561.719
       340   12 Jun 2027 07:50:20.124   12 Jun 2027 07:50:26.150             6.026          2241.156
       341   12 Jun 2027 09:19:54.852   12 Jun 2027 09:20:09.205            14.353          7037.031
       342   12 Jun 2027 09:23:40.561   12 Jun 2027 09:23:44.528             3.967          1850.063
       343   12 Jun 2027 09:24:37.181   12 Jun 2027 09:24:38.289             1.108           548.406
       344   12 Jun 2027 09:24:58.644   12 Jun 2027 09:25:01.032             2.388           539.312
       345   12 Jun 2027 09:25:07.647   12 Jun 2027 09:25:09.740             2.093           206.719
       346   12 Jun 2027 10:58:05.308   12 Jun 2027 10:58:17.473            12.165          5906.219
       347   12 Jun 2027 10:58:32.987   12 Jun 2027 10:58:36.782             3.795           404.719
       348   12 Jun 2027 10:58:53.053   12 Jun 2027 10:58:54.541             1.488           508.469
       349   12 Jun 2027 11:00:08.152   12 Jun 2027 11:00:11.124             2.972           355.500
       350   12 Jun 2027 11:00:37.708   12 Jun 2027 11:00:41.208             3.500           151.125
       351   12 Jun 2027 11:01:27.324   12 Jun 2027 11:01:32.836             5.512           873.750
       352   12 Jun 2027 11:01:42.218   12 Jun 2027 11:01:44.284             2.066           194.625
       353   13 Jun 2027 03:08:58.702   13 Jun 2027 03:09:18.910            20.208         10104.000
       354   13 Jun 2027 03:20:39.760   13 Jun 2027 03:22:03.820            84.060         42030.000
       355   13 Jun 2027 04:42:55.205   13 Jun 2027 04:44:10.855            75.650         37825.000
       356   13 Jun 2027 04:44:52.469   13 Jun 2027 04:45:34.484            42.015         21007.500
       357   13 Jun 2027 04:47:43.783   13 Jun 2027 04:47:45.484             1.701           850.500
       358   13 Jun 2027 06:18:07.580   13 Jun 2027 06:19:29.129            81.549         40442.812
       359   13 Jun 2027 06:20:23.951   13 Jun 2027 06:20:28.993             5.042           925.094
       360   13 Jun 2027 06:21:31.068   13 Jun 2027 06:21:37.031             5.963          1939.844
       361   13 Jun 2027 06:21:53.109   13 Jun 2027 06:21:54.835             1.726           327.500
       362   13 Jun 2027 06:22:59.868   13 Jun 2027 06:23:00.014             0.146            73.000
       363   13 Jun 2027 06:23:13.361   13 Jun 2027 06:23:17.961             4.600          1914.281
       364   13 Jun 2027 06:24:24.459   13 Jun 2027 06:24:28.711             4.252          1389.625
       365   13 Jun 2027 06:24:55.125   13 Jun 2027 06:24:58.256             3.131           551.812
       366   13 Jun 2027 06:26:00.529   13 Jun 2027 06:26:00.861             0.332           166.000
       367   13 Jun 2027 07:55:12.270   13 Jun 2027 07:55:15.928             3.658          1517.031
       368   13 Jun 2027 07:57:07.107   13 Jun 2027 07:57:14.179             7.072          2172.781
       369   13 Jun 2027 07:58:22.968   13 Jun 2027 07:58:25.008             2.040           190.344
       370   13 Jun 2027 07:59:17.409   13 Jun 2027 07:59:21.072             3.663          1478.625
       371   13 Jun 2027 07:59:40.643   13 Jun 2027 07:59:40.886             0.243           114.250
       372   13 Jun 2027 08:00:46.057   13 Jun 2027 08:00:51.287             5.230          1759.187
       373   13 Jun 2027 08:01:35.530   13 Jun 2027 08:01:38.810             3.280          1382.594
       374   13 Jun 2027 08:02:10.839   13 Jun 2027 08:02:12.813             1.974           769.188
       375   13 Jun 2027 09:32:10.399   13 Jun 2027 09:32:21.941            11.542          5078.094
       376   13 Jun 2027 09:33:29.644   13 Jun 2027 09:33:29.724             0.080            33.937
       377   13 Jun 2027 09:34:37.674   13 Jun 2027 09:34:42.929             5.255          2123.438
       378   13 Jun 2027 09:35:56.950   13 Jun 2027 09:35:59.425             2.475           146.719
       379   13 Jun 2027 09:36:05.279   13 Jun 2027 09:36:05.920             0.641           182.937
       380   13 Jun 2027 09:36:40.515   13 Jun 2027 09:36:41.850             1.335           541.375
       381   13 Jun 2027 09:37:10.966   13 Jun 2027 09:37:28.702            17.736           909.875
       382   13 Jun 2027 09:38:00.175   13 Jun 2027 09:38:05.697             5.522           952.031
       383   13 Jun 2027 09:38:14.206   13 Jun 2027 09:38:15.264             1.058           237.594
       384   13 Jun 2027 11:10:06.702   13 Jun 2027 11:10:21.572            14.870          7331.906
       385   13 Jun 2027 11:11:20.208   13 Jun 2027 11:11:24.732             4.524           887.750
       386   13 Jun 2027 11:11:48.912   13 Jun 2027 11:11:53.075             4.163           725.375
       387   13 Jun 2027 11:12:07.224   13 Jun 2027 11:12:11.989             4.765           108.375
       388   13 Jun 2027 11:12:31.480   13 Jun 2027 11:12:36.472             4.992           609.094
       389   13 Jun 2027 11:13:14.212   13 Jun 2027 11:13:17.877             3.665           580.563
       390   13 Jun 2027 11:13:26.921   13 Jun 2027 11:13:30.824             3.903            85.500
       391   13 Jun 2027 11:13:50.441   13 Jun 2027 11:13:53.285             2.844            75.625
       392   13 Jun 2027 11:14:03.863   13 Jun 2027 11:14:04.681             0.818           158.719
