uniorb/output/strategy_4/Camera/Camera_KinoSat_111304.txt

KinoSat_111304
-------------------------
    Access    *     Start Time (UTCG)     *     Stop Time (UTCG)  *   Duration (s) *   Data (Mbytes)
         1   01 Jun 2027 03:37:24.677   01 Jun 2027 03:39:36.291           131.614         65807.000
         2   01 Jun 2027 03:39:58.252   01 Jun 2027 03:40:01.272             3.020          1510.000
         3   01 Jun 2027 03:40:32.438   01 Jun 2027 03:40:34.239             1.801           900.500
         4   01 Jun 2027 03:40:58.388   01 Jun 2027 03:41:00.033             1.645           822.500
         5   01 Jun 2027 03:41:21.888   01 Jun 2027 03:41:23.210             1.322           661.000
         6   01 Jun 2027 03:42:12.838   01 Jun 2027 03:42:18.909             6.071          3035.500
         7   01 Jun 2027 05:01:08.928   01 Jun 2027 05:02:05.779            56.851         28425.500
         8   01 Jun 2027 06:37:20.133   01 Jun 2027 06:39:18.686           118.553         59276.500
         9   01 Jun 2027 08:10:53.627   01 Jun 2027 08:13:17.708           144.081         72040.500
        10   01 Jun 2027 08:19:26.705   01 Jun 2027 08:19:27.702             0.997           498.500
        11   01 Jun 2027 09:48:20.293   01 Jun 2027 09:50:35.220           134.927         67463.500
        12   01 Jun 2027 09:52:38.746   01 Jun 2027 09:53:10.527            31.781         15890.500
        13   01 Jun 2027 09:53:26.620   01 Jun 2027 09:53:32.392             5.772          2886.000
        14   01 Jun 2027 11:25:20.987   01 Jun 2027 11:27:25.219           124.232         62116.000
        15   01 Jun 2027 11:30:51.051   01 Jun 2027 11:31:11.089            20.038         10019.000
        16   02 Jun 2027 03:49:19.855   02 Jun 2027 03:51:18.780           118.925         59462.500
        17   02 Jun 2027 03:51:58.620   02 Jun 2027 03:52:07.904             9.284          4642.000
        18   02 Jun 2027 03:53:00.294   02 Jun 2027 03:53:00.294             0.000             0.000
        19   02 Jun 2027 03:53:53.627   02 Jun 2027 03:54:01.054             7.427          3713.500
        20   02 Jun 2027 05:12:59.131   02 Jun 2027 05:14:00.407            61.276         30638.000
        21   02 Jun 2027 06:49:26.283   02 Jun 2027 06:52:36.991           190.708         95354.000
        22   02 Jun 2027 08:21:36.848   02 Jun 2027 08:21:45.063             8.215          4107.500
        23   02 Jun 2027 08:23:32.566   02 Jun 2027 08:26:53.924           201.358        100679.000
        24   02 Jun 2027 08:27:28.820   02 Jun 2027 08:27:48.707            19.887          9943.500
        25   02 Jun 2027 08:28:12.481   02 Jun 2027 08:28:21.394             8.913          4456.500
        26   02 Jun 2027 08:29:08.508   02 Jun 2027 08:29:53.467            44.959         22339.594
        27   02 Jun 2027 08:30:23.964   02 Jun 2027 08:30:27.471             3.507           899.750
        28   02 Jun 2027 08:31:13.632   02 Jun 2027 08:31:22.411             8.779          1442.531
        29   02 Jun 2027 10:00:30.405   02 Jun 2027 10:01:00.849            30.444         14823.313
        30   02 Jun 2027 10:02:50.257   02 Jun 2027 10:02:55.081             4.824          2198.000
        31   02 Jun 2027 10:03:43.810   02 Jun 2027 10:03:51.302             7.492          1522.781
        32   02 Jun 2027 10:05:00.148   02 Jun 2027 10:05:05.982             5.834          2151.438
        33   02 Jun 2027 10:05:21.156   02 Jun 2027 10:05:23.476             2.320           408.375
        34   02 Jun 2027 10:05:39.975   02 Jun 2027 10:05:42.116             2.141           417.344
        35   02 Jun 2027 10:06:35.215   02 Jun 2027 10:06:39.347             4.132          1604.781
        36   02 Jun 2027 10:07:11.298   02 Jun 2027 10:07:14.397             3.099           998.469
        37   02 Jun 2027 11:37:45.031   02 Jun 2027 11:37:59.578            14.547          5104.938
        38   02 Jun 2027 11:38:37.639   02 Jun 2027 11:38:39.949             2.310          1137.063
        39   02 Jun 2027 11:39:37.713   02 Jun 2027 11:39:43.281             5.568           799.625
        40   02 Jun 2027 11:40:34.888   02 Jun 2027 11:40:37.836             2.948          1389.250
        41   02 Jun 2027 11:40:59.492   02 Jun 2027 11:41:00.947             1.455           521.000
        42   02 Jun 2027 11:41:33.397   02 Jun 2027 11:41:40.054             6.657           898.656
        43   02 Jun 2027 11:42:27.656   02 Jun 2027 11:42:31.430             3.774          1344.219
        44   03 Jun 2027 04:02:33.302   03 Jun 2027 04:04:52.980           139.678         69839.000
        45   03 Jun 2027 04:05:50.983   03 Jun 2027 04:06:00.617             9.634          4817.000
        46   03 Jun 2027 05:25:06.797   03 Jun 2027 05:25:51.254            44.457         22228.500
        47   03 Jun 2027 07:01:34.852   03 Jun 2027 07:03:41.895           127.043         63521.500
        48   03 Jun 2027 07:04:14.946   03 Jun 2027 07:04:19.394             4.448          1807.125
        49   03 Jun 2027 08:36:45.321   03 Jun 2027 08:36:55.787            10.466          3305.906
        50   03 Jun 2027 08:37:12.038   03 Jun 2027 08:37:14.581             2.543           187.406
        51   03 Jun 2027 08:38:20.253   03 Jun 2027 08:38:21.687             1.434           658.844
        52   03 Jun 2027 08:39:46.102   03 Jun 2027 08:39:48.798             2.696          1319.906
        53   03 Jun 2027 08:40:17.280   03 Jun 2027 08:40:21.637             4.357            66.437
        54   03 Jun 2027 08:42:03.935   03 Jun 2027 08:42:11.161             7.226          2368.344
        55   03 Jun 2027 08:43:01.606   03 Jun 2027 08:43:03.144             1.538           434.062
        56   03 Jun 2027 08:43:20.600   03 Jun 2027 08:43:22.327             1.727           190.031
        57   03 Jun 2027 08:43:25.407   03 Jun 2027 08:43:26.300             0.893            96.250
        58   03 Jun 2027 10:13:04.698   03 Jun 2027 10:13:16.443            11.745          5628.531
        59   03 Jun 2027 10:15:28.159   03 Jun 2027 10:15:30.128             1.969           449.594
        60   03 Jun 2027 10:17:05.645   03 Jun 2027 10:17:08.833             3.188          1106.656
        61   03 Jun 2027 10:17:44.530   03 Jun 2027 10:17:48.358             3.828           867.469
        62   03 Jun 2027 10:18:32.796   03 Jun 2027 10:18:37.715             4.919           153.375
        63   03 Jun 2027 10:19:10.602   03 Jun 2027 10:19:14.551             3.949           789.531
        64   03 Jun 2027 11:50:28.663   03 Jun 2027 11:50:40.304            11.641          5372.938
        65   03 Jun 2027 11:51:55.051   03 Jun 2027 11:51:57.719             2.668          1330.875
        66   03 Jun 2027 11:53:06.858   03 Jun 2027 11:53:12.880             6.022          1466.406
        67   03 Jun 2027 11:54:22.424   03 Jun 2027 11:54:24.973             2.549           832.375
        68   04 Jun 2027 04:13:40.684   04 Jun 2027 04:14:18.594            37.910         18955.000
        69   04 Jun 2027 04:14:36.207   04 Jun 2027 04:16:27.637           111.430         55715.000
        70   04 Jun 2027 05:37:08.535   04 Jun 2027 05:38:05.363            56.828         28414.000
        71   04 Jun 2027 05:38:32.965   04 Jun 2027 05:38:36.207             3.242          1621.000
        72   04 Jun 2027 05:38:38.628   04 Jun 2027 05:38:48.183             9.555          4777.500
        73   04 Jun 2027 07:13:36.701   04 Jun 2027 07:15:24.471           107.770         53009.219
        74   04 Jun 2027 07:15:40.542   04 Jun 2027 07:15:40.542             0.000             0.000
        75   04 Jun 2027 07:16:05.532   04 Jun 2027 07:16:11.562             6.030          1237.844
        76   04 Jun 2027 07:16:42.163   04 Jun 2027 07:16:45.443             3.280           956.281
        77   04 Jun 2027 08:48:49.195   04 Jun 2027 08:48:56.121             6.926          3412.344
        78   04 Jun 2027 08:49:02.268   04 Jun 2027 08:49:02.268             0.000             0.000
        79   04 Jun 2027 08:50:21.304   04 Jun 2027 08:50:27.018             5.714          2561.563
        80   04 Jun 2027 08:51:16.699   04 Jun 2027 08:51:23.395             6.696           938.937
        81   04 Jun 2027 08:51:44.658   04 Jun 2027 08:51:44.805             0.147            71.844
        82   04 Jun 2027 08:52:14.951   04 Jun 2027 08:52:17.615             2.664           693.625
        83   04 Jun 2027 08:52:50.337   04 Jun 2027 08:52:52.989             2.652          1022.562
        84   04 Jun 2027 08:52:59.294   04 Jun 2027 08:53:02.988             3.694           197.031
        85   04 Jun 2027 08:53:10.186   04 Jun 2027 08:53:10.826             0.640           165.937
        86   04 Jun 2027 08:53:47.468   04 Jun 2027 08:53:51.785             4.317           255.062
        87   04 Jun 2027 08:54:53.793   04 Jun 2027 08:54:57.439             3.646          1564.500
        88   04 Jun 2027 10:24:44.150   04 Jun 2027 10:24:55.639            11.489          5445.312
        89   04 Jun 2027 10:28:01.705   04 Jun 2027 10:28:02.765             1.060           185.844
        90   04 Jun 2027 10:29:08.847   04 Jun 2027 10:29:12.730             3.883          1336.312
        91   04 Jun 2027 10:30:08.781   04 Jun 2027 10:30:18.125             9.344           606.812
        92   05 Jun 2027 04:14:42.670   05 Jun 2027 04:14:58.093            15.423          7711.500
        93   05 Jun 2027 04:25:37.936   05 Jun 2027 04:27:07.478            89.542         44771.000
        94   05 Jun 2027 04:27:24.308   05 Jun 2027 04:28:05.061            40.753         20376.500
        95   05 Jun 2027 05:49:35.083   05 Jun 2027 05:50:17.001            41.918         20959.000
        96   05 Jun 2027 05:52:06.185   05 Jun 2027 05:52:06.185             0.000             0.000
        97   05 Jun 2027 05:52:07.823   05 Jun 2027 05:52:12.492             4.669          2334.500
        98   05 Jun 2027 07:25:19.952   05 Jun 2027 07:27:31.844           131.892         65327.937
        99   05 Jun 2027 07:28:11.166   05 Jun 2027 07:28:11.166             0.000             0.000
       100   05 Jun 2027 07:28:37.074   05 Jun 2027 07:28:41.830             4.756          1864.094
       101   05 Jun 2027 07:29:27.165   05 Jun 2027 07:29:27.165             0.000             0.000
       102   05 Jun 2027 09:00:03.788   05 Jun 2027 09:00:14.189            10.401          3312.594
       103   05 Jun 2027 09:00:34.932   05 Jun 2027 09:00:39.311             4.379           383.000
       104   05 Jun 2027 09:01:00.872   05 Jun 2027 09:01:02.803             1.931           598.500
       105   05 Jun 2027 09:02:33.809   05 Jun 2027 09:02:38.168             4.359           372.156
       106   05 Jun 2027 09:03:32.588   05 Jun 2027 09:03:36.026             3.438          1200.906
       107   05 Jun 2027 09:03:44.303   05 Jun 2027 09:03:46.829             2.526           222.281
       108   05 Jun 2027 09:04:30.294   05 Jun 2027 09:04:33.657             3.363          1252.344
       109   05 Jun 2027 09:05:12.793   05 Jun 2027 09:05:18.383             5.590           676.969
       110   05 Jun 2027 09:05:41.242   05 Jun 2027 09:05:42.175             0.933            57.406
       111   05 Jun 2027 09:06:13.984   05 Jun 2027 09:06:15.946             1.962           465.906
       112   05 Jun 2027 09:07:31.879   05 Jun 2027 09:07:36.118             4.239          2066.313
       113   05 Jun 2027 10:36:51.920   05 Jun 2027 10:37:04.830            12.910          5693.688
       114   05 Jun 2027 10:39:32.578   05 Jun 2027 10:39:37.553             4.975          1074.562
       115   05 Jun 2027 10:40:15.599   05 Jun 2027 10:40:17.195             1.596           707.188
       116   05 Jun 2027 10:41:15.044   05 Jun 2027 10:41:23.971             8.927          1648.969
       117   05 Jun 2027 10:42:18.318   05 Jun 2027 10:42:22.584             4.266          1531.062
       118   05 Jun 2027 10:42:42.040   05 Jun 2027 10:42:44.623             2.583           608.000
       119   05 Jun 2027 10:42:46.258   05 Jun 2027 10:42:47.448             1.190            41.250
       120   05 Jun 2027 10:43:10.389   05 Jun 2027 10:43:11.440             1.051           219.625
       121   06 Jun 2027 03:00:53.946   06 Jun 2027 03:01:17.292            23.346         11673.000
       122   06 Jun 2027 03:01:53.762   06 Jun 2027 03:01:56.170             2.408          1204.000
       123   06 Jun 2027 03:02:32.457   06 Jun 2027 03:02:45.323            12.866          6433.000
       124   06 Jun 2027 03:03:19.875   06 Jun 2027 03:03:19.900             0.025            12.500
       125   06 Jun 2027 03:03:31.558   06 Jun 2027 03:03:35.927             4.369          2184.500
       126   06 Jun 2027 03:04:13.181   06 Jun 2027 03:04:21.496             8.315          4157.500
       127   06 Jun 2027 03:05:43.649   06 Jun 2027 03:06:03.747            20.098         10049.000
       128   06 Jun 2027 03:06:47.851   06 Jun 2027 03:06:56.465             8.614          4307.000
       129   06 Jun 2027 04:25:58.646   06 Jun 2027 04:26:58.330            59.684         29842.000
       130   06 Jun 2027 04:27:11.605   06 Jun 2027 04:27:21.949            10.344          5172.000
       131   06 Jun 2027 04:37:38.416   06 Jun 2027 04:38:38.004            59.588         29794.000
       132   06 Jun 2027 06:00:10.652   06 Jun 2027 06:01:11.268            60.616         30308.000
       133   06 Jun 2027 06:01:51.901   06 Jun 2027 06:02:09.552            17.651          8825.500
       134   06 Jun 2027 06:02:20.187   06 Jun 2027 06:02:20.187             0.000             0.000
       135   06 Jun 2027 06:04:08.987   06 Jun 2027 06:04:30.505            21.518         10759.000
       136   06 Jun 2027 07:35:14.080   06 Jun 2027 07:35:50.543            36.463         17251.907
       137   06 Jun 2027 07:36:24.229   06 Jun 2027 07:36:25.107             0.878           176.344
       138   06 Jun 2027 07:37:55.773   06 Jun 2027 07:38:01.566             5.793          2309.312
       139   06 Jun 2027 07:38:55.553   06 Jun 2027 07:39:00.631             5.078          1274.469
       140   06 Jun 2027 07:40:18.220   06 Jun 2027 07:40:20.602             2.382           335.781
       141   06 Jun 2027 07:41:06.184   06 Jun 2027 07:41:09.914             3.730          1074.656
       142   06 Jun 2027 07:41:33.509   06 Jun 2027 07:41:33.784             0.275           123.594
       143   06 Jun 2027 09:12:12.127   06 Jun 2027 09:12:25.306            13.179          3840.875
       144   06 Jun 2027 09:14:45.820   06 Jun 2027 09:14:47.176             1.356           646.094
       145   06 Jun 2027 09:15:29.077   06 Jun 2027 09:15:30.205             1.128           564.000
       146   06 Jun 2027 09:15:51.740   06 Jun 2027 09:15:55.237             3.497           883.125
       147   06 Jun 2027 09:17:00.029   06 Jun 2027 09:17:02.478             2.449          1196.406
       148   06 Jun 2027 09:18:01.180   06 Jun 2027 09:18:10.842             9.662          1834.438
       149   06 Jun 2027 09:18:36.512   06 Jun 2027 09:18:39.733             3.221           211.156
       150   06 Jun 2027 09:19:26.077   06 Jun 2027 09:19:28.872             2.795          1248.844
       151   06 Jun 2027 10:49:10.298   06 Jun 2027 10:49:24.090            13.792          5670.844
       152   06 Jun 2027 10:50:43.780   06 Jun 2027 10:50:45.817             2.037           350.375
       153   06 Jun 2027 10:50:55.951   06 Jun 2027 10:50:58.029             2.078           316.688
       154   06 Jun 2027 10:51:48.641   06 Jun 2027 10:51:49.986             1.345           211.688
       155   06 Jun 2027 10:52:37.640   06 Jun 2027 10:52:44.556             6.916          1193.531
       156   06 Jun 2027 10:52:54.044   06 Jun 2027 10:52:54.627             0.583           124.312
       157   06 Jun 2027 10:53:03.492   06 Jun 2027 10:53:05.888             2.396           156.750
       158   06 Jun 2027 10:53:11.244   06 Jun 2027 10:53:15.297             4.053            19.156
       159   06 Jun 2027 10:53:42.111   06 Jun 2027 10:53:46.666             4.555           720.594
       160   06 Jun 2027 10:55:09.497   06 Jun 2027 10:55:14.520             5.023          2319.187
       161   07 Jun 2027 03:13:09.943   07 Jun 2027 03:15:07.548           117.605         58802.500
       162   07 Jun 2027 03:15:41.274   07 Jun 2027 03:15:45.070             3.796          1898.000
       163   07 Jun 2027 03:16:55.372   07 Jun 2027 03:17:54.440            59.068         29534.000
       164   07 Jun 2027 03:18:55.317   07 Jun 2027 03:19:08.722            13.405          6702.500
       165   07 Jun 2027 04:37:19.765   07 Jun 2027 04:37:47.008            27.243         13621.500
       166   07 Jun 2027 04:49:35.930   07 Jun 2027 04:50:31.425            55.495         27747.500
       167   07 Jun 2027 06:11:34.947   07 Jun 2027 06:12:36.020            61.073         30495.375
       168   07 Jun 2027 06:12:54.689   07 Jun 2027 06:12:54.689             0.000             0.000
       169   07 Jun 2027 06:13:56.940   07 Jun 2027 06:14:04.697             7.757          1832.938
       170   07 Jun 2027 06:14:30.676   07 Jun 2027 06:14:30.676             0.000             0.000
       171   07 Jun 2027 06:14:47.150   07 Jun 2027 06:14:49.571             2.421          1121.031
       172   07 Jun 2027 06:15:21.616   07 Jun 2027 06:15:23.444             1.828           878.094
       173   07 Jun 2027 06:16:49.416   07 Jun 2027 06:16:54.275             4.859          2238.531
       174   07 Jun 2027 07:46:38.814   07 Jun 2027 07:46:50.780            11.966          1729.375
       175   07 Jun 2027 07:47:19.595   07 Jun 2027 07:47:23.336             3.741           900.469
       176   07 Jun 2027 07:48:26.393   07 Jun 2027 07:48:30.555             4.162           759.219
       177   07 Jun 2027 07:49:04.421   07 Jun 2027 07:49:06.896             2.475          1031.094
       178   07 Jun 2027 07:49:53.053   07 Jun 2027 07:49:57.373             4.320          1442.406
       179   07 Jun 2027 07:50:29.756   07 Jun 2027 07:50:33.532             3.776           924.500
       180   07 Jun 2027 07:52:02.923   07 Jun 2027 07:52:07.764             4.841          2379.938
       181   07 Jun 2027 07:52:21.450   07 Jun 2027 07:52:22.992             1.542           427.687
       182   07 Jun 2027 07:52:58.575   07 Jun 2027 07:53:01.412             2.837           391.500
       183   07 Jun 2027 07:53:20.209   07 Jun 2027 07:53:21.970             1.761           510.344
       184   07 Jun 2027 07:53:27.364   07 Jun 2027 07:53:27.364             0.000             0.000
       185   07 Jun 2027 07:54:45.991   07 Jun 2027 07:54:53.101             7.110          1690.594
       186   07 Jun 2027 09:24:14.718   07 Jun 2027 09:24:23.141             8.423          3549.187
       187   07 Jun 2027 09:25:05.491   07 Jun 2027 09:25:10.784             5.293          1181.000
       188   07 Jun 2027 09:27:20.809   07 Jun 2027 09:27:24.716             3.907          1857.094
       189   07 Jun 2027 09:27:48.256   07 Jun 2027 09:27:52.231             3.975           234.562
       190   07 Jun 2027 09:28:32.869   07 Jun 2027 09:28:35.611             2.742          1101.938
       191   07 Jun 2027 09:29:33.918   07 Jun 2027 09:29:42.560             8.642          1654.750
       192   07 Jun 2027 09:30:51.040   07 Jun 2027 09:30:55.515             4.475          2140.000
       193   07 Jun 2027 11:00:59.972   07 Jun 2027 11:01:13.866            13.894          6159.938
       194   07 Jun 2027 11:02:41.718   07 Jun 2027 11:02:45.555             3.837           980.594
       195   07 Jun 2027 11:05:14.167   07 Jun 2027 11:05:22.150             7.983          1237.031
       196   07 Jun 2027 11:05:52.809   07 Jun 2027 11:05:58.559             5.750           934.500
       197   07 Jun 2027 11:06:30.208   07 Jun 2027 11:06:31.138             0.930           465.000
       198   07 Jun 2027 11:06:31.774   07 Jun 2027 11:06:33.459             1.685           504.281
       199   07 Jun 2027 11:07:09.313   07 Jun 2027 11:07:11.547             2.234          1019.344
       200   07 Jun 2027 11:07:33.880   07 Jun 2027 11:07:37.116             3.236           697.906
       201   08 Jun 2027 03:25:16.281   08 Jun 2027 03:28:37.502           201.221        100610.500
       202   08 Jun 2027 03:29:38.895   08 Jun 2027 03:29:39.847             0.952           476.000
       203   08 Jun 2027 03:31:08.222   08 Jun 2027 03:31:17.221             8.999          4499.500
       204   08 Jun 2027 03:31:19.574   08 Jun 2027 03:31:40.120            20.546         10273.000
       205   08 Jun 2027 04:49:27.477   08 Jun 2027 04:50:10.757            43.280         21640.000
       206   08 Jun 2027 05:01:59.645   08 Jun 2027 05:02:03.040             3.395          1697.500
       207   08 Jun 2027 06:23:16.966   08 Jun 2027 06:24:17.736            60.770         30385.000
       208   08 Jun 2027 06:24:27.219   08 Jun 2027 06:24:30.279             3.060          1252.719
       209   08 Jun 2027 06:25:15.610   08 Jun 2027 06:25:19.326             3.716           817.188
       210   08 Jun 2027 06:25:49.973   08 Jun 2027 06:25:49.973             0.000             0.000
       211   08 Jun 2027 06:25:59.615   08 Jun 2027 06:26:01.254             1.639           512.375
       212   08 Jun 2027 06:26:12.698   08 Jun 2027 06:26:18.614             5.916           357.625
       213   08 Jun 2027 06:26:55.174   08 Jun 2027 06:26:57.686             2.512          1142.500
       214   08 Jun 2027 06:27:27.833   08 Jun 2027 06:27:29.575             1.742           313.250
       215   08 Jun 2027 06:28:03.145   08 Jun 2027 06:28:06.656             3.511           472.719
       216   08 Jun 2027 06:28:14.156   08 Jun 2027 06:28:16.334             2.178           233.750
       217   08 Jun 2027 06:28:38.277   08 Jun 2027 06:28:38.759             0.482           241.000
       218   08 Jun 2027 06:28:42.496   08 Jun 2027 06:28:44.113             1.617           561.500
       219   08 Jun 2027 07:58:09.489   08 Jun 2027 07:58:12.912             3.423          1711.500
       220   08 Jun 2027 07:58:33.017   08 Jun 2027 07:58:35.868             2.851          1025.531
       221   08 Jun 2027 07:59:12.963   08 Jun 2027 07:59:14.918             1.955           958.875
       222   08 Jun 2027 08:00:25.380   08 Jun 2027 08:00:29.744             4.364          2163.969
       223   08 Jun 2027 08:01:19.378   08 Jun 2027 08:01:26.128             6.750          1500.406
       224   08 Jun 2027 08:02:46.821   08 Jun 2027 08:02:50.810             3.989          1915.656
       225   08 Jun 2027 08:04:24.579   08 Jun 2027 08:04:28.640             4.061           533.875
       226   08 Jun 2027 08:05:24.966   08 Jun 2027 08:05:27.423             2.457          1170.281
       227   08 Jun 2027 08:06:06.165   08 Jun 2027 08:06:10.445             4.280          1162.969
       228   08 Jun 2027 08:06:55.067   08 Jun 2027 08:06:58.359             3.292          1144.625
       229   08 Jun 2027 09:36:14.936   08 Jun 2027 09:36:25.971            11.035          4816.719
       230   08 Jun 2027 09:37:11.669   08 Jun 2027 09:37:17.085             5.416           911.406
       231   08 Jun 2027 09:40:24.503   08 Jun 2027 09:40:31.654             7.151          2388.625
       232   08 Jun 2027 09:41:41.779   08 Jun 2027 09:41:45.509             3.730           336.781
       233   08 Jun 2027 09:42:56.259   08 Jun 2027 09:42:58.755             2.496          1060.750
       234   08 Jun 2027 09:43:09.640   08 Jun 2027 09:43:12.927             3.287            59.656
       235   08 Jun 2027 09:43:22.284   08 Jun 2027 09:43:25.698             3.414           238.375
       236   08 Jun 2027 11:13:08.485   08 Jun 2027 11:13:20.319            11.834          5155.969
       237   08 Jun 2027 11:15:45.046   08 Jun 2027 11:15:46.683             1.637           304.594
       238   08 Jun 2027 11:17:05.101   08 Jun 2027 11:17:09.921             4.820          1615.250
       239   08 Jun 2027 11:17:53.180   08 Jun 2027 11:17:57.546             4.366           864.063
       240   08 Jun 2027 11:19:07.474   08 Jun 2027 11:19:11.709             4.235          2060.531
       241   08 Jun 2027 11:19:31.899   08 Jun 2027 11:19:34.847             2.948           604.500
       242   09 Jun 2027 03:37:54.252   09 Jun 2027 03:40:46.760           172.508         86254.000
       243   09 Jun 2027 03:41:18.353   09 Jun 2027 03:41:55.247            36.894         18447.000
       244   09 Jun 2027 05:01:31.985   09 Jun 2027 05:01:44.683            12.698          6349.000
       245   09 Jun 2027 06:37:36.234   09 Jun 2027 06:39:13.454            97.220         47786.469
       246   09 Jun 2027 06:40:32.192   09 Jun 2027 06:40:36.148             3.956          1749.781
       247   09 Jun 2027 06:40:45.215   09 Jun 2027 06:40:45.215             0.000             0.000
       248   09 Jun 2027 08:11:09.586   09 Jun 2027 08:11:15.043             5.457          2450.156
       249   09 Jun 2027 08:12:27.052   09 Jun 2027 08:12:32.088             5.036          2250.281
       250   09 Jun 2027 08:13:37.324   09 Jun 2027 08:13:39.917             2.593            76.094
       251   09 Jun 2027 08:14:21.935   09 Jun 2027 08:14:24.507             2.572          1188.500
       252   09 Jun 2027 08:15:04.010   09 Jun 2027 08:15:04.010             0.000             0.000
       253   09 Jun 2027 08:16:06.568   09 Jun 2027 08:16:12.842             6.274          2882.719
       254   09 Jun 2027 08:17:08.145   09 Jun 2027 08:17:11.182             3.037          1267.781
       255   09 Jun 2027 08:18:16.868   09 Jun 2027 08:18:19.007             2.139           692.281
       256   09 Jun 2027 08:18:24.834   09 Jun 2027 08:18:30.233             5.399           161.406
       257   09 Jun 2027 08:19:40.501   09 Jun 2027 08:19:43.536             3.035          1076.125
       258   09 Jun 2027 09:48:38.205   09 Jun 2027 09:48:48.820            10.615          4936.625
       259   09 Jun 2027 09:52:25.233   09 Jun 2027 09:52:31.299             6.066          2965.594
       260   09 Jun 2027 09:54:03.666   09 Jun 2027 09:54:06.509             2.843           852.844
       261   09 Jun 2027 09:55:01.492   09 Jun 2027 09:55:03.729             2.237           899.844
       262   09 Jun 2027 11:25:36.693   09 Jun 2027 11:25:47.732            11.039          5346.594
       263   09 Jun 2027 11:27:41.242   09 Jun 2027 11:27:49.448             8.206          1685.875
       264   09 Jun 2027 11:28:57.011   09 Jun 2027 11:29:03.552             6.541          1680.781
       265   09 Jun 2027 11:29:56.471   09 Jun 2027 11:30:01.650             5.179           829.844
       266   09 Jun 2027 11:30:12.612   09 Jun 2027 11:30:13.999             1.387           231.562
       267   09 Jun 2027 11:30:47.914   09 Jun 2027 11:30:51.010             3.096          1033.219
       268   09 Jun 2027 11:31:06.571   09 Jun 2027 11:31:10.292             3.721           462.531
       269   10 Jun 2027 03:49:35.574   10 Jun 2027 03:52:23.858           168.284         84142.000
       270   10 Jun 2027 03:52:44.445   10 Jun 2027 03:53:16.370            31.925         15962.500
       271   10 Jun 2027 05:13:14.734   10 Jun 2027 05:14:16.216            61.482         30741.000
       272   10 Jun 2027 06:49:41.613   10 Jun 2027 06:50:37.118            55.505         27011.281
       273   10 Jun 2027 06:50:58.695   10 Jun 2027 06:51:01.056             2.361           674.281
       274   10 Jun 2027 06:51:19.704   10 Jun 2027 06:51:21.880             2.176           188.406
       275   10 Jun 2027 06:51:48.611   10 Jun 2027 06:51:50.770             2.159           331.156
       276   10 Jun 2027 06:52:18.545   10 Jun 2027 06:52:19.873             1.328           661.906
       277   10 Jun 2027 06:52:45.410   10 Jun 2027 06:52:47.333             1.923           704.938
       278   10 Jun 2027 08:21:50.781   10 Jun 2027 08:21:57.385             6.604          2613.531
       279   10 Jun 2027 08:24:27.027   10 Jun 2027 08:24:31.938             4.911          2207.156
       280   10 Jun 2027 08:25:29.182   10 Jun 2027 08:25:33.305             4.123          1788.875
       281   10 Jun 2027 08:25:53.632   10 Jun 2027 08:25:59.049             5.417           549.031
       282   10 Jun 2027 08:27:11.389   10 Jun 2027 08:27:14.185             2.796          1103.125
       283   10 Jun 2027 08:28:04.852   10 Jun 2027 08:28:08.839             3.987           558.906
       284   10 Jun 2027 08:28:53.137   10 Jun 2027 08:28:58.353             5.216           709.844
       285   10 Jun 2027 08:29:57.089   10 Jun 2027 08:30:00.462             3.373          1622.031
       286   10 Jun 2027 08:30:33.445   10 Jun 2027 08:30:36.274             2.829           405.062
       287   10 Jun 2027 08:31:20.008   10 Jun 2027 08:31:20.508             0.500            95.594
       288   10 Jun 2027 08:31:38.164   10 Jun 2027 08:31:38.326             0.162            81.000
       289   10 Jun 2027 10:00:47.191   10 Jun 2027 10:00:56.535             9.344          4128.688
       290   10 Jun 2027 10:02:54.606   10 Jun 2027 10:03:00.600             5.994           570.406
       291   10 Jun 2027 10:03:07.868   10 Jun 2027 10:03:09.729             1.861           165.156
       292   10 Jun 2027 10:03:13.216   10 Jun 2027 10:03:15.552             2.336           108.969
       293   10 Jun 2027 10:03:26.233   10 Jun 2027 10:03:28.219             1.986             0.375
       294   10 Jun 2027 10:03:38.975   10 Jun 2027 10:03:40.840             1.865           216.969
       295   10 Jun 2027 10:04:11.580   10 Jun 2027 10:04:17.631             6.051           742.938
       296   10 Jun 2027 10:04:52.038   10 Jun 2027 10:04:58.210             6.172           725.750
       297   10 Jun 2027 10:05:16.140   10 Jun 2027 10:05:16.804             0.664           321.688
       298   10 Jun 2027 10:05:36.134   10 Jun 2027 10:05:38.159             2.025           433.938
       299   10 Jun 2027 10:05:57.903   10 Jun 2027 10:05:59.328             1.425            53.281
       300   10 Jun 2027 10:06:35.401   10 Jun 2027 10:06:38.733             3.332           220.375
       301   10 Jun 2027 10:06:47.838   10 Jun 2027 10:06:51.260             3.422            97.594
       302   10 Jun 2027 10:07:15.328   10 Jun 2027 10:07:17.514             2.186           752.125
       303   10 Jun 2027 10:07:31.153   10 Jun 2027 10:07:31.338             0.185            92.500
       304   10 Jun 2027 11:38:07.420   10 Jun 2027 11:38:20.907            13.487          6730.000
       305   10 Jun 2027 11:40:41.428   10 Jun 2027 11:40:44.434             3.006           305.438
       306   10 Jun 2027 11:41:04.864   10 Jun 2027 11:41:10.652             5.788           638.438
       307   10 Jun 2027 11:41:22.539   10 Jun 2027 11:41:24.351             1.812           371.469
       308   10 Jun 2027 11:41:42.885   10 Jun 2027 11:41:49.917             7.032           405.125
       309   10 Jun 2027 11:42:09.284   10 Jun 2027 11:42:12.245             2.961           597.719
       310   11 Jun 2027 04:02:49.112   11 Jun 2027 04:05:18.251           149.139         74569.500
       311   11 Jun 2027 05:25:22.987   11 Jun 2027 05:26:28.383            65.396         32698.000
       312   11 Jun 2027 07:01:51.303   11 Jun 2027 07:03:34.583           103.280         51044.625
       313   11 Jun 2027 07:03:48.087   11 Jun 2027 07:03:50.203             2.116           360.969
       314   11 Jun 2027 07:04:20.365   11 Jun 2027 07:04:24.987             4.622           942.563
       315   11 Jun 2027 07:04:50.655   11 Jun 2027 07:04:50.655             0.000             0.000
       316   11 Jun 2027 08:37:02.344   11 Jun 2027 08:37:13.735            11.391          3711.562
       317   11 Jun 2027 08:38:15.849   11 Jun 2027 08:38:19.918             4.069          1642.156
       318   11 Jun 2027 08:39:21.521   11 Jun 2027 08:39:24.428             2.907          1375.531
       319   11 Jun 2027 08:40:31.836   11 Jun 2027 08:40:36.778             4.942           926.438
       320   11 Jun 2027 08:42:20.806   11 Jun 2027 08:42:26.360             5.554          2348.000
       321   11 Jun 2027 08:43:18.684   11 Jun 2027 08:43:18.684             0.000             0.000
       322   11 Jun 2027 08:43:32.263   11 Jun 2027 08:43:36.894             4.631           843.531
       323   11 Jun 2027 08:43:40.624   11 Jun 2027 08:43:41.614             0.990            92.781
       324   11 Jun 2027 10:13:21.080   11 Jun 2027 10:13:35.016            13.936          5049.969
       325   11 Jun 2027 10:15:06.480   11 Jun 2027 10:15:08.037             1.557           772.906
       326   11 Jun 2027 10:15:28.389   11 Jun 2027 10:15:29.601             1.212             7.937
       327   11 Jun 2027 10:15:38.256   11 Jun 2027 10:15:39.867             1.611            32.094
       328   11 Jun 2027 10:16:04.402   11 Jun 2027 10:16:08.652             4.250           447.063
       329   11 Jun 2027 10:16:33.951   11 Jun 2027 10:16:36.160             2.209           382.875
       330   11 Jun 2027 10:17:22.216   11 Jun 2027 10:17:27.462             5.246          1173.438
       331   11 Jun 2027 10:18:01.776   11 Jun 2027 10:18:05.599             3.823           930.000
       332   11 Jun 2027 10:19:10.175   11 Jun 2027 10:19:12.580             2.405          1111.375
       333   11 Jun 2027 10:19:33.329   11 Jun 2027 10:19:37.437             4.108           342.094
       334   11 Jun 2027 11:50:44.127   11 Jun 2027 11:50:55.750            11.623          5203.875
       335   11 Jun 2027 11:52:13.116   11 Jun 2027 11:52:17.920             4.804          1401.875
       336   11 Jun 2027 11:53:23.612   11 Jun 2027 11:53:30.042             6.430          1505.156
       337   11 Jun 2027 11:54:12.275   11 Jun 2027 11:54:15.763             3.488          1282.156
       338   11 Jun 2027 11:54:56.141   11 Jun 2027 11:55:01.929             5.788           541.938
       339   12 Jun 2027 04:13:57.575   12 Jun 2027 04:14:34.482            36.907         18453.500
       340   12 Jun 2027 04:15:03.095   12 Jun 2027 04:16:29.577            86.482         43241.000
       341   12 Jun 2027 04:16:44.331   12 Jun 2027 04:17:08.926            24.595         12297.500
       342   12 Jun 2027 05:37:24.067   12 Jun 2027 05:38:21.157            57.090         28545.000
       343   12 Jun 2027 05:38:31.341   12 Jun 2027 05:38:32.538             1.197           598.500
       344   12 Jun 2027 07:13:51.441   12 Jun 2027 07:15:44.423           112.982         56178.469
       345   12 Jun 2027 07:16:28.197   12 Jun 2027 07:16:29.633             1.436           718.000
       346   12 Jun 2027 07:16:58.647   12 Jun 2027 07:17:06.215             7.568          1173.312
       347   12 Jun 2027 08:49:04.296   12 Jun 2027 08:49:10.692             6.396          2753.812
       348   12 Jun 2027 08:49:19.738   12 Jun 2027 08:49:31.973            12.235           166.438
       349   12 Jun 2027 08:50:41.884   12 Jun 2027 08:50:46.979             5.095           105.000
       350   12 Jun 2027 08:51:34.557   12 Jun 2027 08:51:38.044             3.487           942.594
       351   12 Jun 2027 08:52:07.706   12 Jun 2027 08:52:10.501             2.795           691.437
       352   12 Jun 2027 08:53:17.213   12 Jun 2027 08:53:21.260             4.047          1530.625
       353   12 Jun 2027 08:53:54.819   12 Jun 2027 08:53:59.856             5.037           950.219
       354   12 Jun 2027 08:54:28.810   12 Jun 2027 08:54:31.097             2.287           815.031
       355   12 Jun 2027 08:55:42.907   12 Jun 2027 08:55:44.714             1.807           903.500
       356   12 Jun 2027 10:24:59.830   12 Jun 2027 10:25:14.161            14.331          5785.375
       357   12 Jun 2027 10:28:10.440   12 Jun 2027 10:28:12.519             2.079           169.281
       358   12 Jun 2027 10:29:27.151   12 Jun 2027 10:29:33.065             5.914          2047.594
       359   12 Jun 2027 10:30:24.393   12 Jun 2027 10:30:32.531             8.138           557.687
       360   13 Jun 2027 04:14:56.747   13 Jun 2027 04:15:25.829            29.082         14541.000
       361   13 Jun 2027 04:25:53.728   13 Jun 2027 04:26:41.862            48.134         24067.000
       362   13 Jun 2027 04:26:54.309   13 Jun 2027 04:28:21.678            87.369         43684.500
       363   13 Jun 2027 05:49:50.335   13 Jun 2027 05:50:22.211            31.876         15938.000
       364   13 Jun 2027 05:52:15.462   13 Jun 2027 05:52:15.462             0.000             0.000
       365   13 Jun 2027 07:25:35.982   13 Jun 2027 07:27:48.332           132.350         65196.437
       366   13 Jun 2027 07:28:27.258   13 Jun 2027 07:28:32.913             5.655           996.938
       367   13 Jun 2027 07:29:09.247   13 Jun 2027 07:29:11.593             2.346          1135.438
       368   13 Jun 2027 07:29:53.350   13 Jun 2027 07:29:55.308             1.958           979.000
       369   13 Jun 2027 09:00:19.816   13 Jun 2027 09:00:22.706             2.890          1445.000
       370   13 Jun 2027 09:00:40.845   13 Jun 2027 09:00:45.182             4.337          1216.594
       371   13 Jun 2027 09:00:56.741   13 Jun 2027 09:00:59.392             2.651             5.937
       372   13 Jun 2027 09:02:39.078   13 Jun 2027 09:02:44.144             5.066          2516.375
       373   13 Jun 2027 09:03:50.664   13 Jun 2027 09:03:53.115             2.451          1203.062
       374   13 Jun 2027 09:04:02.550   13 Jun 2027 09:04:04.304             1.754           294.844
       375   13 Jun 2027 09:04:44.253   13 Jun 2027 09:04:48.389             4.136          1222.281
       376   13 Jun 2027 09:05:30.536   13 Jun 2027 09:05:34.885             4.349           749.500
       377   13 Jun 2027 09:05:56.726   13 Jun 2027 09:05:57.427             0.701            84.156
       378   13 Jun 2027 09:07:05.755   13 Jun 2027 09:07:09.218             3.463          1441.438
       379   13 Jun 2027 10:37:09.642   13 Jun 2027 10:37:23.205            13.563          5277.125
       380   13 Jun 2027 10:38:18.131   13 Jun 2027 10:38:21.362             3.231           918.781
       381   13 Jun 2027 10:40:54.753   13 Jun 2027 10:40:57.142             2.389           953.031
       382   13 Jun 2027 10:41:18.786   13 Jun 2027 10:41:20.908             2.122           218.562
       383   13 Jun 2027 10:41:31.582   13 Jun 2027 10:41:39.478             7.896            51.000
       384   13 Jun 2027 10:42:32.820   13 Jun 2027 10:42:37.325             4.505          1431.656
       385   13 Jun 2027 10:43:24.382   13 Jun 2027 10:43:27.582             3.200          1470.531
