uniorb/output/strategy_4/Camera/Camera_KinoSat_111410.txt

KinoSat_111410
-------------------------
    Access    *     Start Time (UTCG)     *     Stop Time (UTCG)  *   Duration (s) *   Data (Mbytes)
         1   01 Jun 2027 04:12:14.647   01 Jun 2027 04:14:27.528           132.881         66440.500
         2   01 Jun 2027 04:14:58.743   01 Jun 2027 04:15:35.489            36.746         18373.000
         3   01 Jun 2027 05:35:36.721   01 Jun 2027 05:36:55.582            78.861         39430.500
         4   01 Jun 2027 05:37:17.567   01 Jun 2027 05:37:17.567             0.000             0.000
         5   01 Jun 2027 05:38:08.425   01 Jun 2027 05:38:08.425             0.000             0.000
         6   01 Jun 2027 07:11:58.768   01 Jun 2027 07:14:24.998           146.230         73115.000
         7   01 Jun 2027 07:15:14.136   01 Jun 2027 07:15:32.255            18.119          9059.500
         8   01 Jun 2027 08:46:02.805   01 Jun 2027 08:47:57.087           114.282         57141.000
         9   01 Jun 2027 08:48:51.312   01 Jun 2027 08:49:18.662            27.350         13675.000
        10   01 Jun 2027 08:53:36.469   01 Jun 2027 08:53:54.050            17.581          8790.500
        11   01 Jun 2027 08:53:59.050   01 Jun 2027 08:54:01.959             2.909          1454.500
        12   01 Jun 2027 10:23:07.402   01 Jun 2027 10:25:37.600           150.198         75099.000
        13   01 Jun 2027 10:29:12.674   01 Jun 2027 10:29:12.877             0.203           101.500
        14   01 Jun 2027 10:29:39.266   01 Jun 2027 10:29:49.976            10.710          5355.000
        15   02 Jun 2027 04:25:07.173   02 Jun 2027 04:27:37.432           150.259         75129.500
        16   02 Jun 2027 05:47:40.366   02 Jun 2027 05:48:53.480            73.114         36557.000
        17   02 Jun 2027 07:24:09.494   02 Jun 2027 07:27:38.214           208.720        104360.000
        18   02 Jun 2027 08:59:14.505   02 Jun 2027 09:02:16.750           182.245         91122.500
        19   02 Jun 2027 09:03:14.064   02 Jun 2027 09:03:17.800             3.736          1868.000
        20   02 Jun 2027 09:05:52.904   02 Jun 2027 09:06:02.293             9.389          4694.500
        21   02 Jun 2027 10:35:36.578   02 Jun 2027 10:36:38.771            62.193         31013.844
        22   02 Jun 2027 10:37:47.569   02 Jun 2027 10:37:49.786             2.217            26.000
        23   02 Jun 2027 10:38:31.349   02 Jun 2027 10:38:33.573             2.224          1013.125
        24   02 Jun 2027 10:38:59.918   02 Jun 2027 10:39:01.782             1.864           615.437
        25   02 Jun 2027 10:39:41.192   02 Jun 2027 10:39:43.119             1.927           920.781
        26   02 Jun 2027 10:40:15.129   02 Jun 2027 10:40:18.601             3.472          1000.312
        27   02 Jun 2027 10:41:51.113   02 Jun 2027 10:41:56.302             5.189          2594.500
        28   03 Jun 2027 03:00:00.000   03 Jun 2027 03:00:00.849             0.849           424.500
        29   03 Jun 2027 03:00:14.111   03 Jun 2027 03:00:28.722            14.611          7305.500
        30   03 Jun 2027 03:01:27.965   03 Jun 2027 03:01:34.049             6.084          3042.000
        31   03 Jun 2027 03:02:07.225   03 Jun 2027 03:02:14.920             7.695          3847.500
        32   03 Jun 2027 03:02:48.311   03 Jun 2027 03:03:03.864            15.553          7776.500
        33   03 Jun 2027 03:03:32.323   03 Jun 2027 03:03:33.614             1.291           645.500
        34   03 Jun 2027 03:04:03.788   03 Jun 2027 03:04:10.017             6.229          3114.500
        35   03 Jun 2027 04:36:16.593   03 Jun 2027 04:36:54.077            37.484         18742.000
        36   03 Jun 2027 04:37:06.576   03 Jun 2027 04:39:06.600           120.024         60012.000
        37   03 Jun 2027 04:39:20.396   03 Jun 2027 04:39:27.042             6.646          3323.000
        38   03 Jun 2027 04:39:38.653   03 Jun 2027 04:39:55.825            17.172          8586.000
        39   03 Jun 2027 05:59:36.533   03 Jun 2027 06:00:31.421            54.888         27444.000
        40   03 Jun 2027 07:36:14.301   03 Jun 2027 07:36:55.690            41.389         20303.875
        41   03 Jun 2027 07:37:40.731   03 Jun 2027 07:37:42.462             1.731           740.562
        42   03 Jun 2027 07:38:05.205   03 Jun 2027 07:38:06.663             1.458           365.469
        43   03 Jun 2027 07:38:49.979   03 Jun 2027 07:38:59.124             9.145          1141.063
        44   03 Jun 2027 07:39:39.067   03 Jun 2027 07:39:39.067             0.000             0.000
        45   03 Jun 2027 09:11:24.696   03 Jun 2027 09:11:32.468             7.772          3723.469
        46   03 Jun 2027 09:12:54.099   03 Jun 2027 09:13:05.376            11.277          2423.937
        47   03 Jun 2027 09:13:49.343   03 Jun 2027 09:13:58.365             9.022          1255.938
        48   03 Jun 2027 09:14:42.546   03 Jun 2027 09:14:44.318             1.772           713.812
        49   03 Jun 2027 09:16:39.046   03 Jun 2027 09:16:45.122             6.076          2493.469
        50   03 Jun 2027 09:17:23.320   03 Jun 2027 09:17:25.695             2.375           840.625
        51   03 Jun 2027 10:47:38.725   03 Jun 2027 10:47:49.866            11.141          4730.156
        52   03 Jun 2027 10:49:41.046   03 Jun 2027 10:49:42.737             1.691           340.656
        53   03 Jun 2027 10:50:00.352   03 Jun 2027 10:50:04.509             4.157           550.469
        54   03 Jun 2027 10:50:24.317   03 Jun 2027 10:50:26.317             2.000           549.844
        55   03 Jun 2027 10:51:41.662   03 Jun 2027 10:51:46.304             4.642          2037.250
        56   03 Jun 2027 10:52:45.811   03 Jun 2027 10:52:51.282             5.471          1859.594
        57   03 Jun 2027 10:53:02.304   03 Jun 2027 10:53:03.719             1.415           121.906
        58   03 Jun 2027 10:53:37.653   03 Jun 2027 10:53:40.365             2.712           792.219
        59   03 Jun 2027 10:53:45.517   03 Jun 2027 10:53:47.228             1.711            71.969
        60   04 Jun 2027 03:11:07.995   04 Jun 2027 03:12:40.543            92.548         46274.000
        61   04 Jun 2027 03:13:02.439   04 Jun 2027 03:13:07.507             5.068          2534.000
        62   04 Jun 2027 03:13:36.603   04 Jun 2027 03:13:39.362             2.759          1379.500
        63   04 Jun 2027 03:14:09.736   04 Jun 2027 03:14:44.131            34.395         17197.500
        64   04 Jun 2027 03:16:04.313   04 Jun 2027 03:16:13.425             9.112          4556.000
        65   04 Jun 2027 03:17:23.742   04 Jun 2027 03:17:32.614             8.872          4436.000
        66   04 Jun 2027 03:17:49.447   04 Jun 2027 03:18:02.123            12.676          6338.000
        67   04 Jun 2027 04:37:25.518   04 Jun 2027 04:37:40.904            15.386          7693.000
        68   04 Jun 2027 04:48:13.941   04 Jun 2027 04:50:33.203           139.262         69560.250
        69   04 Jun 2027 04:51:08.581   04 Jun 2027 04:51:10.183             1.602           462.500
        70   04 Jun 2027 06:12:12.481   04 Jun 2027 06:12:27.301            14.820          6821.781
        71   04 Jun 2027 06:14:26.959   04 Jun 2027 06:14:32.491             5.532          2766.000
        72   04 Jun 2027 06:14:42.198   04 Jun 2027 06:14:49.945             7.747          1025.375
        73   04 Jun 2027 07:47:58.192   04 Jun 2027 07:48:05.758             7.566          2336.750
        74   04 Jun 2027 07:49:18.270   04 Jun 2027 07:49:26.144             7.874          2001.937
        75   04 Jun 2027 07:49:42.572   04 Jun 2027 07:49:46.744             4.172           206.094
        76   04 Jun 2027 07:50:46.653   04 Jun 2027 07:50:48.365             1.712           856.000
        77   04 Jun 2027 07:51:07.864   04 Jun 2027 07:51:10.243             2.379           917.469
        78   04 Jun 2027 09:22:48.915   04 Jun 2027 09:22:55.740             6.825          3331.781
        79   04 Jun 2027 09:23:27.084   04 Jun 2027 09:23:28.723             1.639           212.906
        80   04 Jun 2027 09:26:10.764   04 Jun 2027 09:26:14.829             4.065          2032.500
        81   04 Jun 2027 09:26:44.899   04 Jun 2027 09:26:51.286             6.387          1304.187
        82   04 Jun 2027 09:28:38.357   04 Jun 2027 09:28:38.357             0.000             0.000
        83   04 Jun 2027 09:29:36.316   04 Jun 2027 09:29:44.715             8.399          4158.438
        84   04 Jun 2027 09:30:06.653   04 Jun 2027 09:30:10.648             3.995           286.781
        85   04 Jun 2027 10:59:24.922   04 Jun 2027 10:59:36.749            11.827          5282.656
        86   04 Jun 2027 11:01:35.390   04 Jun 2027 11:01:36.542             1.152           312.031
        87   04 Jun 2027 11:02:22.561   04 Jun 2027 11:02:25.317             2.756           567.969
        88   04 Jun 2027 11:02:29.198   04 Jun 2027 11:02:31.269             2.071           121.281
        89   04 Jun 2027 11:03:39.188   04 Jun 2027 11:03:48.497             9.309          1838.687
        90   04 Jun 2027 11:04:29.090   04 Jun 2027 11:04:33.168             4.078          1193.344
        91   04 Jun 2027 11:04:43.402   04 Jun 2027 11:04:58.075            14.673           187.656
        92   05 Jun 2027 03:23:28.498   05 Jun 2027 03:26:11.888           163.390         81695.000
        93   05 Jun 2027 03:27:55.532   05 Jun 2027 03:28:14.095            18.563          9281.500
        94   05 Jun 2027 03:30:17.995   05 Jun 2027 03:30:53.248            35.253         17626.500
        95   05 Jun 2027 04:48:41.937   05 Jun 2027 04:48:51.190             9.253          4626.500
        96   05 Jun 2027 05:00:12.307   05 Jun 2027 05:01:46.345            94.038         45964.969
        97   05 Jun 2027 06:22:51.449   05 Jun 2027 06:22:59.707             8.258          4110.500
        98   05 Jun 2027 06:24:26.933   05 Jun 2027 06:24:30.476             3.543          1381.219
        99   05 Jun 2027 06:24:42.944   05 Jun 2027 06:24:43.297             0.353            78.781
       100   05 Jun 2027 06:25:11.637   05 Jun 2027 06:25:11.637             0.000             0.000
       101   05 Jun 2027 06:26:34.492   05 Jun 2027 06:26:41.220             6.728          3195.250
       102   05 Jun 2027 06:27:25.909   05 Jun 2027 06:27:30.143             4.234          1275.938
       103   05 Jun 2027 07:58:08.584   05 Jun 2027 07:58:13.215             4.631          1196.125
       104   05 Jun 2027 07:59:00.425   05 Jun 2027 07:59:04.430             4.005          1475.313
       105   05 Jun 2027 07:59:52.099   05 Jun 2027 07:59:58.399             6.300          1308.563
       106   05 Jun 2027 08:01:19.235   05 Jun 2027 08:01:27.695             8.460          2413.625
       107   05 Jun 2027 08:01:32.913   05 Jun 2027 08:01:36.973             4.060           163.063
       108   05 Jun 2027 08:02:28.386   05 Jun 2027 08:02:29.655             1.269           178.812
       109   05 Jun 2027 08:02:45.201   05 Jun 2027 08:02:45.201             0.000             0.000
       110   05 Jun 2027 08:03:06.648   05 Jun 2027 08:03:09.713             3.065           903.625
       111   05 Jun 2027 08:04:04.239   05 Jun 2027 08:04:07.747             3.508          1703.937
       112   05 Jun 2027 09:34:42.725   05 Jun 2027 09:34:51.595             8.870          2972.375
       113   05 Jun 2027 09:37:27.963   05 Jun 2027 09:37:30.990             3.027          1025.156
       114   05 Jun 2027 09:38:08.203   05 Jun 2027 09:38:10.909             2.706           251.875
       115   05 Jun 2027 09:39:14.606   05 Jun 2027 09:39:18.010             3.404          1602.344
       116   05 Jun 2027 09:40:36.890   05 Jun 2027 09:40:41.794             4.904          2094.437
       117   05 Jun 2027 09:41:36.592   05 Jun 2027 09:41:46.092             9.500          1712.437
       118   05 Jun 2027 09:42:11.280   05 Jun 2027 09:42:11.425             0.145            72.500
       119   05 Jun 2027 11:11:46.239   05 Jun 2027 11:11:58.814            12.575          5324.406
       120   05 Jun 2027 11:14:57.530   05 Jun 2027 11:14:59.808             2.278           602.781
       121   05 Jun 2027 11:15:26.805   05 Jun 2027 11:15:27.041             0.236            60.656
       122   05 Jun 2027 11:15:36.894   05 Jun 2027 11:15:37.055             0.161            43.563
       123   05 Jun 2027 11:16:02.957   05 Jun 2027 11:16:05.493             2.536           727.250
       124   05 Jun 2027 11:16:31.368   05 Jun 2027 11:16:34.775             3.407           808.594
       125   06 Jun 2027 03:35:42.937   06 Jun 2027 03:39:01.847           198.910         99455.000
       126   06 Jun 2027 03:39:12.978   06 Jun 2027 03:39:18.421             5.443          2721.500
       127   06 Jun 2027 03:39:46.055   06 Jun 2027 03:39:52.073             6.018          3009.000
       128   06 Jun 2027 03:40:56.344   06 Jun 2027 03:41:00.739             4.395          2197.500
       129   06 Jun 2027 03:42:32.120   06 Jun 2027 03:42:33.333             1.213           606.500
       130   06 Jun 2027 04:59:58.839   06 Jun 2027 05:00:40.975            42.136         21068.000
       131   06 Jun 2027 05:12:11.507   06 Jun 2027 05:13:09.595            58.088         29044.000
       132   06 Jun 2027 06:34:27.345   06 Jun 2027 06:34:44.627            17.282          8202.718
       133   06 Jun 2027 06:35:00.213   06 Jun 2027 06:35:04.816             4.603           487.062
       134   06 Jun 2027 06:35:24.519   06 Jun 2027 06:35:24.519             0.000             0.000
       135   06 Jun 2027 06:36:22.675   06 Jun 2027 06:36:26.758             4.083          1850.844
       136   06 Jun 2027 06:36:40.570   06 Jun 2027 06:36:41.141             0.571           243.375
       137   06 Jun 2027 06:36:55.532   06 Jun 2027 06:36:56.128             0.596           298.000
       138   06 Jun 2027 06:37:26.160   06 Jun 2027 06:37:26.160             0.000             0.000
       139   06 Jun 2027 06:37:55.989   06 Jun 2027 06:38:01.750             5.761          1908.563
       140   06 Jun 2027 06:39:08.015   06 Jun 2027 06:39:12.588             4.573          1883.156
       141   06 Jun 2027 08:09:20.142   06 Jun 2027 08:09:25.962             5.820          1668.937
       142   06 Jun 2027 08:10:34.425   06 Jun 2027 08:10:36.956             2.531          1118.813
       143   06 Jun 2027 08:11:01.892   06 Jun 2027 08:11:08.461             6.569           661.094
       144   06 Jun 2027 08:11:58.684   06 Jun 2027 08:12:10.545            11.861          1569.469
       145   06 Jun 2027 08:12:31.747   06 Jun 2027 08:12:32.944             1.197           125.281
       146   06 Jun 2027 08:13:06.643   06 Jun 2027 08:13:08.348             1.705           132.719
       147   06 Jun 2027 08:14:40.671   06 Jun 2027 08:14:44.462             3.791          1895.500
       148   06 Jun 2027 08:14:46.069   06 Jun 2027 08:14:48.427             2.358           679.875
       149   06 Jun 2027 08:15:18.000   06 Jun 2027 08:15:21.317             3.317           204.875
       150   06 Jun 2027 08:15:52.755   06 Jun 2027 08:15:55.368             2.613           866.000
       151   06 Jun 2027 08:16:00.474   06 Jun 2027 08:16:00.474             0.000             0.000
       152   06 Jun 2027 08:17:23.625   06 Jun 2027 08:17:28.388             4.763          1759.188
       153   06 Jun 2027 09:46:54.564   06 Jun 2027 09:47:11.020            16.456          6222.156
       154   06 Jun 2027 09:48:54.732   06 Jun 2027 09:49:08.599            13.867          2655.437
       155   06 Jun 2027 09:50:45.404   06 Jun 2027 09:50:48.746             3.342          1441.438
       156   06 Jun 2027 09:51:39.217   06 Jun 2027 09:51:43.379             4.162          1577.219
       157   06 Jun 2027 09:51:52.745   06 Jun 2027 09:51:54.288             1.543            50.500
       158   06 Jun 2027 09:52:33.013   06 Jun 2027 09:52:34.491             1.478           634.031
       159   06 Jun 2027 09:53:03.933   06 Jun 2027 09:53:06.522             2.589           920.062
       160   06 Jun 2027 09:53:14.896   06 Jun 2027 09:53:16.342             1.446            85.625
       161   06 Jun 2027 09:53:38.856   06 Jun 2027 09:53:40.838             1.982           689.406
       162   06 Jun 2027 09:53:52.390   06 Jun 2027 09:53:53.209             0.819            86.344
       163   06 Jun 2027 09:54:14.059   06 Jun 2027 09:54:14.954             0.895           113.844
       164   06 Jun 2027 11:23:37.441   06 Jun 2027 11:23:49.545            12.104          5574.406
       165   06 Jun 2027 11:25:17.107   06 Jun 2027 11:25:22.911             5.804          1009.656
       166   06 Jun 2027 11:25:56.631   06 Jun 2027 11:25:59.267             2.636            25.813
       167   06 Jun 2027 11:27:11.076   06 Jun 2027 11:27:17.112             6.036          1066.813
       168   06 Jun 2027 11:27:37.041   06 Jun 2027 11:27:39.909             2.868           208.719
       169   06 Jun 2027 11:28:06.306   06 Jun 2027 11:28:09.506             3.200           782.625
       170   06 Jun 2027 11:29:05.654   06 Jun 2027 11:29:11.088             5.434           987.281
       171   06 Jun 2027 11:29:44.363   06 Jun 2027 11:29:45.881             1.518           682.062
       172   06 Jun 2027 11:29:57.771   06 Jun 2027 11:30:03.539             5.768           371.562
       173   07 Jun 2027 03:47:48.021   07 Jun 2027 03:49:45.279           117.258         58629.000
       174   07 Jun 2027 03:49:52.815   07 Jun 2027 03:50:37.980            45.165         22582.500
       175   07 Jun 2027 03:51:57.391   07 Jun 2027 03:53:00.062            62.671         31335.500
       176   07 Jun 2027 05:12:04.614   07 Jun 2027 05:12:43.906            39.292         19646.000
       177   07 Jun 2027 05:24:27.378   07 Jun 2027 05:24:43.983            16.605          8302.500
       178   07 Jun 2027 06:45:55.956   07 Jun 2027 06:46:55.109            59.153         27976.344
       179   07 Jun 2027 06:47:57.349   07 Jun 2027 06:47:59.906             2.557           555.406
       180   07 Jun 2027 06:48:33.961   07 Jun 2027 06:48:33.961             0.000             0.000
       181   07 Jun 2027 06:48:54.766   07 Jun 2027 06:48:58.847             4.081          1356.906
       182   07 Jun 2027 06:50:30.748   07 Jun 2027 06:50:36.998             6.250          2871.906
       183   07 Jun 2027 06:50:50.417   07 Jun 2027 06:50:50.417             0.000             0.000
       184   07 Jun 2027 06:51:15.042   07 Jun 2027 06:51:16.417             1.375           687.500
       185   07 Jun 2027 08:20:50.506   07 Jun 2027 08:20:56.519             6.013          2717.969
       186   07 Jun 2027 08:21:46.236   07 Jun 2027 08:21:48.759             2.523          1090.156
       187   07 Jun 2027 08:23:27.365   07 Jun 2027 08:23:29.598             2.233           762.312
       188   07 Jun 2027 08:25:20.087   07 Jun 2027 08:25:28.998             8.911          2270.188
       189   07 Jun 2027 08:26:44.340   07 Jun 2027 08:26:49.284             4.944          2197.750
       190   07 Jun 2027 08:27:44.983   07 Jun 2027 08:27:52.341             7.358          1740.594
       191   07 Jun 2027 08:28:14.829   07 Jun 2027 08:28:18.503             3.674           682.938
       192   07 Jun 2027 08:29:20.196   07 Jun 2027 08:29:26.960             6.764           929.062
       193   07 Jun 2027 09:58:48.862   07 Jun 2027 09:59:02.430            13.568          5562.156
       194   07 Jun 2027 10:00:44.234   07 Jun 2027 10:00:46.790             2.556           625.031
       195   07 Jun 2027 10:01:00.941   07 Jun 2027 10:01:01.749             0.808           399.500
       196   07 Jun 2027 10:02:50.133   07 Jun 2027 10:02:54.698             4.565          1967.375
       197   07 Jun 2027 10:03:04.708   07 Jun 2027 10:03:06.642             1.934           263.500
       198   07 Jun 2027 10:03:26.698   07 Jun 2027 10:03:27.897             1.199           481.938
       199   07 Jun 2027 10:03:48.307   07 Jun 2027 10:03:48.887             0.580           106.781
       200   07 Jun 2027 10:04:30.962   07 Jun 2027 10:04:33.982             3.020          1235.125
       201   07 Jun 2027 10:05:25.629   07 Jun 2027 10:05:29.198             3.569          1209.469
       202   07 Jun 2027 10:05:53.534   07 Jun 2027 10:05:54.986             1.452           648.125
       203   07 Jun 2027 11:35:44.455   07 Jun 2027 11:35:57.208            12.753          6372.844
       204   07 Jun 2027 11:37:04.972   07 Jun 2027 11:37:07.234             2.262           592.219
       205   07 Jun 2027 11:38:00.567   07 Jun 2027 11:38:06.728             6.161           124.125
       206   07 Jun 2027 11:38:22.242   07 Jun 2027 11:38:23.122             0.880            61.469
       207   07 Jun 2027 11:39:12.180   07 Jun 2027 11:39:18.628             6.448          1216.625
       208   07 Jun 2027 11:39:23.420   07 Jun 2027 11:39:26.897             3.477            32.906
       209   07 Jun 2027 11:39:43.020   07 Jun 2027 11:39:44.388             1.368           448.469
       210   07 Jun 2027 11:40:11.168   07 Jun 2027 11:40:13.423             2.255           656.906
       211   07 Jun 2027 11:40:41.090   07 Jun 2027 11:40:42.282             1.192           386.344
       212   07 Jun 2027 11:41:24.743   07 Jun 2027 11:41:27.225             2.482          1073.469
       213   07 Jun 2027 11:41:58.090   07 Jun 2027 11:41:59.945             1.855           594.750
       214   08 Jun 2027 04:00:12.128   08 Jun 2027 04:01:11.622            59.494         29747.000
       215   08 Jun 2027 04:01:20.895   08 Jun 2027 04:02:45.156            84.261         42130.500
       216   08 Jun 2027 04:03:42.491   08 Jun 2027 04:05:07.133            84.642         42321.000
       217   08 Jun 2027 05:24:00.470   08 Jun 2027 05:24:24.732            24.262         12131.000
       218   08 Jun 2027 07:00:00.766   08 Jun 2027 07:01:14.900            74.134         36210.781
       219   08 Jun 2027 07:01:29.814   08 Jun 2027 07:01:31.493             1.679           111.469
       220   08 Jun 2027 07:02:11.126   08 Jun 2027 07:02:17.142             6.016          1172.531
       221   08 Jun 2027 07:02:44.088   08 Jun 2027 07:02:46.624             2.536           531.406
       222   08 Jun 2027 08:33:44.644   08 Jun 2027 08:33:52.286             7.642          3236.375
       223   08 Jun 2027 08:35:23.416   08 Jun 2027 08:35:24.901             1.485           619.000
       224   08 Jun 2027 08:36:07.228   08 Jun 2027 08:36:09.176             1.948           974.000
       225   08 Jun 2027 08:37:07.000   08 Jun 2027 08:37:17.909            10.909          2047.000
       226   08 Jun 2027 08:38:25.499   08 Jun 2027 08:38:30.698             5.199          2053.094
       227   08 Jun 2027 08:38:55.015   08 Jun 2027 08:38:57.104             2.089           756.312
       228   08 Jun 2027 08:40:16.916   08 Jun 2027 08:40:21.382             4.466          1953.406
       229   08 Jun 2027 08:40:48.450   08 Jun 2027 08:40:52.666             4.216           746.625
       230   08 Jun 2027 08:41:40.813   08 Jun 2027 08:41:50.325             9.512          1436.531
       231   08 Jun 2027 10:11:10.407   08 Jun 2027 10:11:25.595            15.188          5556.562
       232   08 Jun 2027 10:12:51.688   08 Jun 2027 10:12:54.188             2.500           469.906
       233   08 Jun 2027 10:13:18.685   08 Jun 2027 10:13:20.148             1.463           228.938
       234   08 Jun 2027 10:14:51.096   08 Jun 2027 10:14:57.013             5.917          2521.781
       235   08 Jun 2027 10:15:42.594   08 Jun 2027 10:15:42.874             0.280            38.250
       236   08 Jun 2027 10:16:07.467   08 Jun 2027 10:16:11.646             4.179           474.656
       237   08 Jun 2027 10:16:15.544   08 Jun 2027 10:16:18.486             2.942           121.812
       238   08 Jun 2027 10:16:23.743   08 Jun 2027 10:16:26.014             2.271           164.281
       239   08 Jun 2027 10:17:39.781   08 Jun 2027 10:17:42.096             2.315          1069.438
       240   08 Jun 2027 10:17:50.564   08 Jun 2027 10:17:50.898             0.334           103.906
       241   08 Jun 2027 11:48:13.966   08 Jun 2027 11:48:25.712            11.746          5609.469
       242   08 Jun 2027 11:50:18.712   08 Jun 2027 11:50:24.319             5.607          1784.125
       243   08 Jun 2027 11:50:26.854   08 Jun 2027 11:50:28.246             1.392            79.219
       244   08 Jun 2027 11:51:13.916   08 Jun 2027 11:51:16.568             2.652           867.906
       245   08 Jun 2027 11:52:36.941   08 Jun 2027 11:52:41.613             4.672          2119.312
       246   08 Jun 2027 11:53:44.163   08 Jun 2027 11:53:46.619             2.456           560.031
       247   09 Jun 2027 04:12:30.752   09 Jun 2027 04:13:21.818            51.066         25533.000
       248   09 Jun 2027 04:13:47.212   09 Jun 2027 04:16:11.009           143.797         71898.500
       249   09 Jun 2027 05:35:52.093   09 Jun 2027 05:36:47.692            55.599         27799.500
       250   09 Jun 2027 07:12:15.556   09 Jun 2027 07:13:26.900            71.344         35248.125
       251   09 Jun 2027 07:14:20.157   09 Jun 2027 07:14:22.846             2.689          1344.500
       252   09 Jun 2027 07:14:24.054   09 Jun 2027 07:14:24.656             0.602           212.625
       253   09 Jun 2027 07:14:54.993   09 Jun 2027 07:15:01.186             6.193           236.781
       254   09 Jun 2027 08:46:21.154   09 Jun 2027 08:46:27.502             6.348          2539.625
       255   09 Jun 2027 08:48:27.490   09 Jun 2027 08:48:29.751             2.261           914.562
       256   09 Jun 2027 08:49:36.961   09 Jun 2027 08:49:39.440             2.479           877.094
       257   09 Jun 2027 08:50:12.931   09 Jun 2027 08:50:14.809             1.878           927.781
       258   09 Jun 2027 08:50:55.341   09 Jun 2027 08:50:55.341             0.000             0.000
       259   09 Jun 2027 08:51:29.300   09 Jun 2027 08:51:32.996             3.696          1477.094
       260   09 Jun 2027 08:52:55.791   09 Jun 2027 08:53:04.460             8.669          2483.969
       261   09 Jun 2027 08:53:31.926   09 Jun 2027 08:53:34.077             2.151           858.312
       262   09 Jun 2027 08:54:07.827   09 Jun 2027 08:54:09.761             1.934           420.656
       263   09 Jun 2027 10:23:23.012   09 Jun 2027 10:23:32.896             9.884          4398.250
       264   09 Jun 2027 10:25:24.340   09 Jun 2027 10:25:28.238             3.898          1110.469
       265   09 Jun 2027 10:25:33.865   09 Jun 2027 10:25:36.574             2.709            53.000
       266   09 Jun 2027 10:26:08.742   09 Jun 2027 10:26:12.748             4.006           293.813
       267   09 Jun 2027 10:26:36.552   09 Jun 2027 10:26:38.830             2.278           607.062
       268   09 Jun 2027 10:28:30.403   09 Jun 2027 10:28:36.251             5.848           671.906
       269   09 Jun 2027 10:29:29.127   09 Jun 2027 10:29:35.296             6.169          1577.812
       270   09 Jun 2027 10:29:50.671   09 Jun 2027 10:29:52.755             2.084            32.188
       271   09 Jun 2027 10:29:59.336   09 Jun 2027 10:29:59.683             0.347           158.406
       272   10 Jun 2027 04:25:24.277   10 Jun 2027 04:28:09.806           165.529         82764.500
       273   10 Jun 2027 05:47:57.097   10 Jun 2027 05:48:33.030            35.933         17966.500
       274   10 Jun 2027 07:24:26.056   10 Jun 2027 07:26:05.527            99.471         49735.500
       275   10 Jun 2027 07:26:16.669   10 Jun 2027 07:26:16.669             0.000             0.000
       276   10 Jun 2027 07:26:50.809   10 Jun 2027 07:26:55.141             4.332          1589.969
       277   10 Jun 2027 07:27:25.523   10 Jun 2027 07:27:27.340             1.817           894.281
       278   10 Jun 2027 08:59:32.285   10 Jun 2027 08:59:40.007             7.722          3336.344
       279   10 Jun 2027 09:00:41.333   10 Jun 2027 09:00:47.649             6.316          1172.406
       280   10 Jun 2027 09:01:10.448   10 Jun 2027 09:01:14.934             4.486           662.531
       281   10 Jun 2027 09:02:39.579   10 Jun 2027 09:02:43.162             3.583          1393.750
       282   10 Jun 2027 09:03:10.230   10 Jun 2027 09:03:10.230             0.000             0.000
       283   10 Jun 2027 09:03:35.517   10 Jun 2027 09:03:38.648             3.131          1168.812
       284   10 Jun 2027 09:04:47.089   10 Jun 2027 09:04:48.746             1.657           775.875
       285   10 Jun 2027 09:05:35.559   10 Jun 2027 09:05:40.039             4.480          1228.063
       286   10 Jun 2027 09:06:11.602   10 Jun 2027 09:06:14.177             2.575           646.406
       287   10 Jun 2027 10:35:54.350   10 Jun 2027 10:36:06.938            12.588          5698.875
       288   10 Jun 2027 10:38:02.263   10 Jun 2027 10:38:04.297             2.034           314.969
       289   10 Jun 2027 10:38:39.170   10 Jun 2027 10:38:45.293             6.123           650.719
       290   10 Jun 2027 10:38:55.441   10 Jun 2027 10:38:57.411             1.970           317.125
       291   10 Jun 2027 10:39:56.932   10 Jun 2027 10:40:02.098             5.166          1504.250
       292   10 Jun 2027 10:40:36.190   10 Jun 2027 10:40:38.433             2.243           983.531
       293   10 Jun 2027 10:40:58.175   10 Jun 2027 10:40:59.315             1.140           192.000
       294   10 Jun 2027 10:41:34.495   10 Jun 2027 10:41:36.527             2.032           686.094
       295   10 Jun 2027 10:41:43.940   10 Jun 2027 10:41:45.868             1.928           231.156
       296   10 Jun 2027 10:41:52.934   10 Jun 2027 10:41:53.307             0.373            46.500
       297   10 Jun 2027 10:42:00.960   10 Jun 2027 10:42:03.799             2.839            49.500
       298   11 Jun 2027 03:00:00.000   11 Jun 2027 03:00:02.626             2.626          1313.000
       299   11 Jun 2027 03:00:05.570   11 Jun 2027 03:00:13.438             7.868          3934.000
       300   11 Jun 2027 03:00:29.545   11 Jun 2027 03:00:44.759            15.214          7607.000
       301   11 Jun 2027 03:01:57.279   11 Jun 2027 03:02:23.793            26.514         13257.000
       302   11 Jun 2027 04:36:32.577   11 Jun 2027 04:37:10.462            37.885         18942.500
       303   11 Jun 2027 04:37:22.875   11 Jun 2027 04:39:23.280           120.405         60202.500
       304   11 Jun 2027 04:39:43.460   11 Jun 2027 04:39:53.142             9.682          4841.000
       305   11 Jun 2027 04:40:03.677   11 Jun 2027 04:40:07.431             3.754          1877.000
       306   11 Jun 2027 06:00:01.116   11 Jun 2027 06:00:47.070            45.954         22977.000
       307   11 Jun 2027 06:00:54.646   11 Jun 2027 06:01:03.604             8.958          4479.000
       308   11 Jun 2027 06:02:48.591   11 Jun 2027 06:03:08.745            20.154         10077.000
       309   11 Jun 2027 07:36:30.176   11 Jun 2027 07:36:48.478            18.302          8662.249
       310   11 Jun 2027 07:37:11.665   11 Jun 2027 07:37:15.292             3.627           724.594
       311   11 Jun 2027 07:37:58.958   11 Jun 2027 07:38:00.537             1.579           762.062
       312   11 Jun 2027 07:38:21.713   11 Jun 2027 07:38:22.904             1.191           414.969
       313   11 Jun 2027 07:39:05.020   11 Jun 2027 07:39:06.932             1.912           956.000
       314   11 Jun 2027 07:39:24.043   11 Jun 2027 07:39:27.205             3.162           709.938
       315   11 Jun 2027 09:11:40.738   11 Jun 2027 09:11:48.202             7.464          3446.219
       316   11 Jun 2027 09:13:11.611   11 Jun 2027 09:13:21.165             9.554          2492.844
       317   11 Jun 2027 09:14:07.558   11 Jun 2027 09:14:13.171             5.613          1253.500
       318   11 Jun 2027 09:14:41.543   11 Jun 2027 09:14:45.601             4.058           173.094
       319   11 Jun 2027 09:15:37.192   11 Jun 2027 09:15:40.884             3.692          1140.812
       320   11 Jun 2027 09:16:59.283   11 Jun 2027 09:17:02.408             3.125          1064.031
       321   11 Jun 2027 09:17:38.894   11 Jun 2027 09:17:42.521             3.627           880.531
       322   11 Jun 2027 10:47:38.548   11 Jun 2027 10:47:53.110            14.562          5604.062
       323   11 Jun 2027 10:48:55.194   11 Jun 2027 10:48:57.328             2.134           353.406
       324   11 Jun 2027 10:49:50.628   11 Jun 2027 10:49:53.642             3.014          1493.500
       325   11 Jun 2027 10:50:05.918   11 Jun 2027 10:50:07.973             2.055           383.625
       326   11 Jun 2027 10:50:17.073   11 Jun 2027 10:50:20.613             3.540            37.813
       327   11 Jun 2027 10:50:51.141   11 Jun 2027 10:50:54.454             3.313           447.438
       328   11 Jun 2027 10:51:36.422   11 Jun 2027 10:51:40.515             4.093           853.000
       329   11 Jun 2027 10:52:41.158   11 Jun 2027 10:52:45.706             4.548          1323.281
       330   11 Jun 2027 10:53:17.119   11 Jun 2027 10:53:19.243             2.124           496.250
       331   11 Jun 2027 10:53:54.434   11 Jun 2027 10:53:58.704             4.270           872.875
       332   12 Jun 2027 03:11:24.488   12 Jun 2027 03:12:50.026            85.538         42769.000
       333   12 Jun 2027 03:13:44.966   12 Jun 2027 03:13:50.798             5.832          2916.000
       334   12 Jun 2027 03:13:57.314   12 Jun 2027 03:14:05.022             7.708          3854.000
       335   12 Jun 2027 03:14:12.526   12 Jun 2027 03:14:24.602            12.076          6038.000
       336   12 Jun 2027 03:15:08.748   12 Jun 2027 03:15:18.722             9.974          4987.000
       337   12 Jun 2027 03:17:51.387   12 Jun 2027 03:18:17.087            25.700         12850.000
       338   12 Jun 2027 03:18:33.843   12 Jun 2027 03:18:42.670             8.827          4413.500
       339   12 Jun 2027 04:37:39.694   12 Jun 2027 04:37:58.749            19.055          9527.500
       340   12 Jun 2027 04:48:30.287   12 Jun 2027 04:51:01.444           151.157         75144.093
       341   12 Jun 2027 06:12:28.034   12 Jun 2027 06:12:44.701            16.667          7400.500
       342   12 Jun 2027 06:14:07.542   12 Jun 2027 06:14:13.458             5.916          2351.656
       343   12 Jun 2027 06:14:50.671   12 Jun 2027 06:14:58.966             8.295           537.625
       344   12 Jun 2027 07:48:14.616   12 Jun 2027 07:48:23.930             9.314          2585.031
       345   12 Jun 2027 07:49:14.619   12 Jun 2027 07:49:20.349             5.730           842.937
       346   12 Jun 2027 07:49:52.825   12 Jun 2027 07:49:57.384             4.559          1001.469
       347   12 Jun 2027 07:50:44.464   12 Jun 2027 07:50:48.242             3.778          1470.656
       348   12 Jun 2027 07:50:59.787   12 Jun 2027 07:51:04.751             4.964            67.500
       349   12 Jun 2027 07:51:25.946   12 Jun 2027 07:51:31.866             5.920           662.344
       350   12 Jun 2027 09:22:58.171   12 Jun 2027 09:23:10.129            11.958          3413.844
       351   12 Jun 2027 09:23:44.896   12 Jun 2027 09:23:47.105             2.209           299.469
       352   12 Jun 2027 09:25:44.480   12 Jun 2027 09:25:48.213             3.733          1004.719
       353   12 Jun 2027 09:26:23.025   12 Jun 2027 09:26:26.258             3.233          1087.875
       354   12 Jun 2027 09:26:29.203   12 Jun 2027 09:26:29.919             0.716            16.844
       355   12 Jun 2027 09:27:03.017   12 Jun 2027 09:27:14.075            11.058           999.594
       356   12 Jun 2027 09:27:44.557   12 Jun 2027 09:27:47.777             3.220           559.563
       357   12 Jun 2027 09:28:29.294   12 Jun 2027 09:28:32.231             2.937            58.531
       358   12 Jun 2027 09:28:37.097   12 Jun 2027 09:28:37.363             0.266            59.656
       359   12 Jun 2027 09:29:51.935   12 Jun 2027 09:29:56.831             4.896          1765.937
       360   12 Jun 2027 09:30:23.205   12 Jun 2027 09:30:25.866             2.661           340.375
       361   12 Jun 2027 10:59:42.509   12 Jun 2027 10:59:56.776            14.267          5320.375
       362   12 Jun 2027 11:00:50.069   12 Jun 2027 11:00:52.293             2.224           551.312
       363   12 Jun 2027 11:02:13.169   12 Jun 2027 11:02:15.431             2.262           705.219
       364   12 Jun 2027 11:03:00.167   12 Jun 2027 11:03:02.475             2.308           679.562
       365   12 Jun 2027 11:03:55.269   12 Jun 2027 11:03:57.683             2.414           525.781
       366   12 Jun 2027 11:04:37.867   12 Jun 2027 11:04:39.848             1.981           630.000
       367   12 Jun 2027 11:04:45.353   12 Jun 2027 11:04:45.827             0.474           172.031
       368   12 Jun 2027 11:04:58.780   12 Jun 2027 11:05:12.715            13.935           171.250
       369   13 Jun 2027 03:23:45.092   13 Jun 2027 03:27:12.724           207.632        103816.000
       370   13 Jun 2027 03:28:04.762   13 Jun 2027 03:28:07.023             2.261          1130.500
       371   13 Jun 2027 03:28:11.331   13 Jun 2027 03:28:28.751            17.420          8710.000
       372   13 Jun 2027 03:30:35.053   13 Jun 2027 03:31:09.573            34.520         17260.000
       373   13 Jun 2027 04:48:55.565   13 Jun 2027 04:49:03.652             8.087          4043.500
       374   13 Jun 2027 05:00:28.849   13 Jun 2027 05:01:49.746            80.897         39049.000
       375   13 Jun 2027 06:23:06.597   13 Jun 2027 06:23:24.700            18.103          7475.906
       376   13 Jun 2027 06:24:43.136   13 Jun 2027 06:24:47.804             4.668           939.437
       377   13 Jun 2027 06:24:59.016   13 Jun 2027 06:24:59.612             0.596           121.594
       378   13 Jun 2027 06:25:27.468   13 Jun 2027 06:25:27.468             0.000             0.000
       379   13 Jun 2027 06:26:49.654   13 Jun 2027 06:26:53.194             3.540          1770.000
       380   13 Jun 2027 06:27:30.810   13 Jun 2027 06:27:40.026             9.216          2520.312
       381   13 Jun 2027 07:58:15.172   13 Jun 2027 07:58:22.711             7.539          3267.000
       382   13 Jun 2027 07:58:30.093   13 Jun 2027 07:58:32.972             2.879           222.656
       383   13 Jun 2027 07:59:57.925   13 Jun 2027 08:00:01.475             3.550          1011.062
       384   13 Jun 2027 08:00:17.243   13 Jun 2027 08:00:17.846             0.603           209.625
       385   13 Jun 2027 08:00:52.738   13 Jun 2027 08:00:55.077             2.339           208.781
       386   13 Jun 2027 08:01:17.427   13 Jun 2027 08:01:20.834             3.407           434.281
       387   13 Jun 2027 08:02:50.914   13 Jun 2027 08:02:56.485             5.571          2318.500
       388   13 Jun 2027 08:03:25.433   13 Jun 2027 08:03:27.784             2.351           784.281
       389   13 Jun 2027 08:03:41.071   13 Jun 2027 08:03:44.099             3.028           415.219
       390   13 Jun 2027 08:04:03.586   13 Jun 2027 08:04:05.680             2.094           222.625
       391   13 Jun 2027 08:04:19.457   13 Jun 2027 08:04:21.218             1.761           430.531
       392   13 Jun 2027 09:35:01.875   13 Jun 2027 09:35:09.156             7.281          3516.312
       393   13 Jun 2027 09:37:42.111   13 Jun 2027 09:37:48.272             6.161           973.281
       394   13 Jun 2027 09:38:24.281   13 Jun 2027 09:38:25.995             1.714           166.063
       395   13 Jun 2027 09:38:35.242   13 Jun 2027 09:38:36.183             0.941           288.969
       396   13 Jun 2027 09:39:05.069   13 Jun 2027 09:39:11.375             6.306           719.906
       397   13 Jun 2027 09:40:03.732   13 Jun 2027 09:40:09.639             5.907           943.063
       398   13 Jun 2027 09:40:20.958   13 Jun 2027 09:40:22.929             1.971           330.125
       399   13 Jun 2027 09:40:57.945   13 Jun 2027 09:41:00.268             2.323           910.906
       400   13 Jun 2027 09:41:14.857   13 Jun 2027 09:41:17.367             2.510           107.094
       401   13 Jun 2027 11:12:02.996   13 Jun 2027 11:12:13.600            10.604          4964.156
       402   13 Jun 2027 11:15:21.290   13 Jun 2027 11:15:25.438             4.148          1230.437
       403   13 Jun 2027 11:15:44.004   13 Jun 2027 11:15:45.244             1.240           123.281
       404   13 Jun 2027 11:15:50.571   13 Jun 2027 11:15:50.605             0.034             4.125
       405   13 Jun 2027 11:16:36.608   13 Jun 2027 11:16:40.971             4.363           774.187
       406   13 Jun 2027 11:17:56.313   13 Jun 2027 11:18:01.119             4.806          2137.812
       407   13 Jun 2027 11:18:01.146   13 Jun 2027 11:18:04.825             3.679             0.844
