uniorb/output/strategy_4/Camera/Camera_KinoSat_111604.txt

KinoSat_111604
-------------------------
    Access    *     Start Time (UTCG)     *     Stop Time (UTCG)  *   Duration (s) *   Data (Mbytes)
         1   01 Jun 2027 03:23:58.839   01 Jun 2027 03:24:27.239            28.400         14200.000
         2   01 Jun 2027 03:24:33.606   01 Jun 2027 03:26:23.589           109.983         54991.500
         3   01 Jun 2027 03:29:04.518   01 Jun 2027 03:29:21.104            16.586          8293.000
         4   01 Jun 2027 05:01:59.335   01 Jun 2027 05:03:09.118            69.783         34891.500
         5   01 Jun 2027 05:03:15.516   01 Jun 2027 05:03:32.302            16.786          8393.000
         6   01 Jun 2027 05:05:01.159   01 Jun 2027 05:05:19.188            18.029          9014.500
         7   01 Jun 2027 06:25:39.854   01 Jun 2027 06:26:58.713            78.859         39429.500
         8   01 Jun 2027 08:02:06.389   01 Jun 2027 08:04:41.093           154.704         77352.000
         9   01 Jun 2027 08:05:08.597   01 Jun 2027 08:05:08.597             0.000             0.000
        10   01 Jun 2027 09:34:16.081   01 Jun 2027 09:34:25.357             9.276          4638.000
        11   01 Jun 2027 09:36:11.116   01 Jun 2027 09:37:50.736            99.620         49810.000
        12   01 Jun 2027 09:42:53.739   01 Jun 2027 09:43:01.876             8.137          4068.500
        13   01 Jun 2027 09:43:03.976   01 Jun 2027 09:43:15.036            11.060          5530.000
        14   01 Jun 2027 09:43:35.876   01 Jun 2027 09:43:51.649            15.773          7886.500
        15   01 Jun 2027 09:43:52.257   01 Jun 2027 09:43:55.723             3.466          1733.000
        16   01 Jun 2027 09:44:02.923   01 Jun 2027 09:44:05.634             2.711          1355.500
        17   01 Jun 2027 11:13:10.060   01 Jun 2027 11:14:17.102            67.042         33521.000
        18   01 Jun 2027 11:14:55.497   01 Jun 2027 11:15:57.395            61.898         30949.000
        19   01 Jun 2027 11:18:05.906   01 Jun 2027 11:18:19.147            13.241          6620.500
        20   01 Jun 2027 11:19:52.976   01 Jun 2027 11:19:54.245             1.269           634.500
        21   02 Jun 2027 03:36:05.241   02 Jun 2027 03:37:08.463            63.222         31611.000
        22   02 Jun 2027 03:37:15.287   02 Jun 2027 03:38:55.309           100.022         50011.000
        23   02 Jun 2027 03:39:43.309   02 Jun 2027 03:39:45.422             2.113          1056.500
        24   02 Jun 2027 03:41:43.257   02 Jun 2027 03:41:43.257             0.000             0.000
        25   02 Jun 2027 05:15:12.950   02 Jun 2027 05:18:46.275           213.325        106662.500
        26   02 Jun 2027 06:37:45.328   02 Jun 2027 06:38:25.471            40.143         20071.500
        27   02 Jun 2027 06:38:39.450   02 Jun 2027 06:38:49.129             9.679          4839.500
        28   02 Jun 2027 08:14:14.334   02 Jun 2027 08:17:13.683           179.349         89674.500
        29   02 Jun 2027 09:49:21.923   02 Jun 2027 09:50:28.504            66.581         32645.532
        30   02 Jun 2027 09:50:39.717   02 Jun 2027 09:50:42.161             2.444           293.562
        31   02 Jun 2027 09:52:56.420   02 Jun 2027 09:53:02.738             6.318          2703.781
        32   02 Jun 2027 09:54:33.374   02 Jun 2027 09:54:33.374             0.000             0.000
        33   02 Jun 2027 09:54:36.864   02 Jun 2027 09:54:45.022             8.158          2941.438
        34   02 Jun 2027 09:55:52.420   02 Jun 2027 09:55:54.670             2.250           850.344
        35   02 Jun 2027 11:25:43.628   02 Jun 2027 11:25:55.834            12.206          5088.719
        36   02 Jun 2027 11:27:37.535   02 Jun 2027 11:27:42.006             4.471          1073.656
        37   02 Jun 2027 11:28:25.390   02 Jun 2027 11:28:34.467             9.077          1355.750
        38   02 Jun 2027 11:29:46.411   02 Jun 2027 11:29:49.684             3.273          1544.469
        39   02 Jun 2027 11:30:11.982   02 Jun 2027 11:30:15.388             3.406           690.438
        40   02 Jun 2027 11:31:14.136   02 Jun 2027 11:31:18.015             3.879          1458.875
        41   02 Jun 2027 11:31:30.760   02 Jun 2027 11:31:33.967             3.207           398.281
        42   02 Jun 2027 11:31:37.679   02 Jun 2027 11:31:38.956             1.277           102.500
        43   03 Jun 2027 03:48:08.232   03 Jun 2027 03:48:49.041            40.809         20404.500
        44   03 Jun 2027 03:49:12.824   03 Jun 2027 03:51:48.610           155.786         77893.000
        45   03 Jun 2027 05:26:20.437   03 Jun 2027 05:26:58.311            37.874         18937.000
        46   03 Jun 2027 05:27:11.960   03 Jun 2027 05:28:25.573            73.613         33575.875
        47   03 Jun 2027 05:29:09.580   03 Jun 2027 05:29:13.566             3.986          1109.688
        48   03 Jun 2027 05:29:25.421   03 Jun 2027 05:29:31.452             6.031           339.500
        49   03 Jun 2027 06:49:48.735   03 Jun 2027 06:49:58.728             9.993          4814.469
        50   03 Jun 2027 06:50:31.740   03 Jun 2027 06:50:32.443             0.703           267.188
        51   03 Jun 2027 06:50:42.047   03 Jun 2027 06:50:43.534             1.487           281.719
        52   03 Jun 2027 06:52:23.466   03 Jun 2027 06:52:24.360             0.894           447.000
        53   03 Jun 2027 06:52:42.031   03 Jun 2027 06:52:47.805             5.774          2700.813
        54   03 Jun 2027 08:26:17.597   03 Jun 2027 08:26:26.296             8.699          2433.313
        55   03 Jun 2027 08:27:45.752   03 Jun 2027 08:27:52.183             6.431          2483.000
        56   03 Jun 2027 08:28:06.130   03 Jun 2027 08:28:11.248             5.118           435.844
        57   03 Jun 2027 08:28:53.589   03 Jun 2027 08:28:59.853             6.264           997.344
        58   03 Jun 2027 10:01:29.205   03 Jun 2027 10:01:36.333             7.128          2787.594
        59   03 Jun 2027 10:03:01.643   03 Jun 2027 10:03:07.820             6.177          2572.125
        60   03 Jun 2027 10:03:41.989   03 Jun 2027 10:03:41.989             0.000             0.000
        61   03 Jun 2027 10:04:22.546   03 Jun 2027 10:04:28.306             5.760          2052.781
        62   03 Jun 2027 10:06:33.507   03 Jun 2027 10:06:43.386             9.879          3912.531
        63   03 Jun 2027 10:08:00.116   03 Jun 2027 10:08:01.750             1.634           436.812
        64   03 Jun 2027 11:37:24.810   03 Jun 2027 11:37:35.025            10.215          4910.938
        65   03 Jun 2027 11:39:29.755   03 Jun 2027 11:39:33.536             3.781          1427.375
        66   03 Jun 2027 11:40:49.778   03 Jun 2027 11:40:51.989             2.211           620.938
        67   03 Jun 2027 11:41:44.138   03 Jun 2027 11:41:49.312             5.174          1212.250
        68   03 Jun 2027 11:42:42.850   03 Jun 2027 11:42:44.745             1.895           906.594
        69   03 Jun 2027 11:43:06.085   03 Jun 2027 11:43:08.098             2.013           536.875
        70   03 Jun 2027 11:43:26.867   03 Jun 2027 11:43:30.388             3.521           433.812
        71   04 Jun 2027 04:01:12.955   04 Jun 2027 04:04:59.862           226.907        113453.500
        72   04 Jun 2027 04:06:09.023   04 Jun 2027 04:06:17.658             8.635          4317.500
        73   04 Jun 2027 04:07:28.159   04 Jun 2027 04:07:38.981            10.822          5411.000
        74   04 Jun 2027 04:07:58.029   04 Jun 2027 04:08:13.266            15.237          7618.500
        75   04 Jun 2027 05:38:17.711   04 Jun 2027 05:39:43.897            86.186         42058.344
        76   04 Jun 2027 05:40:40.436   04 Jun 2027 05:40:42.605             2.169           869.125
        77   04 Jun 2027 05:41:46.785   04 Jun 2027 05:41:47.223             0.438           219.000
        78   04 Jun 2027 07:02:15.608   04 Jun 2027 07:02:28.341            12.733          5056.781
        79   04 Jun 2027 07:02:34.961   04 Jun 2027 07:02:36.267             1.306           121.656
        80   04 Jun 2027 07:02:44.455   04 Jun 2027 07:02:45.692             1.237           108.406
        81   04 Jun 2027 07:04:18.238   04 Jun 2027 07:04:24.456             6.218          2421.344
        82   04 Jun 2027 07:04:45.124   04 Jun 2027 07:04:46.556             1.432           645.875
        83   04 Jun 2027 08:38:01.737   04 Jun 2027 08:38:08.780             7.043          2648.344
        84   04 Jun 2027 08:40:09.767   04 Jun 2027 08:40:17.562             7.795          3506.937
        85   04 Jun 2027 08:40:33.772   04 Jun 2027 08:40:36.198             2.426           152.125
        86   04 Jun 2027 08:40:51.516   04 Jun 2027 08:40:52.430             0.914           397.781
        87   04 Jun 2027 10:12:44.502   04 Jun 2027 10:12:50.822             6.320          3117.219
        88   04 Jun 2027 10:14:42.110   04 Jun 2027 10:14:49.669             7.559          2480.438
        89   04 Jun 2027 10:15:36.685   04 Jun 2027 10:15:37.799             1.114           159.906
        90   04 Jun 2027 10:16:12.994   04 Jun 2027 10:16:12.994             0.000             0.000
        91   04 Jun 2027 10:16:17.660   04 Jun 2027 10:16:21.132             3.472           642.594
        92   04 Jun 2027 10:17:37.793   04 Jun 2027 10:17:39.978             2.185           188.562
        93   04 Jun 2027 10:18:12.340   04 Jun 2027 10:18:14.413             2.073           933.750
        94   04 Jun 2027 10:18:42.442   04 Jun 2027 10:18:44.640             2.198           732.719
        95   04 Jun 2027 10:18:44.697   04 Jun 2027 10:18:46.880             2.183             1.781
        96   04 Jun 2027 10:20:11.288   04 Jun 2027 10:20:15.777             4.489           941.406
        97   04 Jun 2027 11:49:31.043   04 Jun 2027 11:49:43.874            12.831          5766.125
        98   04 Jun 2027 11:50:17.121   04 Jun 2027 11:50:17.555             0.434           204.937
        99   04 Jun 2027 11:51:20.611   04 Jun 2027 11:51:26.712             6.101          1968.969
       100   04 Jun 2027 11:52:30.496   04 Jun 2027 11:52:33.532             3.036            67.438
       101   04 Jun 2027 11:53:36.278   04 Jun 2027 11:53:37.841             1.563           592.094
       102   04 Jun 2027 11:54:04.093   04 Jun 2027 11:54:18.444            14.351           820.375
       103   04 Jun 2027 11:54:40.613   04 Jun 2027 11:54:50.979            10.366           692.781
       104   05 Jun 2027 04:13:34.032   05 Jun 2027 04:16:51.155           197.123         98561.500
       105   05 Jun 2027 04:18:19.416   05 Jun 2027 04:18:26.306             6.890          3445.000
       106   05 Jun 2027 04:20:52.837   05 Jun 2027 04:20:54.571             1.734           867.000
       107   05 Jun 2027 05:38:41.479   05 Jun 2027 05:39:09.590            28.111         14055.500
       108   05 Jun 2027 05:39:18.137   05 Jun 2027 05:39:22.418             4.281          2140.500
       109   05 Jun 2027 05:50:18.401   05 Jun 2027 05:51:44.137            85.736         42868.000
       110   05 Jun 2027 07:12:52.754   05 Jun 2027 07:13:01.864             9.110          4555.000
       111   05 Jun 2027 07:13:22.752   05 Jun 2027 07:13:29.491             6.739          2388.251
       112   05 Jun 2027 07:14:31.443   05 Jun 2027 07:14:34.482             3.039          1193.469
       113   05 Jun 2027 07:14:46.640   05 Jun 2027 07:14:46.640             0.000             0.000
       114   05 Jun 2027 07:15:03.374   05 Jun 2027 07:15:05.095             1.721           783.969
       115   05 Jun 2027 07:16:10.999   05 Jun 2027 07:16:17.303             6.304          1871.531
       116   05 Jun 2027 07:16:48.117   05 Jun 2027 07:16:48.117             0.000             0.000
       117   05 Jun 2027 07:17:11.764   05 Jun 2027 07:17:15.931             4.167          1493.281
       118   05 Jun 2027 08:47:56.884   05 Jun 2027 08:48:04.888             8.004          2555.250
       119   05 Jun 2027 08:48:18.596   05 Jun 2027 08:48:20.957             2.361           428.375
       120   05 Jun 2027 08:50:05.127   05 Jun 2027 08:50:13.395             8.268          3217.031
       121   05 Jun 2027 08:50:46.248   05 Jun 2027 08:50:48.601             2.353           388.625
       122   05 Jun 2027 08:51:46.460   05 Jun 2027 08:51:49.465             3.005          1247.500
       123   05 Jun 2027 08:52:55.554   05 Jun 2027 08:52:56.846             1.292           261.563
       124   05 Jun 2027 10:24:51.135   05 Jun 2027 10:24:58.517             7.382          3691.000
       125   05 Jun 2027 10:26:42.597   05 Jun 2027 10:26:51.033             8.436          3313.781
       126   05 Jun 2027 10:28:15.407   05 Jun 2027 10:28:21.060             5.653           284.719
       127   05 Jun 2027 10:29:21.000   05 Jun 2027 10:29:25.382             4.382          1546.781
       128   05 Jun 2027 10:30:31.732   05 Jun 2027 10:30:36.091             4.359          2073.438
       129   05 Jun 2027 10:31:49.759   05 Jun 2027 10:31:53.631             3.872           482.812
       130   06 Jun 2027 04:25:50.293   06 Jun 2027 04:28:12.565           142.272         71136.000
       131   06 Jun 2027 04:28:31.999   06 Jun 2027 04:28:37.341             5.342          2671.000
       132   06 Jun 2027 04:30:55.878   06 Jun 2027 04:31:31.203            35.325         17662.500
       133   06 Jun 2027 05:50:02.342   06 Jun 2027 05:50:36.733            34.391         17195.500
       134   06 Jun 2027 05:51:11.219   06 Jun 2027 05:51:18.696             7.477          3738.500
       135   06 Jun 2027 06:02:15.905   06 Jun 2027 06:03:11.385            55.480         27740.000
       136   06 Jun 2027 07:24:28.025   06 Jun 2027 07:25:10.944            42.919         21459.500
       137   06 Jun 2027 07:25:24.346   06 Jun 2027 07:25:30.682             6.336           552.344
       138   06 Jun 2027 07:27:00.020   06 Jun 2027 07:27:04.902             4.882          1396.406
       139   06 Jun 2027 07:28:00.938   06 Jun 2027 07:28:04.437             3.499          1496.500
       140   06 Jun 2027 07:28:25.121   06 Jun 2027 07:28:25.420             0.299            71.562
       141   06 Jun 2027 07:28:53.541   06 Jun 2027 07:28:53.541             0.000             0.000
       142   06 Jun 2027 07:29:25.014   06 Jun 2027 07:29:27.472             2.458          1063.844
       143   06 Jun 2027 08:59:21.571   06 Jun 2027 08:59:28.829             7.258          2390.844
       144   06 Jun 2027 09:00:42.585   06 Jun 2027 09:00:44.655             2.070           104.188
       145   06 Jun 2027 09:01:45.981   06 Jun 2027 09:01:46.645             0.664           332.000
       146   06 Jun 2027 09:03:07.366   06 Jun 2027 09:03:07.366             0.000             0.000
       147   06 Jun 2027 09:04:43.854   06 Jun 2027 09:05:04.598            20.744          6590.344
       148   06 Jun 2027 09:06:38.488   06 Jun 2027 09:06:43.549             5.061          2317.938
       149   06 Jun 2027 09:07:27.415   06 Jun 2027 09:07:29.958             2.543          1128.750
       150   06 Jun 2027 10:36:57.390   06 Jun 2027 10:37:05.020             7.630          3512.937
       151   06 Jun 2027 10:38:10.084   06 Jun 2027 10:38:12.809             2.725           495.219
       152   06 Jun 2027 10:40:01.954   06 Jun 2027 10:40:09.629             7.675          2482.813
       153   06 Jun 2027 10:41:13.339   06 Jun 2027 10:41:18.321             4.982          1435.719
       154   06 Jun 2027 10:42:00.401   06 Jun 2027 10:42:04.624             4.223          1315.000
       155   06 Jun 2027 10:42:35.600   06 Jun 2027 10:42:40.205             4.605           663.687
       156   06 Jun 2027 10:43:06.662   06 Jun 2027 10:43:11.182             4.520           826.781
       157   06 Jun 2027 10:44:09.932   06 Jun 2027 10:44:13.112             3.180          1401.187
       158   07 Jun 2027 03:00:00.000   07 Jun 2027 03:00:22.162            22.162         11081.000
       159   07 Jun 2027 03:00:29.175   07 Jun 2027 03:00:36.743             7.568          3784.000
       160   07 Jun 2027 03:01:35.238   07 Jun 2027 03:01:38.604             3.366          1683.000
       161   07 Jun 2027 03:01:41.444   07 Jun 2027 03:01:47.209             5.765          2882.500
       162   07 Jun 2027 03:02:34.652   07 Jun 2027 03:02:55.853            21.201         10600.500
       163   07 Jun 2027 03:04:20.518   07 Jun 2027 03:04:23.402             2.884          1442.000
       164   07 Jun 2027 04:37:56.894   07 Jun 2027 04:40:53.965           177.071         88535.500
       165   07 Jun 2027 04:41:51.614   07 Jun 2027 04:43:01.102            69.488         34744.000
       166   07 Jun 2027 06:02:07.892   07 Jun 2027 06:02:39.519            31.627         15813.500
       167   07 Jun 2027 06:03:50.236   07 Jun 2027 06:04:02.503            12.267          6133.500
       168   07 Jun 2027 06:14:40.337   07 Jun 2027 06:14:42.954             2.617          1308.500
       169   07 Jun 2027 07:35:58.047   07 Jun 2027 07:36:09.355            11.308          5224.000
       170   07 Jun 2027 07:37:25.804   07 Jun 2027 07:37:29.754             3.950          1723.000
       171   07 Jun 2027 07:37:49.703   07 Jun 2027 07:37:49.845             0.142            71.000
       172   07 Jun 2027 07:38:38.516   07 Jun 2027 07:38:43.151             4.635          2003.281
       173   07 Jun 2027 07:38:50.195   07 Jun 2027 07:38:51.605             1.410           159.344
       174   07 Jun 2027 07:39:46.551   07 Jun 2027 07:39:51.168             4.617          1495.031
       175   07 Jun 2027 07:40:36.829   07 Jun 2027 07:40:39.968             3.139          1287.313
       176   07 Jun 2027 07:41:16.663   07 Jun 2027 07:41:18.493             1.830           718.781
       177   07 Jun 2027 09:10:52.446   07 Jun 2027 09:10:58.759             6.313          2947.750
       178   07 Jun 2027 09:13:18.299   07 Jun 2027 09:13:21.010             2.711           482.562
       179   07 Jun 2027 09:13:32.247   07 Jun 2027 09:13:32.946             0.699            38.156
       180   07 Jun 2027 09:14:27.855   07 Jun 2027 09:14:30.150             2.295           918.937
       181   07 Jun 2027 09:14:51.620   07 Jun 2027 09:14:53.126             1.506           537.281
       182   07 Jun 2027 09:16:37.476   07 Jun 2027 09:16:46.024             8.548          2976.844
       183   07 Jun 2027 09:17:54.118   07 Jun 2027 09:17:58.977             4.859          2078.375
       184   07 Jun 2027 09:18:21.813   07 Jun 2027 09:18:25.184             3.371           603.438
       185   07 Jun 2027 09:19:30.106   07 Jun 2027 09:19:33.927             3.821          1319.813
       186   07 Jun 2027 10:48:54.138   07 Jun 2027 10:49:14.738            20.600          5291.375
       187   07 Jun 2027 10:51:49.653   07 Jun 2027 10:52:07.614            17.961          4730.094
       188   07 Jun 2027 10:52:53.419   07 Jun 2027 10:52:56.659             3.240           656.844
       189   07 Jun 2027 10:54:26.264   07 Jun 2027 10:54:36.587            10.323          2611.812
       190   07 Jun 2027 10:55:24.374   07 Jun 2027 10:55:29.455             5.081           928.969
       191   07 Jun 2027 10:55:45.437   07 Jun 2027 10:55:46.231             0.794           324.344
       192   07 Jun 2027 10:56:03.602   07 Jun 2027 10:56:12.742             9.140           434.844
       193   08 Jun 2027 03:11:48.329   08 Jun 2027 03:11:56.711             8.382          4191.000
       194   08 Jun 2027 03:12:20.068   08 Jun 2027 03:13:11.367            51.299         25649.500
       195   08 Jun 2027 03:13:16.246   08 Jun 2027 03:13:42.204            25.958         12979.000
       196   08 Jun 2027 03:17:14.564   08 Jun 2027 03:17:25.218            10.654          5327.000
       197   08 Jun 2027 04:50:34.651   08 Jun 2027 04:53:46.133           191.482         95278.218
       198   08 Jun 2027 06:14:05.023   08 Jun 2027 06:14:24.652            19.629          6590.875
       199   08 Jun 2027 06:15:40.957   08 Jun 2027 06:15:45.923             4.966          2353.000
       200   08 Jun 2027 07:50:16.628   08 Jun 2027 07:50:24.864             8.236          4113.000
       201   08 Jun 2027 07:50:48.504   08 Jun 2027 07:50:51.469             2.965           386.500
       202   08 Jun 2027 07:51:05.474   08 Jun 2027 07:51:10.405             4.931           437.656
       203   08 Jun 2027 07:51:24.604   08 Jun 2027 07:51:24.604             0.000             0.000
       204   08 Jun 2027 07:52:03.497   08 Jun 2027 07:52:13.868            10.371          1455.969
       205   08 Jun 2027 07:52:23.154   08 Jun 2027 07:52:23.154             0.000             0.000
       206   08 Jun 2027 07:52:48.427   08 Jun 2027 07:52:50.635             2.208           952.906
       207   08 Jun 2027 07:53:23.035   08 Jun 2027 07:53:27.555             4.520           839.875
       208   08 Jun 2027 09:23:50.031   08 Jun 2027 09:23:59.272             9.241          3204.406
       209   08 Jun 2027 09:25:35.224   08 Jun 2027 09:25:40.820             5.596           988.375
       210   08 Jun 2027 09:26:13.609   08 Jun 2027 09:26:15.875             2.266           986.594
       211   08 Jun 2027 09:26:53.960   08 Jun 2027 09:27:06.557            12.597           969.625
       212   08 Jun 2027 09:28:24.231   08 Jun 2027 09:28:30.144             5.913          2389.531
       213   08 Jun 2027 09:29:44.130   08 Jun 2027 09:29:49.825             5.695          1788.687
       214   08 Jun 2027 09:30:38.446   08 Jun 2027 09:30:44.485             6.039           734.844
       215   08 Jun 2027 09:30:49.368   08 Jun 2027 09:30:52.939             3.571           152.594
       216   08 Jun 2027 09:30:55.274   08 Jun 2027 09:30:56.955             1.681            53.375
       217   08 Jun 2027 09:32:23.546   08 Jun 2027 09:32:24.515             0.969           484.500
       218   08 Jun 2027 11:01:16.456   08 Jun 2027 11:01:33.716            17.260          6465.656
       219   08 Jun 2027 11:03:32.500   08 Jun 2027 11:03:32.500             0.000             0.000
       220   08 Jun 2027 11:05:32.383   08 Jun 2027 11:05:44.278            11.895          4896.687
       221   08 Jun 2027 11:05:49.721   08 Jun 2027 11:05:50.272             0.551            57.469
       222   08 Jun 2027 11:06:17.302   08 Jun 2027 11:06:18.288             0.986           144.281
       223   08 Jun 2027 11:07:18.179   08 Jun 2027 11:07:21.466             3.287          1287.312
       224   08 Jun 2027 11:07:31.045   08 Jun 2027 11:07:32.802             1.757           151.875
       225   08 Jun 2027 11:07:50.615   08 Jun 2027 11:07:52.713             2.098           363.875
       226   08 Jun 2027 11:08:10.573   08 Jun 2027 11:08:13.752             3.179           429.875
       227   09 Jun 2027 03:24:15.251   09 Jun 2027 03:24:43.194            27.943         13971.500
       228   09 Jun 2027 03:24:46.932   09 Jun 2027 03:26:37.544           110.612         55306.000
       229   09 Jun 2027 03:27:25.770   09 Jun 2027 03:27:59.637            33.867         16933.500
       230   09 Jun 2027 03:28:21.423   09 Jun 2027 03:28:32.762            11.339          5669.500
       231   09 Jun 2027 03:29:19.876   09 Jun 2027 03:29:39.453            19.577          9788.500
       232   09 Jun 2027 03:29:59.115   09 Jun 2027 03:30:02.962             3.847          1923.500
       233   09 Jun 2027 05:02:15.970   09 Jun 2027 05:03:57.777           101.807         50903.500
       234   09 Jun 2027 05:04:35.321   09 Jun 2027 05:04:38.388             3.067          1252.281
       235   09 Jun 2027 05:04:57.453   09 Jun 2027 05:05:00.310             2.857           493.563
       236   09 Jun 2027 05:05:51.005   09 Jun 2027 05:05:53.254             2.249          1042.500
       237   09 Jun 2027 05:06:38.031   09 Jun 2027 05:06:39.399             1.368           262.000
       238   09 Jun 2027 06:25:55.808   09 Jun 2027 06:26:07.324            11.516          5313.125
       239   09 Jun 2027 06:27:15.348   09 Jun 2027 06:27:15.348             0.000             0.000
       240   09 Jun 2027 06:27:46.821   09 Jun 2027 06:27:53.926             7.105          2513.375
       241   09 Jun 2027 06:28:19.611   09 Jun 2027 06:28:21.649             2.038           576.969
       242   09 Jun 2027 08:02:23.525   09 Jun 2027 08:02:35.803            12.278          5462.781
       243   09 Jun 2027 08:03:16.040   09 Jun 2027 08:03:18.750             2.710           990.531
       244   09 Jun 2027 08:04:13.578   09 Jun 2027 08:04:17.810             4.232          1713.375
       245   09 Jun 2027 09:34:33.367   09 Jun 2027 09:34:41.553             8.186          2955.000
       246   09 Jun 2027 09:36:29.043   09 Jun 2027 09:36:30.976             1.933           485.812
       247   09 Jun 2027 09:38:16.246   09 Jun 2027 09:38:18.453             2.207           209.156
       248   09 Jun 2027 09:39:24.525   09 Jun 2027 09:39:30.134             5.609          1620.156
       249   09 Jun 2027 09:40:45.389   09 Jun 2027 09:40:50.104             4.715          2072.562
       250   09 Jun 2027 09:42:44.606   09 Jun 2027 09:42:50.463             5.857          2490.625
       251   09 Jun 2027 09:43:12.618   09 Jun 2027 09:43:18.353             5.735           692.344
       252   09 Jun 2027 09:43:54.555   09 Jun 2027 09:43:58.814             4.259           635.406
       253   09 Jun 2027 09:44:09.680   09 Jun 2027 09:44:14.789             5.109            82.781
       254   09 Jun 2027 11:13:26.867   09 Jun 2027 11:13:40.123            13.256          5221.750
       255   09 Jun 2027 11:15:43.037   09 Jun 2027 11:15:45.903             2.866          1119.312
       256   09 Jun 2027 11:16:24.156   09 Jun 2027 11:16:28.815             4.659           400.875
       257   09 Jun 2027 11:17:09.187   09 Jun 2027 11:17:15.264             6.077           909.937
       258   09 Jun 2027 11:17:43.808   09 Jun 2027 11:17:44.966             1.158           479.781
       259   09 Jun 2027 11:17:53.716   09 Jun 2027 11:17:56.009             2.293            41.062
       260   09 Jun 2027 11:18:22.969   09 Jun 2027 11:18:24.186             1.217           457.906
       261   09 Jun 2027 11:18:33.689   09 Jun 2027 11:18:39.422             5.733           296.969
       262   09 Jun 2027 11:18:52.354   09 Jun 2027 11:18:53.197             0.843            52.813
       263   09 Jun 2027 11:19:27.861   09 Jun 2027 11:19:28.903             1.042           499.594
       264   09 Jun 2027 11:20:10.257   09 Jun 2027 11:20:11.231             0.974           487.000
       265   10 Jun 2027 03:36:21.258   10 Jun 2027 03:37:24.583            63.325         31662.500
       266   10 Jun 2027 03:37:32.058   10 Jun 2027 03:39:22.555           110.497         55248.500
       267   10 Jun 2027 03:39:54.216   10 Jun 2027 03:40:21.178            26.962         13481.000
       268   10 Jun 2027 05:15:29.565   10 Jun 2027 05:17:04.185            94.620         46676.125
       269   10 Jun 2027 05:18:14.967   10 Jun 2027 05:18:19.185             4.218          1842.375
       270   10 Jun 2027 06:38:03.284   10 Jun 2027 06:38:12.883             9.599          4474.344
       271   10 Jun 2027 06:39:16.323   10 Jun 2027 06:39:21.298             4.975          1911.500
       272   10 Jun 2027 06:40:04.284   10 Jun 2027 06:40:04.626             0.342           171.000
       273   10 Jun 2027 06:40:39.498   10 Jun 2027 06:40:42.765             3.267          1633.500
       274   10 Jun 2027 08:14:31.408   10 Jun 2027 08:14:38.075             6.667          2440.875
       275   10 Jun 2027 08:15:20.473   10 Jun 2027 08:15:23.485             3.012           990.469
       276   10 Jun 2027 08:16:25.972   10 Jun 2027 08:16:31.046             5.074          1828.281
       277   10 Jun 2027 08:17:11.890   10 Jun 2027 08:17:11.890             0.000             0.000
       278   10 Jun 2027 08:18:10.082   10 Jun 2027 08:18:10.362             0.280           140.000
       279   10 Jun 2027 09:49:41.762   10 Jun 2027 09:49:47.299             5.537          2728.875
       280   10 Jun 2027 09:50:49.513   10 Jun 2027 09:50:54.890             5.377          1321.250
       281   10 Jun 2027 09:50:57.773   10 Jun 2027 09:50:57.773             0.000             0.000
       282   10 Jun 2027 09:51:48.539   10 Jun 2027 09:51:54.719             6.180          1676.531
       283   10 Jun 2027 09:53:11.440   10 Jun 2027 09:53:11.440             0.000             0.000
       284   10 Jun 2027 09:53:30.671   10 Jun 2027 09:53:36.153             5.482          1491.187
       285   10 Jun 2027 09:54:23.374   10 Jun 2027 09:54:28.677             5.303           120.062
       286   10 Jun 2027 09:54:51.089   10 Jun 2027 09:54:52.021             0.932           261.031
       287   10 Jun 2027 09:56:11.362   10 Jun 2027 09:56:13.810             2.448           842.250
       288   10 Jun 2027 11:26:01.283   10 Jun 2027 11:26:12.136            10.853          5293.187
       289   10 Jun 2027 11:27:55.227   10 Jun 2027 11:27:58.486             3.259             8.250
       290   10 Jun 2027 11:28:14.719   10 Jun 2027 11:28:15.492             0.773            19.188
       291   10 Jun 2027 11:29:14.321   10 Jun 2027 11:29:18.501             4.180           987.250
       292   10 Jun 2027 11:29:53.280   10 Jun 2027 11:29:54.438             1.158             5.000
       293   10 Jun 2027 11:31:07.962   10 Jun 2027 11:31:14.869             6.907          2070.500
       294   10 Jun 2027 11:31:31.510   10 Jun 2027 11:31:32.693             1.183           493.281
       295   10 Jun 2027 11:31:48.628   10 Jun 2027 11:31:53.518             4.890           434.937
       296   11 Jun 2027 03:48:25.495   11 Jun 2027 03:49:06.963            41.468         20734.000
       297   11 Jun 2027 03:49:29.331   11 Jun 2027 03:51:20.591           111.260         55630.000
       298   11 Jun 2027 03:51:43.859   11 Jun 2027 03:52:28.310            44.451         22225.500
       299   11 Jun 2027 03:53:30.537   11 Jun 2027 03:53:50.232            19.695          9847.500
       300   11 Jun 2027 05:26:38.608   11 Jun 2027 05:27:15.034            36.426         18213.000
       301   11 Jun 2027 05:27:33.321   11 Jun 2027 05:28:40.432            67.111         29167.125
       302   11 Jun 2027 05:29:26.886   11 Jun 2027 05:29:30.499             3.613          1338.406
       303   11 Jun 2027 05:29:45.492   11 Jun 2027 05:29:48.987             3.495           468.531
       304   11 Jun 2027 06:50:05.294   11 Jun 2027 06:50:14.211             8.917          4340.437
       305   11 Jun 2027 06:50:49.065   11 Jun 2027 06:50:49.065             0.000             0.000
       306   11 Jun 2027 06:50:49.986   11 Jun 2027 06:50:54.481             4.495           365.063
       307   11 Jun 2027 06:51:22.717   11 Jun 2027 06:51:25.458             2.741           747.938
       308   11 Jun 2027 06:52:02.370   11 Jun 2027 06:52:02.370             0.000             0.000
       309   11 Jun 2027 06:52:38.960   11 Jun 2027 06:52:40.065             1.105           552.500
       310   11 Jun 2027 06:52:59.450   11 Jun 2027 06:53:05.341             5.891          2350.219
       311   11 Jun 2027 08:26:33.575   11 Jun 2027 08:26:42.377             8.802          1875.281
       312   11 Jun 2027 08:27:22.049   11 Jun 2027 08:27:22.049             0.000             0.000
       313   11 Jun 2027 08:28:04.993   11 Jun 2027 08:28:13.939             8.946          2581.750
       314   11 Jun 2027 08:28:20.376   11 Jun 2027 08:28:23.524             3.148           114.000
       315   11 Jun 2027 08:29:02.129   11 Jun 2027 08:29:05.350             3.221          1206.406
       316   11 Jun 2027 08:29:55.631   11 Jun 2027 08:29:58.582             2.951          1407.156
       317   11 Jun 2027 10:01:46.009   11 Jun 2027 10:01:55.014             9.005          2814.844
       318   11 Jun 2027 10:02:59.140   11 Jun 2027 10:03:03.507             4.367          2003.937
       319   11 Jun 2027 10:03:36.544   11 Jun 2027 10:03:36.544             0.000             0.000
       320   11 Jun 2027 10:04:00.889   11 Jun 2027 10:04:04.848             3.959          1249.219
       321   11 Jun 2027 10:05:16.414   11 Jun 2027 10:05:22.769             6.355          1606.406
       322   11 Jun 2027 10:08:06.167   11 Jun 2027 10:08:11.842             5.675          2343.781
       323   11 Jun 2027 11:37:40.894   11 Jun 2027 11:37:52.012            11.118          4432.000
       324   11 Jun 2027 11:38:58.869   11 Jun 2027 11:39:01.238             2.369           888.469
       325   11 Jun 2027 11:39:52.381   11 Jun 2027 11:39:55.023             2.642           642.437
       326   11 Jun 2027 11:40:44.574   11 Jun 2027 11:40:47.909             3.335           795.625
       327   11 Jun 2027 11:41:22.919   11 Jun 2027 11:41:29.431             6.512          1094.062
       328   11 Jun 2027 11:41:52.074   11 Jun 2027 11:41:54.129             2.055           605.156
       329   11 Jun 2027 11:42:20.570   11 Jun 2027 11:42:23.491             2.921           826.281
       330   11 Jun 2027 11:42:59.192   11 Jun 2027 11:43:05.145             5.953           920.875
       331   11 Jun 2027 11:43:21.400   11 Jun 2027 11:43:27.387             5.987           507.969
       332   11 Jun 2027 11:43:45.252   11 Jun 2027 11:43:48.294             3.042           502.344
       333   12 Jun 2027 04:01:30.104   12 Jun 2027 04:05:07.603           217.499        108749.500
       334   12 Jun 2027 04:06:34.577   12 Jun 2027 04:06:35.120             0.543           271.500
       335   12 Jun 2027 05:27:40.538   12 Jun 2027 05:27:51.519            10.981          5490.500
       336   12 Jun 2027 05:38:34.315   12 Jun 2027 05:40:10.809            96.494         47949.312
       337   12 Jun 2027 05:40:58.256   12 Jun 2027 05:41:02.119             3.863           953.687
       338   12 Jun 2027 05:41:38.042   12 Jun 2027 05:41:39.546             1.504           544.562
       339   12 Jun 2027 07:02:32.087   12 Jun 2027 07:02:42.875            10.788          4764.438
       340   12 Jun 2027 07:02:53.212   12 Jun 2027 07:02:54.603             1.391           270.062
       341   12 Jun 2027 07:03:01.175   12 Jun 2027 07:03:02.282             1.107           146.563
       342   12 Jun 2027 07:04:33.658   12 Jun 2027 07:04:40.138             6.480          2385.531
       343   12 Jun 2027 07:05:02.532   12 Jun 2027 07:05:04.532             2.000           699.813
       344   12 Jun 2027 08:38:16.842   12 Jun 2027 08:38:27.434            10.592          3724.375
       345   12 Jun 2027 08:40:34.311   12 Jun 2027 08:40:43.233             8.922          3777.187
       346   12 Jun 2027 08:40:51.240   12 Jun 2027 08:40:55.286             4.046           148.187
       347   12 Jun 2027 08:40:58.114   12 Jun 2027 08:40:59.995             1.881            70.375
       348   12 Jun 2027 08:41:49.661   12 Jun 2027 08:41:57.922             8.261          1443.594
       349   12 Jun 2027 10:13:00.628   12 Jun 2027 10:13:07.914             7.286          3110.750
       350   12 Jun 2027 10:15:00.079   12 Jun 2027 10:15:10.973            10.894          2563.312
       351   12 Jun 2027 10:16:16.269   12 Jun 2027 10:16:16.269             0.000             0.000
       352   12 Jun 2027 10:16:33.413   12 Jun 2027 10:16:36.290             2.877          1406.250
       353   12 Jun 2027 10:17:56.676   12 Jun 2027 10:17:58.415             1.739           277.281
       354   12 Jun 2027 10:18:28.716   12 Jun 2027 10:18:33.341             4.625           939.062
       355   12 Jun 2027 10:18:56.971   12 Jun 2027 10:18:58.712             1.741           728.375
       356   12 Jun 2027 10:19:56.394   12 Jun 2027 10:19:59.959             3.565          1730.500
       357   12 Jun 2027 11:49:48.829   12 Jun 2027 11:50:02.349            13.520          5162.500
       358   12 Jun 2027 11:51:12.689   12 Jun 2027 11:51:13.549             0.860           128.344
       359   12 Jun 2027 11:51:38.206   12 Jun 2027 11:51:41.496             3.290           518.219
       360   12 Jun 2027 11:52:26.090   12 Jun 2027 11:52:30.682             4.592           543.313
       361   12 Jun 2027 11:53:44.735   12 Jun 2027 11:53:49.847             5.112          2028.687
       362   12 Jun 2027 11:53:56.824   12 Jun 2027 11:53:58.424             1.600           149.375
       363   12 Jun 2027 11:54:32.877   12 Jun 2027 11:54:34.364             1.487           667.625
       364   12 Jun 2027 11:55:28.420   12 Jun 2027 11:55:38.845            10.425          1689.250
       365   12 Jun 2027 11:55:48.346   12 Jun 2027 11:55:50.883             2.537           296.906
       366   12 Jun 2027 11:55:54.726   12 Jun 2027 11:55:56.656             1.930            73.094
       367   13 Jun 2027 04:13:52.035   13 Jun 2027 04:16:00.065           128.030         64015.000
       368   13 Jun 2027 04:16:18.086   13 Jun 2027 04:16:38.305            20.219         10109.500
       369   13 Jun 2027 04:17:06.165   13 Jun 2027 04:17:06.508             0.343           171.500
       370   13 Jun 2027 04:18:35.150   13 Jun 2027 04:19:11.562            36.412         18206.000
       371   13 Jun 2027 04:19:59.939   13 Jun 2027 04:20:07.276             7.337          3668.500
       372   13 Jun 2027 04:20:42.177   13 Jun 2027 04:21:06.630            24.453         12226.500
       373   13 Jun 2027 05:38:55.719   13 Jun 2027 05:39:02.606             6.887          3443.500
       374   13 Jun 2027 05:39:54.534   13 Jun 2027 05:40:03.390             8.856          4428.000
       375   13 Jun 2027 05:50:35.445   13 Jun 2027 05:51:59.286            83.841         41920.500
       376   13 Jun 2027 07:13:07.627   13 Jun 2027 07:13:29.761            22.134         10752.031
       377   13 Jun 2027 07:13:50.384   13 Jun 2027 07:13:54.306             3.922           314.531
       378   13 Jun 2027 07:14:48.805   13 Jun 2027 07:14:51.964             3.159           217.594
       379   13 Jun 2027 07:15:03.342   13 Jun 2027 07:15:08.601             5.259           212.531
       380   13 Jun 2027 07:16:26.320   13 Jun 2027 07:16:32.584             6.264          2160.406
       381   13 Jun 2027 07:17:27.755   13 Jun 2027 07:17:34.630             6.875          1503.750
       382   13 Jun 2027 08:48:10.709   13 Jun 2027 08:48:14.275             3.566          1783.000
       383   13 Jun 2027 08:48:41.464   13 Jun 2027 08:48:41.464             0.000             0.000
       384   13 Jun 2027 08:49:27.536   13 Jun 2027 08:49:29.246             1.710           855.000
       385   13 Jun 2027 08:50:01.385   13 Jun 2027 08:50:05.870             4.485          1546.563
       386   13 Jun 2027 08:52:01.024   13 Jun 2027 08:52:10.415             9.391          3134.344
       387   13 Jun 2027 08:53:13.366   13 Jun 2027 08:53:15.067             1.701           280.344
       388   13 Jun 2027 08:53:51.112   13 Jun 2027 08:53:53.791             2.679          1030.969
       389   13 Jun 2027 08:54:14.697   13 Jun 2027 08:54:17.244             2.547           355.656
       390   13 Jun 2027 10:25:09.060   13 Jun 2027 10:25:20.798            11.738          3231.000
       391   13 Jun 2027 10:28:26.296   13 Jun 2027 10:28:34.874             8.578          2680.750
       392   13 Jun 2027 10:29:47.281   13 Jun 2027 10:29:52.585             5.304          2262.719
       393   13 Jun 2027 10:30:24.935   13 Jun 2027 10:30:29.445             4.510           507.875
       394   13 Jun 2027 10:31:49.467   13 Jun 2027 10:31:58.033             8.566          2477.906
       395   13 Jun 2027 10:32:33.128   13 Jun 2027 10:32:33.639             0.511           255.500
