uniorb/output/strategy_4/Camera/Camera_KinoSat_110910.txt

KinoSat_110910
-------------------------
    Access    *     Start Time (UTCG)     *     Stop Time (UTCG)  *   Duration (s) *   Data (Mbytes)
         1   01 Jun 2027 04:17:42.882   01 Jun 2027 04:18:53.979            71.097         35548.500
         2   01 Jun 2027 04:19:43.659   01 Jun 2027 04:20:10.865            27.206         13603.000
         3   01 Jun 2027 04:22:07.181   01 Jun 2027 04:22:07.181             0.000             0.000
         4   01 Jun 2027 04:22:16.414   01 Jun 2027 04:22:20.927             4.513          2256.500
         5   01 Jun 2027 04:22:43.954   01 Jun 2027 04:22:54.804            10.850          5425.000
         6   01 Jun 2027 05:52:47.587   01 Jun 2027 05:54:27.596           100.009         50004.500
         7   01 Jun 2027 05:54:55.793   01 Jun 2027 05:55:15.658            19.865          9932.500
         8   01 Jun 2027 05:56:28.503   01 Jun 2027 05:56:28.503             0.000             0.000
         9   01 Jun 2027 05:56:59.516   01 Jun 2027 05:57:38.171            38.655         19327.500
        10   01 Jun 2027 05:59:35.708   01 Jun 2027 05:59:37.124             1.416           708.000
        11   01 Jun 2027 06:00:42.180   01 Jun 2027 06:01:00.087            17.907          8953.500
        12   01 Jun 2027 07:30:07.526   01 Jun 2027 07:32:21.491           133.965         66982.500
        13   01 Jun 2027 07:33:20.169   01 Jun 2027 07:33:42.946            22.777         11388.500
        14   01 Jun 2027 07:36:26.853   01 Jun 2027 07:36:44.941            18.088          9044.000
        15   01 Jun 2027 09:06:57.502   01 Jun 2027 09:09:09.246           131.744         65872.000
        16   01 Jun 2027 09:09:52.551   01 Jun 2027 09:10:32.004            39.453         19726.500
        17   01 Jun 2027 09:10:51.149   01 Jun 2027 09:10:56.335             5.186          2593.000
        18   01 Jun 2027 09:11:44.515   01 Jun 2027 09:11:50.389             5.874          2937.000
        19   01 Jun 2027 09:12:30.644   01 Jun 2027 09:12:33.140             2.496          1248.000
        20   01 Jun 2027 10:44:54.274   01 Jun 2027 10:46:52.940           118.666         59333.000
        21   01 Jun 2027 10:47:58.794   01 Jun 2027 10:48:47.110            48.316         24158.000
        22   02 Jun 2027 03:07:26.362   02 Jun 2027 03:08:04.060            37.698         18849.000
        23   02 Jun 2027 04:29:27.300   02 Jun 2027 04:30:33.722            66.422         33211.000
        24   02 Jun 2027 04:31:29.801   02 Jun 2027 04:31:42.601            12.800          6400.000
        25   02 Jun 2027 06:04:15.785   02 Jun 2027 06:06:43.960           148.175         74087.500
        26   02 Jun 2027 06:07:48.734   02 Jun 2027 06:08:06.398            17.664          8832.000
        27   02 Jun 2027 06:08:24.658   02 Jun 2027 06:08:58.792            34.134         17067.000
        28   02 Jun 2027 06:09:39.978   02 Jun 2027 06:09:44.312             4.334          2167.000
        29   02 Jun 2027 06:10:45.351   02 Jun 2027 06:11:17.407            32.056         16028.000
        30   02 Jun 2027 06:12:54.504   02 Jun 2027 06:12:58.034             3.530          1765.000
        31   02 Jun 2027 07:42:04.193   02 Jun 2027 07:44:20.905           136.712         68356.000
        32   02 Jun 2027 07:44:56.366   02 Jun 2027 07:44:56.366             0.000             0.000
        33   02 Jun 2027 07:45:46.366   02 Jun 2027 07:45:47.764             1.398           699.000
        34   02 Jun 2027 07:46:30.649   02 Jun 2027 07:47:20.341            49.692         24846.000
        35   02 Jun 2027 07:48:03.261   02 Jun 2027 07:49:01.315            58.054         29027.000
        36   02 Jun 2027 09:18:48.782   02 Jun 2027 09:20:40.238           111.456         55728.000
        37   02 Jun 2027 09:20:45.790   02 Jun 2027 09:20:48.541             2.751          1272.875
        38   02 Jun 2027 09:21:38.928   02 Jun 2027 09:21:45.714             6.786           468.281
        39   02 Jun 2027 09:22:43.176   02 Jun 2027 09:22:45.380             2.204           301.906
        40   02 Jun 2027 09:22:58.616   02 Jun 2027 09:22:59.474             0.858           315.406
        41   02 Jun 2027 09:23:19.701   02 Jun 2027 09:23:20.518             0.817           219.406
        42   02 Jun 2027 09:23:55.729   02 Jun 2027 09:23:56.513             0.784           382.469
        43   02 Jun 2027 09:24:38.625   02 Jun 2027 09:24:43.253             4.628           831.344
        44   02 Jun 2027 10:56:55.833   02 Jun 2027 10:57:08.392            12.559          5456.313
        45   02 Jun 2027 10:58:46.423   02 Jun 2027 10:58:47.855             1.432           480.469
        46   02 Jun 2027 10:58:57.748   02 Jun 2027 10:58:58.837             1.089           264.406
        47   02 Jun 2027 10:59:51.918   02 Jun 2027 11:00:02.067            10.149            82.813
        48   02 Jun 2027 11:00:26.329   02 Jun 2027 11:00:27.691             1.362           270.094
        49   02 Jun 2027 11:00:51.706   02 Jun 2027 11:00:54.806             3.100           750.469
        50   03 Jun 2027 03:07:16.159   03 Jun 2027 03:07:18.248             2.089          1044.500
        51   03 Jun 2027 03:07:41.913   03 Jun 2027 03:07:49.329             7.416          3708.000
        52   03 Jun 2027 03:09:32.351   03 Jun 2027 03:09:32.405             0.054            27.000
        53   03 Jun 2027 04:43:13.199   03 Jun 2027 04:46:32.508           199.309         99654.500
        54   03 Jun 2027 06:17:03.953   03 Jun 2027 06:18:37.541            93.588         45226.813
        55   03 Jun 2027 06:19:18.444   03 Jun 2027 06:19:21.195             2.751           538.219
        56   03 Jun 2027 06:20:32.043   03 Jun 2027 06:20:39.886             7.843          1688.000
        57   03 Jun 2027 06:21:31.469   03 Jun 2027 06:21:31.469             0.000             0.000
        58   03 Jun 2027 06:22:15.241   03 Jun 2027 06:22:20.925             5.684          2360.250
        59   03 Jun 2027 06:23:07.055   03 Jun 2027 06:23:09.910             2.855          1427.500
        60   03 Jun 2027 06:23:22.173   03 Jun 2027 06:23:22.173             0.000             0.000
        61   03 Jun 2027 06:24:20.573   03 Jun 2027 06:24:23.264             2.691          1345.500
        62   03 Jun 2027 06:24:33.920   03 Jun 2027 06:24:41.495             7.575           876.781
        63   03 Jun 2027 06:25:32.610   03 Jun 2027 06:25:33.845             1.235           617.500
        64   03 Jun 2027 07:54:10.618   03 Jun 2027 07:54:11.196             0.578           256.437
        65   03 Jun 2027 07:55:39.721   03 Jun 2027 07:55:42.899             3.178          1146.531
        66   03 Jun 2027 07:57:49.763   03 Jun 2027 07:57:55.342             5.579          2077.781
        67   03 Jun 2027 07:59:01.199   03 Jun 2027 07:59:04.822             3.623          1356.250
        68   03 Jun 2027 07:59:24.940   03 Jun 2027 07:59:25.938             0.998           255.625
        69   03 Jun 2027 09:31:12.612   03 Jun 2027 09:31:23.508            10.896          4794.719
        70   03 Jun 2027 09:31:36.726   03 Jun 2027 09:31:37.775             1.049            21.344
        71   03 Jun 2027 09:32:53.133   03 Jun 2027 09:32:53.612             0.479           143.062
        72   03 Jun 2027 09:33:59.369   03 Jun 2027 09:34:06.992             7.623          1094.938
        73   03 Jun 2027 09:34:33.267   03 Jun 2027 09:34:34.267             1.000           165.406
        74   03 Jun 2027 09:35:39.065   03 Jun 2027 09:35:40.781             1.716           550.500
        75   03 Jun 2027 09:35:44.189   03 Jun 2027 09:35:45.053             0.864           106.500
        76   03 Jun 2027 09:36:10.298   03 Jun 2027 09:36:11.443             1.145           525.156
        77   03 Jun 2027 11:08:09.807   03 Jun 2027 11:08:21.540            11.733          5533.312
        78   03 Jun 2027 11:09:59.306   03 Jun 2027 11:10:01.092             1.786           778.781
        79   03 Jun 2027 11:11:38.550   03 Jun 2027 11:11:42.462             3.912           845.375
        80   03 Jun 2027 11:12:34.045   03 Jun 2027 11:12:36.530             2.485           177.281
        81   03 Jun 2027 11:12:53.206   03 Jun 2027 11:12:55.338             2.132           124.031
        82   04 Jun 2027 03:19:10.508   04 Jun 2027 03:19:17.010             6.502          3251.000
        83   04 Jun 2027 03:21:26.239   04 Jun 2027 03:21:37.021            10.782          5391.000
        84   04 Jun 2027 04:55:34.645   04 Jun 2027 04:59:00.627           205.982        102991.000
        85   04 Jun 2027 06:29:02.361   04 Jun 2027 06:30:21.365            79.004         38402.094
        86   04 Jun 2027 06:31:11.721   04 Jun 2027 06:31:13.762             2.041           130.812
        87   04 Jun 2027 06:31:34.632   04 Jun 2027 06:31:37.713             3.081           547.469
        88   04 Jun 2027 06:31:52.866   04 Jun 2027 06:31:55.246             2.380           240.656
        89   04 Jun 2027 06:32:22.939   04 Jun 2027 06:32:22.939             0.000             0.000
        90   04 Jun 2027 06:33:42.687   04 Jun 2027 06:33:52.762            10.075          3125.625
        91   04 Jun 2027 06:34:12.869   04 Jun 2027 06:34:12.869             0.000             0.000
        92   04 Jun 2027 06:34:31.509   04 Jun 2027 06:34:36.315             4.806          1128.688
        93   04 Jun 2027 06:35:40.138   04 Jun 2027 06:35:40.138             0.000             0.000
        94   04 Jun 2027 06:35:54.798   04 Jun 2027 06:35:59.266             4.468          1607.281
        95   04 Jun 2027 06:36:30.098   04 Jun 2027 06:36:31.011             0.913           456.500
        96   04 Jun 2027 06:36:31.799   04 Jun 2027 06:36:36.120             4.321           318.563
        97   04 Jun 2027 06:37:30.685   04 Jun 2027 06:37:31.567             0.882           381.156
        98   04 Jun 2027 08:06:36.331   04 Jun 2027 08:06:38.954             2.623           223.750
        99   04 Jun 2027 08:09:33.767   04 Jun 2027 08:09:35.315             1.548           283.844
       100   04 Jun 2027 08:10:17.330   04 Jun 2027 08:10:19.152             1.822           624.688
       101   04 Jun 2027 08:11:11.580   04 Jun 2027 08:11:11.818             0.238            90.656
       102   04 Jun 2027 08:12:30.997   04 Jun 2027 08:12:33.394             2.397           884.219
       103   04 Jun 2027 09:43:30.099   04 Jun 2027 09:43:44.254            14.155          6949.469
       104   04 Jun 2027 09:44:13.927   04 Jun 2027 09:44:20.636             6.709           241.156
       105   04 Jun 2027 09:46:21.392   04 Jun 2027 09:46:27.507             6.115          1592.000
       106   04 Jun 2027 09:47:04.608   04 Jun 2027 09:47:06.286             1.678             4.313
       107   04 Jun 2027 09:47:31.950   04 Jun 2027 09:47:38.050             6.100           470.750
       108   04 Jun 2027 09:48:01.582   04 Jun 2027 09:48:03.782             2.200           412.219
       109   04 Jun 2027 09:48:14.379   04 Jun 2027 09:48:14.767             0.388           104.406
       110   04 Jun 2027 09:48:52.525   04 Jun 2027 09:48:56.313             3.788          1163.750
       111   04 Jun 2027 11:20:23.976   04 Jun 2027 11:20:40.303            16.327          5780.469
       112   04 Jun 2027 11:23:38.403   04 Jun 2027 11:23:40.481             2.078           645.250
       113   05 Jun 2027 03:30:57.883   05 Jun 2027 03:31:20.953            23.070         11535.000
       114   05 Jun 2027 05:07:36.009   05 Jun 2027 05:08:09.698            33.689         16844.500
       115   05 Jun 2027 05:10:18.899   05 Jun 2027 05:11:04.965            46.066         23033.000
       116   05 Jun 2027 06:42:31.064   05 Jun 2027 06:45:56.015           204.951        102455.407
       117   05 Jun 2027 06:45:58.054   05 Jun 2027 06:46:00.793             2.739            63.719
       118   05 Jun 2027 06:46:34.942   05 Jun 2027 06:46:34.942             0.000             0.000
       119   05 Jun 2027 06:46:51.208   05 Jun 2027 06:46:51.208             0.000             0.000
       120   05 Jun 2027 06:47:40.894   05 Jun 2027 06:47:50.486             9.592          2277.688
       121   05 Jun 2027 06:48:33.985   05 Jun 2027 06:48:39.258             5.273          1124.656
       122   05 Jun 2027 06:49:06.466   05 Jun 2027 06:49:09.911             3.445           728.000
       123   05 Jun 2027 08:18:43.621   05 Jun 2027 08:18:52.661             9.040          3842.781
       124   05 Jun 2027 08:21:06.007   05 Jun 2027 08:21:08.231             2.224           851.000
       125   05 Jun 2027 08:22:01.303   05 Jun 2027 08:22:03.524             2.221           766.938
       126   05 Jun 2027 08:24:19.962   05 Jun 2027 08:24:23.004             3.042           703.063
       127   05 Jun 2027 08:24:51.192   05 Jun 2027 08:24:51.844             0.652           104.281
       128   05 Jun 2027 09:56:26.673   05 Jun 2027 09:56:42.052            15.379          5814.938
       129   05 Jun 2027 09:59:01.072   05 Jun 2027 09:59:01.587             0.515           133.500
       130   05 Jun 2027 10:00:30.684   05 Jun 2027 10:00:36.611             5.927          2136.563
       131   05 Jun 2027 11:32:31.198   05 Jun 2027 11:32:44.120            12.922          6405.031
       132   05 Jun 2027 11:35:37.156   05 Jun 2027 11:35:43.826             6.670           225.031
       133   05 Jun 2027 11:36:48.492   05 Jun 2027 11:36:53.428             4.936          1383.406
       134   06 Jun 2027 03:43:11.945   06 Jun 2027 03:43:21.794             9.849          4924.500
       135   06 Jun 2027 03:45:20.995   06 Jun 2027 03:45:51.647            30.652         15326.000
       136   06 Jun 2027 05:19:43.805   06 Jun 2027 05:22:29.284           165.479         82739.500
       137   06 Jun 2027 06:54:53.776   06 Jun 2027 06:56:37.582           103.806         51645.782
       138   06 Jun 2027 06:56:59.255   06 Jun 2027 06:57:06.200             6.945           663.125
       139   06 Jun 2027 06:57:51.135   06 Jun 2027 06:57:54.476             3.341           414.281
       140   06 Jun 2027 06:58:07.980   06 Jun 2027 06:58:09.455             1.475           232.750
       141   06 Jun 2027 06:59:41.190   06 Jun 2027 06:59:49.098             7.908          2768.469
       142   06 Jun 2027 07:00:56.596   06 Jun 2027 07:01:01.360             4.764          1733.469
       143   06 Jun 2027 07:01:18.915   06 Jun 2027 07:01:20.382             1.467           362.406
       144   06 Jun 2027 08:31:19.226   06 Jun 2027 08:31:30.131            10.905          3308.969
       145   06 Jun 2027 08:34:26.311   06 Jun 2027 08:34:29.113             2.802          1113.375
       146   06 Jun 2027 08:35:50.320   06 Jun 2027 08:36:00.994            10.674           922.156
       147   06 Jun 2027 08:36:31.395   06 Jun 2027 08:36:34.038             2.643           950.031
       148   06 Jun 2027 10:08:33.675   06 Jun 2027 10:08:46.716            13.041          5988.687
       149   06 Jun 2027 10:09:56.563   06 Jun 2027 10:09:59.168             2.605           476.156
       150   06 Jun 2027 10:10:52.240   06 Jun 2027 10:10:55.291             3.051          1357.969
       151   06 Jun 2027 10:11:07.425   06 Jun 2027 10:11:08.390             0.965           298.406
       152   06 Jun 2027 10:11:33.504   06 Jun 2027 10:11:36.468             2.964           780.563
       153   06 Jun 2027 10:11:56.047   06 Jun 2027 10:11:58.042             1.995           611.844
       154   06 Jun 2027 10:12:14.643   06 Jun 2027 10:12:15.225             0.582           267.219
       155   06 Jun 2027 10:12:29.432   06 Jun 2027 10:12:35.029             5.597            40.750
       156   06 Jun 2027 10:12:58.727   06 Jun 2027 10:12:59.492             0.765           101.781
       157   06 Jun 2027 11:44:48.254   06 Jun 2027 11:44:59.696            11.442          5562.281
       158   06 Jun 2027 11:49:09.443   06 Jun 2027 11:49:12.092             2.649           707.688
       159   07 Jun 2027 03:55:41.972   07 Jun 2027 03:55:44.030             2.058          1029.000
       160   07 Jun 2027 03:57:15.239   07 Jun 2027 03:57:21.924             6.685          3342.500
       161   07 Jun 2027 03:57:52.764   07 Jun 2027 03:57:58.045             5.281          2640.500
       162   07 Jun 2027 05:31:36.788   07 Jun 2027 05:34:18.704           161.916         80958.000
       163   07 Jun 2027 07:06:33.033   07 Jun 2027 07:08:49.759           136.726         65698.532
       164   07 Jun 2027 07:09:28.456   07 Jun 2027 07:09:31.801             3.345          1209.281
       165   07 Jun 2027 07:09:42.608   07 Jun 2027 07:09:45.708             3.100           274.062
       166   07 Jun 2027 07:10:02.805   07 Jun 2027 07:10:03.913             1.108           263.281
       167   07 Jun 2027 07:11:40.950   07 Jun 2027 07:11:53.287            12.337          2274.813
       168   07 Jun 2027 07:12:36.373   07 Jun 2027 07:12:45.964             9.591          1006.750
       169   07 Jun 2027 07:13:09.945   07 Jun 2027 07:13:11.413             1.468           656.719
       170   07 Jun 2027 08:42:51.544   07 Jun 2027 08:43:00.147             8.603          4245.094
       171   07 Jun 2027 08:46:07.377   07 Jun 2027 08:46:11.556             4.179           842.969
       172   07 Jun 2027 08:46:59.586   07 Jun 2027 08:47:01.123             1.537           738.719
       173   07 Jun 2027 08:47:40.776   07 Jun 2027 08:47:45.093             4.317           473.063
       174   07 Jun 2027 08:48:07.087   07 Jun 2027 08:48:08.160             1.073           399.844
       175   07 Jun 2027 10:21:07.107   07 Jun 2027 10:21:19.892            12.785          5562.031
       176   07 Jun 2027 10:21:45.121   07 Jun 2027 10:21:49.344             4.223           153.781
       177   07 Jun 2027 10:22:58.702   07 Jun 2027 10:23:07.878             9.176          2156.125
       178   07 Jun 2027 10:24:19.926   07 Jun 2027 10:24:27.374             7.448          2251.500
       179   07 Jun 2027 10:24:41.312   07 Jun 2027 10:24:41.788             0.476            43.406
       180   07 Jun 2027 11:56:27.197   07 Jun 2027 11:56:47.677            20.480          6873.344
       181   08 Jun 2027 04:06:38.809   08 Jun 2027 04:07:14.922            36.113         18056.500
       182   08 Jun 2027 04:10:21.488   08 Jun 2027 04:10:31.900            10.412          5206.000
       183   08 Jun 2027 04:10:52.566   08 Jun 2027 04:10:52.566             0.000             0.000
       184   08 Jun 2027 05:41:55.505   08 Jun 2027 05:42:29.044            33.539         16769.500
       185   08 Jun 2027 05:43:20.652   08 Jun 2027 05:44:32.452            71.800         35900.000
       186   08 Jun 2027 05:45:11.271   08 Jun 2027 05:45:58.906            47.635         23817.500
       187   08 Jun 2027 05:47:49.462   08 Jun 2027 05:47:54.140             4.678          2339.000
       188   08 Jun 2027 07:18:06.347   08 Jun 2027 07:20:08.241           121.894         60062.000
       189   08 Jun 2027 07:20:48.378   08 Jun 2027 07:20:50.931             2.553          1018.813
       190   08 Jun 2027 07:21:28.356   08 Jun 2027 07:21:29.401             1.045           294.781
       191   08 Jun 2027 07:22:04.835   08 Jun 2027 07:22:04.835             0.000             0.000
       192   08 Jun 2027 07:22:31.959   08 Jun 2027 07:22:36.042             4.083          1067.563
       193   08 Jun 2027 07:23:40.073   08 Jun 2027 07:23:46.848             6.775          1089.750
       194   08 Jun 2027 07:24:17.421   08 Jun 2027 07:24:21.458             4.037           323.781
       195   08 Jun 2027 07:24:57.912   08 Jun 2027 07:24:58.844             0.932           449.594
       196   08 Jun 2027 08:55:10.841   08 Jun 2027 08:55:25.161            14.320          4676.219
       197   08 Jun 2027 08:55:50.216   08 Jun 2027 08:55:51.317             1.101           482.250
       198   08 Jun 2027 08:56:47.401   08 Jun 2027 08:56:49.693             2.292           588.031
       199   08 Jun 2027 08:57:15.676   08 Jun 2027 08:57:17.186             1.510           306.281
       200   08 Jun 2027 08:57:40.949   08 Jun 2027 08:57:42.952             2.003           742.594
       201   08 Jun 2027 08:58:44.787   08 Jun 2027 08:58:47.372             2.585           252.500
       202   08 Jun 2027 08:59:28.113   08 Jun 2027 08:59:32.579             4.466          1213.594
       203   08 Jun 2027 08:59:38.258   08 Jun 2027 08:59:39.322             1.064           177.469
       204   08 Jun 2027 09:00:05.298   08 Jun 2027 09:00:08.662             3.364           481.562
       205   08 Jun 2027 09:01:17.777   08 Jun 2027 09:01:20.141             2.364             7.875
       206   08 Jun 2027 10:33:09.997   08 Jun 2027 10:33:24.164            14.167          7025.750
       207   08 Jun 2027 10:34:57.160   08 Jun 2027 10:35:01.533             4.373           217.594
       208   08 Jun 2027 10:35:27.239   08 Jun 2027 10:35:30.576             3.337           803.313
       209   08 Jun 2027 10:36:38.576   08 Jun 2027 10:36:41.984             3.408          1166.969
       210   08 Jun 2027 10:36:50.212   08 Jun 2027 10:36:51.221             1.009            36.531
       211   09 Jun 2027 04:17:57.877   09 Jun 2027 04:18:27.807            29.930         14965.000
       212   09 Jun 2027 04:19:58.630   09 Jun 2027 04:20:20.812            22.182         11091.000
       213   09 Jun 2027 04:20:33.253   09 Jun 2027 04:20:43.890            10.637          5318.500
       214   09 Jun 2027 04:20:53.700   09 Jun 2027 04:20:57.298             3.598          1799.000
       215   09 Jun 2027 04:22:22.402   09 Jun 2027 04:22:33.082            10.680          5340.000
       216   09 Jun 2027 04:23:07.871   09 Jun 2027 04:23:10.085             2.214          1107.000
       217   09 Jun 2027 05:53:02.131   09 Jun 2027 05:54:30.861            88.730         44365.000
       218   09 Jun 2027 05:55:07.016   09 Jun 2027 05:55:08.178             1.162           581.000
       219   09 Jun 2027 05:58:34.526   09 Jun 2027 05:59:51.485            76.959         38479.500
       220   09 Jun 2027 06:01:01.093   09 Jun 2027 06:01:18.105            17.012          8506.000
       221   09 Jun 2027 07:30:23.786   09 Jun 2027 07:31:24.734            60.948         29125.812
       222   09 Jun 2027 07:32:18.901   09 Jun 2027 07:32:22.980             4.079           670.750
       223   09 Jun 2027 07:33:09.445   09 Jun 2027 07:33:11.615             2.170           387.937
       224   09 Jun 2027 07:33:23.355   09 Jun 2027 07:33:23.355             0.000             0.000
       225   09 Jun 2027 07:34:01.204   09 Jun 2027 07:34:03.907             2.703          1255.563
       226   09 Jun 2027 07:34:38.369   09 Jun 2027 07:34:38.369             0.000             0.000
       227   09 Jun 2027 07:35:38.442   09 Jun 2027 07:35:46.076             7.634          2870.531
       228   09 Jun 2027 07:36:40.437   09 Jun 2027 07:36:45.822             5.385          1249.750
       229   09 Jun 2027 07:37:20.810   09 Jun 2027 07:37:23.150             2.340           511.219
       230   09 Jun 2027 09:07:12.535   09 Jun 2027 09:07:25.917            13.382          5009.531
       231   09 Jun 2027 09:09:26.373   09 Jun 2027 09:09:30.987             4.614          2003.719
       232   09 Jun 2027 09:10:44.656   09 Jun 2027 09:10:51.736             7.080          1112.094
       233   09 Jun 2027 09:11:06.566   09 Jun 2027 09:11:07.869             1.303           463.438
       234   09 Jun 2027 09:11:14.077   09 Jun 2027 09:11:17.918             3.841            91.125
       235   09 Jun 2027 09:12:06.698   09 Jun 2027 09:12:08.895             2.197          1053.844
       236   09 Jun 2027 09:12:35.363   09 Jun 2027 09:12:39.437             4.074           304.063
       237   09 Jun 2027 09:13:24.119   09 Jun 2027 09:13:25.236             1.117           341.938
       238   09 Jun 2027 10:45:09.564   09 Jun 2027 10:45:24.842            15.278          7476.687
       239   09 Jun 2027 10:46:13.827   09 Jun 2027 10:46:17.155             3.328           923.844
       240   09 Jun 2027 10:46:44.511   09 Jun 2027 10:46:49.746             5.235           744.562
       241   09 Jun 2027 10:47:25.958   09 Jun 2027 10:47:33.624             7.666           738.406
       242   09 Jun 2027 10:48:31.990   09 Jun 2027 10:48:36.024             4.034           546.687
       243   10 Jun 2027 03:07:41.589   10 Jun 2027 03:08:18.763            37.174         18587.000
       244   10 Jun 2027 04:29:41.989   10 Jun 2027 04:30:56.268            74.279         37139.500
       245   10 Jun 2027 04:31:44.616   10 Jun 2027 04:32:28.509            43.893         21946.500
       246   10 Jun 2027 04:32:57.044   10 Jun 2027 04:33:00.152             3.108          1554.000
       247   10 Jun 2027 04:34:27.212   10 Jun 2027 04:34:39.356            12.144          6072.000
       248   10 Jun 2027 06:04:30.334   10 Jun 2027 06:06:01.638            91.304         45652.000
       249   10 Jun 2027 06:06:07.749   10 Jun 2027 06:06:18.426            10.677          5338.500
       250   10 Jun 2027 06:08:04.827   10 Jun 2027 06:08:21.718            16.891          8445.500
       251   10 Jun 2027 06:09:15.849   10 Jun 2027 06:09:27.043            11.194          5597.000
       252   10 Jun 2027 06:09:27.375   10 Jun 2027 06:09:30.877             3.502          1301.062
       253   10 Jun 2027 06:10:30.593   10 Jun 2027 06:10:36.846             6.253          1158.281
       254   10 Jun 2027 06:11:24.839   10 Jun 2027 06:11:29.346             4.507          1474.344
       255   10 Jun 2027 06:12:04.332   10 Jun 2027 06:12:04.332             0.000             0.000
       256   10 Jun 2027 06:12:49.583   10 Jun 2027 06:12:53.860             4.277          1965.469
       257   10 Jun 2027 06:13:22.725   10 Jun 2027 06:13:24.862             2.137           600.688
       258   10 Jun 2027 07:42:23.437   10 Jun 2027 07:42:30.870             7.433           985.844
       259   10 Jun 2027 07:43:56.875   10 Jun 2027 07:44:02.106             5.231          2097.281
       260   10 Jun 2027 07:44:37.013   10 Jun 2027 07:44:42.546             5.533           471.812
       261   10 Jun 2027 07:46:08.001   10 Jun 2027 07:46:11.411             3.410           105.687
       262   10 Jun 2027 07:47:35.905   10 Jun 2027 07:47:39.074             3.169          1513.219
       263   10 Jun 2027 07:48:12.388   10 Jun 2027 07:48:14.873             2.485           840.063
       264   10 Jun 2027 09:19:03.539   10 Jun 2027 09:19:18.921            15.382          5843.500
       265   10 Jun 2027 09:21:34.355   10 Jun 2027 09:21:39.085             4.730          2354.250
       266   10 Jun 2027 09:21:52.369   10 Jun 2027 09:21:56.036             3.667           415.125
       267   10 Jun 2027 09:22:34.810   10 Jun 2027 09:22:36.100             1.290           499.781
       268   10 Jun 2027 09:22:58.713   10 Jun 2027 09:23:00.918             2.205           340.750
       269   10 Jun 2027 09:23:08.266   10 Jun 2027 09:23:12.205             3.939            77.500
       270   10 Jun 2027 09:23:28.200   10 Jun 2027 09:23:30.812             2.612           169.156
       271   10 Jun 2027 09:23:57.982   10 Jun 2027 09:24:00.612             2.630           703.031
       272   10 Jun 2027 09:24:26.337   10 Jun 2027 09:24:28.109             1.772           518.344
       273   10 Jun 2027 09:25:48.842   10 Jun 2027 09:25:49.498             0.656           328.000
       274   10 Jun 2027 10:57:11.162   10 Jun 2027 10:57:22.982            11.820          5579.250
       275   10 Jun 2027 10:57:59.923   10 Jun 2027 10:58:04.354             4.431           441.063
       276   10 Jun 2027 10:59:25.983   10 Jun 2027 10:59:27.455             1.472           706.219
       277   10 Jun 2027 11:00:17.359   10 Jun 2027 11:00:22.676             5.317           350.094
       278   10 Jun 2027 11:00:42.396   10 Jun 2027 11:00:43.035             0.639           282.094
       279   10 Jun 2027 11:01:09.164   10 Jun 2027 11:01:11.152             1.988           816.531
       280   11 Jun 2027 03:07:31.133   11 Jun 2027 03:07:45.265            14.132          7066.000
       281   11 Jun 2027 03:08:35.432   11 Jun 2027 03:08:42.614             7.182          3591.000
       282   11 Jun 2027 04:43:27.872   11 Jun 2027 04:46:47.503           199.631         99815.500
       283   11 Jun 2027 04:47:23.806   11 Jun 2027 04:47:24.360             0.554           277.000
       284   11 Jun 2027 06:17:18.842   11 Jun 2027 06:18:37.726            78.884         38800.125
       285   11 Jun 2027 06:19:34.296   11 Jun 2027 06:19:43.230             8.934           552.719
       286   11 Jun 2027 06:20:21.717   11 Jun 2027 06:20:24.840             3.123           833.281
       287   11 Jun 2027 06:21:59.000   11 Jun 2027 06:22:09.353            10.353          2621.188
       288   11 Jun 2027 06:22:32.935   11 Jun 2027 06:22:36.347             3.412           736.938
       289   11 Jun 2027 06:22:53.219   11 Jun 2027 06:22:59.518             6.299           182.969
       290   11 Jun 2027 06:23:39.283   11 Jun 2027 06:23:45.942             6.659           379.906
       291   11 Jun 2027 06:23:54.739   11 Jun 2027 06:23:56.187             1.448           274.906
       292   11 Jun 2027 06:24:08.993   11 Jun 2027 06:24:13.025             4.032           400.188
       293   11 Jun 2027 06:25:20.096   11 Jun 2027 06:25:23.744             3.648          1389.156
       294   11 Jun 2027 07:54:25.590   11 Jun 2027 07:54:25.908             0.318            26.000
       295   11 Jun 2027 07:55:55.612   11 Jun 2027 07:56:04.901             9.289          1111.906
       296   11 Jun 2027 07:58:08.008   11 Jun 2027 07:58:16.692             8.684          2143.469
       297   11 Jun 2027 07:58:32.680   11 Jun 2027 07:58:33.478             0.798            14.969
       298   11 Jun 2027 07:58:59.444   11 Jun 2027 07:59:01.140             1.696           221.500
       299   11 Jun 2027 07:59:38.739   11 Jun 2027 07:59:39.316             0.577           190.062
       300   11 Jun 2027 09:31:28.104   11 Jun 2027 09:31:41.704            13.600          6437.781
       301   11 Jun 2027 09:32:12.727   11 Jun 2027 09:32:13.163             0.436           189.469
       302   11 Jun 2027 09:33:07.579   11 Jun 2027 09:33:12.815             5.236          1520.156
       303   11 Jun 2027 09:34:46.450   11 Jun 2027 09:34:48.719             2.269          1031.813
       304   11 Jun 2027 09:35:24.894   11 Jun 2027 09:35:25.408             0.514           176.844
       305   11 Jun 2027 09:35:54.697   11 Jun 2027 09:35:58.431             3.734           546.750
       306   11 Jun 2027 09:35:59.908   11 Jun 2027 09:36:03.127             3.219            20.625
       307   11 Jun 2027 09:36:25.144   11 Jun 2027 09:36:27.675             2.531           371.313
       308   11 Jun 2027 11:08:25.431   11 Jun 2027 11:08:37.409            11.978          5491.813
       309   11 Jun 2027 11:13:04.946   11 Jun 2027 11:13:09.443             4.497          2077.969
       310   12 Jun 2027 03:19:25.355   12 Jun 2027 03:19:31.525             6.170          3085.000
       311   12 Jun 2027 03:21:40.921   12 Jun 2027 03:21:52.186            11.265          5632.500
       312   12 Jun 2027 04:55:49.647   12 Jun 2027 04:59:15.577           205.930        102965.000
       313   12 Jun 2027 06:27:58.079   12 Jun 2027 06:29:22.623            84.544         42017.343
       314   12 Jun 2027 06:30:24.674   12 Jun 2027 06:30:26.810             2.136           491.281
       315   12 Jun 2027 06:31:32.710   12 Jun 2027 06:31:40.100             7.390           166.656
       316   12 Jun 2027 06:32:38.829   12 Jun 2027 06:32:41.884             3.055          1522.625
       317   12 Jun 2027 06:33:20.190   12 Jun 2027 06:33:24.629             4.439           897.063
       318   12 Jun 2027 06:34:40.495   12 Jun 2027 06:34:45.224             4.729          1997.437
       319   12 Jun 2027 06:35:29.359   12 Jun 2027 06:35:34.369             5.010          1306.875
       320   12 Jun 2027 06:36:12.224   12 Jun 2027 06:36:13.922             1.698           511.094
       321   12 Jun 2027 06:36:46.905   12 Jun 2027 06:36:48.943             2.038           782.344
       322   12 Jun 2027 06:37:45.575   12 Jun 2027 06:37:46.397             0.822           346.875
       323   12 Jun 2027 08:06:51.563   12 Jun 2027 08:06:53.656             2.093           756.406
       324   12 Jun 2027 08:09:49.062   12 Jun 2027 08:09:50.438             1.376           295.937
       325   12 Jun 2027 08:10:32.356   12 Jun 2027 08:10:33.792             1.436           646.750
       326   12 Jun 2027 08:12:17.348   12 Jun 2027 08:12:26.949             9.601          1624.750
       327   12 Jun 2027 09:43:46.248   12 Jun 2027 09:43:58.690            12.442          5986.719
       328   12 Jun 2027 09:44:28.306   12 Jun 2027 09:44:36.934             8.628           194.188
       329   12 Jun 2027 09:47:31.173   12 Jun 2027 09:47:33.038             1.865           353.438
       330   12 Jun 2027 09:48:26.802   12 Jun 2027 09:48:31.158             4.356          1523.250
       331   12 Jun 2027 09:48:34.110   12 Jun 2027 09:48:36.471             2.361            92.250
       332   12 Jun 2027 11:20:39.081   12 Jun 2027 11:20:50.770            11.689          4807.938
       333   12 Jun 2027 11:23:22.694   12 Jun 2027 11:23:30.220             7.526           813.969
       334   12 Jun 2027 11:23:35.038   12 Jun 2027 11:23:37.408             2.370           150.562
       335   12 Jun 2027 11:25:04.941   12 Jun 2027 11:25:07.300             2.359          1179.500
       336   13 Jun 2027 03:31:12.606   13 Jun 2027 03:31:35.608            23.002         11501.000
       337   13 Jun 2027 05:07:51.504   13 Jun 2027 05:10:53.716           182.212         91106.000
       338   13 Jun 2027 06:42:46.535   13 Jun 2027 06:44:30.742           104.207         52067.625
       339   13 Jun 2027 06:45:55.876   13 Jun 2027 06:46:05.166             9.290          2210.656
       340   13 Jun 2027 06:46:11.989   13 Jun 2027 06:46:14.793             2.804           180.719
       341   13 Jun 2027 06:46:44.160   13 Jun 2027 06:46:47.118             2.958           917.719
       342   13 Jun 2027 06:47:05.465   13 Jun 2027 06:47:05.465             0.000             0.000
       343   13 Jun 2027 06:47:56.606   13 Jun 2027 06:48:04.517             7.911          2074.031
       344   13 Jun 2027 06:48:49.659   13 Jun 2027 06:48:53.605             3.946          1070.094
       345   13 Jun 2027 06:49:22.597   13 Jun 2027 06:49:25.886             3.289           734.906
       346   13 Jun 2027 06:49:40.507   13 Jun 2027 06:49:40.960             0.453           156.094
       347   13 Jun 2027 08:18:59.028   13 Jun 2027 08:19:03.304             4.276          1875.750
       348   13 Jun 2027 08:22:35.253   13 Jun 2027 08:22:37.232             1.979           590.094
       349   13 Jun 2027 08:23:31.128   13 Jun 2027 08:23:34.197             3.069          1513.437
       350   13 Jun 2027 08:23:52.856   13 Jun 2027 08:23:57.066             4.210           516.188
       351   13 Jun 2027 08:24:35.089   13 Jun 2027 08:24:36.541             1.452           718.969
       352   13 Jun 2027 08:25:08.072   13 Jun 2027 08:25:09.649             1.577           173.750
       353   13 Jun 2027 09:56:42.615   13 Jun 2027 09:56:56.797            14.182          5021.312
       354   13 Jun 2027 10:00:12.702   13 Jun 2027 10:00:15.442             2.740            58.312
       355   13 Jun 2027 11:32:48.905   13 Jun 2027 11:33:05.099            16.194          6994.594
       356   13 Jun 2027 11:36:19.090   13 Jun 2027 11:36:24.547             5.457          1392.031
