uniorb/output/strategy_4/Camera/Camera_KinoSat_110308.txt

KinoSat_110308
-------------------------
    Access    *     Start Time (UTCG)     *     Stop Time (UTCG)  *   Duration (s) *   Data (Mbytes)
         1   01 Jun 2027 03:28:14.469   01 Jun 2027 03:29:44.832            90.363         45181.500
         2   01 Jun 2027 03:30:05.910   01 Jun 2027 03:30:10.100             4.190          2095.000
         3   01 Jun 2027 03:31:55.966   01 Jun 2027 03:32:10.499            14.533          7266.500
         4   01 Jun 2027 03:32:38.405   01 Jun 2027 03:32:56.215            17.810          8905.000
         5   01 Jun 2027 03:33:43.057   01 Jun 2027 03:33:48.593             5.536          2768.000
         6   01 Jun 2027 03:34:21.621   01 Jun 2027 03:34:23.562             1.941           970.500
         7   01 Jun 2027 03:34:41.142   01 Jun 2027 03:34:47.828             6.686          3343.000
         8   01 Jun 2027 03:34:49.839   01 Jun 2027 03:34:51.376             1.537           768.500
         9   01 Jun 2027 05:04:36.948   01 Jun 2027 05:07:14.068           157.120         78560.000
        10   01 Jun 2027 05:07:49.406   01 Jun 2027 05:07:58.655             9.249          4624.500
        11   01 Jun 2027 05:08:39.986   01 Jun 2027 05:08:51.497            11.511          5755.500
        12   01 Jun 2027 05:09:02.777   01 Jun 2027 05:09:18.170            15.393          7696.500
        13   01 Jun 2027 05:10:06.426   01 Jun 2027 05:10:11.540             5.114          2557.000
        14   01 Jun 2027 06:41:52.340   01 Jun 2027 06:44:09.549           137.209         68604.500
        15   01 Jun 2027 06:44:32.049   01 Jun 2027 06:44:40.665             8.616          4308.000
        16   01 Jun 2027 06:45:16.003   01 Jun 2027 06:45:24.125             8.122          4061.000
        17   01 Jun 2027 06:45:57.175   01 Jun 2027 06:46:03.450             6.275          3137.500
        18   01 Jun 2027 06:46:28.817   01 Jun 2027 06:46:30.166             1.349           674.500
        19   01 Jun 2027 08:18:06.897   01 Jun 2027 08:20:44.353           157.456         78728.000
        20   01 Jun 2027 08:21:11.992   01 Jun 2027 08:21:21.362             9.370          4685.000
        21   01 Jun 2027 08:22:10.366   01 Jun 2027 08:22:24.748            14.382          7191.000
        22   02 Jun 2027 03:39:56.248   02 Jun 2027 03:46:28.003           391.755        195877.500
        23   02 Jun 2027 03:46:55.398   02 Jun 2027 03:46:58.675             3.277          1638.500
        24   02 Jun 2027 05:16:08.876   02 Jun 2027 05:20:26.459           257.583        128791.500
        25   02 Jun 2027 06:54:21.345   02 Jun 2027 06:58:20.532           239.187        119593.500
        26   02 Jun 2027 08:30:01.622   02 Jun 2027 08:34:13.402           251.780        125890.000
        27   02 Jun 2027 08:34:51.470   02 Jun 2027 08:35:17.466            25.996         12998.000
        28   03 Jun 2027 03:51:29.689   03 Jun 2027 03:59:03.621           453.932        226966.000
        29   03 Jun 2027 05:28:30.824   03 Jun 2027 05:34:38.482           367.658        183829.000
        30   03 Jun 2027 07:06:56.000   03 Jun 2027 07:10:28.016           212.016        106008.000
        31   03 Jun 2027 08:39:44.675   03 Jun 2027 08:45:55.310           370.635        185317.500
        32   03 Jun 2027 08:45:55.747   03 Jun 2027 08:47:16.011            80.264         40132.000
        33   04 Jun 2027 04:03:38.855   04 Jun 2027 04:11:04.583           445.728        222864.000
        34   04 Jun 2027 05:40:35.647   04 Jun 2027 05:46:44.521           368.874        184437.000
        35   04 Jun 2027 07:18:54.442   04 Jun 2027 07:22:30.322           215.880        107940.000
        36   04 Jun 2027 08:52:03.331   04 Jun 2027 08:59:16.225           432.894        216447.000
        37   05 Jun 2027 04:15:40.747   05 Jun 2027 04:23:06.333           445.586        222793.000
        38   05 Jun 2027 05:52:28.452   05 Jun 2027 05:58:21.728           353.276        176638.000
        39   05 Jun 2027 05:59:00.549   05 Jun 2027 05:59:10.908            10.359          5179.500
        40   05 Jun 2027 07:30:49.327   05 Jun 2027 07:34:39.785           230.458        115229.000
        41   05 Jun 2027 09:04:33.657   05 Jun 2027 09:11:03.221           389.564        194782.000
        42   06 Jun 2027 04:27:43.639   06 Jun 2027 04:35:03.615           439.976        219988.000
        43   06 Jun 2027 06:04:38.022   06 Jun 2027 06:09:40.878           302.856        151428.000
        44   06 Jun 2027 06:10:11.519   06 Jun 2027 06:10:58.461            46.942         23471.000
        45   06 Jun 2027 07:42:14.883   06 Jun 2027 07:46:37.616           262.733        131366.500
        46   06 Jun 2027 09:16:52.018   06 Jun 2027 09:17:29.107            37.089         18544.500
        47   06 Jun 2027 09:18:25.516   06 Jun 2027 09:21:45.242           199.726         99863.000
        48   07 Jun 2027 03:01:15.333   07 Jun 2027 03:11:09.203           593.870        296935.000
        49   07 Jun 2027 04:40:09.440   07 Jun 2027 04:46:54.176           404.736        202368.000
        50   07 Jun 2027 06:18:47.202   07 Jun 2027 06:21:28.806           161.604         80802.000
        51   07 Jun 2027 06:22:04.098   07 Jun 2027 06:22:52.221            48.123         24061.500
        52   07 Jun 2027 07:54:04.877   07 Jun 2027 07:58:28.423           263.546        131773.000
        53   07 Jun 2027 09:31:32.942   07 Jun 2027 09:33:16.055           103.113         51556.500
        54   08 Jun 2027 03:15:28.305   08 Jun 2027 03:22:03.353           395.048        197524.000
        55   08 Jun 2027 03:22:17.737   08 Jun 2027 03:23:04.501            46.764         23382.000
        56   08 Jun 2027 04:52:16.553   08 Jun 2027 04:58:58.921           402.368        201184.000
        57   08 Jun 2027 06:30:34.243   08 Jun 2027 06:34:25.766           231.523        115761.500
        58   08 Jun 2027 08:06:46.821   08 Jun 2027 08:10:45.998           239.177        119588.500
        59   09 Jun 2027 03:28:29.137   09 Jun 2027 03:35:06.156           397.019        198509.500
        60   09 Jun 2027 05:04:51.898   09 Jun 2027 05:11:04.713           372.815        186407.500
        61   09 Jun 2027 06:42:06.705   09 Jun 2027 06:46:44.980           278.275        139137.500
        62   09 Jun 2027 08:18:42.586   09 Jun 2027 08:23:05.402           262.816        131408.000
        63   10 Jun 2027 03:40:10.981   10 Jun 2027 03:47:13.398           422.417        211208.500
        64   10 Jun 2027 05:16:23.614   10 Jun 2027 05:22:51.344           387.730        193865.000
        65   10 Jun 2027 06:55:11.150   10 Jun 2027 06:58:35.113           203.963        101981.500
        66   10 Jun 2027 08:30:16.240   10 Jun 2027 08:34:27.879           251.639        125819.500
        67   10 Jun 2027 08:35:11.440   10 Jun 2027 08:35:32.459            21.019         10509.500
        68   11 Jun 2027 03:51:44.188   11 Jun 2027 03:59:18.220           454.032        227016.000
        69   11 Jun 2027 05:28:45.641   11 Jun 2027 05:34:53.363           367.722        183861.000
        70   11 Jun 2027 07:07:10.628   11 Jun 2027 07:10:42.676           212.048        106024.000
        71   11 Jun 2027 08:39:58.864   11 Jun 2027 08:46:09.189           370.325        185162.500
        72   11 Jun 2027 08:46:11.151   11 Jun 2027 08:47:30.657            79.506         39753.000
        73   12 Jun 2027 04:03:53.707   12 Jun 2027 04:11:19.310           445.603        222801.500
        74   12 Jun 2027 05:40:50.022   12 Jun 2027 05:46:59.240           369.218        184609.000
        75   12 Jun 2027 07:19:09.054   12 Jun 2027 07:22:44.876           215.822        107911.000
        76   12 Jun 2027 08:52:18.048   12 Jun 2027 08:59:30.864           432.816        216408.000
        77   13 Jun 2027 04:15:55.627   13 Jun 2027 04:23:21.028           445.401        222700.500
        78   13 Jun 2027 05:52:43.166   13 Jun 2027 05:58:36.303           353.137        176568.500
        79   13 Jun 2027 05:59:00.540   13 Jun 2027 05:59:25.669            25.129         12564.500
        80   13 Jun 2027 07:30:46.938   13 Jun 2027 07:34:54.622           247.684        123842.000
        81   13 Jun 2027 09:04:48.389   13 Jun 2027 09:11:17.752           389.363        194681.500
