uniorb/output/strategy_4/Camera/Camera_KinoSat_110909.txt

KinoSat_110909
-------------------------
    Access    *     Start Time (UTCG)     *     Stop Time (UTCG)  *   Duration (s) *   Data (Mbytes)
         1   01 Jun 2027 03:05:00.805   01 Jun 2027 03:05:54.974            54.169         27084.500
         2   01 Jun 2027 04:27:02.898   01 Jun 2027 04:28:07.825            64.927         32463.500
         3   01 Jun 2027 04:29:06.108   01 Jun 2027 04:29:16.393            10.285          5142.500
         4   01 Jun 2027 04:29:53.992   01 Jun 2027 04:30:02.398             8.406          4203.000
         5   01 Jun 2027 04:32:22.876   01 Jun 2027 04:32:38.210            15.334          7667.000
         6   01 Jun 2027 06:01:56.100   01 Jun 2027 06:04:01.692           125.592         62796.000
         7   01 Jun 2027 06:08:31.229   01 Jun 2027 06:08:31.229             0.000             0.000
         8   01 Jun 2027 06:08:50.458   01 Jun 2027 06:08:51.840             1.382           691.000
         9   01 Jun 2027 06:10:09.916   01 Jun 2027 06:10:19.687             9.771          4885.500
        10   01 Jun 2027 07:39:37.971   01 Jun 2027 07:41:59.187           141.216         70608.000
        11   01 Jun 2027 07:42:21.908   01 Jun 2027 07:42:33.051            11.143          5571.500
        12   01 Jun 2027 07:45:06.277   01 Jun 2027 07:45:16.773            10.496          5248.000
        13   01 Jun 2027 09:16:25.889   01 Jun 2027 09:16:47.069            21.180         10590.000
        14   01 Jun 2027 09:16:47.378   01 Jun 2027 09:19:49.452           182.074         91037.000
        15   01 Jun 2027 09:20:24.799   01 Jun 2027 09:20:39.329            14.530          7265.000
        16   01 Jun 2027 10:54:27.492   01 Jun 2027 10:56:31.141           123.649         61824.500
        17   01 Jun 2027 10:57:41.578   01 Jun 2027 10:58:19.457            37.879         18939.500
        18   02 Jun 2027 03:04:51.997   02 Jun 2027 03:05:00.578             8.581          4290.500
        19   02 Jun 2027 03:06:38.322   02 Jun 2027 03:06:48.507            10.185          5092.500
        20   02 Jun 2027 04:38:38.963   02 Jun 2027 04:41:07.965           149.002         74501.000
        21   02 Jun 2027 04:43:27.490   02 Jun 2027 04:43:33.416             5.926          2963.000
        22   02 Jun 2027 04:43:53.297   02 Jun 2027 04:44:13.119            19.822          9911.000
        23   02 Jun 2027 06:13:31.316   02 Jun 2027 06:17:14.245           222.929        111464.500
        24   02 Jun 2027 06:19:07.565   02 Jun 2027 06:19:15.982             8.417          4208.500
        25   02 Jun 2027 06:22:29.377   02 Jun 2027 06:22:57.295            27.918         13959.000
        26   02 Jun 2027 07:51:41.073   02 Jun 2027 07:54:17.391           156.318         78159.000
        27   02 Jun 2027 07:57:09.208   02 Jun 2027 07:58:25.181            75.973         37986.500
        28   02 Jun 2027 09:28:35.901   02 Jun 2027 09:29:13.186            37.285         18315.656
        29   02 Jun 2027 09:29:27.112   02 Jun 2027 09:29:31.752             4.640           112.406
        30   02 Jun 2027 09:30:19.774   02 Jun 2027 09:30:22.895             3.121          1426.156
        31   02 Jun 2027 09:32:07.418   02 Jun 2027 09:32:10.051             2.633           792.188
        32   02 Jun 2027 09:32:41.400   02 Jun 2027 09:32:45.460             4.060           158.781
        33   02 Jun 2027 09:33:26.984   02 Jun 2027 09:33:31.453             4.469          1008.688
        34   02 Jun 2027 09:34:38.116   02 Jun 2027 09:34:45.241             7.125          1932.875
        35   02 Jun 2027 11:05:42.448   02 Jun 2027 11:05:54.537            12.089          5498.937
        36   02 Jun 2027 11:08:21.341   02 Jun 2027 11:08:30.672             9.331          1607.219
        37   02 Jun 2027 11:09:18.007   02 Jun 2027 11:09:18.087             0.080            16.312
        38   02 Jun 2027 11:10:26.173   02 Jun 2027 11:10:26.434             0.261            81.375
        39   03 Jun 2027 03:17:04.317   03 Jun 2027 03:17:17.435            13.118          6559.000
        40   03 Jun 2027 04:53:05.688   03 Jun 2027 04:56:34.423           208.735        104367.500
        41   03 Jun 2027 06:26:35.030   03 Jun 2027 06:27:49.116            74.086         36468.625
        42   03 Jun 2027 06:28:43.949   03 Jun 2027 06:28:45.923             1.974            34.844
        43   03 Jun 2027 06:29:01.997   03 Jun 2027 06:29:05.248             3.251           185.313
        44   03 Jun 2027 06:29:26.891   03 Jun 2027 06:29:28.457             1.566           177.313
        45   03 Jun 2027 06:29:39.835   03 Jun 2027 06:29:40.503             0.668           167.906
        46   03 Jun 2027 06:30:34.525   03 Jun 2027 06:30:36.210             1.685           842.500
        47   03 Jun 2027 06:30:58.451   03 Jun 2027 06:31:03.066             4.615          1057.907
        48   03 Jun 2027 06:31:29.164   03 Jun 2027 06:31:29.164             0.000             0.000
        49   03 Jun 2027 06:32:06.887   03 Jun 2027 06:32:10.666             3.779          1544.625
        50   03 Jun 2027 06:33:20.011   03 Jun 2027 06:33:23.238             3.227          1474.844
        51   03 Jun 2027 06:33:34.507   03 Jun 2027 06:33:34.507             0.000             0.000
        52   03 Jun 2027 06:34:02.255   03 Jun 2027 06:34:06.576             4.321          1057.781
        53   03 Jun 2027 06:35:06.031   03 Jun 2027 06:35:07.726             1.695           327.531
        54   03 Jun 2027 08:04:07.448   03 Jun 2027 08:04:10.646             3.198           796.875
        55   03 Jun 2027 08:07:06.497   03 Jun 2027 08:07:10.532             4.035          1926.406
        56   03 Jun 2027 08:07:51.653   03 Jun 2027 08:07:52.997             1.344           472.219
        57   03 Jun 2027 08:09:38.086   03 Jun 2027 08:09:43.070             4.984          1329.687
        58   03 Jun 2027 08:10:11.090   03 Jun 2027 08:10:13.711             2.621            94.375
        59   03 Jun 2027 09:41:02.686   03 Jun 2027 09:41:15.803            13.117          6487.531
        60   03 Jun 2027 09:42:25.739   03 Jun 2027 09:42:28.194             2.455             2.125
        61   03 Jun 2027 09:44:44.095   03 Jun 2027 09:44:46.287             2.192           732.156
        62   03 Jun 2027 09:45:01.862   03 Jun 2027 09:45:05.939             4.077           165.094
        63   03 Jun 2027 09:45:35.303   03 Jun 2027 09:45:37.284             1.981           322.156
        64   03 Jun 2027 09:45:47.084   03 Jun 2027 09:45:47.432             0.348           106.500
        65   03 Jun 2027 11:17:54.212   03 Jun 2027 11:18:15.167            20.955          8241.312
        66   03 Jun 2027 11:19:40.048   03 Jun 2027 11:19:43.312             3.264           798.500
        67   03 Jun 2027 11:20:17.118   03 Jun 2027 11:20:20.126             3.008           987.906
        68   03 Jun 2027 11:20:47.087   03 Jun 2027 11:20:50.414             3.327           746.500
        69   03 Jun 2027 11:21:13.381   03 Jun 2027 11:21:15.329             1.948           539.063
        70   04 Jun 2027 03:28:38.421   04 Jun 2027 03:28:55.274            16.853          8426.500
        71   04 Jun 2027 05:05:06.833   04 Jun 2027 05:05:56.967            50.134         25067.000
        72   04 Jun 2027 05:07:40.815   04 Jun 2027 05:08:39.581            58.766         29383.000
        73   04 Jun 2027 06:39:14.529   04 Jun 2027 06:42:09.129           174.600         87200.000
        74   04 Jun 2027 06:43:05.394   04 Jun 2027 06:43:08.065             2.671          1073.812
        75   04 Jun 2027 06:43:51.346   04 Jun 2027 06:43:53.946             2.600          1114.250
        76   04 Jun 2027 06:44:37.306   04 Jun 2027 06:44:40.870             3.564          1230.094
        77   04 Jun 2027 06:45:31.614   04 Jun 2027 06:45:33.697             2.083           512.781
        78   04 Jun 2027 06:46:14.727   04 Jun 2027 06:46:17.731             3.004           387.375
        79   04 Jun 2027 06:46:59.106   04 Jun 2027 06:47:01.294             2.188           500.469
        80   04 Jun 2027 08:16:13.119   04 Jun 2027 08:16:15.395             2.276          1113.125
        81   04 Jun 2027 08:18:09.549   04 Jun 2027 08:18:13.224             3.675          1036.313
        82   04 Jun 2027 08:19:09.909   04 Jun 2027 08:19:10.694             0.785           233.187
        83   04 Jun 2027 08:19:31.129   04 Jun 2027 08:19:35.847             4.718           638.594
        84   04 Jun 2027 08:20:11.325   04 Jun 2027 08:20:13.291             1.966           546.906
        85   04 Jun 2027 08:20:33.936   04 Jun 2027 08:20:38.344             4.408           624.031
        86   04 Jun 2027 08:21:53.026   04 Jun 2027 08:21:57.497             4.471          1854.156
        87   04 Jun 2027 08:22:21.622   04 Jun 2027 08:22:23.147             1.525           356.562
        88   04 Jun 2027 08:22:28.542   04 Jun 2027 08:22:29.004             0.462           163.812
        89   04 Jun 2027 09:53:49.359   04 Jun 2027 09:54:09.127            19.768          6014.188
        90   04 Jun 2027 09:57:26.565   04 Jun 2027 09:57:30.313             3.748          1439.625
        91   04 Jun 2027 11:29:58.063   04 Jun 2027 11:30:13.240            15.177          7489.625
        92   04 Jun 2027 11:30:50.898   04 Jun 2027 11:30:58.091             7.193           359.438
        93   04 Jun 2027 11:32:37.484   04 Jun 2027 11:32:39.368             1.884           817.563
        94   04 Jun 2027 11:34:23.151   04 Jun 2027 11:34:27.705             4.554          2237.469
        95   05 Jun 2027 03:40:46.999   05 Jun 2027 03:40:56.190             9.191          4595.500
        96   05 Jun 2027 03:43:25.849   05 Jun 2027 03:43:52.214            26.365         13182.500
        97   05 Jun 2027 05:17:35.450   05 Jun 2027 05:20:52.838           197.388         98694.000
        98   05 Jun 2027 06:52:27.439   05 Jun 2027 06:53:44.628            77.189         38594.500
        99   05 Jun 2027 06:54:34.857   05 Jun 2027 06:54:41.193             6.336          1708.500
       100   05 Jun 2027 06:55:18.013   05 Jun 2027 06:55:23.816             5.803           864.906
       101   05 Jun 2027 06:55:47.709   05 Jun 2027 06:55:51.909             4.200           720.125
       102   05 Jun 2027 06:57:15.602   05 Jun 2027 06:57:26.347            10.745          2458.031
       103   05 Jun 2027 06:58:30.222   05 Jun 2027 06:58:34.670             4.448          1733.063
       104   05 Jun 2027 06:58:36.047   05 Jun 2027 06:58:36.567             0.520            43.031
       105   05 Jun 2027 08:28:48.996   05 Jun 2027 08:28:53.897             4.901          1829.531
       106   05 Jun 2027 08:30:33.903   05 Jun 2027 08:30:41.662             7.759           900.188
       107   05 Jun 2027 08:32:00.807   05 Jun 2027 08:32:03.920             3.113          1499.094
       108   05 Jun 2027 08:32:51.867   05 Jun 2027 08:32:54.158             2.291           704.094
       109   05 Jun 2027 08:33:26.463   05 Jun 2027 08:33:35.156             8.693          1009.531
       110   05 Jun 2027 08:33:59.268   05 Jun 2027 08:34:00.568             1.300           357.906
       111   05 Jun 2027 10:06:07.645   05 Jun 2027 10:06:23.025            15.380          6124.781
       112   05 Jun 2027 10:07:32.725   05 Jun 2027 10:07:35.797             3.072          1044.938
       113   05 Jun 2027 10:08:25.163   05 Jun 2027 10:08:27.723             2.560          1150.562
       114   05 Jun 2027 10:08:54.790   05 Jun 2027 10:08:55.993             1.203           408.094
       115   05 Jun 2027 10:09:32.504   05 Jun 2027 10:09:34.908             2.404           954.563
       116   05 Jun 2027 10:10:09.376   05 Jun 2027 10:10:17.063             7.687          1054.875
       117   05 Jun 2027 10:10:29.229   05 Jun 2027 10:10:30.884             1.655           244.656
       118   05 Jun 2027 11:42:19.402   05 Jun 2027 11:42:33.120            13.718          5542.500
       119   05 Jun 2027 11:44:23.480   05 Jun 2027 11:44:26.671             3.191           284.688
       120   05 Jun 2027 11:44:56.454   05 Jun 2027 11:45:02.619             6.165           930.719
       121   05 Jun 2027 11:46:54.955   05 Jun 2027 11:46:57.687             2.732           824.469
       122   06 Jun 2027 03:53:26.944   06 Jun 2027 03:53:33.422             6.478          3239.000
       123   06 Jun 2027 03:54:46.251   06 Jun 2027 03:54:56.067             9.816          4908.000
       124   06 Jun 2027 03:55:26.809   06 Jun 2027 03:55:30.287             3.478          1739.000
       125   06 Jun 2027 03:55:39.078   06 Jun 2027 03:55:54.614            15.536          7768.000
       126   06 Jun 2027 05:29:12.668   06 Jun 2027 05:32:23.117           190.449         95224.500
       127   06 Jun 2027 07:04:10.440   06 Jun 2027 07:05:31.093            80.653         39888.657
       128   06 Jun 2027 07:05:46.135   06 Jun 2027 07:05:47.181             1.046           470.062
       129   06 Jun 2027 07:06:21.560   06 Jun 2027 07:06:24.595             3.035          1074.344
       130   06 Jun 2027 07:07:05.208   06 Jun 2027 07:07:07.634             2.426           970.781
       131   06 Jun 2027 07:07:16.817   06 Jun 2027 07:07:20.565             3.748           236.625
       132   06 Jun 2027 07:07:27.933   06 Jun 2027 07:07:27.933             0.000             0.000
       133   06 Jun 2027 07:07:36.701   06 Jun 2027 07:07:39.425             2.724           459.594
       134   06 Jun 2027 07:09:15.478   06 Jun 2027 07:09:27.937            12.459          2294.281
       135   06 Jun 2027 07:10:14.805   06 Jun 2027 07:10:17.135             2.330          1155.906
       136   06 Jun 2027 07:10:46.475   06 Jun 2027 07:10:48.901             2.426           682.219
       137   06 Jun 2027 08:40:22.464   06 Jun 2027 08:40:29.811             7.347          3344.125
       138   06 Jun 2027 08:40:47.455   06 Jun 2027 08:40:47.800             0.345            59.406
       139   06 Jun 2027 08:41:30.876   06 Jun 2027 08:41:32.973             2.097           908.437
       140   06 Jun 2027 08:42:38.448   06 Jun 2027 08:42:40.463             2.015           741.781
       141   06 Jun 2027 08:43:14.664   06 Jun 2027 08:43:21.002             6.338           519.219
       142   06 Jun 2027 08:44:08.208   06 Jun 2027 08:44:10.300             2.092          1039.219
       143   06 Jun 2027 08:44:59.147   06 Jun 2027 08:45:03.280             4.133           998.812
       144   06 Jun 2027 08:45:33.530   06 Jun 2027 08:45:36.995             3.465           502.469
       145   06 Jun 2027 08:46:42.634   06 Jun 2027 08:46:48.071             5.437          1885.750
       146   06 Jun 2027 10:18:22.722   06 Jun 2027 10:18:35.002            12.280          6036.937
       147   06 Jun 2027 10:19:02.041   06 Jun 2027 10:19:02.459             0.418           208.563
       148   06 Jun 2027 10:20:13.433   06 Jun 2027 10:20:20.314             6.881          2217.938
       149   06 Jun 2027 10:20:42.320   06 Jun 2027 10:20:43.922             1.602           329.875
       150   06 Jun 2027 10:22:12.155   06 Jun 2027 10:22:18.310             6.155           650.313
       151   06 Jun 2027 10:22:31.167   06 Jun 2027 10:22:32.321             1.154           378.875
       152   06 Jun 2027 11:54:03.897   06 Jun 2027 11:54:18.883            14.986          6366.313
       153   06 Jun 2027 11:57:23.713   06 Jun 2027 11:57:25.453             1.740           565.406
       154   07 Jun 2027 04:04:23.303   07 Jun 2027 04:04:41.102            17.799          8899.500
       155   07 Jun 2027 04:06:58.972   07 Jun 2027 04:07:28.430            29.458         14729.000
       156   07 Jun 2027 05:39:48.734   07 Jun 2027 05:39:54.606             5.872          2936.000
       157   07 Jun 2027 05:40:58.244   07 Jun 2027 05:43:26.256           148.012         74006.000
       158   07 Jun 2027 05:44:50.903   07 Jun 2027 05:45:00.653             9.750          4875.000
       159   07 Jun 2027 05:45:23.446   07 Jun 2027 05:45:24.766             1.320           660.000
       160   07 Jun 2027 07:15:44.210   07 Jun 2027 07:17:31.730           107.520         53725.343
       161   07 Jun 2027 07:17:49.367   07 Jun 2027 07:17:52.624             3.257           551.156
       162   07 Jun 2027 07:18:35.642   07 Jun 2027 07:18:38.262             2.620           601.750
       163   07 Jun 2027 07:18:57.946   07 Jun 2027 07:18:57.946             0.000             0.000
       164   07 Jun 2027 07:19:04.084   07 Jun 2027 07:19:07.472             3.388           310.125
       165   07 Jun 2027 07:19:38.781   07 Jun 2027 07:19:41.932             3.151           234.000
       166   07 Jun 2027 07:21:14.735   07 Jun 2027 07:21:21.115             6.380          2168.437
       167   07 Jun 2027 07:21:55.452   07 Jun 2027 07:21:58.156             2.704           459.375
       168   07 Jun 2027 07:22:39.050   07 Jun 2027 07:22:42.714             3.664          1277.937
       169   07 Jun 2027 07:23:10.422   07 Jun 2027 07:23:12.265             1.843           412.687
       170   07 Jun 2027 08:52:43.524   07 Jun 2027 08:52:52.782             9.258          4195.063
       171   07 Jun 2027 08:53:47.581   07 Jun 2027 08:53:50.566             2.985           676.250
       172   07 Jun 2027 08:54:50.841   07 Jun 2027 08:54:57.831             6.990          1143.500
       173   07 Jun 2027 08:56:02.563   07 Jun 2027 08:56:05.994             3.431          1474.094
       174   07 Jun 2027 08:57:03.351   07 Jun 2027 08:57:08.715             5.364          1330.531
       175   07 Jun 2027 08:57:39.865   07 Jun 2027 08:57:45.122             5.257           897.500
       176   07 Jun 2027 10:30:44.520   07 Jun 2027 10:30:57.356            12.836          5977.469
       177   07 Jun 2027 10:31:20.634   07 Jun 2027 10:31:26.768             6.134           563.281
       178   07 Jun 2027 10:32:42.195   07 Jun 2027 10:32:44.026             1.831           139.500
       179   07 Jun 2027 10:34:08.048   07 Jun 2027 10:34:08.830             0.782           134.344
       180   07 Jun 2027 10:34:27.775   07 Jun 2027 10:34:28.279             0.504           195.406
       181   08 Jun 2027 04:15:32.903   08 Jun 2027 04:16:23.900            50.997         25498.500
       182   08 Jun 2027 04:20:20.809   08 Jun 2027 04:20:20.809             0.000             0.000
       183   08 Jun 2027 05:50:41.580   08 Jun 2027 05:52:08.655            87.075         43537.500
       184   08 Jun 2027 05:52:41.779   08 Jun 2027 05:52:41.893             0.114            57.000
       185   08 Jun 2027 05:53:21.702   08 Jun 2027 05:53:54.141            32.439         16219.500
       186   08 Jun 2027 05:54:08.179   08 Jun 2027 05:54:23.338            15.159          7579.500
       187   08 Jun 2027 05:56:35.542   08 Jun 2027 05:57:20.200            44.658         22329.000
       188   08 Jun 2027 05:58:36.685   08 Jun 2027 05:58:41.147             4.462          2231.000
       189   08 Jun 2027 07:27:51.704   08 Jun 2027 07:29:20.850            89.146         40835.031
       190   08 Jun 2027 07:29:52.513   08 Jun 2027 07:29:57.516             5.003           644.969
       191   08 Jun 2027 07:30:45.291   08 Jun 2027 07:30:46.280             0.989           300.563
       192   08 Jun 2027 07:31:08.842   08 Jun 2027 07:31:10.371             1.529           660.250
       193   08 Jun 2027 07:31:40.593   08 Jun 2027 07:31:41.872             1.279           184.313
       194   08 Jun 2027 07:33:13.272   08 Jun 2027 07:33:19.714             6.442          1939.531
       195   08 Jun 2027 07:33:43.545   08 Jun 2027 07:33:48.211             4.666           171.437
       196   08 Jun 2027 07:34:15.196   08 Jun 2027 07:34:17.362             2.166           287.875
       197   08 Jun 2027 09:04:49.110   08 Jun 2027 09:05:07.323            18.213          7060.781
       198   08 Jun 2027 09:06:00.709   08 Jun 2027 09:06:01.783             1.074            93.219
       199   08 Jun 2027 09:06:22.347   08 Jun 2027 09:06:25.701             3.354            21.625
       200   08 Jun 2027 09:07:17.199   08 Jun 2027 09:07:18.484             1.285            62.875
       201   08 Jun 2027 09:08:31.112   08 Jun 2027 09:08:31.972             0.860           269.969
       202   08 Jun 2027 09:08:49.535   08 Jun 2027 09:08:50.785             1.250           384.406
       203   08 Jun 2027 09:09:06.797   08 Jun 2027 09:09:17.230            10.433           462.719
       204   08 Jun 2027 09:09:49.773   08 Jun 2027 09:09:52.250             2.477           286.531
       205   08 Jun 2027 09:10:57.208   08 Jun 2027 09:10:57.800             0.592           296.000
       206   08 Jun 2027 10:42:42.161   08 Jun 2027 10:42:53.277            11.116          5075.281
       207   08 Jun 2027 10:43:55.379   08 Jun 2027 10:43:58.377             2.998          1145.156
       208   08 Jun 2027 10:46:10.681   08 Jun 2027 10:46:18.870             8.189          2735.812
       209   08 Jun 2027 10:46:28.621   08 Jun 2027 10:46:29.788             1.167           117.344
       210   08 Jun 2027 10:46:36.959   08 Jun 2027 10:46:38.677             1.718           224.094
       211   08 Jun 2027 10:46:43.561   08 Jun 2027 10:46:44.027             0.466             6.500
       212   09 Jun 2027 03:05:15.841   09 Jun 2027 03:06:09.238            53.397         26698.500
       213   09 Jun 2027 04:27:17.916   09 Jun 2027 04:28:17.933            60.017         30008.500
       214   09 Jun 2027 04:30:57.385   09 Jun 2027 04:30:59.010             1.625           812.500
       215   09 Jun 2027 04:31:35.345   09 Jun 2027 04:31:48.777            13.432          6716.000
       216   09 Jun 2027 06:02:10.409   09 Jun 2027 06:04:45.670           155.261         77630.500
       217   09 Jun 2027 06:05:30.306   09 Jun 2027 06:05:38.762             8.456          4228.000
       218   09 Jun 2027 06:07:31.915   09 Jun 2027 06:07:34.016             2.101          1050.500
       219   09 Jun 2027 06:08:37.416   09 Jun 2027 06:08:39.316             1.900           950.000
       220   09 Jun 2027 06:09:02.353   09 Jun 2027 06:09:12.927            10.574          5287.000
       221   09 Jun 2027 06:09:56.707   09 Jun 2027 06:09:59.616             2.909          1454.500
       222   09 Jun 2027 06:11:00.128   09 Jun 2027 06:11:11.132            11.004          5469.188
       223   09 Jun 2027 07:39:53.045   09 Jun 2027 07:39:57.322             4.277            79.437
       224   09 Jun 2027 07:42:15.256   09 Jun 2027 07:42:16.696             1.440           615.562
       225   09 Jun 2027 07:43:42.082   09 Jun 2027 07:43:45.722             3.640           123.969
       226   09 Jun 2027 07:45:10.937   09 Jun 2027 07:45:21.073            10.136          1599.406
       227   09 Jun 2027 07:45:46.154   09 Jun 2027 07:45:54.279             8.125           733.375
       228   09 Jun 2027 07:46:55.433   09 Jun 2027 07:47:00.082             4.649          1787.250
       229   09 Jun 2027 09:16:41.231   09 Jun 2027 09:16:58.226            16.995          6841.844
       230   09 Jun 2027 09:17:37.264   09 Jun 2027 09:17:45.319             8.055           603.313
       231   09 Jun 2027 09:19:07.142   09 Jun 2027 09:19:12.038             4.896          2290.187
       232   09 Jun 2027 09:19:36.799   09 Jun 2027 09:19:39.558             2.759           713.906
       233   09 Jun 2027 09:20:38.162   09 Jun 2027 09:20:39.364             1.202            67.969
       234   09 Jun 2027 09:20:57.953   09 Jun 2027 09:21:04.011             6.058           546.906
       235   09 Jun 2027 09:21:39.654   09 Jun 2027 09:21:41.923             2.269           943.250
       236   09 Jun 2027 09:21:50.985   09 Jun 2027 09:21:55.627             4.642           283.188
       237   09 Jun 2027 09:22:27.905   09 Jun 2027 09:22:29.945             2.040           611.469
       238   09 Jun 2027 09:22:59.647   09 Jun 2027 09:23:03.103             3.456           402.906
       239   09 Jun 2027 10:54:42.910   09 Jun 2027 10:54:57.449            14.539          6879.000
       240   09 Jun 2027 10:57:00.213   09 Jun 2027 10:57:02.033             1.820           711.125
       241   09 Jun 2027 10:58:04.241   09 Jun 2027 10:58:06.957             2.716          1250.250
       242   09 Jun 2027 10:58:16.390   09 Jun 2027 10:58:17.108             0.718           139.844
       243   09 Jun 2027 10:58:38.438   09 Jun 2027 10:58:40.281             1.843            39.219
       244   09 Jun 2027 10:58:44.197   09 Jun 2027 10:58:44.650             0.453            24.750
       245   10 Jun 2027 03:05:06.918   10 Jun 2027 03:05:15.516             8.598          4299.000
       246   10 Jun 2027 03:06:52.907   10 Jun 2027 03:07:03.874            10.967          5483.500
       247   10 Jun 2027 04:38:53.360   10 Jun 2027 04:41:32.416           159.056         79528.000
       248   10 Jun 2027 04:43:19.071   10 Jun 2027 04:43:43.679            24.608         12304.000
       249   10 Jun 2027 04:44:36.429   10 Jun 2027 04:44:57.585            21.156         10578.000
       250   10 Jun 2027 06:14:53.843   10 Jun 2027 06:16:21.018            87.175         42844.344
       251   10 Jun 2027 06:16:44.954   10 Jun 2027 06:16:45.792             0.838            41.375
       252   10 Jun 2027 06:17:31.242   10 Jun 2027 06:17:33.644             2.402           944.156
       253   10 Jun 2027 06:17:40.978   10 Jun 2027 06:17:40.978             0.000             0.000
       254   10 Jun 2027 06:18:09.103   10 Jun 2027 06:18:14.007             4.904          1062.250
       255   10 Jun 2027 06:18:39.907   10 Jun 2027 06:18:43.335             3.428           596.281
       256   10 Jun 2027 06:19:22.527   10 Jun 2027 06:19:22.527             0.000             0.000
       257   10 Jun 2027 06:20:12.894   10 Jun 2027 06:20:20.394             7.500          2561.781
       258   10 Jun 2027 06:21:10.489   10 Jun 2027 06:21:14.273             3.784          1516.719
       259   10 Jun 2027 06:21:28.694   10 Jun 2027 06:21:28.694             0.000             0.000
       260   10 Jun 2027 06:21:28.895   10 Jun 2027 06:21:29.305             0.410           177.719
       261   10 Jun 2027 06:22:11.785   10 Jun 2027 06:22:11.785             0.000             0.000
       262   10 Jun 2027 06:22:42.286   10 Jun 2027 06:22:49.087             6.801          2019.188
       263   10 Jun 2027 07:51:56.373   10 Jun 2027 07:51:59.281             2.908           637.250
       264   10 Jun 2027 07:52:42.504   10 Jun 2027 07:52:48.998             6.494           388.813
       265   10 Jun 2027 07:54:18.392   10 Jun 2027 07:54:24.001             5.609          1442.031
       266   10 Jun 2027 07:55:37.612   10 Jun 2027 07:55:41.509             3.897          1939.844
       267   10 Jun 2027 07:56:10.147   10 Jun 2027 07:56:14.306             4.159            78.719
       268   10 Jun 2027 07:57:56.137   10 Jun 2027 07:58:00.660             4.523          2066.469
       269   10 Jun 2027 07:58:37.705   10 Jun 2027 07:58:39.788             2.083           754.406
       270   10 Jun 2027 09:28:51.138   10 Jun 2027 09:29:06.508            15.370          6326.063
       271   10 Jun 2027 09:31:19.199   10 Jun 2027 09:31:22.196             2.997          1347.969
       272   10 Jun 2027 09:32:51.094   10 Jun 2027 09:32:54.051             2.957           875.188
       273   10 Jun 2027 09:33:11.221   10 Jun 2027 09:33:15.206             3.985           325.250
       274   10 Jun 2027 09:33:34.724   10 Jun 2027 09:33:35.943             1.219           353.344
       275   10 Jun 2027 09:34:32.937   10 Jun 2027 09:34:43.680            10.743          1781.062
       276   10 Jun 2027 11:05:57.411   10 Jun 2027 11:06:09.174            11.763          5010.844
       277   10 Jun 2027 11:07:23.582   10 Jun 2027 11:07:25.062             1.480           495.000
       278   10 Jun 2027 11:08:36.437   10 Jun 2027 11:08:45.487             9.050          1465.844
       279   10 Jun 2027 11:09:32.948   10 Jun 2027 11:09:34.572             1.624           713.719
       280   10 Jun 2027 11:10:18.420   10 Jun 2027 11:10:20.889             2.469           195.688
       281   10 Jun 2027 11:10:40.831   10 Jun 2027 11:10:43.612             2.781           562.375
       282   11 Jun 2027 03:17:01.651   11 Jun 2027 03:17:08.668             7.017          3508.500
       283   11 Jun 2027 03:17:33.549   11 Jun 2027 03:17:57.400            23.851         11925.500
       284   11 Jun 2027 04:53:21.002   11 Jun 2027 04:56:49.562           208.560        104280.000
       285   11 Jun 2027 06:26:50.310   11 Jun 2027 06:27:56.363            66.053         32134.781
       286   11 Jun 2027 06:28:59.905   11 Jun 2027 06:29:00.671             0.766            44.750
       287   11 Jun 2027 06:29:17.456   11 Jun 2027 06:29:21.950             4.494           181.937
       288   11 Jun 2027 06:29:42.958   11 Jun 2027 06:29:44.051             1.093           220.344
       289   11 Jun 2027 06:30:53.651   11 Jun 2027 06:30:57.917             4.266          1953.063
       290   11 Jun 2027 06:32:07.094   11 Jun 2027 06:32:11.833             4.739          1680.094
       291   11 Jun 2027 06:32:57.770   11 Jun 2027 06:32:57.770             0.000             0.000
       292   11 Jun 2027 06:33:26.916   11 Jun 2027 06:33:30.103             3.187          1593.500
       293   11 Jun 2027 06:33:50.071   11 Jun 2027 06:33:54.956             4.885          1297.593
       294   11 Jun 2027 06:34:16.283   11 Jun 2027 06:34:18.051             1.768            85.500
       295   11 Jun 2027 06:35:11.508   11 Jun 2027 06:35:15.020             3.512          1670.531
       296   11 Jun 2027 08:04:22.393   11 Jun 2027 08:04:26.777             4.384          1729.094
       297   11 Jun 2027 08:07:21.405   11 Jun 2027 08:07:25.520             4.115          1934.375
       298   11 Jun 2027 08:07:50.883   11 Jun 2027 08:07:53.509             2.626           792.594
       299   11 Jun 2027 08:09:52.737   11 Jun 2027 08:09:59.231             6.494          1359.688
       300   11 Jun 2027 08:10:02.459   11 Jun 2027 08:10:03.740             1.281           100.875
       301   11 Jun 2027 08:10:28.105   11 Jun 2027 08:10:30.755             2.650           157.062
       302   11 Jun 2027 09:41:18.601   11 Jun 2027 09:41:36.504            17.903          6852.625
       303   11 Jun 2027 09:43:18.424   11 Jun 2027 09:43:21.393             2.969          1140.438
       304   11 Jun 2027 09:45:00.273   11 Jun 2027 09:45:02.058             1.785           200.531
       305   11 Jun 2027 09:45:12.387   11 Jun 2027 09:45:16.687             4.300           322.781
       306   11 Jun 2027 09:45:50.741   11 Jun 2027 09:45:51.833             1.092           432.281
       307   11 Jun 2027 09:46:02.933   11 Jun 2027 09:46:03.547             0.614           269.469
       308   11 Jun 2027 09:46:43.927   11 Jun 2027 09:46:46.698             2.771          1261.875
       309   11 Jun 2027 11:18:09.303   11 Jun 2027 11:18:23.118            13.815          5199.188
       310   11 Jun 2027 11:19:59.166   11 Jun 2027 11:20:04.673             5.507           208.469
       311   11 Jun 2027 11:20:32.173   11 Jun 2027 11:20:34.163             1.990           856.719
       312   11 Jun 2027 11:21:11.794   11 Jun 2027 11:21:13.494             1.700           484.375
       313   11 Jun 2027 11:22:20.510   11 Jun 2027 11:22:24.792             4.282           542.063
       314   11 Jun 2027 11:22:39.435   11 Jun 2027 11:22:41.555             2.120            29.531
       315   12 Jun 2027 03:28:52.627   12 Jun 2027 03:29:09.930            17.303          8651.500
       316   12 Jun 2027 05:05:22.515   12 Jun 2027 05:06:09.207            46.692         23346.000
       317   12 Jun 2027 05:07:56.603   12 Jun 2027 05:08:10.774            14.171          7085.500
       318   12 Jun 2027 05:08:54.287   12 Jun 2027 05:08:57.204             2.917          1458.500
       319   12 Jun 2027 06:39:29.925   12 Jun 2027 06:43:17.488           227.563        110690.938
       320   12 Jun 2027 06:43:39.767   12 Jun 2027 06:43:44.334             4.567           279.500
       321   12 Jun 2027 06:43:49.576   12 Jun 2027 06:43:52.095             2.519            30.406
       322   12 Jun 2027 06:44:16.021   12 Jun 2027 06:44:18.901             2.880           252.156
       323   12 Jun 2027 06:44:30.254   12 Jun 2027 06:44:30.254             0.000             0.000
       324   12 Jun 2027 06:44:45.635   12 Jun 2027 06:44:45.635             0.000             0.000
       325   12 Jun 2027 06:45:30.922   12 Jun 2027 06:45:41.618            10.696          2246.438
       326   12 Jun 2027 06:46:19.374   12 Jun 2027 06:46:23.269             3.895           904.531
       327   12 Jun 2027 06:46:59.192   12 Jun 2027 06:47:02.886             3.694           892.906
       328   12 Jun 2027 06:47:16.157   12 Jun 2027 06:47:17.314             1.157            46.375
       329   12 Jun 2027 08:16:28.416   12 Jun 2027 08:16:32.351             3.935          1534.437
       330   12 Jun 2027 08:18:19.971   12 Jun 2027 08:18:27.237             7.266           681.500
       331   12 Jun 2027 08:18:37.898   12 Jun 2027 08:18:46.954             9.056           333.156
       332   12 Jun 2027 08:20:20.774   12 Jun 2027 08:20:25.385             4.611          1990.594
       333   12 Jun 2027 08:21:04.309   12 Jun 2027 08:21:08.139             3.830          1216.375
       334   12 Jun 2027 08:22:09.121   12 Jun 2027 08:22:15.869             6.748          1905.688
       335   12 Jun 2027 08:22:36.202   12 Jun 2027 08:22:37.333             1.131           353.156
       336   12 Jun 2027 08:22:43.159   12 Jun 2027 08:22:43.457             0.298            92.438
       337   12 Jun 2027 09:54:07.427   12 Jun 2027 09:54:23.295            15.868          5090.656
       338   12 Jun 2027 09:55:02.405   12 Jun 2027 09:55:04.504             2.099           632.438
       339   12 Jun 2027 09:56:06.529   12 Jun 2027 09:56:09.286             2.757          1268.500
       340   12 Jun 2027 09:56:52.327   12 Jun 2027 09:56:55.736             3.409            81.813
       341   12 Jun 2027 09:57:41.679   12 Jun 2027 09:57:44.951             3.272          1435.719
       342   12 Jun 2027 11:30:12.429   12 Jun 2027 11:30:28.491            16.062          7393.438
       343   12 Jun 2027 11:31:06.865   12 Jun 2027 11:31:07.681             0.816           299.812
       344   12 Jun 2027 11:34:38.799   12 Jun 2027 11:34:43.860             5.061          2218.437
       345   13 Jun 2027 03:41:01.911   13 Jun 2027 03:41:14.680            12.769          6384.500
       346   13 Jun 2027 05:18:40.713   13 Jun 2027 05:19:55.972            75.259         37629.500
       347   13 Jun 2027 05:20:39.847   13 Jun 2027 05:21:07.575            27.728         13864.000
       348   13 Jun 2027 06:52:42.522   13 Jun 2027 06:55:42.906           180.384         90192.000
       349   13 Jun 2027 06:55:51.105   13 Jun 2027 06:55:53.439             2.334           410.532
       350   13 Jun 2027 06:57:31.296   13 Jun 2027 06:57:38.450             7.154          2755.563
       351   13 Jun 2027 06:58:46.214   13 Jun 2027 06:58:50.079             3.865          1688.656
       352   13 Jun 2027 06:58:52.654   13 Jun 2027 06:58:55.436             2.782            80.469
       353   13 Jun 2027 08:29:04.540   13 Jun 2027 08:29:12.821             8.281          3690.063
       354   13 Jun 2027 08:30:42.934   13 Jun 2027 08:30:45.662             2.728             1.312
       355   13 Jun 2027 08:32:15.029   13 Jun 2027 08:32:18.134             3.105          1478.312
       356   13 Jun 2027 08:32:47.832   13 Jun 2027 08:32:48.008             0.176            80.312
       357   13 Jun 2027 08:34:03.021   13 Jun 2027 08:34:05.359             2.338           686.437
       358   13 Jun 2027 08:34:50.493   13 Jun 2027 08:34:53.604             3.111          1137.906
       359   13 Jun 2027 08:35:16.411   13 Jun 2027 08:35:18.231             1.820           712.719
       360   13 Jun 2027 10:06:22.270   13 Jun 2027 10:06:39.178            16.908          6414.969
       361   13 Jun 2027 10:06:48.120   13 Jun 2027 10:06:52.023             3.903           223.906
       362   13 Jun 2027 10:07:14.056   13 Jun 2027 10:07:18.177             4.121           688.531
       363   13 Jun 2027 10:08:03.363   13 Jun 2027 10:08:07.004             3.641           506.781
       364   13 Jun 2027 10:08:52.078   13 Jun 2027 10:08:54.354             2.276           387.156
       365   13 Jun 2027 10:09:53.460   13 Jun 2027 10:09:57.464             4.004          1765.844
       366   13 Jun 2027 10:10:12.274   13 Jun 2027 10:10:14.048             1.774            31.750
       367   13 Jun 2027 10:10:45.063   13 Jun 2027 10:10:46.803             1.740           801.719
       368   13 Jun 2027 11:42:34.570   13 Jun 2027 11:42:45.477            10.907          5428.312
       369   13 Jun 2027 11:44:43.671   13 Jun 2027 11:44:44.916             1.245           187.250
       370   13 Jun 2027 11:46:43.964   13 Jun 2027 11:46:45.447             1.483           209.313
