uniorb/output/strategy_4/Camera/Camera_KinoSat_111108.txt

KinoSat_111108
-------------------------
    Access    *     Start Time (UTCG)     *     Stop Time (UTCG)  *   Duration (s) *   Data (Mbytes)
         1   01 Jun 2027 03:06:36.658   01 Jun 2027 03:07:51.998            75.340         37670.000
         2   01 Jun 2027 03:07:58.939   01 Jun 2027 03:08:08.183             9.244          4622.000
         3   01 Jun 2027 03:09:45.218   01 Jun 2027 03:10:07.893            22.675         11337.500
         4   01 Jun 2027 04:30:16.339   01 Jun 2027 04:31:16.190            59.851         29925.500
         5   01 Jun 2027 04:31:38.672   01 Jun 2027 04:31:42.230             3.558          1779.000
         6   01 Jun 2027 06:06:41.926   01 Jun 2027 06:08:31.229           109.303         54651.500
         7   01 Jun 2027 06:09:11.582   01 Jun 2027 06:09:20.041             8.459          4229.500
         8   01 Jun 2027 06:09:45.450   01 Jun 2027 06:09:52.683             7.233          3616.500
         9   01 Jun 2027 07:41:50.108   01 Jun 2027 07:43:56.831           126.723         63361.500
        10   01 Jun 2027 07:44:25.118   01 Jun 2027 07:44:51.484            26.366         13183.000
        11   01 Jun 2027 07:47:14.586   01 Jun 2027 07:47:19.574             4.988          2494.000
        12   01 Jun 2027 07:48:16.008   01 Jun 2027 07:48:16.008             0.000             0.000
        13   01 Jun 2027 07:48:31.391   01 Jun 2027 07:48:39.460             8.069          4034.500
        14   01 Jun 2027 09:18:10.866   01 Jun 2027 09:20:53.679           162.813         81406.500
        15   01 Jun 2027 09:24:29.892   01 Jun 2027 09:24:33.291             3.399          1699.500
        16   01 Jun 2027 10:55:44.720   01 Jun 2027 10:57:08.180            83.460         41730.000
        17   01 Jun 2027 10:57:42.434   01 Jun 2027 10:58:57.455            75.021         37510.500
        18   02 Jun 2027 03:18:55.924   02 Jun 2027 03:19:30.667            34.743         17371.500
        19   02 Jun 2027 03:19:44.512   02 Jun 2027 03:21:32.139           107.627         53813.500
        20   02 Jun 2027 03:22:04.544   02 Jun 2027 03:22:16.656            12.112          6056.000
        21   02 Jun 2027 04:42:15.434   02 Jun 2027 04:43:04.181            48.747         24373.500
        22   02 Jun 2027 06:18:52.087   02 Jun 2027 06:20:58.654           126.567         63283.500
        23   02 Jun 2027 06:21:46.724   02 Jun 2027 06:22:19.005            32.281         16140.500
        24   02 Jun 2027 07:54:02.228   02 Jun 2027 07:57:58.181           235.953        117976.500
        25   02 Jun 2027 08:00:15.857   02 Jun 2027 08:00:38.098            22.241         11120.500
        26   02 Jun 2027 09:30:19.468   02 Jun 2027 09:31:15.076            55.608         26883.561
        27   02 Jun 2027 09:32:32.994   02 Jun 2027 09:32:35.547             2.553           799.250
        28   02 Jun 2027 09:33:07.809   02 Jun 2027 09:33:09.566             1.757           381.906
        29   02 Jun 2027 09:33:17.391   02 Jun 2027 09:33:18.039             0.648           244.531
        30   02 Jun 2027 09:33:18.202   02 Jun 2027 09:33:18.548             0.346             5.094
        31   02 Jun 2027 09:34:17.036   02 Jun 2027 09:34:27.218            10.182          1827.750
        32   02 Jun 2027 09:34:51.637   02 Jun 2027 09:34:54.144             2.507           422.531
        33   02 Jun 2027 09:35:24.589   02 Jun 2027 09:35:27.520             2.931           408.125
        34   02 Jun 2027 09:35:30.740   02 Jun 2027 09:35:31.349             0.609           100.625
        35   02 Jun 2027 11:07:49.580   02 Jun 2027 11:07:59.878            10.298          5089.531
        36   02 Jun 2027 11:10:23.569   02 Jun 2027 11:10:29.822             6.253          2048.813
        37   02 Jun 2027 11:10:53.503   02 Jun 2027 11:10:57.381             3.878           207.344
        38   02 Jun 2027 11:11:17.348   02 Jun 2027 11:11:19.027             1.679           311.219
        39   02 Jun 2027 11:12:01.697   02 Jun 2027 11:12:02.684             0.987           193.094
        40   03 Jun 2027 03:20:06.494   03 Jun 2027 03:20:14.065             7.571          3785.500
        41   03 Jun 2027 03:30:52.595   03 Jun 2027 03:31:33.259            40.664         20332.000
        42   03 Jun 2027 03:31:42.926   03 Jun 2027 03:34:27.886           164.960         82480.000
        43   03 Jun 2027 04:54:51.544   03 Jun 2027 04:55:09.600            18.056          9028.000
        44   03 Jun 2027 04:55:22.501   03 Jun 2027 04:55:22.501             0.000             0.000
        45   03 Jun 2027 04:56:11.351   03 Jun 2027 04:56:19.426             8.075          4037.500
        46   03 Jun 2027 06:30:36.270   03 Jun 2027 06:31:50.467            74.197         37098.500
        47   03 Jun 2027 06:32:32.816   03 Jun 2027 06:32:38.797             5.981          1739.625
        48   03 Jun 2027 06:33:56.259   03 Jun 2027 06:34:02.115             5.856          2369.625
        49   03 Jun 2027 06:34:32.368   03 Jun 2027 06:34:32.368             0.000             0.000
        50   03 Jun 2027 08:05:30.921   03 Jun 2027 08:05:37.371             6.450          2832.781
        51   03 Jun 2027 08:06:15.221   03 Jun 2027 08:06:19.893             4.672           356.500
        52   03 Jun 2027 08:07:10.532   03 Jun 2027 08:07:14.392             3.860            93.500
        53   03 Jun 2027 08:07:48.213   03 Jun 2027 08:07:50.253             2.040           653.906
        54   03 Jun 2027 08:08:41.666   03 Jun 2027 08:08:46.183             4.517          1562.906
        55   03 Jun 2027 08:09:33.403   03 Jun 2027 08:09:38.086             4.683          1438.094
        56   03 Jun 2027 08:10:08.070   03 Jun 2027 08:10:11.090             3.020           937.000
        57   03 Jun 2027 08:10:50.742   03 Jun 2027 08:10:55.712             4.970          1239.125
        58   03 Jun 2027 08:11:09.825   03 Jun 2027 08:11:20.602            10.777           256.656
        59   03 Jun 2027 08:12:09.971   03 Jun 2027 08:12:14.420             4.449          1379.813
        60   03 Jun 2027 09:42:02.074   03 Jun 2027 09:42:16.752            14.678          5922.156
        61   03 Jun 2027 09:43:03.613   03 Jun 2027 09:43:06.481             2.868          1183.562
        62   03 Jun 2027 09:44:43.730   03 Jun 2027 09:44:44.095             0.365           151.656
        63   03 Jun 2027 09:44:56.667   03 Jun 2027 09:45:01.862             5.195           392.875
        64   03 Jun 2027 09:45:21.800   03 Jun 2027 09:45:24.719             2.919           623.062
        65   03 Jun 2027 09:46:21.583   03 Jun 2027 09:46:28.815             7.232          1546.062
        66   03 Jun 2027 09:46:55.969   03 Jun 2027 09:46:59.933             3.964           837.562
        67   03 Jun 2027 09:47:15.735   03 Jun 2027 09:47:16.665             0.930           410.937
        68   03 Jun 2027 09:47:40.232   03 Jun 2027 09:47:44.971             4.739           601.188
        69   03 Jun 2027 11:20:20.128   03 Jun 2027 11:20:34.800            14.672          5848.906
        70   03 Jun 2027 11:22:04.441   03 Jun 2027 11:22:09.580             5.139          2104.906
        71   03 Jun 2027 11:22:27.673   03 Jun 2027 11:22:28.280             0.607            31.906
        72   03 Jun 2027 11:23:32.344   03 Jun 2027 11:23:37.595             5.251          1877.719
        73   03 Jun 2027 11:23:52.206   03 Jun 2027 11:23:52.956             0.750           302.781
        74   04 Jun 2027 03:31:24.435   04 Jun 2027 03:31:51.967            27.532         13766.000
        75   04 Jun 2027 03:42:49.255   04 Jun 2027 03:44:29.172            99.917         49958.500
        76   04 Jun 2027 05:05:26.155   04 Jun 2027 05:06:27.712            61.557         30778.500
        77   04 Jun 2027 05:06:41.623   04 Jun 2027 05:07:29.162            47.539         23769.500
        78   04 Jun 2027 05:09:16.092   04 Jun 2027 05:09:33.527            17.435          8717.500
        79   04 Jun 2027 06:40:51.504   04 Jun 2027 06:41:46.317            54.813         27406.500
        80   04 Jun 2027 06:43:15.694   04 Jun 2027 06:43:21.532             5.838          2720.156
        81   04 Jun 2027 06:43:33.636   04 Jun 2027 06:43:37.549             3.913           378.250
        82   04 Jun 2027 06:43:57.943   04 Jun 2027 06:43:59.606             1.663           206.156
        83   04 Jun 2027 06:44:14.987   04 Jun 2027 06:44:14.987             0.000             0.000
        84   04 Jun 2027 06:45:15.205   04 Jun 2027 06:45:24.502             9.297          2259.281
        85   04 Jun 2027 06:45:57.955   04 Jun 2027 06:46:01.561             3.606           917.250
        86   04 Jun 2027 06:46:14.727   04 Jun 2027 06:46:17.731             3.004           387.375
        87   04 Jun 2027 08:17:16.434   04 Jun 2027 08:17:28.279            11.845          2371.406
        88   04 Jun 2027 08:18:15.460   04 Jun 2027 08:18:25.140             9.680           917.375
        89   04 Jun 2027 08:20:06.068   04 Jun 2027 08:20:11.325             5.257          1754.969
        90   04 Jun 2027 08:20:48.353   04 Jun 2027 08:20:53.364             5.011          1157.125
        91   04 Jun 2027 08:21:56.413   04 Jun 2027 08:22:01.189             4.776           725.750
        92   04 Jun 2027 08:23:06.324   04 Jun 2027 08:23:10.466             4.142          1824.500
        93   04 Jun 2027 08:23:28.355   04 Jun 2027 08:23:31.679             3.324           548.781
        94   04 Jun 2027 08:23:52.656   04 Jun 2027 08:23:55.427             2.771           647.344
        95   04 Jun 2027 08:24:48.143   04 Jun 2027 08:24:48.305             0.162            81.000
        96   04 Jun 2027 09:54:22.481   04 Jun 2027 09:54:37.893            15.412          4667.563
        97   04 Jun 2027 09:57:48.370   04 Jun 2027 09:57:49.756             1.386           623.281
        98   04 Jun 2027 09:58:04.766   04 Jun 2027 09:58:08.027             3.261            96.281
        99   04 Jun 2027 09:58:30.835   04 Jun 2027 09:58:32.086             1.251           423.844
       100   04 Jun 2027 09:59:12.065   04 Jun 2027 09:59:16.370             4.305          1197.688
       101   04 Jun 2027 10:00:10.363   04 Jun 2027 10:00:13.349             2.986          1310.156
       102   04 Jun 2027 11:32:17.801   04 Jun 2027 11:32:32.335            14.534          6596.469
       103   04 Jun 2027 11:33:17.716   04 Jun 2027 11:33:24.284             6.568           906.375
       104   04 Jun 2027 11:34:37.771   04 Jun 2027 11:34:39.008             1.237           456.875
       105   04 Jun 2027 11:35:46.264   04 Jun 2027 11:35:49.800             3.536           208.187
       106   04 Jun 2027 11:36:13.855   04 Jun 2027 11:36:15.724             1.869           712.156
       107   05 Jun 2027 03:43:03.985   05 Jun 2027 03:43:25.849            21.864         10932.000
       108   05 Jun 2027 03:54:50.233   05 Jun 2027 03:55:50.771            60.538         30269.000
       109   05 Jun 2027 05:17:06.178   05 Jun 2027 05:18:12.406            66.228         33114.000
       110   05 Jun 2027 05:19:00.146   05 Jun 2027 05:20:09.651            69.505         34752.500
       111   05 Jun 2027 05:21:16.629   05 Jun 2027 05:21:18.699             2.070          1035.000
       112   05 Jun 2027 05:21:32.173   05 Jun 2027 05:21:49.766            17.593          8796.500
       113   05 Jun 2027 06:52:00.914   05 Jun 2027 06:53:19.078            78.164         37671.843
       114   05 Jun 2027 06:53:30.042   05 Jun 2027 06:53:32.285             2.243           247.938
       115   05 Jun 2027 06:54:11.461   05 Jun 2027 06:54:14.252             2.791          1069.344
       116   05 Jun 2027 06:55:13.025   05 Jun 2027 06:55:17.612             4.587          1535.281
       117   05 Jun 2027 06:55:24.665   05 Jun 2027 06:55:26.270             1.605           196.281
       118   05 Jun 2027 06:55:56.945   05 Jun 2027 06:55:59.709             2.764           705.250
       119   05 Jun 2027 06:57:12.670   05 Jun 2027 06:57:15.602             2.932          1466.000
       120   05 Jun 2027 06:57:34.764   05 Jun 2027 06:57:37.834             3.070          1412.844
       121   05 Jun 2027 06:57:50.269   05 Jun 2027 06:57:51.048             0.779           356.125
       122   05 Jun 2027 07:00:02.322   05 Jun 2027 07:00:09.018             6.696          2895.562
       123   05 Jun 2027 08:29:32.390   05 Jun 2027 08:29:36.268             3.878          1825.719
       124   05 Jun 2027 08:30:18.193   05 Jun 2027 08:30:25.421             7.228           929.812
       125   05 Jun 2027 08:30:45.692   05 Jun 2027 08:30:47.551             1.859           558.813
       126   05 Jun 2027 08:31:56.453   05 Jun 2027 08:31:59.290             2.837          1355.469
       127   05 Jun 2027 08:32:32.482   05 Jun 2027 08:32:32.722             0.240            48.469
       128   05 Jun 2027 08:32:59.495   05 Jun 2027 08:33:06.291             6.796           836.656
       129   05 Jun 2027 08:33:47.815   05 Jun 2027 08:33:57.296             9.481           667.250
       130   05 Jun 2027 08:34:33.682   05 Jun 2027 08:34:36.338             2.656          1075.437
       131   05 Jun 2027 08:35:05.522   05 Jun 2027 08:35:06.063             0.541           212.406
       132   05 Jun 2027 08:35:52.454   05 Jun 2027 08:35:55.339             2.885          1300.062
       133   05 Jun 2027 08:36:45.870   05 Jun 2027 08:36:46.745             0.875           341.500
       134   05 Jun 2027 10:06:18.131   05 Jun 2027 10:06:33.090            14.959          4864.531
       135   05 Jun 2027 10:09:01.958   05 Jun 2027 10:09:03.016             1.058           186.406
       136   05 Jun 2027 10:09:30.585   05 Jun 2027 10:09:32.201             1.616           679.813
       137   05 Jun 2027 10:10:01.310   05 Jun 2027 10:10:05.693             4.383           721.781
       138   05 Jun 2027 10:10:30.884   05 Jun 2027 10:10:33.698             2.814           302.562
       139   05 Jun 2027 10:10:50.007   05 Jun 2027 10:10:54.057             4.050           406.313
       140   05 Jun 2027 10:11:02.326   05 Jun 2027 10:11:04.879             2.553            34.250
       141   05 Jun 2027 10:12:01.244   05 Jun 2027 10:12:04.709             3.465          1720.313
       142   05 Jun 2027 10:12:37.126   05 Jun 2027 10:12:42.153             5.027           519.906
       143   05 Jun 2027 11:44:17.468   05 Jun 2027 11:44:28.791            11.323          5425.594
       144   05 Jun 2027 11:46:21.659   05 Jun 2027 11:46:26.594             4.935          2158.469
       145   05 Jun 2027 11:46:42.753   05 Jun 2027 11:46:45.670             2.917           504.969
       146   05 Jun 2027 11:47:36.620   05 Jun 2027 11:47:38.483             1.863           438.625
       147   05 Jun 2027 11:48:06.871   05 Jun 2027 11:48:12.208             5.337           814.344
       148   05 Jun 2027 11:48:21.934   05 Jun 2027 11:48:23.308             1.374           303.937
       149   06 Jun 2027 03:54:41.987   06 Jun 2027 03:54:46.251             4.264          2132.000
       150   06 Jun 2027 03:54:56.067   06 Jun 2027 03:55:26.809            30.742         15371.000
       151   06 Jun 2027 03:56:43.314   06 Jun 2027 03:56:43.314             0.000             0.000
       152   06 Jun 2027 04:06:57.579   06 Jun 2027 04:07:25.187            27.608         13804.000
       153   06 Jun 2027 05:28:37.974   06 Jun 2027 05:29:58.050            80.076         40038.000
       154   06 Jun 2027 05:30:46.294   06 Jun 2027 05:31:59.922            73.628         36814.000
       155   06 Jun 2027 05:32:09.574   06 Jun 2027 05:32:28.536            18.962          9481.000
       156   06 Jun 2027 07:03:31.513   06 Jun 2027 07:04:55.868            84.355         41852.031
       157   06 Jun 2027 07:05:31.093   06 Jun 2027 07:05:32.807             1.714           633.719
       158   06 Jun 2027 07:05:47.181   06 Jun 2027 07:05:50.404             3.223            32.687
       159   06 Jun 2027 07:05:54.815   06 Jun 2027 07:05:56.972             2.157           137.844
       160   06 Jun 2027 07:06:56.361   06 Jun 2027 07:07:00.788             4.427          1347.344
       161   06 Jun 2027 07:07:09.245   06 Jun 2027 07:07:10.828             1.583           126.156
       162   06 Jun 2027 07:07:21.994   06 Jun 2027 07:07:24.738             2.744           161.781
       163   06 Jun 2027 07:07:36.701   06 Jun 2027 07:07:39.425             2.724           274.000
       164   06 Jun 2027 07:08:01.579   06 Jun 2027 07:08:01.579             0.000             0.000
       165   06 Jun 2027 07:08:36.555   06 Jun 2027 07:08:41.154             4.599          1389.656
       166   06 Jun 2027 07:10:00.961   06 Jun 2027 07:10:05.113             4.152          1695.687
       167   06 Jun 2027 07:10:24.644   06 Jun 2027 07:10:26.216             1.572           307.469
       168   06 Jun 2027 07:10:45.940   06 Jun 2027 07:10:46.475             0.535           263.312
       169   06 Jun 2027 07:10:48.945   06 Jun 2027 07:10:48.945             0.000             0.000
       170   06 Jun 2027 07:11:12.273   06 Jun 2027 07:11:20.111             7.838           806.187
       171   06 Jun 2027 07:11:27.616   06 Jun 2027 07:11:27.616             0.000             0.000
       172   06 Jun 2027 07:11:56.920   06 Jun 2027 07:11:57.402             0.482           241.000
       173   06 Jun 2027 07:12:26.060   06 Jun 2027 07:12:33.415             7.355          1709.656
       174   06 Jun 2027 08:41:27.244   06 Jun 2027 08:41:38.358            11.114          4130.812
       175   06 Jun 2027 08:43:26.115   06 Jun 2027 08:43:30.210             4.095          1957.062
       176   06 Jun 2027 08:44:20.712   06 Jun 2027 08:44:23.756             3.044          1393.344
       177   06 Jun 2027 08:45:17.451   06 Jun 2027 08:45:19.301             1.850           572.000
       178   06 Jun 2027 08:45:42.290   06 Jun 2027 08:45:43.677             1.387           273.750
       179   06 Jun 2027 08:46:13.427   06 Jun 2027 08:46:15.219             1.792           128.375
       180   06 Jun 2027 08:47:09.920   06 Jun 2027 08:47:12.576             2.656           852.687
       181   06 Jun 2027 08:47:39.624   06 Jun 2027 08:47:47.329             7.705           418.938
       182   06 Jun 2027 08:48:10.527   06 Jun 2027 08:48:14.079             3.552           573.969
       183   06 Jun 2027 08:48:38.081   06 Jun 2027 08:48:41.405             3.324           321.031
       184   06 Jun 2027 10:18:14.689   06 Jun 2027 10:18:30.355            15.666          5956.688
       185   06 Jun 2027 10:18:47.562   06 Jun 2027 10:18:49.171             1.609           491.063
       186   06 Jun 2027 10:20:31.764   06 Jun 2027 10:20:36.793             5.029          2076.531
       187   06 Jun 2027 10:21:09.208   06 Jun 2027 10:21:10.564             1.356           474.312
       188   06 Jun 2027 10:22:18.310   06 Jun 2027 10:22:23.081             4.771          1208.406
       189   06 Jun 2027 10:23:05.605   06 Jun 2027 10:23:08.930             3.325           786.125
       190   06 Jun 2027 10:23:25.537   06 Jun 2027 10:23:29.498             3.961           518.969
       191   06 Jun 2027 10:24:29.709   06 Jun 2027 10:24:35.534             5.825           983.531
       192   06 Jun 2027 11:56:05.082   06 Jun 2027 11:56:18.022            12.940          5083.031
       193   06 Jun 2027 11:56:48.262   06 Jun 2027 11:56:50.313             2.051           276.375
       194   06 Jun 2027 11:57:05.620   06 Jun 2027 11:57:10.553             4.933            66.750
       195   06 Jun 2027 11:58:10.829   06 Jun 2027 11:58:14.139             3.310          1472.375
       196   06 Jun 2027 11:58:29.919   06 Jun 2027 11:58:31.534             1.615           159.844
       197   06 Jun 2027 11:58:58.725   06 Jun 2027 11:59:04.015             5.290           359.000
       198   06 Jun 2027 11:59:58.930   06 Jun 2027 12:00:00.000             1.070           514.844
       199   07 Jun 2027 04:06:37.700   07 Jun 2027 04:06:58.972            21.272         10636.000
       200   07 Jun 2027 04:07:28.430   07 Jun 2027 04:07:50.493            22.063         11031.500
       201   07 Jun 2027 05:42:37.289   07 Jun 2027 05:45:23.446           166.157         83078.500
       202   07 Jun 2027 05:45:32.981   07 Jun 2027 05:45:39.776             6.795          3397.500
       203   07 Jun 2027 05:46:06.406   07 Jun 2027 05:46:30.219            23.813         11906.500
       204   07 Jun 2027 07:16:24.996   07 Jun 2027 07:17:45.316            80.320         39184.875
       205   07 Jun 2027 07:18:16.386   07 Jun 2027 07:18:19.041             2.655           844.344
       206   07 Jun 2027 07:19:51.775   07 Jun 2027 07:19:55.780             4.005          1943.531
       207   07 Jun 2027 07:20:39.063   07 Jun 2027 07:20:41.766             2.703          1111.250
       208   07 Jun 2027 07:22:02.180   07 Jun 2027 07:22:06.477             4.297          1992.125
       209   07 Jun 2027 07:22:35.146   07 Jun 2027 07:22:37.025             1.879           511.906
       210   07 Jun 2027 07:23:29.044   07 Jun 2027 07:23:33.754             4.710          1447.812
       211   07 Jun 2027 07:24:05.095   07 Jun 2027 07:24:08.332             3.237           273.406
       212   07 Jun 2027 08:53:39.105   07 Jun 2027 08:53:59.255            20.150          7500.062
       213   07 Jun 2027 08:56:05.994   07 Jun 2027 08:56:08.725             2.731           842.875
       214   07 Jun 2027 08:57:38.883   07 Jun 2027 08:57:45.122             6.239          2514.406
       215   07 Jun 2027 08:59:01.608   07 Jun 2027 08:59:06.213             4.605           349.469
       216   07 Jun 2027 09:00:04.911   07 Jun 2027 09:00:09.658             4.747          1782.531
       217   07 Jun 2027 09:00:25.037   07 Jun 2027 09:00:27.734             2.697           380.281
       218   07 Jun 2027 09:00:50.456   07 Jun 2027 09:00:52.154             1.698           131.438
       219   07 Jun 2027 10:30:51.519   07 Jun 2027 10:30:57.669             6.150          3075.000
       220   07 Jun 2027 10:31:05.858   07 Jun 2027 10:31:19.587            13.729          4048.438
       221   07 Jun 2027 10:34:34.905   07 Jun 2027 10:34:37.025             2.120           222.813
       222   07 Jun 2027 10:35:11.790   07 Jun 2027 10:35:13.099             1.309           197.594
       223   07 Jun 2027 10:35:32.738   07 Jun 2027 10:35:36.867             4.129           613.719
       224   07 Jun 2027 10:36:21.961   07 Jun 2027 10:36:25.002             3.041          1004.219
       225   07 Jun 2027 10:36:32.902   07 Jun 2027 10:36:41.139             8.237            81.219
       226   08 Jun 2027 04:18:29.540   08 Jun 2027 04:19:27.455            57.915         28957.500
       227   08 Jun 2027 05:54:51.191   08 Jun 2027 05:57:23.204           152.013         76006.500
       228   08 Jun 2027 05:57:25.525   08 Jun 2027 05:57:36.135            10.610          5305.000
       229   08 Jun 2027 07:27:10.979   08 Jun 2027 07:27:44.221            33.242         16621.000
       230   08 Jun 2027 07:28:56.350   08 Jun 2027 07:29:49.349            52.999         24897.875
       231   08 Jun 2027 07:30:35.673   08 Jun 2027 07:30:42.442             6.769          1348.750
       232   08 Jun 2027 07:30:52.846   08 Jun 2027 07:30:57.168             4.322           236.094
       233   08 Jun 2027 07:31:34.695   08 Jun 2027 07:31:37.139             2.444          1172.719
       234   08 Jun 2027 07:32:11.207   08 Jun 2027 07:32:13.814             2.607           956.687
       235   08 Jun 2027 07:34:03.135   08 Jun 2027 07:34:09.001             5.866          2485.937
       236   08 Jun 2027 07:34:19.706   08 Jun 2027 07:34:23.078             3.372           140.937
       237   08 Jun 2027 07:35:34.305   08 Jun 2027 07:35:36.218             1.913           318.500
       238   08 Jun 2027 07:36:17.421   08 Jun 2027 07:36:20.090             2.669          1258.438
       239   08 Jun 2027 07:36:49.073   08 Jun 2027 07:36:50.772             1.699           677.344
       240   08 Jun 2027 07:36:52.078   08 Jun 2027 07:36:54.145             2.067            38.156
       241   08 Jun 2027 09:06:00.584   08 Jun 2027 09:06:13.626            13.042          6254.969
       242   08 Jun 2027 09:06:25.701   08 Jun 2027 09:06:26.271             0.570           104.813
       243   08 Jun 2027 09:09:40.604   08 Jun 2027 09:09:44.665             4.061          1056.469
       244   08 Jun 2027 09:10:47.676   08 Jun 2027 09:10:50.008             2.332           791.969
       245   08 Jun 2027 09:11:04.520   08 Jun 2027 09:11:05.808             1.288           228.500
       246   08 Jun 2027 09:12:01.017   08 Jun 2027 09:12:04.957             3.940          1679.250
       247   08 Jun 2027 10:42:58.300   08 Jun 2027 10:43:09.698            11.398          5251.281
       248   08 Jun 2027 10:44:41.261   08 Jun 2027 10:44:45.946             4.685          1433.813
       249   08 Jun 2027 10:46:54.171   08 Jun 2027 10:46:55.866             1.695           331.563
       250   08 Jun 2027 10:47:05.695   08 Jun 2027 10:47:07.265             1.570           307.156
       251   09 Jun 2027 03:07:28.373   09 Jun 2027 03:08:28.503            60.130         30065.000
       252   09 Jun 2027 03:09:22.482   09 Jun 2027 03:09:38.574            16.092          8046.000
       253   09 Jun 2027 03:10:30.357   09 Jun 2027 03:10:33.674             3.317          1658.500
       254   09 Jun 2027 03:10:51.270   09 Jun 2027 03:11:05.612            14.342          7171.000
       255   09 Jun 2027 04:30:32.783   09 Jun 2027 04:30:57.385            24.602         12301.000
       256   09 Jun 2027 04:31:12.526   09 Jun 2027 04:31:32.968            20.442         10221.000
       257   09 Jun 2027 06:06:58.101   09 Jun 2027 06:09:38.971           160.870         80435.000
       258   09 Jun 2027 07:42:05.952   09 Jun 2027 07:42:17.829            11.877          5932.906
       259   09 Jun 2027 07:43:13.403   09 Jun 2027 07:43:15.204             1.801           795.563
       260   09 Jun 2027 07:43:38.115   09 Jun 2027 07:43:40.920             2.805           259.031
       261   09 Jun 2027 07:44:19.756   09 Jun 2027 07:44:22.558             2.802          1177.312
       262   09 Jun 2027 07:45:22.686   09 Jun 2027 07:45:26.728             4.042           367.156
       263   09 Jun 2027 07:45:57.733   09 Jun 2027 07:46:03.767             6.034           361.844
       264   09 Jun 2027 07:47:24.595   09 Jun 2027 07:47:30.452             5.857          2206.469
       265   09 Jun 2027 07:47:55.770   09 Jun 2027 07:47:57.547             1.777           657.031
       266   09 Jun 2027 07:48:09.178   09 Jun 2027 07:48:22.435            13.257           210.313
       267   09 Jun 2027 07:48:40.690   09 Jun 2027 07:48:41.386             0.696           247.719
       268   09 Jun 2027 09:18:27.025   09 Jun 2027 09:18:38.863            11.838          5114.312
       269   09 Jun 2027 09:22:46.754   09 Jun 2027 09:22:55.950             9.196          2096.875
       270   09 Jun 2027 09:23:52.228   09 Jun 2027 09:24:03.699            11.471          1535.156
       271   09 Jun 2027 09:24:47.452   09 Jun 2027 09:24:48.960             1.508           754.000
       272   09 Jun 2027 10:55:59.956   09 Jun 2027 10:56:14.273            14.317          4944.781
       273   09 Jun 2027 10:56:48.013   09 Jun 2027 10:56:51.114             3.101           269.375
       274   09 Jun 2027 10:57:46.735   09 Jun 2027 10:57:48.333             1.598           173.219
       275   09 Jun 2027 10:58:37.183   09 Jun 2027 10:58:40.281             3.098          1261.094
       276   09 Jun 2027 10:59:03.255   09 Jun 2027 10:59:04.917             1.662           595.563
       277   09 Jun 2027 10:59:57.799   09 Jun 2027 11:00:02.888             5.089          1652.562
       278   09 Jun 2027 11:00:16.155   09 Jun 2027 11:00:21.401             5.246           414.594
       279   10 Jun 2027 03:19:11.261   10 Jun 2027 03:19:46.271            35.010         17505.000
       280   10 Jun 2027 03:19:59.804   10 Jun 2027 03:21:48.170           108.366         54183.000
       281   10 Jun 2027 03:22:49.684   10 Jun 2027 03:22:56.873             7.189          3594.500
       282   10 Jun 2027 04:42:30.324   10 Jun 2027 04:43:19.071            48.747         24373.500
       283   10 Jun 2027 04:44:59.717   10 Jun 2027 04:45:26.368            26.651         13325.500
       284   10 Jun 2027 06:19:07.510   10 Jun 2027 06:20:12.894            65.384         32692.000
       285   10 Jun 2027 06:20:21.954   10 Jun 2027 06:20:27.665             5.711          2814.281
       286   10 Jun 2027 06:21:23.208   10 Jun 2027 06:21:28.694             5.486          1692.844
       287   10 Jun 2027 06:21:42.601   10 Jun 2027 06:21:42.601             0.000             0.000
       288   10 Jun 2027 06:22:08.353   10 Jun 2027 06:22:11.785             3.432          1239.344
       289   10 Jun 2027 07:54:17.472   10 Jun 2027 07:54:24.001             6.529          1550.813
       290   10 Jun 2027 07:54:35.537   10 Jun 2027 07:54:37.414             1.877            38.219
       291   10 Jun 2027 07:55:36.431   10 Jun 2027 07:55:38.084             1.653           590.688
       292   10 Jun 2027 07:55:43.196   10 Jun 2027 07:55:46.695             3.499            52.719
       293   10 Jun 2027 07:56:31.119   10 Jun 2027 07:56:33.189             2.070           461.625
       294   10 Jun 2027 07:57:09.395   10 Jun 2027 07:57:11.652             2.257            57.719
       295   10 Jun 2027 07:57:48.560   10 Jun 2027 07:57:54.727             6.167           793.344
       296   10 Jun 2027 07:58:00.064   10 Jun 2027 07:58:00.660             0.596           122.719
       297   10 Jun 2027 07:59:24.551   10 Jun 2027 07:59:34.633            10.082          2166.563
       298   10 Jun 2027 08:00:32.729   10 Jun 2027 08:00:36.497             3.768          1624.937
       299   10 Jun 2027 09:30:34.789   10 Jun 2027 09:30:50.664            15.875          6187.938
       300   10 Jun 2027 09:32:56.390   10 Jun 2027 09:33:00.253             3.863           149.844
       301   10 Jun 2027 09:33:11.345   10 Jun 2027 09:33:15.206             3.861           175.844
       302   10 Jun 2027 09:33:31.792   10 Jun 2027 09:33:32.521             0.729            90.406
       303   10 Jun 2027 09:33:33.246   10 Jun 2027 09:33:34.724             1.478            22.656
       304   10 Jun 2027 09:33:51.994   10 Jun 2027 09:33:54.645             2.651           539.687
       305   10 Jun 2027 09:35:21.140   10 Jun 2027 09:35:25.861             4.721          1506.344
       306   10 Jun 2027 09:35:46.527   10 Jun 2027 09:35:47.443             0.916           116.969
       307   10 Jun 2027 11:08:06.865   10 Jun 2027 11:08:17.109            10.244          4870.406
       308   10 Jun 2027 11:09:33.969   10 Jun 2027 11:09:34.572             0.603            31.906
       309   10 Jun 2027 11:10:22.835   10 Jun 2027 11:10:26.014             3.179           137.969
       310   10 Jun 2027 11:10:43.844   10 Jun 2027 11:10:44.643             0.799           142.438
       311   10 Jun 2027 11:11:14.035   10 Jun 2027 11:11:16.054             2.019           918.500
       312   10 Jun 2027 11:11:33.213   10 Jun 2027 11:11:35.389             2.176           316.312
       313   10 Jun 2027 11:12:16.503   10 Jun 2027 11:12:17.919             1.416            72.781
       314   10 Jun 2027 11:12:23.069   10 Jun 2027 11:12:25.493             2.424           160.938
       315   11 Jun 2027 03:31:07.753   11 Jun 2027 03:34:33.821           206.068        103034.000
       316   11 Jun 2027 04:55:06.439   11 Jun 2027 04:55:25.849            19.410          9705.000
       317   11 Jun 2027 06:30:51.361   11 Jun 2027 06:32:06.692            75.331         37665.500
       318   11 Jun 2027 06:32:58.832   11 Jun 2027 06:33:03.408             4.576          2058.187
       319   11 Jun 2027 06:33:30.103   11 Jun 2027 06:33:30.103             0.000             0.000
       320   11 Jun 2027 06:33:45.840   11 Jun 2027 06:33:48.260             2.420          1192.031
       321   11 Jun 2027 06:34:18.051   11 Jun 2027 06:34:19.886             1.835           874.375
       322   11 Jun 2027 08:05:44.326   11 Jun 2027 08:05:52.197             7.871          1850.156
       323   11 Jun 2027 08:06:32.319   11 Jun 2027 08:06:40.585             8.266           433.750
       324   11 Jun 2027 08:07:22.846   11 Jun 2027 08:07:23.332             0.486           145.312
       325   11 Jun 2027 08:07:58.377   11 Jun 2027 08:07:59.381             1.004           452.844
       326   11 Jun 2027 08:08:45.448   11 Jun 2027 08:08:48.144             2.696          1237.500
       327   11 Jun 2027 08:09:02.848   11 Jun 2027 08:09:02.848             0.000             0.000
       328   11 Jun 2027 08:09:12.601   11 Jun 2027 08:09:14.803             2.202           448.844
       329   11 Jun 2027 08:10:18.971   11 Jun 2027 08:10:23.079             4.108           882.625
       330   11 Jun 2027 08:11:11.147   11 Jun 2027 08:11:15.515             4.368          1345.062
       331   11 Jun 2027 08:11:24.854   11 Jun 2027 08:11:35.979            11.125           276.219
       332   11 Jun 2027 08:11:48.876   11 Jun 2027 08:11:50.294             1.418           189.625
       333   11 Jun 2027 08:12:59.192   11 Jun 2027 08:13:01.611             2.419          1149.812
       334   11 Jun 2027 09:42:18.139   11 Jun 2027 09:42:30.807            12.668          5562.687
       335   11 Jun 2027 09:44:59.876   11 Jun 2027 09:45:00.273             0.397           185.688
       336   11 Jun 2027 09:45:36.105   11 Jun 2027 09:45:38.095             1.990           908.875
       337   11 Jun 2027 09:46:37.461   11 Jun 2027 09:46:43.927             6.466          1460.000
       338   11 Jun 2027 09:47:12.462   11 Jun 2027 09:47:14.839             2.377           891.719
       339   11 Jun 2027 09:47:43.934   11 Jun 2027 09:47:51.600             7.666           719.375
       340   11 Jun 2027 11:20:35.532   11 Jun 2027 11:20:48.608            13.076          6523.844
       341   11 Jun 2027 11:21:29.489   11 Jun 2027 11:21:30.754             1.265           552.969
       342   11 Jun 2027 11:22:59.764   11 Jun 2027 11:23:03.386             3.622          1796.406
       343   11 Jun 2027 11:23:13.482   11 Jun 2027 11:23:14.366             0.884            36.719
       344   11 Jun 2027 11:23:58.350   11 Jun 2027 11:24:06.950             8.600           313.156
       345   11 Jun 2027 11:24:14.561   11 Jun 2027 11:24:16.911             2.350           237.844
       346   12 Jun 2027 03:31:38.244   12 Jun 2027 03:31:42.422             4.178          2089.000
       347   12 Jun 2027 03:32:39.058   12 Jun 2027 03:32:51.353            12.295          6147.500
       348   12 Jun 2027 03:43:04.760   12 Jun 2027 03:44:44.433            99.673         49836.500
       349   12 Jun 2027 05:05:43.362   12 Jun 2027 05:06:43.167            59.805         29902.500
       350   12 Jun 2027 05:07:03.086   12 Jun 2027 05:07:57.563            54.477         27238.500
       351   12 Jun 2027 05:08:36.870   12 Jun 2027 05:08:41.841             4.971          2485.500
       352   12 Jun 2027 05:09:31.905   12 Jun 2027 05:09:48.013            16.108          8054.000
       353   12 Jun 2027 06:41:05.612   12 Jun 2027 06:42:01.876            56.264         28132.000
       354   12 Jun 2027 06:42:36.807   12 Jun 2027 06:42:44.891             8.084          3101.532
       355   12 Jun 2027 06:44:07.952   12 Jun 2027 06:44:12.348             4.396          2173.156
       356   12 Jun 2027 06:45:14.829   12 Jun 2027 06:45:14.829             0.000             0.000
       357   12 Jun 2027 06:45:20.880   12 Jun 2027 06:45:26.033             5.153          2026.844
       358   12 Jun 2027 06:45:49.041   12 Jun 2027 06:45:52.286             3.245           566.219
       359   12 Jun 2027 06:46:59.573   12 Jun 2027 06:47:02.886             3.313          1385.594
       360   12 Jun 2027 06:47:16.157   12 Jun 2027 06:47:17.314             1.157            46.375
       361   12 Jun 2027 08:17:32.603   12 Jun 2027 08:17:43.190            10.587          1541.812
       362   12 Jun 2027 08:19:44.078   12 Jun 2027 08:19:51.073             6.995          2229.250
       363   12 Jun 2027 08:20:49.266   12 Jun 2027 08:20:51.356             2.090           331.594
       364   12 Jun 2027 08:21:52.609   12 Jun 2027 08:22:01.784             9.175          1753.313
       365   12 Jun 2027 08:22:40.201   12 Jun 2027 08:22:42.902             2.701           896.250
       366   12 Jun 2027 08:23:25.802   12 Jun 2027 08:23:30.942             5.140          1332.594
       367   12 Jun 2027 08:23:53.674   12 Jun 2027 08:23:55.892             2.218           230.469
       368   12 Jun 2027 08:25:03.721   12 Jun 2027 08:25:03.837             0.116            58.000
       369   12 Jun 2027 09:54:39.343   12 Jun 2027 09:54:52.768            13.425          4776.281
       370   12 Jun 2027 09:58:17.661   12 Jun 2027 09:58:24.067             6.406          2036.000
       371   12 Jun 2027 09:58:31.692   12 Jun 2027 09:58:35.508             3.816           237.063
       372   12 Jun 2027 09:59:03.676   12 Jun 2027 09:59:05.175             1.499           692.969
       373   12 Jun 2027 09:59:12.757   12 Jun 2027 09:59:13.266             0.509            29.000
       374   12 Jun 2027 09:59:44.515   12 Jun 2027 09:59:49.375             4.860           891.656
       375   12 Jun 2027 10:00:54.739   12 Jun 2027 10:00:55.360             0.621           310.500
       376   12 Jun 2027 11:32:33.325   12 Jun 2027 11:32:44.640            11.315          5186.969
       377   12 Jun 2027 11:33:04.794   12 Jun 2027 11:33:05.158             0.364           159.281
       378   12 Jun 2027 11:33:35.027   12 Jun 2027 11:33:41.133             6.106           894.469
       379   12 Jun 2027 11:34:22.640   12 Jun 2027 11:34:28.276             5.636           866.187
       380   12 Jun 2027 11:34:55.343   12 Jun 2027 11:34:56.749             1.406           517.000
       381   12 Jun 2027 11:35:12.167   12 Jun 2027 11:35:19.515             7.348           186.438
       382   12 Jun 2027 11:36:20.928   12 Jun 2027 11:36:26.846             5.918          1074.094
       383   13 Jun 2027 03:42:52.597   13 Jun 2027 03:43:10.334            17.737          8868.500
       384   13 Jun 2027 03:43:42.534   13 Jun 2027 03:44:08.575            26.041         13020.500
       385   13 Jun 2027 03:55:04.699   13 Jun 2027 03:56:05.724            61.025         30512.500
       386   13 Jun 2027 05:17:20.924   13 Jun 2027 05:18:27.442            66.518         33259.000
       387   13 Jun 2027 05:19:15.867   13 Jun 2027 05:19:56.645            40.778         20389.000
       388   13 Jun 2027 05:20:14.910   13 Jun 2027 05:20:27.552            12.642          6321.000
       389   13 Jun 2027 05:21:54.604   13 Jun 2027 05:21:54.604             0.000             0.000
       390   13 Jun 2027 06:52:14.969   13 Jun 2027 06:53:50.446            95.477         46523.313
       391   13 Jun 2027 06:54:41.137   13 Jun 2027 06:54:44.837             3.700          1501.250
       392   13 Jun 2027 06:55:00.424   13 Jun 2027 06:55:02.345             1.921           487.094
       393   13 Jun 2027 06:56:08.491   13 Jun 2027 06:56:15.760             7.269          1976.062
       394   13 Jun 2027 06:57:31.296   13 Jun 2027 06:57:38.450             7.154          2305.125
       395   13 Jun 2027 06:58:46.214   13 Jun 2027 06:58:50.079             3.865          1688.656
       396   13 Jun 2027 06:58:51.773   13 Jun 2027 06:58:52.654             0.881            41.938
       397   13 Jun 2027 07:00:16.774   13 Jun 2027 07:00:22.080             5.306          1618.000
       398   13 Jun 2027 08:29:47.598   13 Jun 2027 08:29:53.040             5.442          2165.812
       399   13 Jun 2027 08:30:35.664   13 Jun 2027 08:30:41.829             6.165           925.094
       400   13 Jun 2027 08:31:08.657   13 Jun 2027 08:31:10.887             2.230           803.844
       401   13 Jun 2027 08:31:51.290   13 Jun 2027 08:31:53.283             1.993           237.937
       402   13 Jun 2027 08:32:48.008   13 Jun 2027 08:32:48.824             0.816           171.063
       403   13 Jun 2027 08:33:54.163   13 Jun 2027 08:33:59.594             5.431           949.906
       404   13 Jun 2027 08:34:14.080   13 Jun 2027 08:34:16.681             2.601           345.594
       405   13 Jun 2027 08:35:25.838   13 Jun 2027 08:35:29.270             3.432          1104.531
       406   13 Jun 2027 08:35:44.249   13 Jun 2027 08:35:47.798             3.549           297.031
       407   13 Jun 2027 08:35:57.747   13 Jun 2027 08:35:59.490             1.743           260.469
       408   13 Jun 2027 08:36:50.092   13 Jun 2027 08:36:54.912             4.820          1228.969
       409   13 Jun 2027 08:37:05.791   13 Jun 2027 08:37:07.301             1.510           151.344
       410   13 Jun 2027 10:06:30.573   13 Jun 2027 10:06:40.955            10.382          4878.312
       411   13 Jun 2027 10:08:00.899   13 Jun 2027 10:08:02.895             1.996           456.500
       412   13 Jun 2027 10:09:19.722   13 Jun 2027 10:09:24.308             4.586           252.938
       413   13 Jun 2027 10:09:45.219   13 Jun 2027 10:09:47.154             1.935           630.125
       414   13 Jun 2027 10:10:36.480   13 Jun 2027 10:10:38.389             1.909           641.375
       415   13 Jun 2027 10:10:46.803   13 Jun 2027 10:10:48.357             1.554           205.719
       416   13 Jun 2027 10:11:04.589   13 Jun 2027 10:11:09.741             5.152           385.500
       417   13 Jun 2027 10:11:18.728   13 Jun 2027 10:11:20.433             1.705            43.625
       418   13 Jun 2027 10:12:15.577   13 Jun 2027 10:12:20.104             4.527          1687.906
       419   13 Jun 2027 10:12:52.093   13 Jun 2027 10:12:53.414             1.321           469.469
       420   13 Jun 2027 11:44:33.402   13 Jun 2027 11:44:56.823            23.421          7695.844
       421   13 Jun 2027 11:45:28.998   13 Jun 2027 11:45:31.496             2.498           825.219
       422   13 Jun 2027 11:46:42.280   13 Jun 2027 11:46:43.964             1.684           547.156
       423   13 Jun 2027 11:47:00.285   13 Jun 2027 11:47:03.640             3.355           510.031
       424   13 Jun 2027 11:48:02.061   13 Jun 2027 11:48:07.301             5.240           285.187
       425   13 Jun 2027 11:48:23.848   13 Jun 2027 11:48:28.904             5.056            55.469
       426   13 Jun 2027 11:48:39.853   13 Jun 2027 11:48:42.334             2.481           342.156
