uniorb/output/strategy_4/Camera/Camera_KinoSat_111601.txt

KinoSat_111601
-------------------------
    Access    *     Start Time (UTCG)     *     Stop Time (UTCG)  *   Duration (s) *   Data (Mbytes)
         1   01 Jun 2027 03:52:52.791   01 Jun 2027 03:53:02.871            10.080          5040.000
         2   01 Jun 2027 03:53:54.487   01 Jun 2027 03:56:07.222           132.735         66367.500
         3   01 Jun 2027 03:57:26.322   01 Jun 2027 03:57:34.342             8.020          4010.000
         4   01 Jun 2027 04:00:30.832   01 Jun 2027 04:00:42.269            11.437          5718.500
         5   01 Jun 2027 05:31:03.119   01 Jun 2027 05:31:41.905            38.786         19393.000
         6   01 Jun 2027 05:32:07.521   01 Jun 2027 05:32:55.166            47.645         23822.500
         7   01 Jun 2027 05:33:17.075   01 Jun 2027 05:33:21.591             4.516          2258.000
         8   01 Jun 2027 05:34:02.039   01 Jun 2027 05:34:27.300            25.261         12630.500
         9   01 Jun 2027 06:55:08.918   01 Jun 2027 06:56:27.167            78.249         39124.500
        10   01 Jun 2027 08:30:54.341   01 Jun 2027 08:32:25.075            90.734         45367.000
        11   01 Jun 2027 08:33:28.263   01 Jun 2027 08:33:35.773             7.510          3755.000
        12   01 Jun 2027 08:34:16.345   01 Jun 2027 08:34:25.272             8.927          4463.500
        13   01 Jun 2027 10:05:51.828   01 Jun 2027 10:07:24.172            92.344         46172.000
        14   01 Jun 2027 10:07:55.267   01 Jun 2027 10:08:29.960            34.693         17346.500
        15   01 Jun 2027 10:11:16.092   01 Jun 2027 10:11:16.092             0.000             0.000
        16   01 Jun 2027 10:12:29.390   01 Jun 2027 10:12:54.249            24.859         12429.500
        17   01 Jun 2027 11:42:05.450   01 Jun 2027 11:44:47.976           162.526         81263.000
        18   01 Jun 2027 11:46:46.351   01 Jun 2027 11:47:01.677            15.326          7663.000
        19   02 Jun 2027 04:05:58.104   02 Jun 2027 04:08:39.683           161.579         80789.500
        20   02 Jun 2027 04:11:06.183   02 Jun 2027 04:11:26.626            20.443         10221.500
        21   02 Jun 2027 04:12:57.590   02 Jun 2027 04:13:36.611            39.021         19510.500
        22   02 Jun 2027 05:31:53.759   02 Jun 2027 05:32:37.052            43.293         21646.500
        23   02 Jun 2027 05:42:59.600   02 Jun 2027 05:44:40.929           101.329         50664.500
        24   02 Jun 2027 05:45:03.781   02 Jun 2027 05:46:17.663            73.882         36941.000
        25   02 Jun 2027 07:05:56.923   02 Jun 2027 07:06:04.452             7.529          3764.500
        26   02 Jun 2027 07:06:47.402   02 Jun 2027 07:07:28.342            40.940         20470.000
        27   02 Jun 2027 07:09:07.640   02 Jun 2027 07:09:29.111            21.471         10735.500
        28   02 Jun 2027 07:10:06.864   02 Jun 2027 07:10:11.102             4.238          2119.000
        29   02 Jun 2027 08:41:16.553   02 Jun 2027 08:41:42.154            25.601         12800.500
        30   02 Jun 2027 08:42:39.522   02 Jun 2027 08:45:09.548           150.026         75013.000
        31   02 Jun 2027 10:17:24.910   02 Jun 2027 10:18:32.043            67.133         33242.750
        32   02 Jun 2027 10:20:23.270   02 Jun 2027 10:20:26.920             3.650          1825.000
        33   02 Jun 2027 10:20:46.237   02 Jun 2027 10:20:50.014             3.777           831.375
        34   02 Jun 2027 10:21:21.075   02 Jun 2027 10:21:22.999             1.924           713.750
        35   02 Jun 2027 10:22:35.410   02 Jun 2027 10:22:36.440             1.030           317.000
        36   02 Jun 2027 10:23:31.014   02 Jun 2027 10:23:40.404             9.390          1090.031
        37   02 Jun 2027 10:24:22.104   02 Jun 2027 10:24:28.055             5.951          1002.406
        38   02 Jun 2027 11:54:27.401   02 Jun 2027 11:54:42.493            15.092          7108.250
        39   02 Jun 2027 11:54:51.851   02 Jun 2027 11:54:52.362             0.511           163.156
        40   02 Jun 2027 11:56:00.692   02 Jun 2027 11:56:06.558             5.866          1819.625
        41   02 Jun 2027 11:56:20.127   02 Jun 2027 11:56:21.751             1.624           424.031
        42   02 Jun 2027 11:56:57.845   02 Jun 2027 11:57:01.800             3.955            90.281
        43   02 Jun 2027 11:58:11.334   02 Jun 2027 11:58:15.703             4.369          1970.281
        44   02 Jun 2027 11:58:55.199   02 Jun 2027 11:59:03.961             8.762          1234.250
        45   02 Jun 2027 11:59:41.583   02 Jun 2027 11:59:44.399             2.816          1116.906
        46   03 Jun 2027 04:18:27.972   03 Jun 2027 04:20:45.025           137.053         68526.500
        47   03 Jun 2027 04:21:55.162   03 Jun 2027 04:22:16.228            21.066         10533.000
        48   03 Jun 2027 04:23:59.361   03 Jun 2027 04:24:36.621            37.260         18630.000
        49   03 Jun 2027 05:43:19.437   03 Jun 2027 05:43:53.247            33.810         16905.000
        50   03 Jun 2027 05:55:02.714   03 Jun 2027 05:56:15.959            73.245         36622.500
        51   03 Jun 2027 07:17:15.015   03 Jun 2027 07:17:52.956            37.941         17001.812
        52   03 Jun 2027 07:18:06.141   03 Jun 2027 07:18:06.141             0.000             0.000
        53   03 Jun 2027 07:19:16.859   03 Jun 2027 07:19:22.163             5.304          2040.563
        54   03 Jun 2027 07:19:57.086   03 Jun 2027 07:20:01.848             4.762          1091.344
        55   03 Jun 2027 07:21:06.911   03 Jun 2027 07:21:06.911             0.000             0.000
        56   03 Jun 2027 07:21:32.054   03 Jun 2027 07:21:37.808             5.754          2395.344
        57   03 Jun 2027 07:22:10.491   03 Jun 2027 07:22:18.315             7.824           720.813
        58   03 Jun 2027 08:52:21.105   03 Jun 2027 08:52:29.452             8.347          4085.719
        59   03 Jun 2027 08:52:50.860   03 Jun 2027 08:52:51.614             0.754           183.094
        60   03 Jun 2027 08:53:10.357   03 Jun 2027 08:53:10.357             0.000             0.000
        61   03 Jun 2027 08:54:48.739   03 Jun 2027 08:54:56.021             7.282          2655.000
        62   03 Jun 2027 08:55:29.931   03 Jun 2027 08:55:34.305             4.374           434.187
        63   03 Jun 2027 08:56:23.312   03 Jun 2027 08:56:29.689             6.377          1055.937
        64   03 Jun 2027 08:57:29.712   03 Jun 2027 08:57:30.282             0.570           285.000
        65   03 Jun 2027 08:57:50.023   03 Jun 2027 08:57:55.091             5.068          1536.750
        66   03 Jun 2027 08:58:28.113   03 Jun 2027 08:58:32.955             4.842           199.344
        67   03 Jun 2027 10:29:37.122   03 Jun 2027 10:29:45.578             8.456          3990.656
        68   03 Jun 2027 10:32:50.752   03 Jun 2027 10:33:01.138            10.386          2671.438
        69   03 Jun 2027 10:33:05.810   03 Jun 2027 10:33:06.273             0.463            66.937
        70   03 Jun 2027 10:34:18.406   03 Jun 2027 10:34:20.529             2.123           554.469
        71   03 Jun 2027 10:34:57.310   03 Jun 2027 10:35:00.125             2.815           642.906
        72   03 Jun 2027 10:35:41.550   03 Jun 2027 10:35:47.534             5.984          1186.969
        73   03 Jun 2027 10:37:00.460   03 Jun 2027 10:37:01.050             0.590           295.000
        74   04 Jun 2027 04:30:36.516   04 Jun 2027 04:32:53.822           137.306         68653.000
        75   04 Jun 2027 04:33:36.015   04 Jun 2027 04:33:37.722             1.707           853.500
        76   04 Jun 2027 04:34:18.668   04 Jun 2027 04:35:15.775            57.107         28553.500
        77   04 Jun 2027 04:36:53.616   04 Jun 2027 04:37:17.550            23.934         11967.000
        78   04 Jun 2027 04:37:25.997   04 Jun 2027 04:37:33.868             7.871          3935.500
        79   04 Jun 2027 05:54:48.257   04 Jun 2027 05:55:21.134            32.877         16438.500
        80   04 Jun 2027 05:57:01.827   04 Jun 2027 05:57:02.538             0.711           355.500
        81   04 Jun 2027 06:07:03.539   04 Jun 2027 06:07:35.327            31.788         15894.000
        82   04 Jun 2027 07:29:00.543   04 Jun 2027 07:29:43.659            43.116         21558.000
        83   04 Jun 2027 07:31:03.255   04 Jun 2027 07:31:07.352             4.097          1989.375
        84   04 Jun 2027 07:31:42.640   04 Jun 2027 07:31:48.442             5.802           963.719
        85   04 Jun 2027 07:32:39.289   04 Jun 2027 07:32:44.984             5.695          1340.125
        86   04 Jun 2027 07:33:29.940   04 Jun 2027 07:33:31.967             2.027           764.844
        87   04 Jun 2027 07:33:57.159   04 Jun 2027 07:34:01.516             4.357           697.000
        88   04 Jun 2027 07:34:12.417   04 Jun 2027 07:34:15.840             3.423           174.281
        89   04 Jun 2027 09:03:50.179   04 Jun 2027 09:03:58.490             8.311          3889.000
        90   04 Jun 2027 09:04:35.125   04 Jun 2027 09:04:35.960             0.835           365.438
        91   04 Jun 2027 09:05:44.933   04 Jun 2027 09:05:46.555             1.622           391.844
        92   04 Jun 2027 09:07:50.209   04 Jun 2027 09:08:01.206            10.997          3864.188
        93   04 Jun 2027 09:09:30.576   04 Jun 2027 09:09:37.154             6.578          2529.188
        94   04 Jun 2027 09:10:22.258   04 Jun 2027 09:10:23.163             0.905           288.031
        95   04 Jun 2027 09:10:52.034   04 Jun 2027 09:10:52.034             0.000             0.000
        96   04 Jun 2027 09:11:29.444   04 Jun 2027 09:11:32.639             3.195          1480.312
        97   04 Jun 2027 09:12:08.373   04 Jun 2027 09:12:11.179             2.806          1025.625
        98   04 Jun 2027 10:41:37.277   04 Jun 2027 10:41:52.630            15.353          3828.312
        99   04 Jun 2027 10:42:36.875   04 Jun 2027 10:42:38.648             1.773           144.063
       100   04 Jun 2027 10:43:17.371   04 Jun 2027 10:43:24.930             7.559            85.406
       101   04 Jun 2027 10:44:40.619   04 Jun 2027 10:44:40.619             0.000             0.000
       102   04 Jun 2027 10:45:28.929   04 Jun 2027 10:45:37.757             8.828          3874.969
       103   04 Jun 2027 10:47:11.165   04 Jun 2027 10:47:18.275             7.110          2643.313
       104   04 Jun 2027 10:47:40.110   04 Jun 2027 10:47:44.844             4.734           106.031
       105   04 Jun 2027 10:48:04.093   04 Jun 2027 10:48:06.664             2.571           257.688
       106   05 Jun 2027 03:04:24.708   05 Jun 2027 03:05:13.237            48.529         24264.500
       107   05 Jun 2027 03:05:55.117   05 Jun 2027 03:06:00.503             5.386          2693.000
       108   05 Jun 2027 03:06:01.189   05 Jun 2027 03:06:06.044             4.855          2427.500
       109   05 Jun 2027 03:06:15.396   05 Jun 2027 03:06:23.720             8.324          4162.000
       110   05 Jun 2027 03:06:29.001   05 Jun 2027 03:06:34.520             5.519          2759.500
       111   05 Jun 2027 03:06:58.269   05 Jun 2027 03:06:58.269             0.000             0.000
       112   05 Jun 2027 03:08:32.711   05 Jun 2027 03:08:41.423             8.712          4356.000
       113   05 Jun 2027 03:09:13.914   05 Jun 2027 03:09:13.914             0.000             0.000
       114   05 Jun 2027 03:09:20.786   05 Jun 2027 03:09:24.778             3.992          1996.000
       115   05 Jun 2027 04:42:47.437   05 Jun 2027 04:44:28.030           100.593         50296.500
       116   05 Jun 2027 04:44:59.325   05 Jun 2027 04:45:34.232            34.907         17453.500
       117   05 Jun 2027 04:46:36.466   05 Jun 2027 04:48:01.124            84.658         42329.000
       118   05 Jun 2027 06:06:49.974   05 Jun 2027 06:07:21.686            31.712         15856.000
       119   05 Jun 2027 07:42:47.915   05 Jun 2027 07:43:03.487            15.572          6776.563
       120   05 Jun 2027 07:43:28.989   05 Jun 2027 07:43:28.989             0.000             0.000
       121   05 Jun 2027 07:43:33.754   05 Jun 2027 07:43:37.723             3.969           378.063
       122   05 Jun 2027 07:43:58.339   05 Jun 2027 07:43:58.339             0.000             0.000
       123   05 Jun 2027 07:44:22.525   05 Jun 2027 07:44:25.838             3.313          1296.688
       124   05 Jun 2027 07:45:55.175   05 Jun 2027 07:46:02.168             6.993          2317.656
       125   05 Jun 2027 09:16:36.993   05 Jun 2027 09:16:44.682             7.689          2861.656
       126   05 Jun 2027 09:17:59.450   05 Jun 2027 09:18:04.767             5.317           421.563
       127   05 Jun 2027 09:18:46.779   05 Jun 2027 09:18:48.544             1.765           788.562
       128   05 Jun 2027 09:19:09.190   05 Jun 2027 09:19:11.766             2.576           223.469
       129   05 Jun 2027 09:20:12.150   05 Jun 2027 09:20:14.558             2.408          1156.438
       130   05 Jun 2027 09:21:17.316   05 Jun 2027 09:21:20.919             3.603          1714.531
       131   05 Jun 2027 09:22:33.758   05 Jun 2027 09:22:38.919             5.161          1983.844
       132   05 Jun 2027 09:23:13.204   05 Jun 2027 09:23:16.384             3.180           382.625
       133   05 Jun 2027 09:24:16.574   05 Jun 2027 09:24:20.085             3.511          1418.906
       134   05 Jun 2027 10:53:42.659   05 Jun 2027 10:53:54.293            11.634          5762.719
       135   05 Jun 2027 10:55:01.104   05 Jun 2027 10:55:02.988             1.884           906.813
       136   05 Jun 2027 10:55:55.568   05 Jun 2027 10:55:58.586             3.018          1231.688
       137   05 Jun 2027 10:57:55.958   05 Jun 2027 10:58:03.644             7.686          2788.250
       138   05 Jun 2027 10:58:08.356   05 Jun 2027 10:58:08.683             0.327           128.344
       139   05 Jun 2027 10:58:45.653   05 Jun 2027 10:58:46.772             1.119           471.469
       140   05 Jun 2027 10:58:56.818   05 Jun 2027 10:59:02.096             5.278            51.219
       141   05 Jun 2027 10:59:53.608   05 Jun 2027 11:00:00.883             7.275          1247.500
       142   05 Jun 2027 11:00:30.394   05 Jun 2027 11:00:31.911             1.517           356.750
       143   05 Jun 2027 11:01:01.101   05 Jun 2027 11:01:01.265             0.164            82.000
       144   06 Jun 2027 03:17:02.181   06 Jun 2027 03:17:46.558            44.377         22188.500
       145   06 Jun 2027 03:17:55.354   06 Jun 2027 03:18:38.689            43.335         21667.500
       146   06 Jun 2027 03:18:40.520   06 Jun 2027 03:19:46.705            66.185         33092.500
       147   06 Jun 2027 03:20:15.087   06 Jun 2027 03:20:34.381            19.294          9647.000
       148   06 Jun 2027 03:22:11.858   06 Jun 2027 03:22:19.720             7.862          3931.000
       149   06 Jun 2027 04:55:22.342   06 Jun 2027 04:57:27.790           125.448         62148.562
       150   06 Jun 2027 04:58:07.849   06 Jun 2027 04:58:15.520             7.671          1251.844
       151   06 Jun 2027 04:59:15.156   06 Jun 2027 04:59:16.389             1.233           557.719
       152   06 Jun 2027 06:18:44.376   06 Jun 2027 06:18:57.310            12.934          5929.937
       153   06 Jun 2027 06:20:03.869   06 Jun 2027 06:20:07.143             3.274          1525.656
       154   06 Jun 2027 06:20:40.806   06 Jun 2027 06:20:45.188             4.382           850.313
       155   06 Jun 2027 06:21:01.948   06 Jun 2027 06:21:03.326             1.378           251.750
       156   06 Jun 2027 07:55:07.289   06 Jun 2027 07:55:20.539            13.250          6444.094
       157   06 Jun 2027 07:55:34.883   06 Jun 2027 07:55:38.516             3.633           175.937
       158   06 Jun 2027 07:55:46.055   06 Jun 2027 07:55:50.948             4.893           235.594
       159   06 Jun 2027 07:56:49.691   06 Jun 2027 07:56:53.515             3.824          1686.125
       160   06 Jun 2027 07:57:01.095   06 Jun 2027 07:57:01.407             0.312            40.875
       161   06 Jun 2027 07:57:39.889   06 Jun 2027 07:57:45.349             5.460           740.469
       162   06 Jun 2027 09:28:35.365   06 Jun 2027 09:28:43.481             8.116          3761.531
       163   06 Jun 2027 09:29:08.390   06 Jun 2027 09:29:10.488             2.098           541.531
       164   06 Jun 2027 09:31:03.477   06 Jun 2027 09:31:05.807             2.330          1022.531
       165   06 Jun 2027 09:31:37.389   06 Jun 2027 09:31:39.060             1.671           489.062
       166   06 Jun 2027 09:31:54.172   06 Jun 2027 09:31:56.758             2.586           296.875
       167   06 Jun 2027 09:34:22.536   06 Jun 2027 09:34:35.452            12.916          3916.031
       168   06 Jun 2027 09:35:38.088   06 Jun 2027 09:35:38.634             0.546           173.937
       169   06 Jun 2027 09:36:28.420   06 Jun 2027 09:36:32.876             4.456          1336.656
       170   06 Jun 2027 11:06:09.297   06 Jun 2027 11:06:23.951            14.654          5777.312
       171   06 Jun 2027 11:08:22.646   06 Jun 2027 11:08:26.612             3.966           439.906
       172   06 Jun 2027 11:08:52.983   06 Jun 2027 11:09:03.112            10.129           711.187
       173   06 Jun 2027 11:09:20.867   06 Jun 2027 11:09:25.213             4.346           421.750
       174   06 Jun 2027 11:10:31.429   06 Jun 2027 11:10:37.234             5.805          2045.031
       175   06 Jun 2027 11:11:02.668   06 Jun 2027 11:11:05.958             3.290           241.625
       176   06 Jun 2027 11:11:07.593   06 Jun 2027 11:11:09.125             1.532            51.094
       177   06 Jun 2027 11:11:25.284   06 Jun 2027 11:11:27.207             1.923           313.844
       178   06 Jun 2027 11:12:17.903   06 Jun 2027 11:12:21.006             3.103          1441.063
       179   06 Jun 2027 11:12:33.110   06 Jun 2027 11:12:37.017             3.907           362.125
       180   07 Jun 2027 03:28:55.863   07 Jun 2027 03:29:01.417             5.554          2777.000
       181   07 Jun 2027 03:29:21.181   07 Jun 2027 03:31:57.151           155.970         77985.000
       182   07 Jun 2027 03:32:43.482   07 Jun 2027 03:33:48.030            64.548         32274.000
       183   07 Jun 2027 05:07:00.289   07 Jun 2027 05:07:55.238            54.949         27474.500
       184   07 Jun 2027 05:08:33.801   07 Jun 2027 05:09:10.203            36.402         15142.156
       185   07 Jun 2027 05:09:44.512   07 Jun 2027 05:09:46.909             2.397           823.844
       186   07 Jun 2027 05:10:07.450   07 Jun 2027 05:10:11.776             4.326           131.688
       187   07 Jun 2027 05:11:10.608   07 Jun 2027 05:11:17.599             6.991          1570.594
       188   07 Jun 2027 06:30:33.372   07 Jun 2027 06:30:44.932            11.560          5466.469
       189   07 Jun 2027 06:31:05.891   07 Jun 2027 06:31:07.356             1.465           654.969
       190   07 Jun 2027 06:31:58.796   07 Jun 2027 06:32:04.443             5.647          1054.969
       191   07 Jun 2027 06:32:41.242   07 Jun 2027 06:32:41.242             0.000             0.000
       192   07 Jun 2027 06:32:49.099   07 Jun 2027 06:32:51.263             2.164          1082.000
       193   07 Jun 2027 06:33:00.482   07 Jun 2027 06:33:02.372             1.890           573.656
       194   07 Jun 2027 08:07:08.897   07 Jun 2027 08:07:13.951             5.054          2073.719
       195   07 Jun 2027 08:07:47.433   07 Jun 2027 08:07:48.697             1.264           393.938
       196   07 Jun 2027 08:07:57.407   07 Jun 2027 08:07:58.079             0.672           125.688
       197   07 Jun 2027 08:08:07.206   07 Jun 2027 08:08:07.206             0.000             0.000
       198   07 Jun 2027 08:09:00.624   07 Jun 2027 08:09:04.155             3.531          1765.500
       199   07 Jun 2027 08:09:42.064   07 Jun 2027 08:09:45.412             3.348          1250.157
       200   07 Jun 2027 09:42:02.705   07 Jun 2027 09:42:10.297             7.592          2954.094
       201   07 Jun 2027 09:43:07.110   07 Jun 2027 09:43:08.920             1.810           342.469
       202   07 Jun 2027 09:43:39.346   07 Jun 2027 09:43:44.745             5.399           495.656
       203   07 Jun 2027 09:44:43.169   07 Jun 2027 09:44:44.557             1.388           568.656
       204   07 Jun 2027 09:45:46.442   07 Jun 2027 09:45:53.619             7.177          1309.813
       205   07 Jun 2027 09:47:33.453   07 Jun 2027 09:47:44.015            10.562          2697.562
       206   07 Jun 2027 09:48:32.169   07 Jun 2027 09:48:33.740             1.571           784.469
       207   07 Jun 2027 09:48:43.262   07 Jun 2027 09:48:43.883             0.621           129.031
       208   07 Jun 2027 09:48:55.452   07 Jun 2027 09:48:56.226             0.774           179.375
       209   07 Jun 2027 11:18:15.910   07 Jun 2027 11:18:30.725            14.815          7163.281
       210   07 Jun 2027 11:20:25.519   07 Jun 2027 11:20:27.757             2.238           462.594
       211   07 Jun 2027 11:21:54.620   07 Jun 2027 11:22:04.405             9.785          1571.375
       212   07 Jun 2027 11:22:35.404   07 Jun 2027 11:22:37.181             1.777           716.469
       213   07 Jun 2027 11:23:40.337   07 Jun 2027 11:23:49.394             9.057          1852.125
       214   07 Jun 2027 11:23:59.580   07 Jun 2027 11:24:00.249             0.669           285.844
       215   07 Jun 2027 11:24:14.540   07 Jun 2027 11:24:16.249             1.709           248.562
       216   07 Jun 2027 11:24:31.678   07 Jun 2027 11:24:35.797             4.119           472.812
       217   08 Jun 2027 03:41:04.685   08 Jun 2027 03:42:06.466            61.781         30890.500
       218   08 Jun 2027 03:42:13.810   08 Jun 2027 03:43:51.390            97.580         48790.000
       219   08 Jun 2027 03:44:27.382   08 Jun 2027 03:44:33.244             5.862          2931.000
       220   08 Jun 2027 03:47:19.283   08 Jun 2027 03:47:20.348             1.065           532.500
       221   08 Jun 2027 05:19:23.201   08 Jun 2027 05:19:54.265            31.064         15532.000
       222   08 Jun 2027 05:20:12.770   08 Jun 2027 05:21:50.623            97.853         48574.000
       223   08 Jun 2027 05:22:48.564   08 Jun 2027 05:22:53.106             4.542          1247.031
       224   08 Jun 2027 06:42:45.876   08 Jun 2027 06:42:58.087            12.211          5362.000
       225   08 Jun 2027 06:43:40.233   08 Jun 2027 06:43:41.124             0.891           299.406
       226   08 Jun 2027 06:44:10.973   08 Jun 2027 06:44:13.080             2.107           917.750
       227   08 Jun 2027 06:44:38.490   08 Jun 2027 06:44:39.784             1.294           495.906
       228   08 Jun 2027 06:45:08.820   08 Jun 2027 06:45:08.820             0.000             0.000
       229   08 Jun 2027 06:45:24.743   08 Jun 2027 06:45:33.739             8.996          1209.062
       230   08 Jun 2027 08:19:29.621   08 Jun 2027 08:19:39.014             9.393          4696.500
       231   08 Jun 2027 08:20:30.117   08 Jun 2027 08:20:34.138             4.021          1628.313
       232   08 Jun 2027 08:20:54.275   08 Jun 2027 08:20:56.332             2.057           421.906
       233   08 Jun 2027 08:22:48.308   08 Jun 2027 08:22:51.134             2.826          1413.000
       234   08 Jun 2027 09:54:27.365   08 Jun 2027 09:54:38.291            10.926          4182.625
       235   08 Jun 2027 09:55:40.958   08 Jun 2027 09:55:45.728             4.770          1716.000
       236   08 Jun 2027 09:55:49.552   08 Jun 2027 09:55:49.552             0.000             0.000
       237   08 Jun 2027 09:56:35.501   08 Jun 2027 09:56:39.863             4.362          1512.625
       238   08 Jun 2027 09:57:45.037   08 Jun 2027 09:57:50.128             5.091           638.406
       239   08 Jun 2027 09:58:54.426   08 Jun 2027 09:58:57.190             2.764           553.750
       240   08 Jun 2027 09:59:36.477   08 Jun 2027 09:59:41.229             4.752           897.406
       241   08 Jun 2027 10:00:47.082   08 Jun 2027 10:00:50.296             3.214           928.750
       242   08 Jun 2027 11:30:52.298   08 Jun 2027 11:31:05.066            12.768          4839.312
       243   08 Jun 2027 11:32:57.558   08 Jun 2027 11:32:59.442             1.884           336.844
       244   08 Jun 2027 11:34:14.608   08 Jun 2027 11:34:21.002             6.394          2348.937
       245   08 Jun 2027 11:34:46.991   08 Jun 2027 11:34:49.871             2.880           660.531
       246   08 Jun 2027 11:35:03.614   08 Jun 2027 11:35:11.198             7.584           166.719
       247   08 Jun 2027 11:36:02.239   08 Jun 2027 11:36:07.363             5.124          1479.375
       248   08 Jun 2027 11:36:18.496   08 Jun 2027 11:36:19.809             1.313           161.656
       249   08 Jun 2027 11:36:23.073   08 Jun 2027 11:36:23.897             0.824            54.187
       250   08 Jun 2027 11:36:55.320   08 Jun 2027 11:36:59.976             4.656           757.437
       251   09 Jun 2027 03:53:10.402   09 Jun 2027 03:53:17.428             7.026          3513.000
       252   09 Jun 2027 03:54:11.367   09 Jun 2027 03:57:52.075           220.708        110354.000
       253   09 Jun 2027 05:31:20.117   09 Jun 2027 05:31:59.088            38.971         19485.500
       254   09 Jun 2027 05:32:21.849   09 Jun 2027 05:33:05.638            43.789         21674.469
       255   09 Jun 2027 05:33:37.568   09 Jun 2027 05:33:42.137             4.569           681.000
       256   09 Jun 2027 05:34:36.410   09 Jun 2027 05:34:40.038             3.628           809.625
       257   09 Jun 2027 06:55:22.010   09 Jun 2027 06:55:40.662            18.652          7640.156
       258   09 Jun 2027 06:55:55.413   09 Jun 2027 06:55:56.998             1.585           395.937
       259   09 Jun 2027 06:56:08.753   09 Jun 2027 06:56:08.753             0.000             0.000
       260   09 Jun 2027 06:57:20.408   09 Jun 2027 06:57:23.450             3.042          1521.000
       261   09 Jun 2027 06:57:43.472   09 Jun 2027 06:57:47.127             3.655          1611.156
       262   09 Jun 2027 08:31:10.760   09 Jun 2027 08:31:16.868             6.108          2424.375
       263   09 Jun 2027 08:32:05.216   09 Jun 2027 08:32:07.919             2.703          1339.344
       264   09 Jun 2027 08:32:40.367   09 Jun 2027 08:32:43.679             3.312           200.781
       265   09 Jun 2027 08:33:29.644   09 Jun 2027 08:33:33.760             4.116           973.188
       266   09 Jun 2027 08:34:25.611   09 Jun 2027 08:34:29.984             4.373          1252.438
       267   09 Jun 2027 10:06:07.577   09 Jun 2027 10:06:14.991             7.414          2722.844
       268   09 Jun 2027 10:08:14.661   09 Jun 2027 10:08:21.802             7.141          3200.125
       269   09 Jun 2027 10:09:09.883   09 Jun 2027 10:09:16.570             6.687           937.156
       270   09 Jun 2027 10:09:37.902   09 Jun 2027 10:09:40.002             2.100           656.125
       271   09 Jun 2027 10:10:28.423   09 Jun 2027 10:10:30.715             2.292           617.219
       272   09 Jun 2027 10:11:38.421   09 Jun 2027 10:11:40.247             1.826           871.656
       273   09 Jun 2027 10:12:35.576   09 Jun 2027 10:12:41.547             5.971          1729.031
       274   09 Jun 2027 10:13:08.188   09 Jun 2027 10:13:11.579             3.391           786.000
       275   09 Jun 2027 11:42:25.336   09 Jun 2027 11:42:36.423            11.087          4404.500
       276   09 Jun 2027 11:43:46.008   09 Jun 2027 11:43:52.094             6.086           494.969
       277   09 Jun 2027 11:44:18.191   09 Jun 2027 11:44:20.445             2.254           224.062
       278   09 Jun 2027 11:44:30.586   09 Jun 2027 11:44:35.172             4.586           265.469
       279   09 Jun 2027 11:45:12.852   09 Jun 2027 11:45:18.523             5.671           434.875
       280   09 Jun 2027 11:46:29.464   09 Jun 2027 11:46:34.894             5.430          2145.969
       281   09 Jun 2027 11:46:37.344   09 Jun 2027 11:46:38.123             0.779            76.562
       282   09 Jun 2027 11:47:19.774   09 Jun 2027 11:47:23.196             3.422          1231.281
       283   09 Jun 2027 11:47:48.998   09 Jun 2027 11:47:52.595             3.597           806.312
       284   09 Jun 2027 11:48:21.971   09 Jun 2027 11:48:30.693             8.722           863.187
       285   09 Jun 2027 11:48:39.526   09 Jun 2027 11:48:42.359             2.833           276.031
       286   10 Jun 2027 04:06:15.101   10 Jun 2027 04:09:33.599           198.498         99249.000
       287   10 Jun 2027 04:11:17.439   10 Jun 2027 04:11:47.887            30.448         15224.000
       288   10 Jun 2027 05:32:07.585   10 Jun 2027 05:32:18.545            10.960          5480.000
       289   10 Jun 2027 05:43:16.363   10 Jun 2027 05:44:54.304            97.941         48656.093
       290   10 Jun 2027 05:45:52.038   10 Jun 2027 05:45:58.701             6.663           297.250
       291   10 Jun 2027 07:06:13.400   10 Jun 2027 07:06:26.730            13.330          6558.312
       292   10 Jun 2027 07:06:39.836   10 Jun 2027 07:06:42.656             2.820           318.156
       293   10 Jun 2027 07:08:00.363   10 Jun 2027 07:08:09.702             9.339          1720.094
       294   10 Jun 2027 07:09:23.313   10 Jun 2027 07:09:35.290            11.977          2283.125
       295   10 Jun 2027 07:10:22.751   10 Jun 2027 07:10:23.731             0.980           490.000
       296   10 Jun 2027 07:10:27.057   10 Jun 2027 07:10:27.057             0.000             0.000
       297   10 Jun 2027 08:41:29.757   10 Jun 2027 08:41:34.863             5.106          2308.656
       298   10 Jun 2027 08:41:59.313   10 Jun 2027 08:42:01.796             2.483           545.969
       299   10 Jun 2027 08:44:06.497   10 Jun 2027 08:44:14.046             7.549          3609.625
       300   10 Jun 2027 08:44:29.404   10 Jun 2027 08:44:30.609             1.205            12.250
       301   10 Jun 2027 08:45:47.962   10 Jun 2027 08:45:49.943             1.981           587.563
       302   10 Jun 2027 10:17:40.774   10 Jun 2027 10:17:51.851            11.077          4023.156
       303   10 Jun 2027 10:18:43.223   10 Jun 2027 10:18:48.223             5.000           950.281
       304   10 Jun 2027 10:19:42.934   10 Jun 2027 10:19:49.221             6.287           243.406
       305   10 Jun 2027 10:21:05.519   10 Jun 2027 10:21:06.742             1.223           589.000
       306   10 Jun 2027 10:21:41.912   10 Jun 2027 10:21:44.280             2.368           844.625
       307   10 Jun 2027 10:22:51.677   10 Jun 2027 10:22:53.119             1.442           237.437
       308   10 Jun 2027 10:24:06.444   10 Jun 2027 10:24:11.397             4.953          1685.937
       309   10 Jun 2027 10:24:43.007   10 Jun 2027 10:24:47.881             4.874           283.719
       310   10 Jun 2027 11:54:44.980   10 Jun 2027 11:55:00.759            15.779          7741.187
       311   10 Jun 2027 11:56:07.394   10 Jun 2027 11:56:12.991             5.597           136.000
       312   10 Jun 2027 11:57:13.396   10 Jun 2027 11:57:19.256             5.860            43.281
       313   10 Jun 2027 11:57:44.443   10 Jun 2027 11:57:47.523             3.080           497.906
       314   10 Jun 2027 11:58:32.175   10 Jun 2027 11:58:34.692             2.517           416.000
       315   10 Jun 2027 11:59:04.877   10 Jun 2027 11:59:11.368             6.491           818.000
       316   10 Jun 2027 11:59:23.867   10 Jun 2027 11:59:30.167             6.300           286.250
       317   10 Jun 2027 11:59:37.957   10 Jun 2027 11:59:43.364             5.407           243.437
       318   11 Jun 2027 04:18:44.723   11 Jun 2027 04:21:38.635           173.912         86956.000
       319   11 Jun 2027 04:21:46.305   11 Jun 2027 04:21:59.314            13.009          6504.500
       320   11 Jun 2027 05:43:36.630   11 Jun 2027 05:44:09.919            33.289         16644.500
       321   11 Jun 2027 05:55:19.027   11 Jun 2027 05:56:21.798            62.771         31385.500
       322   11 Jun 2027 07:17:32.373   11 Jun 2027 07:18:11.058            38.685         19342.500
       323   11 Jun 2027 07:18:23.706   11 Jun 2027 07:18:26.387             2.681           604.031
       324   11 Jun 2027 07:19:33.214   11 Jun 2027 07:19:37.214             4.000           566.437
       325   11 Jun 2027 07:19:47.128   11 Jun 2027 07:19:47.128             0.000             0.000
       326   11 Jun 2027 07:20:13.604   11 Jun 2027 07:20:16.026             2.422          1037.031
       327   11 Jun 2027 07:21:22.556   11 Jun 2027 07:21:28.748             6.192          1591.469
       328   11 Jun 2027 07:22:27.042   11 Jun 2027 07:22:33.095             6.053          1174.875
       329   11 Jun 2027 08:52:36.694   11 Jun 2027 08:52:43.408             6.714          2144.406
       330   11 Jun 2027 08:53:27.336   11 Jun 2027 08:53:29.723             2.387           585.000
       331   11 Jun 2027 08:54:09.770   11 Jun 2027 08:54:09.770             0.000             0.000
       332   11 Jun 2027 08:54:57.476   11 Jun 2027 08:55:05.244             7.768          2742.281
       333   11 Jun 2027 08:55:32.455   11 Jun 2027 08:55:32.455             0.000             0.000
       334   11 Jun 2027 08:55:48.110   11 Jun 2027 08:55:56.744             8.634          1259.469
       335   11 Jun 2027 08:56:37.930   11 Jun 2027 08:56:45.487             7.557           951.031
       336   11 Jun 2027 08:58:03.649   11 Jun 2027 08:58:06.725             3.076           535.531
       337   11 Jun 2027 08:58:34.775   11 Jun 2027 08:58:37.724             2.949           839.063
       338   11 Jun 2027 08:58:52.245   11 Jun 2027 08:58:55.130             2.885           191.344
       339   11 Jun 2027 10:29:58.051   11 Jun 2027 10:30:08.831            10.780          3566.750
       340   11 Jun 2027 10:31:56.923   11 Jun 2027 10:31:59.990             3.067           871.250
       341   11 Jun 2027 10:33:15.264   11 Jun 2027 10:33:19.163             3.899           523.250
       342   11 Jun 2027 10:33:25.394   11 Jun 2027 10:33:28.807             3.413            48.562
       343   11 Jun 2027 10:34:33.550   11 Jun 2027 10:34:35.017             1.467           517.250
       344   11 Jun 2027 10:35:13.620   11 Jun 2027 10:35:15.681             2.061           569.875
       345   11 Jun 2027 10:35:58.101   11 Jun 2027 10:36:00.695             2.594          1190.281
       346   11 Jun 2027 10:37:17.613   11 Jun 2027 10:37:18.084             0.471           235.500
       347   12 Jun 2027 04:30:45.503   12 Jun 2027 04:32:07.174            81.671         40835.500
       348   12 Jun 2027 04:33:11.538   12 Jun 2027 04:33:50.165            38.627         19313.500
       349   12 Jun 2027 04:33:58.014   12 Jun 2027 04:34:49.015            51.001         25500.500
       350   12 Jun 2027 04:35:40.146   12 Jun 2027 04:36:03.614            23.468         11734.000
       351   12 Jun 2027 04:37:43.499   12 Jun 2027 04:37:51.353             7.854          3927.000
       352   12 Jun 2027 05:55:06.754   12 Jun 2027 05:55:39.240            32.486         16243.000
       353   12 Jun 2027 05:57:17.198   12 Jun 2027 05:57:20.165             2.967          1483.500
       354   12 Jun 2027 06:07:20.664   12 Jun 2027 06:07:52.248            31.584         15792.000
       355   12 Jun 2027 07:29:16.804   12 Jun 2027 07:30:06.159            49.355         23779.688
       356   12 Jun 2027 07:31:19.573   12 Jun 2027 07:31:23.729             4.156           611.313
       357   12 Jun 2027 07:31:59.117   12 Jun 2027 07:32:12.084            12.967           907.625
       358   12 Jun 2027 07:32:52.675   12 Jun 2027 07:32:52.675             0.000             0.000
       359   12 Jun 2027 07:32:54.396   12 Jun 2027 07:32:59.828             5.432          1246.938
       360   12 Jun 2027 07:33:46.177   12 Jun 2027 07:33:47.897             1.720           784.437
       361   12 Jun 2027 07:34:14.835   12 Jun 2027 07:34:16.491             1.656           706.375
       362   12 Jun 2027 07:34:26.990   12 Jun 2027 07:34:30.314             3.324           107.469
       363   12 Jun 2027 09:04:04.935   12 Jun 2027 09:04:13.911             8.976          3730.781
       364   12 Jun 2027 09:05:50.458   12 Jun 2027 09:05:50.607             0.149            74.500
       365   12 Jun 2027 09:06:02.466   12 Jun 2027 09:06:07.699             5.233          2168.500
       366   12 Jun 2027 09:09:41.215   12 Jun 2027 09:09:55.136            13.921          6672.375
       367   12 Jun 2027 09:11:58.194   12 Jun 2027 09:12:00.653             2.459          1229.500
       368   12 Jun 2027 09:12:25.079   12 Jun 2027 09:12:28.727             3.648          1433.656
       369   12 Jun 2027 10:41:53.898   12 Jun 2027 10:42:07.268            13.370          3974.969
       370   12 Jun 2027 10:43:31.329   12 Jun 2027 10:43:31.999             0.670            27.781
       371   12 Jun 2027 10:44:02.932   12 Jun 2027 10:44:04.922             1.990           966.656
       372   12 Jun 2027 10:44:53.674   12 Jun 2027 10:44:56.848             3.174           986.000
       373   12 Jun 2027 10:45:48.843   12 Jun 2027 10:45:53.048             4.205          1624.844
       374   12 Jun 2027 10:46:10.724   12 Jun 2027 10:46:14.289             3.565           123.563
       375   12 Jun 2027 10:47:02.182   12 Jun 2027 10:47:05.116             2.934           309.656
       376   12 Jun 2027 10:47:13.822   12 Jun 2027 10:47:14.952             1.130           272.063
       377   12 Jun 2027 10:47:47.802   12 Jun 2027 10:47:50.513             2.711           837.344
       378   12 Jun 2027 10:48:12.577   12 Jun 2027 10:48:14.695             2.118           571.094
       379   12 Jun 2027 10:49:02.053   12 Jun 2027 10:49:08.166             6.113          1341.656
       380   13 Jun 2027 03:04:42.004   13 Jun 2027 03:05:13.909            31.905         15952.500
       381   13 Jun 2027 03:06:10.386   13 Jun 2027 03:06:21.528            11.142          5571.000
       382   13 Jun 2027 03:06:48.777   13 Jun 2027 03:07:08.014            19.237          9618.500
       383   13 Jun 2027 03:07:56.617   13 Jun 2027 03:08:12.424            15.807          7903.500
       384   13 Jun 2027 03:09:55.419   13 Jun 2027 03:10:12.009            16.590          8295.000
       385   13 Jun 2027 04:43:06.364   13 Jun 2027 04:44:42.885            96.521         48260.500
       386   13 Jun 2027 04:45:48.924   13 Jun 2027 04:47:45.484           116.560         58231.969
       387   13 Jun 2027 04:48:01.807   13 Jun 2027 04:48:04.105             2.298           306.750
       388   13 Jun 2027 06:07:06.145   13 Jun 2027 06:07:35.819            29.674         14556.156
       389   13 Jun 2027 07:43:03.029   13 Jun 2027 07:43:17.729            14.700          4754.656
       390   13 Jun 2027 07:43:38.001   13 Jun 2027 07:43:43.074             5.073           509.813
       391   13 Jun 2027 07:44:37.346   13 Jun 2027 07:44:40.846             3.500          1601.531
       392   13 Jun 2027 07:46:12.355   13 Jun 2027 07:46:17.539             5.184          2280.625
       393   13 Jun 2027 09:16:53.703   13 Jun 2027 09:17:00.802             7.099          3046.813
       394   13 Jun 2027 09:18:40.026   13 Jun 2027 09:18:43.451             3.425           694.625
       395   13 Jun 2027 09:20:08.372   13 Jun 2027 09:20:08.372             0.000             0.000
       396   13 Jun 2027 09:20:38.734   13 Jun 2027 09:20:46.822             8.088          3175.312
       397   13 Jun 2027 09:22:49.483   13 Jun 2027 09:22:54.127             4.644          1940.875
       398   13 Jun 2027 09:23:31.652   13 Jun 2027 09:23:33.196             1.544           381.562
       399   13 Jun 2027 09:24:34.873   13 Jun 2027 09:24:37.968             3.095          1433.906
       400   13 Jun 2027 10:54:00.568   13 Jun 2027 10:54:13.670            13.102          6109.875
       401   13 Jun 2027 10:55:17.836   13 Jun 2027 10:55:19.395             1.559           710.812
       402   13 Jun 2027 10:56:42.607   13 Jun 2027 10:56:46.955             4.348          1906.063
       403   13 Jun 2027 10:57:34.426   13 Jun 2027 10:57:38.630             4.204          1483.187
       404   13 Jun 2027 10:58:07.570   13 Jun 2027 10:58:12.078             4.508           754.063
       405   13 Jun 2027 10:58:58.940   13 Jun 2027 10:58:58.940             0.000             0.000
       406   13 Jun 2027 10:59:16.448   13 Jun 2027 10:59:20.254             3.806          1881.625
       407   13 Jun 2027 11:00:31.126   13 Jun 2027 11:00:33.182             2.056           808.875
       408   13 Jun 2027 11:00:46.686   13 Jun 2027 11:00:49.312             2.626           336.969
       409   13 Jun 2027 11:01:16.934   13 Jun 2027 11:01:17.507             0.573           286.500
