uniorb/output/strategy_4/Camera/Camera_KinoSat_111904.txt

KinoSat_111904
-------------------------
    Access    *     Start Time (UTCG)     *     Stop Time (UTCG)  *   Duration (s) *   Data (Mbytes)
         1   01 Jun 2027 03:10:25.965   01 Jun 2027 03:11:17.700            51.735         25867.500
         2   01 Jun 2027 03:11:50.304   01 Jun 2027 03:12:36.341            46.037         23018.500
         3   01 Jun 2027 03:14:07.679   01 Jun 2027 03:14:08.060             0.381           190.500
         4   01 Jun 2027 03:14:25.796   01 Jun 2027 03:14:39.544            13.748          6874.000
         5   01 Jun 2027 04:48:39.313   01 Jun 2027 04:49:39.981            60.668         30334.000
         6   01 Jun 2027 04:49:45.776   01 Jun 2027 04:50:13.539            27.763         13881.500
         7   01 Jun 2027 04:50:17.395   01 Jun 2027 04:50:30.644            13.249          6624.500
         8   01 Jun 2027 04:53:11.514   01 Jun 2027 04:53:18.369             6.855          3427.500
         9   01 Jun 2027 04:54:34.886   01 Jun 2027 04:54:43.646             8.760          4380.000
        10   01 Jun 2027 06:27:40.242   01 Jun 2027 06:29:42.744           122.502         61251.000
        11   01 Jun 2027 07:50:02.347   01 Jun 2027 07:51:35.482            93.135         46567.500
        12   01 Jun 2027 07:52:32.162   01 Jun 2027 07:52:47.660            15.498          7749.000
        13   01 Jun 2027 09:26:37.245   01 Jun 2027 09:28:33.025           115.780         57890.000
        14   01 Jun 2027 11:01:46.202   01 Jun 2027 11:02:29.235            43.033         21516.500
        15   01 Jun 2027 11:07:33.671   01 Jun 2027 11:08:32.487            58.816         29408.000
        16   02 Jun 2027 03:22:22.519   02 Jun 2027 03:23:16.193            53.674         26837.000
        17   02 Jun 2027 03:23:19.058   02 Jun 2027 03:24:03.861            44.803         22401.500
        18   02 Jun 2027 03:24:09.904   02 Jun 2027 03:24:36.375            26.471         13235.500
        19   02 Jun 2027 03:25:46.513   02 Jun 2027 03:26:13.077            26.564         13282.000
        20   02 Jun 2027 03:27:42.613   02 Jun 2027 03:27:54.604            11.991          5995.500
        21   02 Jun 2027 05:00:35.339   02 Jun 2027 05:01:31.213            55.874         27937.000
        22   02 Jun 2027 05:01:42.133   02 Jun 2027 05:04:06.325           144.192         72096.000
        23   02 Jun 2027 05:04:54.187   02 Jun 2027 05:05:14.717            20.530         10265.000
        24   02 Jun 2027 06:38:51.212   02 Jun 2027 06:42:15.638           204.426        102213.000
        25   02 Jun 2027 08:02:13.350   02 Jun 2027 08:03:36.399            83.049         41524.500
        26   02 Jun 2027 09:38:48.251   02 Jun 2027 09:39:56.818            68.567         32751.657
        27   02 Jun 2027 09:40:43.961   02 Jun 2027 09:40:45.658             1.697           621.875
        28   02 Jun 2027 09:41:47.833   02 Jun 2027 09:41:51.061             3.228          1365.719
        29   02 Jun 2027 11:13:58.305   02 Jun 2027 11:14:09.262            10.957          4620.969
        30   02 Jun 2027 11:16:45.056   02 Jun 2027 11:16:55.965            10.909          4595.625
        31   02 Jun 2027 11:18:21.756   02 Jun 2027 11:18:21.756             0.000             0.000
        32   02 Jun 2027 11:20:07.613   02 Jun 2027 11:20:18.848            11.235          5504.094
        33   02 Jun 2027 11:20:33.021   02 Jun 2027 11:20:34.121             1.100           442.906
        34   03 Jun 2027 03:34:23.424   03 Jun 2027 03:34:37.067            13.643          6821.500
        35   03 Jun 2027 03:34:49.690   03 Jun 2027 03:37:52.884           183.194         91597.000
        36   03 Jun 2027 03:38:15.084   03 Jun 2027 03:38:41.944            26.860         13430.000
        37   03 Jun 2027 03:39:52.204   03 Jun 2027 03:39:55.272             3.068          1534.000
        38   03 Jun 2027 05:13:41.187   03 Jun 2027 05:15:14.427            93.240         46515.813
        39   03 Jun 2027 05:16:15.630   03 Jun 2027 05:16:17.121             1.491           111.375
        40   03 Jun 2027 05:17:28.614   03 Jun 2027 05:17:30.281             1.667           616.562
        41   03 Jun 2027 05:20:10.287   03 Jun 2027 05:20:20.378            10.091          4549.437
        42   03 Jun 2027 05:20:34.802   03 Jun 2027 05:20:36.198             1.396           450.750
        43   03 Jun 2027 06:50:47.620   03 Jun 2027 06:50:57.243             9.623          3951.031
        44   03 Jun 2027 06:54:14.339   03 Jun 2027 06:54:15.880             1.541            66.531
        45   03 Jun 2027 08:14:45.032   03 Jun 2027 08:15:11.188            26.156          8084.031
        46   03 Jun 2027 08:15:49.492   03 Jun 2027 08:16:02.310            12.818           935.375
        47   03 Jun 2027 09:50:36.527   03 Jun 2027 09:50:44.200             7.673          3479.563
        48   03 Jun 2027 09:52:14.796   03 Jun 2027 09:52:19.416             4.620          1973.906
        49   03 Jun 2027 09:53:04.337   03 Jun 2027 09:53:04.938             0.601           300.500
        50   03 Jun 2027 09:53:05.836   03 Jun 2027 09:53:08.464             2.628          1131.344
        51   03 Jun 2027 11:25:28.727   03 Jun 2027 11:25:46.029            17.302          5990.969
        52   03 Jun 2027 11:27:35.688   03 Jun 2027 11:27:42.160             6.472          2913.656
        53   03 Jun 2027 11:28:39.538   03 Jun 2027 11:28:39.538             0.000             0.000
        54   03 Jun 2027 11:31:54.879   03 Jun 2027 11:32:10.949            16.070          6604.375
        55   03 Jun 2027 11:32:38.915   03 Jun 2027 11:32:42.172             3.257           763.375
        56   04 Jun 2027 03:47:04.470   04 Jun 2027 03:49:12.970           128.500         64250.000
        57   04 Jun 2027 03:50:53.909   04 Jun 2027 03:51:42.163            48.254         24127.000
        58   04 Jun 2027 03:52:03.497   04 Jun 2027 03:52:25.665            22.168         11084.000
        59   04 Jun 2027 03:53:13.169   04 Jun 2027 03:53:25.390            12.221          6110.500
        60   04 Jun 2027 05:25:49.589   04 Jun 2027 05:27:42.429           112.840         55407.438
        61   04 Jun 2027 05:28:23.459   04 Jun 2027 05:28:29.039             5.580          1282.188
        62   04 Jun 2027 05:29:08.855   04 Jun 2027 05:29:09.847             0.992           323.031
        63   04 Jun 2027 05:29:35.780   04 Jun 2027 05:29:38.403             2.623           462.125
        64   04 Jun 2027 05:32:05.969   04 Jun 2027 05:32:17.504            11.535          4590.656
        65   04 Jun 2027 06:51:27.008   04 Jun 2027 06:51:37.348            10.340          4634.594
        66   04 Jun 2027 06:51:48.884   04 Jun 2027 06:51:56.927             8.043           185.844
        67   04 Jun 2027 07:02:45.692   04 Jun 2027 07:02:52.445             6.753          2515.531
        68   04 Jun 2027 07:04:08.954   04 Jun 2027 07:04:11.699             2.745           294.719
        69   04 Jun 2027 08:25:21.048   04 Jun 2027 08:25:33.332            12.284          6050.344
        70   04 Jun 2027 08:25:47.905   04 Jun 2027 08:25:53.944             6.039           409.594
        71   04 Jun 2027 08:26:13.861   04 Jun 2027 08:26:15.560             1.699           593.469
        72   04 Jun 2027 08:27:37.109   04 Jun 2027 08:27:42.834             5.725          2224.969
        73   04 Jun 2027 08:29:01.625   04 Jun 2027 08:29:06.628             5.003          2185.125
        74   04 Jun 2027 08:30:00.843   04 Jun 2027 08:30:02.498             1.655           827.500
        75   04 Jun 2027 10:00:52.432   04 Jun 2027 10:00:59.074             6.642          2540.938
        76   04 Jun 2027 10:04:50.309   04 Jun 2027 10:05:00.370            10.061          3931.781
        77   04 Jun 2027 10:05:33.211   04 Jun 2027 10:05:37.274             4.063           814.156
        78   04 Jun 2027 10:06:10.660   04 Jun 2027 10:06:11.817             1.157           546.438
        79   04 Jun 2027 10:06:20.498   04 Jun 2027 10:06:21.733             1.235           258.688
        80   04 Jun 2027 11:37:39.932   04 Jun 2027 11:37:39.932             0.000             0.000
        81   04 Jun 2027 11:44:00.949   04 Jun 2027 11:44:43.843            42.894         19955.594
        82   05 Jun 2027 03:59:11.609   05 Jun 2027 04:02:28.184           196.575         98287.500
        83   05 Jun 2027 05:38:15.700   05 Jun 2027 05:40:11.864           116.164         58082.000
        84   05 Jun 2027 05:40:36.794   05 Jun 2027 05:40:55.598            18.804          8335.781
        85   05 Jun 2027 05:43:34.162   05 Jun 2027 05:43:42.976             8.814          4031.781
        86   05 Jun 2027 05:44:09.883   05 Jun 2027 05:44:11.602             1.719           643.750
        87   05 Jun 2027 07:03:05.225   05 Jun 2027 07:03:16.262            11.037          5244.563
        88   05 Jun 2027 07:03:19.707   05 Jun 2027 07:03:21.124             1.417           107.656
        89   05 Jun 2027 07:03:47.138   05 Jun 2027 07:03:47.138             0.000             0.000
        90   05 Jun 2027 07:04:28.623   05 Jun 2027 07:04:35.212             6.589          1596.594
        91   05 Jun 2027 07:14:45.206   05 Jun 2027 07:14:53.768             8.562          1877.500
        92   05 Jun 2027 08:37:03.994   05 Jun 2027 08:37:24.117            20.123          9064.500
        93   05 Jun 2027 08:39:00.027   05 Jun 2027 08:39:03.521             3.494          1521.000
        94   05 Jun 2027 08:39:56.456   05 Jun 2027 08:40:00.170             3.714          1002.969
        95   05 Jun 2027 10:12:00.330   05 Jun 2027 10:12:08.263             7.933          3937.844
        96   05 Jun 2027 10:13:09.956   05 Jun 2027 10:13:13.069             3.113          1014.906
        97   05 Jun 2027 10:14:05.876   05 Jun 2027 10:14:10.871             4.995          1501.594
        98   05 Jun 2027 10:17:25.051   05 Jun 2027 10:17:42.869            17.818          5721.031
        99   05 Jun 2027 10:18:04.074   05 Jun 2027 10:18:05.850             1.776           662.656
       100   05 Jun 2027 10:18:51.873   05 Jun 2027 10:18:54.619             2.746           795.594
       101   05 Jun 2027 10:20:01.214   05 Jun 2027 10:20:04.023             2.809          1119.312
       102   05 Jun 2027 11:52:45.471   05 Jun 2027 11:53:15.649            30.178         11547.750
       103   05 Jun 2027 11:54:54.154   05 Jun 2027 11:54:58.855             4.701          2165.344
       104   05 Jun 2027 11:55:45.971   05 Jun 2027 11:55:50.166             4.195          1348.844
       105   05 Jun 2027 11:56:20.595   05 Jun 2027 11:56:22.176             1.581           644.313
       106   06 Jun 2027 04:11:35.595   06 Jun 2027 04:11:57.469            21.874         10937.000
       107   06 Jun 2027 04:12:04.668   06 Jun 2027 04:12:34.553            29.885         14942.500
       108   06 Jun 2027 04:12:39.646   06 Jun 2027 04:13:33.738            54.092         27046.000
       109   06 Jun 2027 04:13:35.979   06 Jun 2027 04:14:29.360            53.381         26690.500
       110   06 Jun 2027 04:16:06.744   06 Jun 2027 04:16:23.119            16.375          8187.500
       111   06 Jun 2027 05:50:20.053   06 Jun 2027 05:51:51.339            91.286         45643.000
       112   06 Jun 2027 05:52:31.393   06 Jun 2027 05:53:39.424            68.031         34015.500
       113   06 Jun 2027 05:54:59.200   06 Jun 2027 05:55:09.813            10.613          3049.156
       114   06 Jun 2027 05:55:40.796   06 Jun 2027 05:55:43.354             2.558           968.219
       115   06 Jun 2027 05:57:07.964   06 Jun 2027 05:57:14.926             6.962          2276.000
       116   06 Jun 2027 07:14:38.849   06 Jun 2027 07:14:54.048            15.199          6790.156
       117   06 Jun 2027 07:15:22.954   06 Jun 2027 07:15:24.372             1.418           528.594
       118   06 Jun 2027 07:15:48.841   06 Jun 2027 07:15:48.841             0.000             0.000
       119   06 Jun 2027 07:16:10.973   06 Jun 2027 07:16:14.404             3.431          1220.438
       120   06 Jun 2027 07:16:37.047   06 Jun 2027 07:16:38.370             1.323           202.750
       121   06 Jun 2027 07:26:59.871   06 Jun 2027 07:27:04.902             5.031          2250.875
       122   06 Jun 2027 08:48:36.016   06 Jun 2027 08:48:56.092            20.076          9585.938
       123   06 Jun 2027 08:50:45.086   06 Jun 2027 08:50:48.426             3.340           393.000
       124   06 Jun 2027 08:51:26.204   06 Jun 2027 08:51:35.701             9.497          1180.562
       125   06 Jun 2027 08:52:20.855   06 Jun 2027 08:52:27.582             6.727          1411.062
       126   06 Jun 2027 08:53:32.531   06 Jun 2027 08:53:32.531             0.000             0.000
       127   06 Jun 2027 08:54:08.401   06 Jun 2027 08:54:15.224             6.823          3150.594
       128   06 Jun 2027 10:23:29.498   06 Jun 2027 10:23:36.333             6.835          2154.719
       129   06 Jun 2027 10:25:38.098   06 Jun 2027 10:25:43.314             5.216          2253.250
       130   06 Jun 2027 10:26:12.211   06 Jun 2027 10:26:14.570             2.359           518.688
       131   06 Jun 2027 10:29:08.422   06 Jun 2027 10:29:18.725            10.303          3853.813
       132   06 Jun 2027 10:30:45.428   06 Jun 2027 10:30:45.428             0.000             0.000
       133   06 Jun 2027 10:32:09.619   06 Jun 2027 10:32:16.393             6.774          2955.469
       134   06 Jun 2027 10:32:19.846   06 Jun 2027 10:32:22.687             2.841            40.656
       135   07 Jun 2027 04:24:15.056   07 Jun 2027 04:24:28.032            12.976          6488.000
       136   07 Jun 2027 04:24:38.062   07 Jun 2027 04:25:38.793            60.731         30365.500
       137   07 Jun 2027 04:25:47.694   07 Jun 2027 04:26:12.699            25.005         12502.500
       138   07 Jun 2027 04:26:24.260   07 Jun 2027 04:27:15.432            51.172         25586.000
       139   07 Jun 2027 04:28:06.818   07 Jun 2027 04:28:09.410             2.592          1296.000
       140   07 Jun 2027 04:28:22.998   07 Jun 2027 04:28:52.102            29.104         14552.000
       141   07 Jun 2027 04:29:18.639   07 Jun 2027 04:29:18.715             0.076            38.000
       142   07 Jun 2027 06:02:46.357   07 Jun 2027 06:05:20.415           154.058         76273.187
       143   07 Jun 2027 06:06:20.776   07 Jun 2027 06:06:23.551             2.775          1144.844
       144   07 Jun 2027 06:07:08.591   07 Jun 2027 06:07:09.578             0.987           493.500
       145   07 Jun 2027 06:07:37.709   07 Jun 2027 06:07:39.259             1.550           775.000
       146   07 Jun 2027 07:26:34.955   07 Jun 2027 07:26:55.238            20.283          7297.562
       147   07 Jun 2027 07:27:44.424   07 Jun 2027 07:27:44.424             0.000             0.000
       148   07 Jun 2027 07:27:50.417   07 Jun 2027 07:27:55.005             4.588          1530.969
       149   07 Jun 2027 09:02:35.183   07 Jun 2027 09:02:56.267            21.084         10352.281
       150   07 Jun 2027 09:03:10.819   07 Jun 2027 09:03:12.851             2.032           127.344
       151   07 Jun 2027 09:03:18.763   07 Jun 2027 09:03:21.679             2.916           117.781
       152   07 Jun 2027 09:04:14.043   07 Jun 2027 09:04:17.554             3.511          1448.250
       153   07 Jun 2027 09:05:15.383   07 Jun 2027 09:05:20.993             5.610           592.719
       154   07 Jun 2027 10:36:22.977   07 Jun 2027 10:36:30.303             7.326          3432.063
       155   07 Jun 2027 10:38:26.266   07 Jun 2027 10:38:27.472             1.206           594.656
       156   07 Jun 2027 10:38:50.438   07 Jun 2027 10:38:51.823             1.385           605.188
       157   07 Jun 2027 10:41:08.190   07 Jun 2027 10:41:16.723             8.533          3988.469
       158   07 Jun 2027 10:42:03.779   07 Jun 2027 10:42:06.957             3.178          1134.688
       159   07 Jun 2027 10:42:35.015   07 Jun 2027 10:42:41.694             6.679           763.250
       160   07 Jun 2027 10:43:21.666   07 Jun 2027 10:43:21.666             0.000             0.000
       161   08 Jun 2027 03:00:10.498   08 Jun 2027 03:00:24.985            14.487          7243.500
       162   08 Jun 2027 03:00:51.765   08 Jun 2027 03:00:53.628             1.863           931.500
       163   08 Jun 2027 03:01:13.763   08 Jun 2027 03:01:22.202             8.439          4219.500
       164   08 Jun 2027 03:01:58.086   08 Jun 2027 03:02:16.436            18.350          9175.000
       165   08 Jun 2027 03:03:56.394   08 Jun 2027 03:04:05.795             9.401          4700.500
       166   08 Jun 2027 03:04:20.893   08 Jun 2027 03:04:32.321            11.428          5714.000
       167   08 Jun 2027 03:05:22.476   08 Jun 2027 03:05:38.614            16.138          8069.000
       168   08 Jun 2027 03:06:03.081   08 Jun 2027 03:06:04.100             1.019           509.500
       169   08 Jun 2027 04:36:48.811   08 Jun 2027 04:37:16.044            27.233         13616.500
       170   08 Jun 2027 04:37:26.718   08 Jun 2027 04:38:49.262            82.544         41272.000
       171   08 Jun 2027 04:39:00.092   08 Jun 2027 04:39:18.673            18.581          9290.500
       172   08 Jun 2027 04:41:40.964   08 Jun 2027 04:42:05.734            24.770         12385.000
       173   08 Jun 2027 04:42:06.924   08 Jun 2027 04:42:16.166             9.242          4621.000
       174   08 Jun 2027 06:15:05.268   08 Jun 2027 06:16:48.078           102.810         51078.249
       175   08 Jun 2027 06:18:55.692   08 Jun 2027 06:18:57.164             1.472           521.937
       176   08 Jun 2027 06:19:33.583   08 Jun 2027 06:19:36.143             2.560          1129.781
       177   08 Jun 2027 07:38:27.783   08 Jun 2027 07:38:44.465            16.682          7158.500
       178   08 Jun 2027 07:39:51.821   08 Jun 2027 07:39:56.569             4.748          1784.969
       179   08 Jun 2027 07:40:24.519   08 Jun 2027 07:40:25.996             1.477           324.625
       180   08 Jun 2027 09:14:48.659   08 Jun 2027 09:15:08.916            20.257          8053.188
       181   08 Jun 2027 09:15:37.047   08 Jun 2027 09:15:39.737             2.690           257.937
       182   08 Jun 2027 09:16:27.124   08 Jun 2027 09:16:30.958             3.834          1024.750
       183   08 Jun 2027 09:17:17.920   08 Jun 2027 09:17:20.288             2.368           803.187
       184   08 Jun 2027 09:17:44.453   08 Jun 2027 09:17:46.105             1.652           338.281
       185   08 Jun 2027 10:50:41.059   08 Jun 2027 10:51:03.793            22.734         10624.344
       186   08 Jun 2027 10:54:12.276   08 Jun 2027 10:54:21.089             8.813          4126.500
       187   08 Jun 2027 10:55:35.195   08 Jun 2027 10:55:38.267             3.072          1114.375
       188   08 Jun 2027 10:55:50.392   08 Jun 2027 10:55:51.425             1.033           297.000
       189   08 Jun 2027 10:56:51.183   08 Jun 2027 10:56:53.697             2.514          1254.312
       190   09 Jun 2027 03:10:41.808   09 Jun 2027 03:10:55.375            13.567          6783.500
       191   09 Jun 2027 03:12:05.294   09 Jun 2027 03:13:33.134            87.840         43920.000
       192   09 Jun 2027 03:13:45.761   09 Jun 2027 03:13:58.904            13.143          6571.500
       193   09 Jun 2027 03:14:54.484   09 Jun 2027 03:15:04.712            10.228          5114.000
       194   09 Jun 2027 03:17:59.094   09 Jun 2027 03:18:02.442             3.348          1674.000
       195   09 Jun 2027 04:48:55.777   09 Jun 2027 04:49:57.210            61.433         30716.500
       196   09 Jun 2027 04:50:02.855   09 Jun 2027 04:51:34.554            91.699         45849.500
       197   09 Jun 2027 04:51:42.006   09 Jun 2027 04:52:33.838            51.832         24074.469
       198   09 Jun 2027 06:27:57.864   09 Jun 2027 06:28:24.940            27.076         13270.719
       199   09 Jun 2027 06:30:42.831   09 Jun 2027 06:30:47.598             4.767           267.219
       200   09 Jun 2027 07:50:28.951   09 Jun 2027 07:50:41.827            12.876          5578.656
       201   09 Jun 2027 07:51:52.995   09 Jun 2027 07:52:01.134             8.139          2113.688
       202   09 Jun 2027 07:52:12.850   09 Jun 2027 07:52:18.379             5.529           110.688
       203   09 Jun 2027 09:26:55.182   09 Jun 2027 09:27:02.215             7.033          3065.813
       204   09 Jun 2027 09:27:47.760   09 Jun 2027 09:27:51.297             3.537           654.219
       205   09 Jun 2027 09:29:33.476   09 Jun 2027 09:29:33.476             0.000             0.000
       206   09 Jun 2027 09:29:37.289   09 Jun 2027 09:29:49.774            12.485          3079.188
       207   09 Jun 2027 11:02:03.568   09 Jun 2027 11:02:17.401            13.833          4000.500
       208   09 Jun 2027 11:05:05.454   09 Jun 2027 11:05:16.162            10.708          4362.875
       209   09 Jun 2027 11:07:37.592   09 Jun 2027 11:07:48.337            10.745          3643.656
       210   09 Jun 2027 11:07:53.385   09 Jun 2027 11:07:58.183             4.798            30.719
       211   09 Jun 2027 11:08:39.700   09 Jun 2027 11:08:39.700             0.000             0.000
       212   09 Jun 2027 11:08:46.186   09 Jun 2027 11:08:50.124             3.938          1289.219
       213   10 Jun 2027 03:22:40.213   10 Jun 2027 03:23:16.848            36.635         18317.500
       214   10 Jun 2027 03:23:34.187   10 Jun 2027 03:25:51.086           136.899         68449.500
       215   10 Jun 2027 03:25:59.248   10 Jun 2027 03:26:27.873            28.625         14312.500
       216   10 Jun 2027 03:27:57.356   10 Jun 2027 03:28:02.603             5.247          2623.500
       217   10 Jun 2027 03:28:29.643   10 Jun 2027 03:28:53.993            24.350         12175.000
       218   10 Jun 2027 05:00:53.654   10 Jun 2027 05:01:31.062            37.408         18704.000
       219   10 Jun 2027 05:02:23.153   10 Jun 2027 05:03:33.088            69.935         34909.312
       220   10 Jun 2027 05:06:19.903   10 Jun 2027 05:06:28.299             8.396          1577.281
       221   10 Jun 2027 06:39:07.568   10 Jun 2027 06:39:18.616            11.048          4864.094
       222   10 Jun 2027 06:42:42.844   10 Jun 2027 06:42:46.004             3.160           394.219
       223   10 Jun 2027 08:02:29.498   10 Jun 2027 08:02:48.011            18.513          6913.719
       224   10 Jun 2027 08:03:17.755   10 Jun 2027 08:03:22.748             4.993           452.000
       225   10 Jun 2027 08:03:56.884   10 Jun 2027 08:04:00.096             3.212           686.906
       226   10 Jun 2027 08:05:18.126   10 Jun 2027 08:05:22.677             4.551          2228.250
       227   10 Jun 2027 09:39:05.852   10 Jun 2027 09:39:11.521             5.669          2463.844
       228   10 Jun 2027 09:40:40.255   10 Jun 2027 09:40:47.381             7.126          2210.187
       229   10 Jun 2027 09:41:22.210   10 Jun 2027 09:41:25.844             3.634           609.344
       230   10 Jun 2027 09:41:32.074   10 Jun 2027 09:41:32.708             0.634           194.687
       231   10 Jun 2027 11:14:15.966   10 Jun 2027 11:14:24.781             8.815          3985.281
       232   10 Jun 2027 11:16:06.521   10 Jun 2027 11:16:14.687             8.166          2881.625
       233   10 Jun 2027 11:17:46.265   10 Jun 2027 11:17:51.596             5.331          1471.250
       234   10 Jun 2027 11:18:04.695   10 Jun 2027 11:18:06.261             1.566           288.844
       235   10 Jun 2027 11:18:37.561   10 Jun 2027 11:18:37.841             0.280           140.000
       236   10 Jun 2027 11:20:39.339   10 Jun 2027 11:20:48.199             8.860          4387.625
       237   11 Jun 2027 03:34:41.637   11 Jun 2027 03:35:04.830            23.193         11596.500
       238   11 Jun 2027 03:35:04.993   11 Jun 2027 03:37:42.974           157.981         78990.500
       239   11 Jun 2027 03:38:07.363   11 Jun 2027 03:38:58.033            50.670         25335.000
       240   11 Jun 2027 03:40:07.000   11 Jun 2027 03:40:10.261             3.261          1630.500
       241   11 Jun 2027 05:13:59.148   11 Jun 2027 05:15:31.198            92.050         45731.250
       242   11 Jun 2027 05:17:18.251   11 Jun 2027 05:17:22.689             4.438          1586.656
       243   11 Jun 2027 05:17:43.768   11 Jun 2027 05:17:48.916             5.148           651.531
       244   11 Jun 2027 05:20:24.704   11 Jun 2027 05:20:34.886            10.182          4499.437
       245   11 Jun 2027 05:20:47.427   11 Jun 2027 05:20:50.096             2.669           372.500
       246   11 Jun 2027 06:40:22.786   11 Jun 2027 06:40:25.081             2.295          1147.500
       247   11 Jun 2027 06:51:05.087   11 Jun 2027 06:51:17.004            11.917          5918.688
       248   11 Jun 2027 06:54:30.357   11 Jun 2027 06:54:30.985             0.628           110.875
       249   11 Jun 2027 08:15:04.952   11 Jun 2027 08:15:25.998            21.046          8282.125
       250   11 Jun 2027 08:15:37.487   11 Jun 2027 08:15:38.760             1.273           109.875
       251   11 Jun 2027 08:17:13.284   11 Jun 2027 08:17:18.424             5.140          2464.531
       252   11 Jun 2027 08:17:21.657   11 Jun 2027 08:17:21.657             0.000             0.000
       253   11 Jun 2027 09:50:50.382   11 Jun 2027 09:50:58.658             8.276          3665.250
       254   11 Jun 2027 09:52:30.669   11 Jun 2027 09:52:35.418             4.749          1927.625
       255   11 Jun 2027 09:53:28.302   11 Jun 2027 09:53:34.888             6.586          1506.938
       256   11 Jun 2027 11:26:18.306   11 Jun 2027 11:26:39.612            21.306          9560.875
       257   11 Jun 2027 11:28:49.530   11 Jun 2027 11:28:54.483             4.953          1821.000
       258   11 Jun 2027 11:32:30.033   11 Jun 2027 11:32:46.080            16.047          6609.688
       259   12 Jun 2027 03:47:22.233   12 Jun 2027 03:49:26.954           124.721         62360.500
       260   12 Jun 2027 03:51:06.265   12 Jun 2027 03:51:51.005            44.740         22370.000
       261   12 Jun 2027 03:52:18.334   12 Jun 2027 03:52:23.914             5.580          2790.000
       262   12 Jun 2027 03:52:47.342   12 Jun 2027 03:53:07.358            20.016         10008.000
       263   12 Jun 2027 03:53:12.365   12 Jun 2027 03:53:40.441            28.076         14038.000
       264   12 Jun 2027 05:26:19.842   12 Jun 2027 05:27:58.647            98.805         48951.937
       265   12 Jun 2027 05:28:37.573   12 Jun 2027 05:28:40.182             2.609          1216.438
       266   12 Jun 2027 05:29:23.886   12 Jun 2027 05:29:25.833             1.947           274.688
       267   12 Jun 2027 05:29:52.580   12 Jun 2027 05:29:54.015             1.435           555.219
       268   12 Jun 2027 05:32:21.009   12 Jun 2027 05:32:32.131            11.122          4593.563
       269   12 Jun 2027 05:33:43.336   12 Jun 2027 05:33:44.000             0.664           332.000
       270   12 Jun 2027 06:51:40.398   12 Jun 2027 06:51:49.756             9.358          4492.781
       271   12 Jun 2027 06:52:04.550   12 Jun 2027 06:52:11.845             7.295           173.625
       272   12 Jun 2027 07:03:03.666   12 Jun 2027 07:03:09.387             5.721          2578.656
       273   12 Jun 2027 07:04:11.418   12 Jun 2027 07:04:14.305             2.887           788.781
       274   12 Jun 2027 07:04:23.617   12 Jun 2027 07:04:26.642             3.025           288.719
       275   12 Jun 2027 08:25:40.726   12 Jun 2027 08:25:52.448            11.722          5586.312
       276   12 Jun 2027 08:26:07.250   12 Jun 2027 08:26:08.909             1.659           415.625
       277   12 Jun 2027 08:26:31.298   12 Jun 2027 08:26:32.572             1.274           601.813
       278   12 Jun 2027 08:27:54.516   12 Jun 2027 08:28:00.187             5.671          2178.937
       279   12 Jun 2027 08:29:18.153   12 Jun 2027 08:29:23.214             5.061          2156.906
       280   12 Jun 2027 08:30:17.984   12 Jun 2027 08:30:21.201             3.217          1608.500
       281   12 Jun 2027 10:01:04.775   12 Jun 2027 10:01:15.440            10.665          4349.438
       282   12 Jun 2027 10:02:36.216   12 Jun 2027 10:02:38.840             2.624           455.500
       283   12 Jun 2027 10:05:25.650   12 Jun 2027 10:05:28.680             3.030          1515.000
       284   12 Jun 2027 10:06:27.789   12 Jun 2027 10:06:38.565            10.776          4861.187
       285   12 Jun 2027 11:40:29.182   12 Jun 2027 11:40:52.818            23.636         11818.000
       286   12 Jun 2027 11:44:00.205   12 Jun 2027 11:44:04.541             4.336          2168.000
       287   12 Jun 2027 11:44:17.294   12 Jun 2027 11:44:31.891            14.597          5039.125
       288   12 Jun 2027 11:45:00.387   12 Jun 2027 11:45:02.098             1.711           439.031
       289   13 Jun 2027 03:59:30.281   13 Jun 2027 04:01:04.388            94.107         47053.500
       290   13 Jun 2027 04:01:05.350   13 Jun 2027 04:02:28.505            83.155         41577.500
       291   13 Jun 2027 04:04:19.242   13 Jun 2027 04:04:59.260            40.018         20009.000
       292   13 Jun 2027 05:38:35.326   13 Jun 2027 05:40:25.978           110.652         55326.000
       293   13 Jun 2027 05:40:43.942   13 Jun 2027 05:40:51.601             7.659          1906.093
       294   13 Jun 2027 05:43:48.941   13 Jun 2027 05:43:58.359             9.418          4032.875
       295   13 Jun 2027 05:44:25.656   13 Jun 2027 05:44:27.169             1.513           637.469
       296   13 Jun 2027 07:03:23.328   13 Jun 2027 07:03:36.128            12.800          5292.625
       297   13 Jun 2027 07:04:09.651   13 Jun 2027 07:04:11.796             2.145          1006.813
       298   13 Jun 2027 07:15:03.068   13 Jun 2027 07:15:08.601             5.533          2490.594
       299   13 Jun 2027 08:37:20.336   13 Jun 2027 08:37:45.870            25.534         11240.125
       300   13 Jun 2027 08:38:16.412   13 Jun 2027 08:38:18.710             2.298           259.531
       301   13 Jun 2027 08:39:54.086   13 Jun 2027 08:40:00.994             6.908          2043.344
       302   13 Jun 2027 08:41:17.218   13 Jun 2027 08:41:21.832             4.614          1972.969
       303   13 Jun 2027 08:42:13.061   13 Jun 2027 08:42:16.767             3.706          1411.094
       304   13 Jun 2027 10:12:14.068   13 Jun 2027 10:12:20.104             6.036          2332.062
       305   13 Jun 2027 10:13:32.416   13 Jun 2027 10:13:41.630             9.214            84.437
       306   13 Jun 2027 10:15:25.495   13 Jun 2027 10:15:30.397             4.902          2048.469
       307   13 Jun 2027 10:17:26.003   13 Jun 2027 10:17:32.134             6.131          2706.688
       308   13 Jun 2027 10:18:14.752   13 Jun 2027 10:18:18.877             4.125           884.500
       309   13 Jun 2027 10:18:45.645   13 Jun 2027 10:18:51.232             5.587           684.031
       310   13 Jun 2027 11:53:07.207   13 Jun 2027 11:53:32.084            24.877         12394.250
       311   13 Jun 2027 11:55:11.338   13 Jun 2027 11:55:16.402             5.064          2168.313
       312   13 Jun 2027 11:56:03.848   13 Jun 2027 11:56:08.638             4.790          1343.500
       313   13 Jun 2027 11:56:38.129   13 Jun 2027 11:56:40.079             1.950           887.437
