uniorb/output/strategy_4/Camera/Camera_KinoSat_111402.txt

KinoSat_111402
-------------------------
    Access    *     Start Time (UTCG)     *     Stop Time (UTCG)  *   Duration (s) *   Data (Mbytes)
         1   01 Jun 2027 03:52:31.757   01 Jun 2027 03:54:43.530           131.773         65886.500
         2   01 Jun 2027 03:55:47.754   01 Jun 2027 03:55:48.646             0.892           446.000
         3   01 Jun 2027 03:56:09.370   01 Jun 2027 03:56:23.616            14.246          7123.000
         4   01 Jun 2027 03:57:25.103   01 Jun 2027 03:57:42.865            17.762          8881.000
         5   01 Jun 2027 05:16:38.086   01 Jun 2027 05:17:38.990            60.904         30452.000
         6   01 Jun 2027 06:50:24.435   01 Jun 2027 06:52:19.681           115.246         57623.000
         7   01 Jun 2027 06:53:22.018   01 Jun 2027 06:53:29.310             7.292          3646.000
         8   01 Jun 2027 06:54:38.629   01 Jun 2027 06:54:38.629             0.000             0.000
         9   01 Jun 2027 06:55:50.665   01 Jun 2027 06:56:27.167            36.502         18251.000
        10   01 Jun 2027 08:26:24.922   01 Jun 2027 08:27:32.635            67.713         33856.500
        11   01 Jun 2027 08:27:48.854   01 Jun 2027 08:28:15.709            26.855         13427.500
        12   01 Jun 2027 08:31:47.183   01 Jun 2027 08:31:47.183             0.000             0.000
        13   01 Jun 2027 08:33:10.456   01 Jun 2027 08:33:15.565             5.109          2554.500
        14   01 Jun 2027 08:33:35.773   01 Jun 2027 08:33:36.517             0.744           372.000
        15   01 Jun 2027 08:33:53.736   01 Jun 2027 08:34:54.708            60.972         30486.000
        16   01 Jun 2027 10:03:27.530   01 Jun 2027 10:04:08.135            40.605         20302.500
        17   01 Jun 2027 10:05:27.155   01 Jun 2027 10:06:16.694            49.539         24769.500
        18   01 Jun 2027 10:08:19.964   01 Jun 2027 10:08:19.964             0.000             0.000
        19   01 Jun 2027 10:08:29.960   01 Jun 2027 10:09:23.267            53.307         26653.500
        20   01 Jun 2027 11:40:22.314   01 Jun 2027 11:43:04.678           162.364         81182.000
        21   01 Jun 2027 11:44:47.976   01 Jun 2027 11:44:55.057             7.081          3540.500
        22   01 Jun 2027 11:46:24.518   01 Jun 2027 11:46:33.759             9.241          4620.500
        23   02 Jun 2027 04:05:07.992   02 Jun 2027 04:07:47.259           159.267         79633.500
        24   02 Jun 2027 04:08:02.669   02 Jun 2027 04:08:11.748             9.079          4539.500
        25   02 Jun 2027 05:28:32.941   02 Jun 2027 05:29:30.568            57.627         28813.500
        26   02 Jun 2027 07:04:52.138   02 Jun 2027 07:08:20.704           208.566        104283.000
        27   02 Jun 2027 08:38:21.838   02 Jun 2027 08:40:52.360           150.522         75261.000
        28   02 Jun 2027 08:41:24.107   02 Jun 2027 08:41:53.642            29.535         14767.500
        29   02 Jun 2027 08:42:56.375   02 Jun 2027 08:43:17.876            21.501         10750.500
        30   02 Jun 2027 08:46:52.802   02 Jun 2027 08:46:54.234             1.432           716.000
        31   02 Jun 2027 10:15:53.623   02 Jun 2027 10:16:51.760            58.137         27723.001
        32   02 Jun 2027 10:19:33.502   02 Jun 2027 10:19:40.368             6.866          2604.250
        33   02 Jun 2027 10:20:06.776   02 Jun 2027 10:20:12.498             5.722            18.000
        34   02 Jun 2027 10:20:56.608   02 Jun 2027 10:21:00.359             3.751           930.281
        35   02 Jun 2027 10:21:32.428   02 Jun 2027 10:21:36.150             3.722          1002.156
        36   02 Jun 2027 10:22:03.168   02 Jun 2027 10:22:09.202             6.034           608.906
        37   02 Jun 2027 10:22:25.266   02 Jun 2027 10:22:28.022             2.756           469.219
        38   02 Jun 2027 11:52:50.024   02 Jun 2027 11:53:11.166            21.142          7291.563
        39   02 Jun 2027 11:54:46.630   02 Jun 2027 11:54:51.851             5.221          1520.313
        40   02 Jun 2027 11:55:02.464   02 Jun 2027 11:55:04.480             2.016           331.656
        41   02 Jun 2027 11:55:46.610   02 Jun 2027 11:55:51.106             4.496            25.469
        42   02 Jun 2027 11:56:08.642   02 Jun 2027 11:56:11.496             2.854           265.781
        43   02 Jun 2027 11:57:08.285   02 Jun 2027 11:57:11.335             3.050           886.844
        44   02 Jun 2027 11:57:26.331   02 Jun 2027 11:57:27.917             1.586           468.625
        45   02 Jun 2027 11:58:17.429   02 Jun 2027 11:58:19.051             1.622           457.281
        46   03 Jun 2027 04:16:46.618   03 Jun 2027 04:19:38.779           172.161         86080.500
        47   03 Jun 2027 05:40:24.401   03 Jun 2027 05:41:18.826            54.425         27212.500
        48   03 Jun 2027 07:16:53.801   03 Jun 2027 07:18:36.995           103.194         51066.531
        49   03 Jun 2027 07:18:50.087   03 Jun 2027 07:18:51.895             1.808           129.156
        50   03 Jun 2027 07:19:22.163   03 Jun 2027 07:19:23.781             1.618           799.750
        51   03 Jun 2027 07:19:57.086   03 Jun 2027 07:19:57.086             0.000             0.000
        52   03 Jun 2027 07:20:15.403   03 Jun 2027 07:20:19.158             3.755          1405.375
        53   03 Jun 2027 08:51:01.595   03 Jun 2027 08:51:09.168             7.573          2690.469
        54   03 Jun 2027 08:52:45.001   03 Jun 2027 08:52:47.989             2.988           485.906
        55   03 Jun 2027 08:54:22.534   03 Jun 2027 08:54:29.330             6.796          2283.469
        56   03 Jun 2027 08:55:16.037   03 Jun 2027 08:55:19.850             3.813           853.063
        57   03 Jun 2027 08:56:09.628   03 Jun 2027 08:56:12.190             2.562          1240.531
        58   03 Jun 2027 08:57:32.160   03 Jun 2027 08:57:35.647             3.487           893.750
        59   03 Jun 2027 08:58:21.734   03 Jun 2027 08:58:28.113             6.379           990.969
        60   03 Jun 2027 08:58:34.262   03 Jun 2027 08:58:35.433             1.171           192.156
        61   03 Jun 2027 10:27:59.986   03 Jun 2027 10:28:10.104            10.118          4670.063
        62   03 Jun 2027 10:30:15.930   03 Jun 2027 10:30:18.896             2.966           138.750
        63   03 Jun 2027 10:33:01.138   03 Jun 2027 10:33:03.550             2.412           567.156
        64   03 Jun 2027 10:34:00.663   03 Jun 2027 10:34:04.587             3.924          1685.719
        65   03 Jun 2027 10:34:36.737   03 Jun 2027 10:34:38.754             2.017           572.844
        66   04 Jun 2027 04:29:12.913   04 Jun 2027 04:29:38.070            25.157         12578.500
        67   04 Jun 2027 04:29:59.892   04 Jun 2027 04:32:45.719           165.827         82913.500
        68   04 Jun 2027 05:52:33.508   04 Jun 2027 05:53:01.786            28.278         14139.000
        69   04 Jun 2027 05:54:42.710   04 Jun 2027 05:55:21.134            38.424         19212.000
        70   04 Jun 2027 07:29:04.038   04 Jun 2027 07:30:02.195            58.157         29020.625
        71   04 Jun 2027 07:31:11.801   04 Jun 2027 07:31:21.089             9.288          2003.281
        72   04 Jun 2027 07:31:32.253   04 Jun 2027 07:31:34.636             2.383           208.969
        73   04 Jun 2027 07:32:34.497   04 Jun 2027 07:32:37.826             3.329          1620.531
        74   04 Jun 2027 09:04:14.134   04 Jun 2027 09:04:23.191             9.057          4184.500
        75   04 Jun 2027 09:04:35.125   04 Jun 2027 09:04:35.960             0.835           365.438
        76   04 Jun 2027 09:05:44.933   04 Jun 2027 09:05:46.555             1.622           391.844
        77   04 Jun 2027 09:07:32.643   04 Jun 2027 09:07:32.643             0.000             0.000
        78   04 Jun 2027 09:07:36.614   04 Jun 2027 09:07:42.255             5.641          1982.000
        79   04 Jun 2027 09:09:30.576   04 Jun 2027 09:09:37.154             6.578          2529.188
        80   04 Jun 2027 09:10:10.963   04 Jun 2027 09:10:12.998             2.035           903.719
        81   04 Jun 2027 09:10:42.074   04 Jun 2027 09:10:43.949             1.875           601.437
        82   04 Jun 2027 10:40:36.281   04 Jun 2027 10:40:47.521            11.240          4934.812
        83   04 Jun 2027 10:42:26.713   04 Jun 2027 10:42:31.074             4.361          1065.094
        84   04 Jun 2027 10:42:36.903   04 Jun 2027 10:42:38.648             1.745           182.156
        85   04 Jun 2027 10:42:45.553   04 Jun 2027 10:42:47.109             1.556           196.969
        86   04 Jun 2027 10:42:49.832   04 Jun 2027 10:42:50.471             0.639            85.094
        87   04 Jun 2027 10:43:48.124   04 Jun 2027 10:43:51.063             2.939          1163.406
        88   04 Jun 2027 10:44:38.213   04 Jun 2027 10:44:40.619             2.406           919.281
        89   04 Jun 2027 10:45:20.119   04 Jun 2027 10:45:23.834             3.715           872.531
        90   04 Jun 2027 10:45:39.803   04 Jun 2027 10:45:40.164             0.361            63.938
        91   04 Jun 2027 10:46:03.476   04 Jun 2027 10:46:06.414             2.938           630.781
        92   04 Jun 2027 10:46:34.853   04 Jun 2027 10:46:39.796             4.943           888.719
        93   05 Jun 2027 03:02:56.338   05 Jun 2027 03:03:12.595            16.257          8128.500
        94   05 Jun 2027 03:03:24.621   05 Jun 2027 03:03:36.192            11.571          5785.500
        95   05 Jun 2027 03:03:58.907   05 Jun 2027 03:04:28.540            29.633         14816.500
        96   05 Jun 2027 03:06:10.375   05 Jun 2027 03:06:30.868            20.493         10246.500
        97   05 Jun 2027 03:06:50.872   05 Jun 2027 03:06:53.124             2.252          1126.000
        98   05 Jun 2027 03:08:24.535   05 Jun 2027 03:08:32.099             7.564          3782.000
        99   05 Jun 2027 03:08:51.777   05 Jun 2027 03:08:57.184             5.407          2703.500
       100   05 Jun 2027 03:09:00.384   05 Jun 2027 03:09:02.070             1.686           843.000
       101   05 Jun 2027 04:41:07.656   05 Jun 2027 04:41:45.333            37.677         18838.500
       102   05 Jun 2027 04:42:15.245   05 Jun 2027 04:44:18.218           122.973         61486.500
       103   05 Jun 2027 04:44:30.975   05 Jun 2027 04:44:42.514            11.539          5769.500
       104   05 Jun 2027 06:05:13.506   05 Jun 2027 06:06:12.913            59.407         29514.250
       105   05 Jun 2027 06:07:21.686   05 Jun 2027 06:07:21.686             0.000             0.000
       106   05 Jun 2027 07:40:59.105   05 Jun 2027 07:41:13.458            14.353          7036.969
       107   05 Jun 2027 07:42:07.221   05 Jun 2027 07:42:09.063             1.842           640.969
       108   05 Jun 2027 07:42:43.451   05 Jun 2027 07:42:46.242             2.791          1074.625
       109   05 Jun 2027 07:43:27.637   05 Jun 2027 07:43:32.680             5.043          1121.469
       110   05 Jun 2027 07:44:11.354   05 Jun 2027 07:44:14.542             3.188          1175.000
       111   05 Jun 2027 09:15:56.343   05 Jun 2027 09:16:03.532             7.189          2895.312
       112   05 Jun 2027 09:17:45.960   05 Jun 2027 09:17:55.411             9.451          2632.625
       113   05 Jun 2027 09:18:21.545   05 Jun 2027 09:18:23.349             1.804           690.469
       114   05 Jun 2027 09:19:02.039   05 Jun 2027 09:19:04.702             2.663           476.875
       115   05 Jun 2027 09:19:35.144   05 Jun 2027 09:19:37.119             1.975           811.063
       116   05 Jun 2027 09:21:30.275   05 Jun 2027 09:21:35.612             5.337          2441.406
       117   05 Jun 2027 09:22:38.919   05 Jun 2027 09:22:47.186             8.267          1941.344
       118   05 Jun 2027 09:22:54.812   05 Jun 2027 09:22:57.980             3.168            81.188
       119   05 Jun 2027 10:52:08.869   05 Jun 2027 10:52:22.599            13.730          6069.188
       120   05 Jun 2027 10:53:28.579   05 Jun 2027 10:53:29.830             1.251           265.281
       121   05 Jun 2027 10:54:17.739   05 Jun 2027 10:54:19.814             2.075           776.063
       122   05 Jun 2027 10:54:24.607   05 Jun 2027 10:54:25.754             1.147           149.781
       123   05 Jun 2027 10:54:48.639   05 Jun 2027 10:54:50.921             2.282           499.125
       124   05 Jun 2027 10:55:16.154   05 Jun 2027 10:55:18.861             2.707           423.781
       125   05 Jun 2027 10:56:31.829   05 Jun 2027 10:56:39.580             7.751          2272.406
       126   05 Jun 2027 10:57:16.945   05 Jun 2027 10:57:21.465             4.520           782.281
       127   05 Jun 2027 10:57:50.811   05 Jun 2027 10:57:52.611             1.800           722.781
       128   05 Jun 2027 10:58:04.249   05 Jun 2027 10:58:05.090             0.841           245.156
       129   06 Jun 2027 03:16:01.654   06 Jun 2027 03:18:04.155           122.501         61250.500
       130   06 Jun 2027 03:19:04.421   06 Jun 2027 03:19:46.678            42.257         21128.500
       131   06 Jun 2027 03:20:36.120   06 Jun 2027 03:20:42.548             6.428          3214.000
       132   06 Jun 2027 03:22:10.744   06 Jun 2027 03:22:11.858             1.114           557.000
       133   06 Jun 2027 03:22:59.988   06 Jun 2027 03:23:09.993            10.005          5002.500
       134   06 Jun 2027 04:42:00.287   06 Jun 2027 04:42:07.566             7.279          3639.500
       135   06 Jun 2027 04:42:22.443   06 Jun 2027 04:42:40.138            17.695          8847.500
       136   06 Jun 2027 04:53:03.858   06 Jun 2027 04:54:46.818           102.960         51480.000
       137   06 Jun 2027 04:54:59.836   06 Jun 2027 04:55:11.063            11.227          4291.063
       138   06 Jun 2027 04:55:53.760   06 Jun 2027 04:55:54.846             1.086           182.906
       139   06 Jun 2027 06:16:02.698   06 Jun 2027 06:16:13.455            10.757          4794.062
       140   06 Jun 2027 06:17:22.742   06 Jun 2027 06:17:27.401             4.659          2165.219
       141   06 Jun 2027 06:17:32.938   06 Jun 2027 06:17:32.938             0.000             0.000
       142   06 Jun 2027 06:17:35.009   06 Jun 2027 06:17:35.009             0.000             0.000
       143   06 Jun 2027 06:18:01.218   06 Jun 2027 06:18:06.230             5.012          1056.781
       144   06 Jun 2027 06:19:57.654   06 Jun 2027 06:20:02.634             4.980          2490.000
       145   06 Jun 2027 07:51:34.935   06 Jun 2027 07:51:40.812             5.877          2843.812
       146   06 Jun 2027 07:53:00.923   06 Jun 2027 07:53:04.691             3.768          1536.875
       147   06 Jun 2027 07:53:48.631   06 Jun 2027 07:53:51.092             2.461           820.000
       148   06 Jun 2027 07:55:13.558   06 Jun 2027 07:55:17.668             4.110          1980.125
       149   06 Jun 2027 07:55:34.883   06 Jun 2027 07:55:38.516             3.633           175.937
       150   06 Jun 2027 07:55:46.055   06 Jun 2027 07:55:46.055             0.000             0.000
       151   06 Jun 2027 07:56:49.691   06 Jun 2027 07:56:59.787            10.096          2224.219
       152   06 Jun 2027 07:57:01.095   06 Jun 2027 07:57:01.095             0.000             0.000
       153   06 Jun 2027 09:27:30.060   06 Jun 2027 09:27:35.955             5.895          2780.094
       154   06 Jun 2027 09:28:22.023   06 Jun 2027 09:28:22.262             0.239           113.031
       155   06 Jun 2027 09:28:50.725   06 Jun 2027 09:28:53.237             2.512           889.469
       156   06 Jun 2027 09:29:13.694   06 Jun 2027 09:29:16.377             2.683           135.125
       157   06 Jun 2027 09:30:30.756   06 Jun 2027 09:30:34.764             4.008          1382.563
       158   06 Jun 2027 09:31:03.996   06 Jun 2027 09:31:05.434             1.438           633.500
       159   06 Jun 2027 09:31:37.389   06 Jun 2027 09:31:39.060             1.671           489.062
       160   06 Jun 2027 09:32:15.252   06 Jun 2027 09:32:17.223             1.971           816.156
       161   06 Jun 2027 09:34:22.536   06 Jun 2027 09:34:35.452            12.916          3916.031
       162   06 Jun 2027 09:34:59.907   06 Jun 2027 09:35:02.740             2.833           449.375
       163   06 Jun 2027 11:04:30.851   06 Jun 2027 11:04:43.564            12.713          4958.062
       164   06 Jun 2027 11:07:15.630   06 Jun 2027 11:07:16.777             1.147           491.156
       165   06 Jun 2027 11:07:33.775   06 Jun 2027 11:07:39.729             5.954           531.187
       166   06 Jun 2027 11:08:28.890   06 Jun 2027 11:08:38.099             9.209          1536.281
       167   06 Jun 2027 11:09:11.981   06 Jun 2027 11:09:19.842             7.861           593.688
       168   06 Jun 2027 11:09:44.197   06 Jun 2027 11:09:47.139             2.942           729.063
       169   07 Jun 2027 03:28:26.014   07 Jun 2027 03:31:31.981           185.967         92983.500
       170   07 Jun 2027 03:32:31.335   07 Jun 2027 03:32:43.482            12.147          6073.500
       171   07 Jun 2027 03:33:00.815   07 Jun 2027 03:33:28.666            27.851         13925.500
       172   07 Jun 2027 03:34:06.895   07 Jun 2027 03:34:09.918             3.023          1511.500
       173   07 Jun 2027 03:34:51.122   07 Jun 2027 03:35:04.859            13.737          6868.500
       174   07 Jun 2027 04:53:23.456   07 Jun 2027 04:53:42.858            19.402          9701.000
       175   07 Jun 2027 04:53:51.706   07 Jun 2027 04:53:52.149             0.443           221.500
       176   07 Jun 2027 05:05:05.902   07 Jun 2027 05:06:18.403            72.501         35717.531
       177   07 Jun 2027 06:27:18.957   07 Jun 2027 06:27:28.515             9.558          3587.563
       178   07 Jun 2027 06:27:49.801   07 Jun 2027 06:27:50.792             0.991           442.094
       179   07 Jun 2027 06:28:15.029   07 Jun 2027 06:28:16.216             1.187           584.625
       180   07 Jun 2027 06:29:20.168   07 Jun 2027 06:29:21.113             0.945           372.562
       181   07 Jun 2027 06:31:25.037   07 Jun 2027 06:31:37.543            12.506          3639.781
       182   07 Jun 2027 06:31:58.796   07 Jun 2027 06:31:58.796             0.000             0.000
       183   07 Jun 2027 06:32:14.888   07 Jun 2027 06:32:18.079             3.191          1167.031
       184   07 Jun 2027 08:02:26.615   07 Jun 2027 08:02:31.355             4.740          2317.781
       185   07 Jun 2027 08:03:37.010   07 Jun 2027 08:03:41.800             4.790          1335.031
       186   07 Jun 2027 08:04:46.182   07 Jun 2027 08:04:46.710             0.528           264.000
       187   07 Jun 2027 08:05:14.109   07 Jun 2027 08:05:19.470             5.361          2005.062
       188   07 Jun 2027 08:05:52.372   07 Jun 2027 08:05:57.109             4.737           996.156
       189   07 Jun 2027 08:06:54.407   07 Jun 2027 08:06:54.407             0.000             0.000
       190   07 Jun 2027 08:07:34.827   07 Jun 2027 08:07:40.802             5.975          2618.625
       191   07 Jun 2027 08:08:02.032   07 Jun 2027 08:08:03.567             1.535           456.219
       192   07 Jun 2027 08:08:38.656   07 Jun 2027 08:08:43.115             4.459           982.812
       193   07 Jun 2027 08:09:04.155   07 Jun 2027 08:09:05.084             0.929           447.250
       194   07 Jun 2027 08:10:24.884   07 Jun 2027 08:10:27.867             2.983           884.406
       195   07 Jun 2027 09:39:39.119   07 Jun 2027 09:39:50.171            11.052          3639.656
       196   07 Jun 2027 09:42:56.151   07 Jun 2027 09:43:03.796             7.645          2176.187
       197   07 Jun 2027 09:43:23.485   07 Jun 2027 09:43:29.235             5.750           511.719
       198   07 Jun 2027 09:44:24.972   07 Jun 2027 09:44:28.178             3.206          1425.813
       199   07 Jun 2027 09:44:53.079   07 Jun 2027 09:44:57.985             4.906           778.156
       200   07 Jun 2027 09:45:28.018   07 Jun 2027 09:45:33.818             5.800           896.594
       201   07 Jun 2027 09:45:53.619   07 Jun 2027 09:45:55.010             1.391           224.281
       202   07 Jun 2027 09:46:36.549   07 Jun 2027 09:46:40.233             3.684          1298.094
       203   07 Jun 2027 11:16:36.261   07 Jun 2027 11:16:49.034            12.773          5213.406
       204   07 Jun 2027 11:18:59.475   07 Jun 2027 11:19:02.870             3.395          1556.500
       205   07 Jun 2027 11:20:10.716   07 Jun 2027 11:20:15.067             4.351          1696.750
       206   07 Jun 2027 11:20:50.278   07 Jun 2027 11:20:55.474             5.196           773.719
       207   07 Jun 2027 11:21:04.336   07 Jun 2027 11:21:05.476             1.140           276.937
       208   07 Jun 2027 11:22:31.424   07 Jun 2027 11:22:35.874             4.450          2187.125
       209   08 Jun 2027 03:40:42.994   08 Jun 2027 03:42:59.757           136.763         68381.500
       210   08 Jun 2027 03:43:51.390   08 Jun 2027 03:44:27.382            35.992         17996.000
       211   08 Jun 2027 03:44:33.244   08 Jun 2027 03:44:49.866            16.622          8311.000
       212   08 Jun 2027 03:47:28.617   08 Jun 2027 03:47:33.523             4.906          2453.000
       213   08 Jun 2027 05:04:50.794   08 Jun 2027 05:05:33.381            42.587         21293.500
       214   08 Jun 2027 05:17:02.758   08 Jun 2027 05:17:41.020            38.262         19131.000
       215   08 Jun 2027 06:39:04.266   08 Jun 2027 06:39:45.099            40.833         20402.094
       216   08 Jun 2027 06:41:07.679   08 Jun 2027 06:41:08.629             0.950           475.000
       217   08 Jun 2027 06:41:19.990   08 Jun 2027 06:41:23.496             3.506          1442.031
       218   08 Jun 2027 06:42:10.079   08 Jun 2027 06:42:16.488             6.409          1044.594
       219   08 Jun 2027 06:42:49.614   08 Jun 2027 06:42:52.676             3.062           974.875
       220   08 Jun 2027 06:43:59.650   08 Jun 2027 06:44:05.973             6.323          2082.938
       221   08 Jun 2027 08:13:56.170   08 Jun 2027 08:14:01.192             5.022          1932.406
       222   08 Jun 2027 08:14:43.325   08 Jun 2027 08:14:49.673             6.348          1316.656
       223   08 Jun 2027 08:15:58.830   08 Jun 2027 08:16:00.220             1.390           563.125
       224   08 Jun 2027 08:18:11.501   08 Jun 2027 08:18:18.395             6.894          3326.812
       225   08 Jun 2027 08:19:35.798   08 Jun 2027 08:19:43.460             7.662          2240.531
       226   08 Jun 2027 08:20:25.625   08 Jun 2027 08:20:25.625             0.000             0.000
       227   08 Jun 2027 08:21:13.904   08 Jun 2027 08:21:19.672             5.768          2193.625
       228   08 Jun 2027 08:22:12.271   08 Jun 2027 08:22:14.559             2.288           733.313
       229   08 Jun 2027 08:22:16.795   08 Jun 2027 08:22:17.557             0.762             4.969
       230   08 Jun 2027 09:51:41.237   08 Jun 2027 09:51:51.485            10.248          4446.594
       231   08 Jun 2027 09:53:29.415   08 Jun 2027 09:53:30.421             1.006           200.406
       232   08 Jun 2027 09:54:54.897   08 Jun 2027 09:54:56.755             1.858           647.813
       233   08 Jun 2027 09:55:58.532   08 Jun 2027 09:56:01.638             3.106          1282.469
       234   08 Jun 2027 09:57:02.582   08 Jun 2027 09:57:07.125             4.543          1904.500
       235   08 Jun 2027 09:57:13.534   08 Jun 2027 09:57:16.357             2.823           200.281
       236   08 Jun 2027 09:57:37.634   08 Jun 2027 09:57:45.037             7.403           490.375
       237   08 Jun 2027 09:58:14.442   08 Jun 2027 09:58:16.048             1.606           149.000
       238   08 Jun 2027 09:58:24.615   08 Jun 2027 09:58:28.556             3.941            27.156
       239   08 Jun 2027 09:59:04.523   08 Jun 2027 09:59:06.693             2.170           967.156
       240   08 Jun 2027 11:28:28.993   08 Jun 2027 11:28:47.819            18.826          7305.969
       241   08 Jun 2027 11:28:51.409   08 Jun 2027 11:28:57.799             6.390            53.500
       242   08 Jun 2027 11:30:08.401   08 Jun 2027 11:30:13.244             4.843          1032.469
       243   08 Jun 2027 11:31:17.657   08 Jun 2027 11:31:23.319             5.662           937.406
       244   08 Jun 2027 11:32:07.616   08 Jun 2027 11:32:11.970             4.354          1095.063
       245   08 Jun 2027 11:32:33.345   08 Jun 2027 11:32:36.341             2.996           457.781
       246   08 Jun 2027 11:32:46.779   08 Jun 2027 11:32:50.479             3.700           326.187
       247   08 Jun 2027 11:32:56.695   08 Jun 2027 11:32:57.558             0.863           168.250
       248   08 Jun 2027 11:33:26.374   08 Jun 2027 11:33:32.710             6.336           900.500
       249   08 Jun 2027 11:34:31.623   08 Jun 2027 11:34:35.288             3.665           804.656
       250   08 Jun 2027 11:34:36.467   08 Jun 2027 11:34:37.106             0.639             7.125
       251   09 Jun 2027 03:52:50.121   09 Jun 2027 03:54:36.561           106.440         53220.000
       252   09 Jun 2027 03:54:45.005   09 Jun 2027 03:56:51.185           126.180         63090.000
       253   09 Jun 2027 03:56:56.964   09 Jun 2027 03:57:21.391            24.427         12213.500
       254   09 Jun 2027 05:16:54.185   09 Jun 2027 05:17:35.228            41.043         20521.500
       255   09 Jun 2027 06:52:51.343   09 Jun 2027 06:53:47.195            55.852         27463.406
       256   09 Jun 2027 06:54:18.466   09 Jun 2027 06:54:20.233             1.767           836.094
       257   09 Jun 2027 06:54:56.380   09 Jun 2027 06:54:56.380             0.000             0.000
       258   09 Jun 2027 06:56:00.201   09 Jun 2027 06:56:08.399             8.198          3123.344
       259   09 Jun 2027 08:26:41.188   09 Jun 2027 08:26:55.122            13.934          2239.219
       260   09 Jun 2027 08:29:03.360   09 Jun 2027 08:29:13.571            10.211           881.000
       261   09 Jun 2027 08:30:26.928   09 Jun 2027 08:30:34.156             7.228           927.344
       262   09 Jun 2027 08:30:35.371   09 Jun 2027 08:30:37.514             2.143            15.938
       263   09 Jun 2027 08:32:04.016   09 Jun 2027 08:32:05.216             1.200           600.000
       264   09 Jun 2027 08:32:58.502   09 Jun 2027 08:33:04.366             5.864          2418.625
       265   09 Jun 2027 08:33:15.029   09 Jun 2027 08:33:15.029             0.000             0.000
       266   09 Jun 2027 08:33:45.533   09 Jun 2027 08:33:52.708             7.175          1168.312
       267   09 Jun 2027 08:34:31.467   09 Jun 2027 08:34:37.494             6.027          1209.562
       268   09 Jun 2027 10:03:44.413   09 Jun 2027 10:03:55.221            10.808          5056.094
       269   09 Jun 2027 10:05:44.426   09 Jun 2027 10:05:49.406             4.980          2359.656
       270   09 Jun 2027 10:07:42.172   09 Jun 2027 10:07:51.892             9.720          2184.844
       271   09 Jun 2027 10:08:39.894   09 Jun 2027 10:08:39.894             0.000             0.000
       272   09 Jun 2027 10:08:48.961   09 Jun 2027 10:08:51.777             2.816          1071.875
       273   09 Jun 2027 10:09:10.842   09 Jun 2027 10:09:16.570             5.728           219.687
       274   09 Jun 2027 10:09:16.906   09 Jun 2027 10:09:18.512             1.606            10.500
       275   09 Jun 2027 10:10:08.672   09 Jun 2027 10:10:13.167             4.495           927.750
       276   09 Jun 2027 10:10:30.715   09 Jun 2027 10:10:30.962             0.247            71.625
       277   09 Jun 2027 10:10:37.147   09 Jun 2027 10:10:38.843             1.696            91.938
       278   09 Jun 2027 11:40:38.798   09 Jun 2027 11:40:54.493            15.695          7485.562
       279   09 Jun 2027 11:41:12.468   09 Jun 2027 11:41:13.726             1.258           269.000
       280   09 Jun 2027 11:43:30.169   09 Jun 2027 11:43:32.739             2.570          1110.500
       281   09 Jun 2027 11:44:25.525   09 Jun 2027 11:44:29.565             4.040          1649.562
       282   09 Jun 2027 11:45:04.933   09 Jun 2027 11:45:09.793             4.860           930.031
       283   09 Jun 2027 11:45:27.897   09 Jun 2027 11:45:29.086             1.189           470.156
       284   09 Jun 2027 11:46:10.059   09 Jun 2027 11:46:12.838             2.779           456.469
       285   09 Jun 2027 11:46:34.894   09 Jun 2027 11:46:37.344             2.450           567.281
       286   10 Jun 2027 04:05:24.318   10 Jun 2027 04:08:41.973           197.655         98827.500
       287   10 Jun 2027 04:09:33.599   10 Jun 2027 04:09:47.215            13.616          6808.000
       288   10 Jun 2027 05:28:48.582   10 Jun 2027 05:29:39.106            50.524         25262.000
       289   10 Jun 2027 07:05:09.330   10 Jun 2027 07:06:21.228            71.898         34756.125
       290   10 Jun 2027 07:07:05.320   10 Jun 2027 07:07:09.061             3.741          1352.812
       291   10 Jun 2027 07:07:16.778   10 Jun 2027 07:07:16.778             0.000             0.000
       292   10 Jun 2027 07:07:24.759   10 Jun 2027 07:07:27.861             3.102           357.031
       293   10 Jun 2027 07:07:45.058   10 Jun 2027 07:07:48.574             3.516           477.594
       294   10 Jun 2027 08:38:39.398   10 Jun 2027 08:38:43.756             4.358          2134.688
       295   10 Jun 2027 08:40:32.766   10 Jun 2027 08:40:37.477             4.711          1177.156
       296   10 Jun 2027 08:41:41.842   10 Jun 2027 08:41:42.335             0.493           246.500
       297   10 Jun 2027 08:42:10.989   10 Jun 2027 08:42:19.071             8.082          1705.781
       298   10 Jun 2027 08:43:34.352   10 Jun 2027 08:43:38.771             4.419          1938.406
       299   10 Jun 2027 08:44:15.824   10 Jun 2027 08:44:18.430             2.606           968.219
       300   10 Jun 2027 08:44:29.404   10 Jun 2027 08:44:30.609             1.205            12.250
       301   10 Jun 2027 08:45:41.028   10 Jun 2027 08:45:42.939             1.911           509.375
       302   10 Jun 2027 08:45:52.731   10 Jun 2027 08:45:54.439             1.708           187.781
       303   10 Jun 2027 08:47:08.850   10 Jun 2027 08:47:10.458             1.608           804.000
       304   10 Jun 2027 10:16:10.511   10 Jun 2027 10:16:19.885             9.374          4663.844
       305   10 Jun 2027 10:19:35.145   10 Jun 2027 10:19:38.474             3.329          1622.563
       306   10 Jun 2027 10:21:18.053   10 Jun 2027 10:21:20.278             2.225           507.188
       307   10 Jun 2027 10:22:26.374   10 Jun 2027 10:22:31.705             5.331          1235.187
       308   10 Jun 2027 10:22:47.720   10 Jun 2027 10:22:48.219             0.499           234.125
       309   10 Jun 2027 11:53:06.338   10 Jun 2027 11:53:19.037            12.699          5862.406
       310   10 Jun 2027 11:55:00.759   10 Jun 2027 11:55:05.439             4.680          1409.250
       311   10 Jun 2027 11:55:20.929   10 Jun 2027 11:55:23.777             2.848           400.406
       312   10 Jun 2027 11:56:03.042   10 Jun 2027 11:56:07.077             4.035            74.500
       313   10 Jun 2027 11:56:27.400   10 Jun 2027 11:56:29.467             2.067           343.594
       314   10 Jun 2027 11:57:12.011   10 Jun 2027 11:57:19.256             7.245          1089.844
       315   10 Jun 2027 11:58:26.897   10 Jun 2027 11:58:31.412             4.515          1938.844
       316   10 Jun 2027 11:58:38.701   10 Jun 2027 11:58:40.975             2.274           203.937
       317   11 Jun 2027 04:17:03.070   11 Jun 2027 04:19:56.022           172.952         86476.000
       318   11 Jun 2027 04:21:10.462   11 Jun 2027 04:21:15.459             4.997          2498.500
       319   11 Jun 2027 05:40:39.520   11 Jun 2027 05:41:33.378            53.858         26929.000
       320   11 Jun 2027 07:17:11.246   11 Jun 2027 07:18:41.522            90.276         44154.094
       321   11 Jun 2027 07:19:02.367   11 Jun 2027 07:19:05.809             3.442           580.375
       322   11 Jun 2027 07:19:11.593   11 Jun 2027 07:19:16.421             4.828           180.750
       323   11 Jun 2027 07:20:00.034   11 Jun 2027 07:20:02.939             2.905          1359.875
       324   11 Jun 2027 08:51:38.822   11 Jun 2027 08:51:47.676             8.854          3226.313
       325   11 Jun 2027 08:53:00.559   11 Jun 2027 08:53:03.476             2.917           433.187
       326   11 Jun 2027 08:53:27.336   11 Jun 2027 08:53:29.723             2.387           585.000
       327   11 Jun 2027 08:54:40.403   11 Jun 2027 08:54:44.365             3.962          1229.125
       328   11 Jun 2027 08:55:22.994   11 Jun 2027 08:55:24.587             1.593           778.938
       329   11 Jun 2027 08:56:07.497   11 Jun 2027 08:56:12.031             4.534          1197.688
       330   11 Jun 2027 08:56:27.218   11 Jun 2027 08:56:28.430             1.212           429.781
       331   11 Jun 2027 08:57:46.077   11 Jun 2027 08:57:47.479             1.402           701.000
       332   11 Jun 2027 08:58:07.925   11 Jun 2027 08:58:11.216             3.291           792.563
       333   11 Jun 2027 08:58:46.122   11 Jun 2027 08:58:47.609             1.487           354.594
       334   11 Jun 2027 08:59:04.222   11 Jun 2027 08:59:04.908             0.686           343.000
       335   11 Jun 2027 10:28:18.536   11 Jun 2027 10:28:27.360             8.824          3937.938
       336   11 Jun 2027 10:30:31.009   11 Jun 2027 10:30:32.360             1.351           194.812
       337   11 Jun 2027 10:30:41.687   11 Jun 2027 10:30:44.361             2.674           291.469
       338   11 Jun 2027 10:31:29.043   11 Jun 2027 10:31:35.390             6.347           844.031
       339   11 Jun 2027 10:32:58.520   11 Jun 2027 10:33:04.514             5.994          1551.063
       340   11 Jun 2027 10:33:24.342   11 Jun 2027 10:33:25.394             1.052           283.687
       341   11 Jun 2027 10:34:30.451   11 Jun 2027 10:34:33.015             2.564           459.437
       342   11 Jun 2027 10:34:55.384   11 Jun 2027 10:34:57.767             2.383           682.313
       343   12 Jun 2027 04:29:27.669   12 Jun 2027 04:29:55.328            27.659         13829.500
       344   12 Jun 2027 04:30:15.931   12 Jun 2027 04:32:41.679           145.748         72874.000
       345   12 Jun 2027 04:33:00.249   12 Jun 2027 04:33:23.406            23.157         11578.500
       346   12 Jun 2027 05:52:49.711   12 Jun 2027 05:53:16.210            26.499         13249.500
       347   12 Jun 2027 07:29:20.924   12 Jun 2027 07:30:58.404            97.480         48398.563
       348   12 Jun 2027 07:31:01.062   12 Jun 2027 07:31:01.062             0.000             0.000
       349   12 Jun 2027 07:31:04.648   12 Jun 2027 07:31:05.854             1.206           195.125
       350   12 Jun 2027 07:31:36.084   12 Jun 2027 07:31:41.632             5.548           611.188
       351   12 Jun 2027 07:31:48.929   12 Jun 2027 07:31:51.264             2.335           159.656
       352   12 Jun 2027 07:32:14.494   12 Jun 2027 07:32:14.494             0.000             0.000
       353   12 Jun 2027 07:32:52.675   12 Jun 2027 07:32:54.396             1.721           860.500
       354   12 Jun 2027 09:04:30.428   12 Jun 2027 09:04:38.920             8.492          3230.156
       355   12 Jun 2027 09:04:50.541   12 Jun 2027 09:04:51.569             1.028           301.594
       356   12 Jun 2027 09:06:51.273   12 Jun 2027 09:06:57.730             6.457          1900.469
       357   12 Jun 2027 09:07:50.801   12 Jun 2027 09:07:53.248             2.447           663.531
       358   12 Jun 2027 09:09:47.729   12 Jun 2027 09:09:52.986             5.257          2508.781
       359   12 Jun 2027 09:11:05.521   12 Jun 2027 09:11:07.340             1.819           909.500
       360   12 Jun 2027 10:40:53.480   12 Jun 2027 10:41:03.602            10.122          5052.000
       361   12 Jun 2027 10:42:07.268   12 Jun 2027 10:42:13.192             5.924          1122.250
       362   12 Jun 2027 10:42:50.037   12 Jun 2027 10:42:51.545             1.508           534.875
       363   12 Jun 2027 10:42:55.378   12 Jun 2027 10:42:56.248             0.870           119.781
       364   12 Jun 2027 10:44:26.299   12 Jun 2027 10:44:31.833             5.534          2465.250
       365   12 Jun 2027 10:45:08.719   12 Jun 2027 10:45:15.819             7.100           743.750
       366   12 Jun 2027 10:46:06.770   12 Jun 2027 10:46:10.724             3.954          1155.844
       367   12 Jun 2027 10:47:05.116   12 Jun 2027 10:47:06.204             1.088           544.000
       368   13 Jun 2027 03:03:12.725   13 Jun 2027 03:03:26.770            14.045          7022.500
       369   13 Jun 2027 03:04:15.092   13 Jun 2027 03:04:49.908            34.816         17408.000
       370   13 Jun 2027 03:06:11.306   13 Jun 2027 03:06:13.950             2.644          1322.000
       371   13 Jun 2027 03:06:38.498   13 Jun 2027 03:06:55.309            16.811          8405.500
       372   13 Jun 2027 03:07:10.111   13 Jun 2027 03:07:22.137            12.026          6013.000
       373   13 Jun 2027 03:07:53.007   13 Jun 2027 03:07:56.617             3.610          1805.000
       374   13 Jun 2027 03:08:12.424   13 Jun 2027 03:08:29.927            17.503          8751.500
       375   13 Jun 2027 03:11:20.907   13 Jun 2027 03:12:05.981            45.074         22537.000
       376   13 Jun 2027 04:41:23.805   13 Jun 2027 04:42:01.884            38.079         19039.500
       377   13 Jun 2027 04:42:31.169   13 Jun 2027 04:44:15.352           104.183         52091.500
       378   13 Jun 2027 04:44:32.678   13 Jun 2027 04:44:52.901            20.223         10111.500
       379   13 Jun 2027 06:05:29.628   13 Jun 2027 06:06:04.057            34.429         17214.500
       380   13 Jun 2027 06:06:30.500   13 Jun 2027 06:06:30.500             0.000             0.000
       381   13 Jun 2027 06:06:58.702   13 Jun 2027 06:07:08.863            10.161          4662.219
       382   13 Jun 2027 07:41:14.858   13 Jun 2027 07:41:26.400            11.542          5585.875
       383   13 Jun 2027 07:42:26.591   13 Jun 2027 07:42:33.202             6.611          1880.969
       384   13 Jun 2027 07:42:55.386   13 Jun 2027 07:42:57.147             1.761           261.063
       385   13 Jun 2027 07:43:46.097   13 Jun 2027 07:43:49.643             3.546          1385.531
       386   13 Jun 2027 07:44:28.157   13 Jun 2027 07:44:30.572             2.415          1179.719
       387   13 Jun 2027 09:16:12.497   13 Jun 2027 09:16:19.610             7.113          2969.031
       388   13 Jun 2027 09:16:37.409   13 Jun 2027 09:16:37.675             0.266            15.062
       389   13 Jun 2027 09:18:37.730   13 Jun 2027 09:18:40.026             2.296          1119.000
       390   13 Jun 2027 09:19:15.855   13 Jun 2027 09:19:16.680             0.825           336.437
       391   13 Jun 2027 09:19:53.275   13 Jun 2027 09:19:55.090             1.815           869.531
       392   13 Jun 2027 09:21:47.375   13 Jun 2027 09:21:52.415             5.040          2412.344
       393   13 Jun 2027 09:22:54.592   13 Jun 2027 09:23:00.069             5.477          1943.031
       394   13 Jun 2027 09:23:11.390   13 Jun 2027 09:23:14.793             3.403           134.781
       395   13 Jun 2027 10:52:25.389   13 Jun 2027 10:52:36.748            11.359          5176.250
       396   13 Jun 2027 10:54:42.849   13 Jun 2027 10:54:44.061             1.212            77.250
       397   13 Jun 2027 10:55:27.585   13 Jun 2027 10:55:32.790             5.205           918.031
       398   13 Jun 2027 10:56:32.660   13 Jun 2027 10:56:39.455             6.795          1870.938
       399   13 Jun 2027 10:57:08.512   13 Jun 2027 10:57:11.024             2.512           705.594
       400   13 Jun 2027 10:58:12.078   13 Jun 2027 10:58:14.615             2.537          1267.594
       401   13 Jun 2027 10:58:24.421   13 Jun 2027 10:58:25.593             1.172           151.187
       402   13 Jun 2027 10:58:46.307   13 Jun 2027 10:58:47.610             1.303             8.313
       403   13 Jun 2027 10:58:52.129   13 Jun 2027 10:58:52.261             0.132            16.250
