uniorb/output/strategy_4/Camera/Camera_KinoSat_111106.txt

KinoSat_111106
-------------------------
    Access    *     Start Time (UTCG)     *     Stop Time (UTCG)  *   Duration (s) *   Data (Mbytes)
         1   01 Jun 2027 03:26:02.879   01 Jun 2027 03:26:40.486            37.607         18803.500
         2   01 Jun 2027 03:27:10.411   01 Jun 2027 03:28:45.893            95.482         47741.000
         3   01 Jun 2027 03:29:04.518   01 Jun 2027 03:29:04.518             0.000             0.000
         4   01 Jun 2027 04:50:07.544   01 Jun 2027 04:50:35.429            27.885         13942.500
         5   01 Jun 2027 04:51:02.895   01 Jun 2027 04:51:20.420            17.525          8762.500
         6   01 Jun 2027 06:25:53.505   01 Jun 2027 06:27:44.772           111.267         55633.500
         7   01 Jun 2027 08:00:51.213   01 Jun 2027 08:02:35.732           104.519         52259.500
         8   01 Jun 2027 08:07:20.660   01 Jun 2027 08:07:53.757            33.097         16548.500
         9   01 Jun 2027 09:37:04.238   01 Jun 2027 09:40:05.194           180.956         90478.000
        10   01 Jun 2027 11:15:24.565   01 Jun 2027 11:17:53.921           149.356         74678.000
        11   01 Jun 2027 11:18:19.147   01 Jun 2027 11:18:23.034             3.887          1943.500
        12   02 Jun 2027 03:27:00.357   02 Jun 2027 03:27:12.815            12.458          6229.000
        13   02 Jun 2027 03:37:58.965   02 Jun 2027 03:39:41.878           102.913         51456.500
        14   02 Jun 2027 03:39:54.935   02 Jun 2027 03:40:47.813            52.878         26439.000
        15   02 Jun 2027 05:00:56.049   02 Jun 2027 05:01:32.953            36.904         18452.000
        16   02 Jun 2027 05:02:19.455   02 Jun 2027 05:02:25.350             5.895          2947.500
        17   02 Jun 2027 05:03:19.034   02 Jun 2027 05:03:28.564             9.530          4765.000
        18   02 Jun 2027 05:04:46.432   02 Jun 2027 05:04:46.432             0.000             0.000
        19   02 Jun 2027 05:04:47.783   02 Jun 2027 05:04:47.783             0.000             0.000
        20   02 Jun 2027 06:36:22.841   02 Jun 2027 06:36:40.767            17.926          8963.000
        21   02 Jun 2027 06:37:38.701   02 Jun 2027 06:40:44.508           185.807         92903.500
        22   02 Jun 2027 06:41:46.344   02 Jun 2027 06:41:56.612            10.268          5134.000
        23   02 Jun 2027 08:12:24.196   02 Jun 2027 08:15:44.306           200.110        100055.000
        24   02 Jun 2027 08:18:15.725   02 Jun 2027 08:18:35.997            20.272         10136.000
        25   02 Jun 2027 08:19:16.046   02 Jun 2027 08:19:58.883            42.837         21418.500
        26   02 Jun 2027 09:49:26.234   02 Jun 2027 09:49:51.318            25.084         11061.782
        27   02 Jun 2027 09:52:25.123   02 Jun 2027 09:52:28.397             3.274          1126.688
        28   02 Jun 2027 09:52:50.684   02 Jun 2027 09:52:55.013             4.329           509.719
        29   02 Jun 2027 09:53:08.882   02 Jun 2027 09:53:09.532             0.650           117.531
        30   02 Jun 2027 09:54:02.608   02 Jun 2027 09:54:06.726             4.118           972.344
        31   02 Jun 2027 09:54:08.657   02 Jun 2027 09:54:12.372             3.715            54.719
        32   02 Jun 2027 09:54:20.674   02 Jun 2027 09:54:24.201             3.527           156.937
        33   02 Jun 2027 09:55:20.999   02 Jun 2027 09:55:24.933             3.934          1774.937
        34   02 Jun 2027 11:27:26.029   02 Jun 2027 11:27:39.334            13.305          6058.719
        35   02 Jun 2027 11:29:44.111   02 Jun 2027 11:29:45.152             1.041           367.281
        36   02 Jun 2027 11:30:27.452   02 Jun 2027 11:30:36.012             8.560            46.594
        37   02 Jun 2027 11:30:54.146   02 Jun 2027 11:30:55.189             1.043            70.250
        38   02 Jun 2027 11:31:15.577   02 Jun 2027 11:31:16.815             1.238           497.156
        39   03 Jun 2027 03:38:18.289   03 Jun 2027 03:38:34.365            16.076          8038.000
        40   03 Jun 2027 03:50:00.760   03 Jun 2027 03:51:20.227            79.467         39733.500
        41   03 Jun 2027 05:12:13.644   03 Jun 2027 05:13:26.565            72.921         36460.500
        42   03 Jun 2027 05:14:15.681   03 Jun 2027 05:14:35.239            19.558          9779.000
        43   03 Jun 2027 05:16:26.507   03 Jun 2027 05:16:33.327             6.820          3410.000
        44   03 Jun 2027 06:47:20.371   03 Jun 2027 06:48:49.676            89.305         44652.500
        45   03 Jun 2027 06:49:22.409   03 Jun 2027 06:50:01.739            39.330         19580.500
        46   03 Jun 2027 06:50:31.740   03 Jun 2027 06:50:32.443             0.703           267.188
        47   03 Jun 2027 06:50:42.047   03 Jun 2027 06:50:43.534             1.487           281.719
        48   03 Jun 2027 06:52:23.466   03 Jun 2027 06:52:28.675             5.209          2595.594
        49   03 Jun 2027 06:52:49.765   03 Jun 2027 06:52:49.765             0.000             0.000
        50   03 Jun 2027 06:53:07.461   03 Jun 2027 06:53:14.191             6.730          1078.281
        51   03 Jun 2027 06:53:32.463   03 Jun 2027 06:53:41.822             9.359            76.813
        52   03 Jun 2027 06:53:53.927   03 Jun 2027 06:53:54.567             0.640           266.437
        53   03 Jun 2027 06:55:17.494   03 Jun 2027 06:55:26.445             8.951          2059.437
        54   03 Jun 2027 08:24:34.976   03 Jun 2027 08:24:42.568             7.592           574.594
        55   03 Jun 2027 08:26:36.069   03 Jun 2027 08:26:43.403             7.334          2210.906
        56   03 Jun 2027 08:27:45.307   03 Jun 2027 08:27:46.385             1.078           277.281
        57   03 Jun 2027 08:28:06.130   03 Jun 2027 08:28:11.248             5.118           435.844
        58   03 Jun 2027 08:28:59.853   03 Jun 2027 08:29:01.981             2.128           668.125
        59   03 Jun 2027 08:29:38.344   03 Jun 2027 08:29:40.340             1.996           586.000
        60   03 Jun 2027 08:30:18.638   03 Jun 2027 08:30:19.945             1.307           360.563
        61   03 Jun 2027 08:30:32.788   03 Jun 2027 08:30:34.107             1.319           401.344
        62   03 Jun 2027 08:31:00.179   03 Jun 2027 08:31:04.714             4.535           667.281
        63   03 Jun 2027 10:01:30.006   03 Jun 2027 10:01:41.306            11.300          5648.344
        64   03 Jun 2027 10:05:03.839   03 Jun 2027 10:05:10.266             6.427          1769.781
        65   03 Jun 2027 10:05:21.169   03 Jun 2027 10:05:23.219             2.050           118.250
        66   03 Jun 2027 10:05:45.618   03 Jun 2027 10:05:47.556             1.938           699.969
        67   03 Jun 2027 10:06:10.016   03 Jun 2027 10:06:16.151             6.135           603.250
        68   03 Jun 2027 10:07:25.643   03 Jun 2027 10:07:30.857             5.214          2171.625
        69   03 Jun 2027 11:39:25.514   03 Jun 2027 11:39:36.396            10.882          5244.438
        70   03 Jun 2027 11:40:33.765   03 Jun 2027 11:40:41.722             7.957           412.875
        71   03 Jun 2027 11:41:36.597   03 Jun 2027 11:41:38.109             1.512           623.563
        72   03 Jun 2027 11:42:48.905   03 Jun 2027 11:42:51.193             2.288           306.000
        73   03 Jun 2027 11:43:15.404   03 Jun 2027 11:43:16.916             1.512           421.312
        74   04 Jun 2027 03:49:46.750   04 Jun 2027 03:50:04.655            17.905          8952.500
        75   04 Jun 2027 03:51:01.135   04 Jun 2027 03:51:01.135             0.000             0.000
        76   04 Jun 2027 03:51:56.434   04 Jun 2027 03:51:56.698             0.264           132.000
        77   04 Jun 2027 04:01:57.476   04 Jun 2027 04:02:36.109            38.633         19316.500
        78   04 Jun 2027 05:23:59.233   04 Jun 2027 05:25:19.917            80.684         40342.000
        79   04 Jun 2027 05:26:01.938   04 Jun 2027 05:27:17.965            76.027         38013.500
        80   04 Jun 2027 05:27:34.963   04 Jun 2027 05:28:11.429            36.466         18233.000
        81   04 Jun 2027 06:58:49.761   04 Jun 2027 07:00:01.590            71.829         35117.188
        82   04 Jun 2027 07:00:39.513   04 Jun 2027 07:00:42.204             2.691          1185.094
        83   04 Jun 2027 07:01:19.119   04 Jun 2027 07:01:21.023             1.904           952.000
        84   04 Jun 2027 07:02:00.982   04 Jun 2027 07:02:04.224             3.242          1450.313
        85   04 Jun 2027 07:02:31.068   04 Jun 2027 07:02:34.961             3.893           349.281
        86   04 Jun 2027 07:02:40.986   04 Jun 2027 07:02:41.552             0.566           188.281
        87   04 Jun 2027 07:03:10.185   04 Jun 2027 07:03:10.185             0.000             0.000
        88   04 Jun 2027 07:04:24.456   04 Jun 2027 07:04:37.099            12.643          3125.031
        89   04 Jun 2027 07:05:31.914   04 Jun 2027 07:05:36.361             4.447          1462.187
        90   04 Jun 2027 07:05:49.842   04 Jun 2027 07:05:50.863             1.021           421.281
        91   04 Jun 2027 07:06:05.366   04 Jun 2027 07:06:07.319             1.953           192.875
        92   04 Jun 2027 07:06:40.333   04 Jun 2027 07:06:40.333             0.000             0.000
        93   04 Jun 2027 07:07:39.401   04 Jun 2027 07:07:40.595             1.194           597.000
        94   04 Jun 2027 08:36:36.046   04 Jun 2027 08:36:40.667             4.621          2180.469
        95   04 Jun 2027 08:37:29.538   04 Jun 2027 08:37:33.417             3.879           979.437
        96   04 Jun 2027 08:39:30.831   04 Jun 2027 08:39:35.052             4.221          1734.625
        97   04 Jun 2027 08:40:53.077   04 Jun 2027 08:40:58.888             5.811            20.219
        98   04 Jun 2027 08:42:37.417   04 Jun 2027 08:42:40.822             3.405           823.531
        99   04 Jun 2027 08:43:24.569   04 Jun 2027 08:43:33.090             8.521           386.875
       100   04 Jun 2027 08:43:55.305   04 Jun 2027 08:43:57.232             1.927           365.125
       101   04 Jun 2027 10:13:21.556   04 Jun 2027 10:13:33.994            12.438          5421.000
       102   04 Jun 2027 10:14:27.245   04 Jun 2027 10:14:28.232             0.987            77.969
       103   04 Jun 2027 10:16:11.783   04 Jun 2027 10:16:12.994             1.211           162.125
       104   04 Jun 2027 10:16:24.202   04 Jun 2027 10:16:26.254             2.052           288.438
       105   04 Jun 2027 10:17:31.759   04 Jun 2027 10:17:34.840             3.081          1045.063
       106   04 Jun 2027 10:17:53.685   04 Jun 2027 10:17:57.695             4.010           428.344
       107   04 Jun 2027 10:18:18.995   04 Jun 2027 10:18:20.916             1.921           207.969
       108   04 Jun 2027 10:18:44.640   04 Jun 2027 10:18:46.880             2.240            68.688
       109   04 Jun 2027 10:19:32.336   04 Jun 2027 10:19:39.811             7.475          1369.156
       110   04 Jun 2027 11:51:26.712   04 Jun 2027 11:51:51.187            24.475          6253.000
       111   04 Jun 2027 11:52:00.750   04 Jun 2027 11:52:03.594             2.844           147.969
       112   04 Jun 2027 11:52:34.761   04 Jun 2027 11:52:36.929             2.168           802.687
       113   04 Jun 2027 11:53:35.092   04 Jun 2027 11:53:36.278             1.186           509.969
       114   04 Jun 2027 11:54:04.093   04 Jun 2027 11:54:18.444            14.351           820.375
       115   04 Jun 2027 11:55:00.159   04 Jun 2027 11:55:05.634             5.475           626.969
       116   04 Jun 2027 11:55:30.407   04 Jun 2027 11:55:33.729             3.322           258.156
       117   05 Jun 2027 04:01:48.584   05 Jun 2027 04:02:06.196            17.612          8806.000
       118   05 Jun 2027 04:02:36.369   05 Jun 2027 04:02:40.856             4.487          2243.500
       119   05 Jun 2027 04:03:36.383   05 Jun 2027 04:03:36.383             0.000             0.000
       120   05 Jun 2027 05:37:46.229   05 Jun 2027 05:40:31.401           165.172         82586.000
       121   05 Jun 2027 05:41:00.714   05 Jun 2027 05:41:14.254            13.540          6770.000
       122   05 Jun 2027 07:11:35.685   05 Jun 2027 07:13:38.390           122.705         61352.500
       123   05 Jun 2027 07:14:07.051   05 Jun 2027 07:14:09.633             2.582          1214.594
       124   05 Jun 2027 07:15:00.655   05 Jun 2027 07:15:03.374             2.719          1359.500
       125   05 Jun 2027 07:16:23.979   05 Jun 2027 07:16:32.142             8.163          2706.531
       126   05 Jun 2027 07:17:29.546   05 Jun 2027 07:17:36.091             6.545          1294.656
       127   05 Jun 2027 07:18:38.709   05 Jun 2027 07:18:38.709             0.000             0.000
       128   05 Jun 2027 07:19:06.956   05 Jun 2027 07:19:09.687             2.731          1365.500
       129   05 Jun 2027 08:48:39.673   05 Jun 2027 08:48:51.289            11.616          5716.000
       130   05 Jun 2027 08:49:36.393   05 Jun 2027 08:49:39.265             2.872           268.344
       131   05 Jun 2027 08:51:21.779   05 Jun 2027 08:51:24.157             2.378          1110.344
       132   05 Jun 2027 08:52:47.184   05 Jun 2027 08:52:55.554             8.370          2488.562
       133   05 Jun 2027 08:54:30.167   05 Jun 2027 08:54:32.481             2.314           385.156
       134   05 Jun 2027 08:55:27.993   05 Jun 2027 08:55:29.070             1.077            18.094
       135   05 Jun 2027 08:55:41.553   05 Jun 2027 08:55:45.383             3.830           390.094
       136   05 Jun 2027 10:25:35.297   05 Jun 2027 10:25:51.258            15.961          6795.969
       137   05 Jun 2027 10:29:46.760   05 Jun 2027 10:29:49.567             2.807           805.000
       138   05 Jun 2027 10:30:08.564   05 Jun 2027 10:30:13.846             5.282           580.781
       139   05 Jun 2027 10:30:53.842   05 Jun 2027 10:30:58.045             4.203          1249.875
       140   05 Jun 2027 10:31:43.104   05 Jun 2027 10:31:45.353             2.249           184.594
       141   06 Jun 2027 04:13:42.636   06 Jun 2027 04:14:27.099            44.463         22231.500
       142   06 Jun 2027 05:50:05.129   06 Jun 2027 05:52:43.372           158.243         79121.500
       143   06 Jun 2027 07:23:33.824   06 Jun 2027 07:25:22.495           108.671         53563.344
       144   06 Jun 2027 07:25:53.199   06 Jun 2027 07:25:54.176             0.977           259.094
       145   06 Jun 2027 07:25:57.271   06 Jun 2027 07:26:03.400             6.129            92.969
       146   06 Jun 2027 07:27:49.909   06 Jun 2027 07:27:55.328             5.419          2150.781
       147   06 Jun 2027 07:30:09.475   06 Jun 2027 07:30:19.843            10.368          4016.781
       148   06 Jun 2027 07:30:41.380   06 Jun 2027 07:30:42.151             0.771           276.656
       149   06 Jun 2027 07:30:55.429   06 Jun 2027 07:31:02.040             6.611           340.906
       150   06 Jun 2027 07:31:35.497   06 Jun 2027 07:31:36.628             1.131           458.469
       151   06 Jun 2027 09:01:06.110   06 Jun 2027 09:01:18.224            12.114          5463.750
       152   06 Jun 2027 09:04:48.829   06 Jun 2027 09:04:55.787             6.958           294.938
       153   06 Jun 2027 09:06:03.278   06 Jun 2027 09:06:06.224             2.946           603.688
       154   06 Jun 2027 09:06:44.664   06 Jun 2027 09:06:49.526             4.862           925.594
       155   06 Jun 2027 09:07:40.990   06 Jun 2027 09:07:43.741             2.751           834.188
       156   06 Jun 2027 10:38:00.908   06 Jun 2027 10:38:23.307            22.399          6205.406
       157   06 Jun 2027 10:41:27.274   06 Jun 2027 10:41:28.816             1.542           704.438
       158   06 Jun 2027 10:41:35.038   06 Jun 2027 10:41:38.951             3.913           194.437
       159   06 Jun 2027 10:41:45.046   06 Jun 2027 10:41:46.930             1.884            33.656
       160   06 Jun 2027 10:41:59.802   06 Jun 2027 10:42:00.401             0.599           235.844
       161   06 Jun 2027 10:42:40.205   06 Jun 2027 10:42:43.406             3.201           804.344
       162   06 Jun 2027 10:42:51.584   06 Jun 2027 10:42:56.420             4.836             8.781
       163   06 Jun 2027 10:43:41.557   06 Jun 2027 10:43:42.175             0.618            56.000
       164   07 Jun 2027 03:01:57.542   07 Jun 2027 03:02:16.409            18.867          9433.500
       165   07 Jun 2027 03:02:25.325   07 Jun 2027 03:02:55.853            30.528         15264.000
       166   07 Jun 2027 03:04:27.169   07 Jun 2027 03:04:34.147             6.978          3489.000
       167   07 Jun 2027 04:25:32.721   07 Jun 2027 04:26:17.994            45.273         22636.500
       168   07 Jun 2027 06:02:06.914   07 Jun 2027 06:05:17.799           190.885         95442.500
       169   07 Jun 2027 07:36:36.664   07 Jun 2027 07:37:10.890            34.226         16829.157
       170   07 Jun 2027 07:37:49.703   07 Jun 2027 07:37:51.136             1.433           553.312
       171   07 Jun 2027 07:38:50.195   07 Jun 2027 07:38:51.605             1.410           159.344
       172   07 Jun 2027 07:39:43.288   07 Jun 2027 07:39:46.551             3.263          1574.281
       173   07 Jun 2027 07:40:37.318   07 Jun 2027 07:40:39.968             2.650           514.063
       174   07 Jun 2027 07:41:16.663   07 Jun 2027 07:41:16.663             0.000             0.000
       175   07 Jun 2027 07:41:22.820   07 Jun 2027 07:41:30.631             7.811           911.187
       176   07 Jun 2027 07:42:44.672   07 Jun 2027 07:42:46.690             2.018           358.406
       177   07 Jun 2027 07:43:34.917   07 Jun 2027 07:43:37.033             2.116           982.594
       178   07 Jun 2027 07:43:57.943   07 Jun 2027 07:43:59.948             2.005           149.125
       179   07 Jun 2027 09:13:13.227   07 Jun 2027 09:13:27.745            14.518          5160.000
       180   07 Jun 2027 09:15:29.764   07 Jun 2027 09:15:31.366             1.602           714.656
       181   07 Jun 2027 09:17:02.445   07 Jun 2027 09:17:02.752             0.307            44.000
       182   07 Jun 2027 09:18:10.819   07 Jun 2027 09:18:13.950             3.131            40.344
       183   07 Jun 2027 09:19:28.079   07 Jun 2027 09:19:30.106             2.027           744.500
       184   07 Jun 2027 10:50:55.397   07 Jun 2027 10:51:05.837            10.440          4931.469
       185   07 Jun 2027 10:51:08.454   07 Jun 2027 10:51:08.971             0.517            81.781
       186   07 Jun 2027 10:52:32.400   07 Jun 2027 10:52:35.780             3.380          1290.406
       187   07 Jun 2027 10:53:08.782   07 Jun 2027 10:53:09.963             1.181           480.094
       188   07 Jun 2027 10:53:51.863   07 Jun 2027 10:53:52.935             1.072           159.188
       189   07 Jun 2027 10:54:08.210   07 Jun 2027 10:54:09.424             1.214           477.344
       190   07 Jun 2027 10:55:12.819   07 Jun 2027 10:55:18.495             5.676          1834.563
       191   08 Jun 2027 03:14:22.589   08 Jun 2027 03:14:49.324            26.735         13367.500
       192   08 Jun 2027 03:15:10.598   08 Jun 2027 03:17:02.015           111.417         55708.500
       193   08 Jun 2027 04:37:43.929   08 Jun 2027 04:38:27.737            43.808         21904.000
       194   08 Jun 2027 04:38:43.208   08 Jun 2027 04:38:48.408             5.200          2600.000
       195   08 Jun 2027 04:39:20.358   08 Jun 2027 04:39:20.358             0.000             0.000
       196   08 Jun 2027 04:39:26.633   08 Jun 2027 04:40:11.316            44.683         22341.500
       197   08 Jun 2027 06:14:15.656   08 Jun 2027 06:15:45.923            90.267         44977.063
       198   08 Jun 2027 06:16:13.421   08 Jun 2027 06:16:14.231             0.810             6.344
       199   08 Jun 2027 06:16:37.164   08 Jun 2027 06:16:37.849             0.685           332.156
       200   08 Jun 2027 06:17:48.418   08 Jun 2027 06:17:48.794             0.376           188.000
       201   08 Jun 2027 07:49:24.806   08 Jun 2027 07:49:36.374            11.568          2007.000
       202   08 Jun 2027 07:50:36.136   08 Jun 2027 07:50:39.659             3.523          1442.062
       203   08 Jun 2027 07:50:51.469   08 Jun 2027 07:50:55.940             4.471            92.656
       204   08 Jun 2027 07:51:34.848   08 Jun 2027 07:51:37.083             2.235           917.938
       205   08 Jun 2027 07:52:23.154   08 Jun 2027 07:52:23.756             0.602           163.125
       206   08 Jun 2027 07:52:56.159   08 Jun 2027 07:53:03.763             7.604           241.625
       207   08 Jun 2027 07:54:33.384   08 Jun 2027 07:54:38.568             5.184          2198.406
       208   08 Jun 2027 07:55:36.552   08 Jun 2027 07:55:43.566             7.014          1521.000
       209   08 Jun 2027 07:55:51.425   08 Jun 2027 07:55:52.131             0.706           223.094
       210   08 Jun 2027 09:25:48.621   08 Jun 2027 09:25:58.887            10.266          4854.437
       211   08 Jun 2027 09:28:21.513   08 Jun 2027 09:28:24.231             2.718            61.687
       212   08 Jun 2027 09:28:27.873   08 Jun 2027 09:28:28.523             0.650            53.000
       213   08 Jun 2027 09:28:55.570   08 Jun 2027 09:28:57.060             1.490           250.813
       214   08 Jun 2027 09:30:04.896   08 Jun 2027 09:30:10.932             6.036          2106.531
       215   08 Jun 2027 09:30:38.446   08 Jun 2027 09:30:44.485             6.039           734.844
       216   08 Jun 2027 09:31:20.135   08 Jun 2027 09:31:22.101             1.966           849.875
       217   08 Jun 2027 11:03:02.243   08 Jun 2027 11:03:14.606            12.363          5706.125
       218   08 Jun 2027 11:04:20.732   08 Jun 2027 11:04:30.592             9.860          1174.938
       219   08 Jun 2027 11:04:36.626   08 Jun 2027 11:04:37.065             0.439           148.250
       220   08 Jun 2027 11:06:12.685   08 Jun 2027 11:06:17.302             4.617          2040.969
       221   08 Jun 2027 11:06:56.356   08 Jun 2027 11:07:18.179            21.823          1220.437
       222   08 Jun 2027 11:07:28.665   08 Jun 2027 11:07:30.937             2.272           327.688
       223   09 Jun 2027 03:26:18.220   09 Jun 2027 03:26:56.080            37.860         18930.000
       224   09 Jun 2027 03:27:25.661   09 Jun 2027 03:29:54.662           149.001         74500.500
       225   09 Jun 2027 04:50:20.314   09 Jun 2027 04:50:40.344            20.030         10015.000
       226   09 Jun 2027 04:50:46.025   09 Jun 2027 04:50:50.619             4.594          2297.000
       227   09 Jun 2027 04:52:04.481   09 Jun 2027 04:52:36.119            31.638         15819.000
       228   09 Jun 2027 06:26:08.682   09 Jun 2027 06:27:15.348            66.666         33098.250
       229   09 Jun 2027 06:27:46.821   09 Jun 2027 06:27:49.327             2.506           983.531
       230   09 Jun 2027 06:28:19.611   09 Jun 2027 06:28:21.649             2.038           576.969
       231   09 Jun 2027 06:28:38.515   09 Jun 2027 06:28:41.011             2.496           465.531
       232   09 Jun 2027 06:29:21.391   09 Jun 2027 06:29:22.684             1.293           646.500
       233   09 Jun 2027 08:01:06.125   09 Jun 2027 08:01:14.561             8.436          2396.125
       234   09 Jun 2027 08:01:41.426   09 Jun 2027 08:01:43.591             2.165           199.406
       235   09 Jun 2027 08:02:52.345   09 Jun 2027 08:02:52.345             0.000             0.000
       236   09 Jun 2027 08:03:02.680   09 Jun 2027 08:03:03.639             0.959           337.531
       237   09 Jun 2027 08:03:57.002   09 Jun 2027 08:04:00.095             3.093           283.281
       238   09 Jun 2027 08:04:58.428   09 Jun 2027 08:05:03.334             4.906          1479.031
       239   09 Jun 2027 08:06:32.988   09 Jun 2027 08:06:39.447             6.459          2101.531
       240   09 Jun 2027 08:07:37.638   09 Jun 2027 08:07:42.573             4.935          1457.844
       241   09 Jun 2027 09:37:20.400   09 Jun 2027 09:37:33.733            13.333          4951.094
       242   09 Jun 2027 09:39:25.671   09 Jun 2027 09:39:30.134             4.463          1491.406
       243   09 Jun 2027 09:40:44.069   09 Jun 2027 09:40:45.389             1.320           463.156
       244   09 Jun 2027 09:41:01.352   09 Jun 2027 09:41:03.618             2.266           351.500
       245   09 Jun 2027 09:42:28.022   09 Jun 2027 09:42:35.077             7.055          1358.969
       246   09 Jun 2027 09:42:53.422   09 Jun 2027 09:42:55.019             1.597           476.063
       247   09 Jun 2027 11:15:40.143   09 Jun 2027 11:15:56.875            16.732          5405.250
       248   09 Jun 2027 11:16:39.741   09 Jun 2027 11:16:41.893             2.152           341.438
       249   09 Jun 2027 11:17:56.009   09 Jun 2027 11:17:58.587             2.578           240.000
       250   09 Jun 2027 11:18:50.664   09 Jun 2027 11:19:00.495             9.831          1459.500
       251   09 Jun 2027 11:19:28.390   09 Jun 2027 11:19:28.999             0.609           257.625
       252   10 Jun 2027 03:27:05.807   10 Jun 2027 03:27:09.634             3.827          1913.500
       253   10 Jun 2027 03:38:14.298   10 Jun 2027 03:39:56.688           102.390         51195.000
       254   10 Jun 2027 03:40:12.209   10 Jun 2027 03:41:33.357            81.148         40574.000
       255   10 Jun 2027 05:01:11.104   10 Jun 2027 05:01:48.500            37.396         18698.000
       256   10 Jun 2027 05:04:03.714   10 Jun 2027 05:04:32.465            28.751         14375.500
       257   10 Jun 2027 06:36:28.513   10 Jun 2027 06:36:57.152            28.639         14319.500
       258   10 Jun 2027 06:37:53.368   10 Jun 2027 06:38:18.822            25.454         12049.001
       259   10 Jun 2027 06:38:46.919   10 Jun 2027 06:38:55.769             8.850           197.000
       260   10 Jun 2027 06:39:05.008   10 Jun 2027 06:39:05.008             0.000             0.000
       261   10 Jun 2027 06:39:29.085   10 Jun 2027 06:39:40.263            11.178          1027.625
       262   10 Jun 2027 06:40:39.498   10 Jun 2027 06:40:42.765             3.267          1531.906
       263   10 Jun 2027 06:40:58.128   10 Jun 2027 06:41:00.302             2.174           480.094
       264   10 Jun 2027 06:41:34.072   10 Jun 2027 06:41:41.189             7.117           590.063
       265   10 Jun 2027 08:12:39.157   10 Jun 2027 08:12:44.100             4.943          1684.875
       266   10 Jun 2027 08:13:13.881   10 Jun 2027 08:13:15.928             2.047            83.125
       267   10 Jun 2027 08:15:33.540   10 Jun 2027 08:15:35.945             2.405          1198.625
       268   10 Jun 2027 08:16:04.092   10 Jun 2027 08:16:08.184             4.092            90.125
       269   10 Jun 2027 08:17:00.430   10 Jun 2027 08:17:11.890            11.460          1632.688
       270   10 Jun 2027 08:18:31.908   10 Jun 2027 08:18:37.773             5.865          1903.313
       271   10 Jun 2027 08:19:31.011   10 Jun 2027 08:19:33.335             2.324          1158.000
       272   10 Jun 2027 09:49:41.897   10 Jun 2027 09:49:53.932            12.035          4746.156
       273   10 Jun 2027 09:52:53.788   10 Jun 2027 09:52:54.767             0.979           395.937
       274   10 Jun 2027 09:53:46.214   10 Jun 2027 09:53:48.770             2.556           672.094
       275   10 Jun 2027 09:54:19.532   10 Jun 2027 09:54:23.262             3.730            40.781
       276   10 Jun 2027 09:54:30.697   10 Jun 2027 09:54:32.997             2.300           232.344
       277   10 Jun 2027 09:54:36.477   10 Jun 2027 09:54:38.997             2.520            17.406
       278   10 Jun 2027 11:27:41.435   10 Jun 2027 11:27:54.963            13.528          5798.094
       279   10 Jun 2027 11:27:58.486   10 Jun 2027 11:27:58.796             0.310           101.844
       280   10 Jun 2027 11:28:09.247   10 Jun 2027 11:28:13.586             4.339            69.031
       281   10 Jun 2027 11:29:06.697   10 Jun 2027 11:29:14.321             7.624          1624.312
       282   10 Jun 2027 11:30:01.706   10 Jun 2027 11:30:03.274             1.568           427.594
       283   10 Jun 2027 11:31:29.356   10 Jun 2027 11:31:32.693             3.337          1426.125
       284   11 Jun 2027 03:38:34.001   11 Jun 2027 03:38:50.638            16.637          8318.500
       285   11 Jun 2027 03:50:16.401   11 Jun 2027 03:51:35.145            78.744         39372.000
       286   11 Jun 2027 05:12:29.564   11 Jun 2027 05:13:41.516            71.952         35976.000
       287   11 Jun 2027 05:14:30.803   11 Jun 2027 05:15:20.426            49.623         24811.500
       288   11 Jun 2027 05:16:42.318   11 Jun 2027 05:16:47.759             5.441          2720.500
       289   11 Jun 2027 05:17:20.260   11 Jun 2027 05:17:20.260             0.000             0.000
       290   11 Jun 2027 06:47:35.259   11 Jun 2027 06:49:05.029            89.770         44885.000
       291   11 Jun 2027 06:49:37.439   11 Jun 2027 06:49:48.991            11.552          3400.625
       292   11 Jun 2027 06:50:10.724   11 Jun 2027 06:50:11.518             0.794           368.875
       293   11 Jun 2027 06:50:49.065   11 Jun 2027 06:50:49.986             0.921           336.281
       294   11 Jun 2027 06:50:58.783   11 Jun 2027 06:51:01.369             2.586           274.906
       295   11 Jun 2027 06:52:02.370   11 Jun 2027 06:52:05.690             3.320          1417.688
       296   11 Jun 2027 06:52:50.045   11 Jun 2027 06:52:51.381             1.336           346.406
       297   11 Jun 2027 06:53:45.722   11 Jun 2027 06:53:48.918             3.196          1446.000
       298   11 Jun 2027 06:54:09.587   11 Jun 2027 06:54:10.163             0.576           249.938
       299   11 Jun 2027 06:55:29.916   11 Jun 2027 06:55:34.866             4.950          2064.219
       300   11 Jun 2027 08:24:51.662   11 Jun 2027 08:24:57.121             5.459          1278.188
       301   11 Jun 2027 08:25:42.710   11 Jun 2027 08:25:45.520             2.810           908.563
       302   11 Jun 2027 08:26:10.476   11 Jun 2027 08:26:13.854             3.378           390.781
       303   11 Jun 2027 08:27:53.534   11 Jun 2027 08:27:59.427             5.893          1723.156
       304   11 Jun 2027 08:28:09.390   11 Jun 2027 08:28:09.390             0.000             0.000
       305   11 Jun 2027 08:28:23.524   11 Jun 2027 08:28:25.767             2.243           715.156
       306   11 Jun 2027 08:29:15.021   11 Jun 2027 08:29:16.436             1.415           685.656
       307   11 Jun 2027 08:29:55.191   11 Jun 2027 08:29:58.582             3.391           651.969
       308   11 Jun 2027 08:30:35.006   11 Jun 2027 08:30:35.933             0.927           318.844
       309   11 Jun 2027 08:30:56.762   11 Jun 2027 08:30:58.900             2.138           624.250
       310   11 Jun 2027 10:01:44.871   11 Jun 2027 10:01:55.014            10.143          4747.250
       311   11 Jun 2027 10:04:25.009   11 Jun 2027 10:04:29.229             4.220           125.937
       312   11 Jun 2027 10:05:41.259   11 Jun 2027 10:05:45.461             4.202           571.437
       313   11 Jun 2027 10:06:09.097   11 Jun 2027 10:06:13.147             4.050           517.719
       314   11 Jun 2027 10:06:34.983   11 Jun 2027 10:06:37.637             2.654           682.375
       315   11 Jun 2027 10:07:09.700   11 Jun 2027 10:07:13.856             4.156           453.313
       316   11 Jun 2027 10:07:31.766   11 Jun 2027 10:07:33.186             1.420           559.688
       317   11 Jun 2027 10:07:43.548   11 Jun 2027 10:07:45.734             2.186           115.125
       318   11 Jun 2027 11:39:41.180   11 Jun 2027 11:39:52.381            11.201          5177.219
       319   11 Jun 2027 11:41:05.529   11 Jun 2027 11:41:07.547             2.018           534.625
       320   11 Jun 2027 11:42:06.864   11 Jun 2027 11:42:09.880             3.016           624.812
       321   11 Jun 2027 11:43:05.145   11 Jun 2027 11:43:10.933             5.788           357.312
       322   11 Jun 2027 11:43:30.613   11 Jun 2027 11:43:34.038             3.425           411.625
       323   12 Jun 2027 03:50:02.990   12 Jun 2027 03:50:19.382            16.392          8196.000
       324   12 Jun 2027 03:51:15.741   12 Jun 2027 03:51:15.741             0.000             0.000
       325   12 Jun 2027 03:52:11.202   12 Jun 2027 03:52:14.074             2.872          1436.000
       326   12 Jun 2027 04:02:13.130   12 Jun 2027 04:02:51.101            37.971         18985.500
       327   12 Jun 2027 05:24:14.582   12 Jun 2027 05:25:35.015            80.433         40216.500
       328   12 Jun 2027 05:26:17.120   12 Jun 2027 05:27:24.589            67.469         33734.500
       329   12 Jun 2027 05:28:25.698   12 Jun 2027 05:28:44.840            19.142          9571.000
       330   12 Jun 2027 06:59:04.303   12 Jun 2027 07:00:43.332            99.029         49469.187
       331   12 Jun 2027 07:00:59.900   12 Jun 2027 07:00:59.900             0.000             0.000
       332   12 Jun 2027 07:02:18.836   12 Jun 2027 07:02:25.802             6.966          2610.500
       333   12 Jun 2027 07:02:35.178   12 Jun 2027 07:02:35.178             0.000             0.000
       334   12 Jun 2027 07:02:44.570   12 Jun 2027 07:02:45.198             0.628           299.969
       335   12 Jun 2027 07:02:56.485   12 Jun 2027 07:02:56.485             0.000             0.000
       336   12 Jun 2027 07:03:01.175   12 Jun 2027 07:03:02.282             1.107           248.844
       337   12 Jun 2027 07:04:33.658   12 Jun 2027 07:04:40.138             6.480          2385.531
       338   12 Jun 2027 07:05:02.532   12 Jun 2027 07:05:04.532             2.000           699.813
       339   12 Jun 2027 07:06:28.386   12 Jun 2027 07:06:34.168             5.782          1942.625
       340   12 Jun 2027 07:06:52.675   12 Jun 2027 07:06:54.809             2.134           198.250
       341   12 Jun 2027 07:07:56.160   12 Jun 2027 07:07:56.608             0.448           224.000
       342   12 Jun 2027 08:36:51.316   12 Jun 2027 08:36:54.817             3.501          1639.813
       343   12 Jun 2027 08:37:47.124   12 Jun 2027 08:37:51.065             3.941           978.812
       344   12 Jun 2027 08:39:01.484   12 Jun 2027 08:39:02.173             0.689           302.125
       345   12 Jun 2027 08:40:46.498   12 Jun 2027 08:40:51.240             4.742          1748.906
       346   12 Jun 2027 08:41:08.344   12 Jun 2027 08:41:08.457             0.113            30.969
       347   12 Jun 2027 08:43:30.302   12 Jun 2027 08:43:34.739             4.437          1747.031
       348   12 Jun 2027 08:43:58.787   12 Jun 2027 08:44:03.973             5.186           674.406
       349   12 Jun 2027 08:44:11.564   12 Jun 2027 08:44:13.117             1.553            33.094
       350   12 Jun 2027 10:13:36.324   12 Jun 2027 10:13:49.837            13.513          5840.125
       351   12 Jun 2027 10:15:10.973   12 Jun 2027 10:15:12.949             1.976           876.187
       352   12 Jun 2027 10:16:24.525   12 Jun 2027 10:16:25.209             0.684           158.656
       353   12 Jun 2027 10:16:32.600   12 Jun 2027 10:16:33.413             0.813           230.969
       354   12 Jun 2027 10:17:47.803   12 Jun 2027 10:17:50.173             2.370          1093.813
       355   12 Jun 2027 10:17:58.666   12 Jun 2027 10:17:59.034             0.368            62.188
       356   12 Jun 2027 10:18:11.515   12 Jun 2027 10:18:12.539             1.024           233.031
       357   12 Jun 2027 10:19:05.788   12 Jun 2027 10:19:12.276             6.488          1316.375
       358   12 Jun 2027 10:19:42.571   12 Jun 2027 10:19:48.900             6.329           275.406
       359   12 Jun 2027 10:20:00.247   12 Jun 2027 10:20:04.414             4.167           354.594
       360   12 Jun 2027 10:20:18.385   12 Jun 2027 10:20:21.791             3.406           378.406
       361   12 Jun 2027 11:51:42.123   12 Jun 2027 11:52:05.627            23.504          6233.719
       362   12 Jun 2027 11:53:49.847   12 Jun 2027 11:53:51.588             1.741           469.125
       363   12 Jun 2027 11:54:21.362   12 Jun 2027 11:54:32.877            11.515           811.500
       364   12 Jun 2027 11:54:56.178   12 Jun 2027 11:55:05.516             9.338           728.156
       365   12 Jun 2027 11:55:31.568   12 Jun 2027 11:55:38.845             7.277           468.500
       366   12 Jun 2027 11:55:48.346   12 Jun 2027 11:55:50.883             2.537           296.906
       367   13 Jun 2027 04:02:03.494   13 Jun 2027 04:02:21.045            17.551          8775.500
       368   13 Jun 2027 04:02:53.108   13 Jun 2027 04:02:56.140             3.032          1516.000
       369   13 Jun 2027 04:03:51.204   13 Jun 2027 04:04:00.923             9.719          4859.500
       370   13 Jun 2027 05:38:01.569   13 Jun 2027 05:40:47.192           165.623         82811.500
       371   13 Jun 2027 05:41:08.444   13 Jun 2027 05:41:08.444             0.000             0.000
       372   13 Jun 2027 05:41:15.346   13 Jun 2027 05:41:15.346             0.000             0.000
       373   13 Jun 2027 07:11:50.900   13 Jun 2027 07:13:59.388           128.488         64107.094
       374   13 Jun 2027 07:14:30.363   13 Jun 2027 07:14:30.810             0.447           217.594
       375   13 Jun 2027 07:14:56.541   13 Jun 2027 07:14:59.308             2.767           770.531
       376   13 Jun 2027 07:15:28.900   13 Jun 2027 07:15:34.356             5.456           798.687
       377   13 Jun 2027 07:16:26.320   13 Jun 2027 07:16:26.320             0.000             0.000
       378   13 Jun 2027 07:17:27.513   13 Jun 2027 07:17:34.630             7.117          2604.719
       379   13 Jun 2027 07:18:03.862   13 Jun 2027 07:18:03.862             0.000             0.000
       380   13 Jun 2027 07:18:26.759   13 Jun 2027 07:18:29.540             2.781          1272.562
       381   13 Jun 2027 07:19:38.422   13 Jun 2027 07:19:41.829             3.407          1692.250
       382   13 Jun 2027 08:48:56.435   13 Jun 2027 08:49:09.234            12.799          6218.344
       383   13 Jun 2027 08:49:54.181   13 Jun 2027 08:49:55.673             1.492           251.875
       384   13 Jun 2027 08:51:04.432   13 Jun 2027 08:51:10.873             6.441           443.187
       385   13 Jun 2027 08:53:04.395   13 Jun 2027 08:53:12.313             7.918          2479.219
       386   13 Jun 2027 08:54:50.087   13 Jun 2027 08:55:01.757            11.670          2243.219
       387   13 Jun 2027 08:55:43.258   13 Jun 2027 08:55:45.354             2.096            16.844
       388   13 Jun 2027 08:56:05.602   13 Jun 2027 08:56:09.174             3.572           616.656
       389   13 Jun 2027 10:25:58.486   13 Jun 2027 10:26:11.044            12.558          6117.813
       390   13 Jun 2027 10:27:41.192   13 Jun 2027 10:27:44.266             3.074           900.188
       391   13 Jun 2027 10:28:39.224   13 Jun 2027 10:28:44.196             4.972           704.625
       392   13 Jun 2027 10:29:37.254   13 Jun 2027 10:29:44.242             6.988          1609.062
       393   13 Jun 2027 10:29:56.894   13 Jun 2027 10:29:58.570             1.676           395.375
       394   13 Jun 2027 10:30:19.670   13 Jun 2027 10:30:21.028             1.358           659.375
       395   13 Jun 2027 10:30:30.174   13 Jun 2027 10:30:31.047             0.873           163.719
       396   13 Jun 2027 10:30:58.335   13 Jun 2027 10:31:03.528             5.193           659.844
       397   13 Jun 2027 10:31:58.033   13 Jun 2027 10:32:00.718             2.685           134.469
