uniorb/output/strategy_4/Camera/Camera_KinoSat_110510.txt

KinoSat_110510
-------------------------
    Access    *     Start Time (UTCG)     *     Stop Time (UTCG)  *   Duration (s) *   Data (Mbytes)
         1   01 Jun 2027 03:00:31.132   01 Jun 2027 03:00:38.155             7.023          3511.500
         2   01 Jun 2027 03:01:13.369   01 Jun 2027 03:01:28.763            15.394          7697.000
         3   01 Jun 2027 03:02:01.530   01 Jun 2027 03:02:26.641            25.111         12555.500
         4   01 Jun 2027 03:03:11.353   01 Jun 2027 03:03:27.938            16.585          8292.500
         5   01 Jun 2027 03:03:51.803   01 Jun 2027 03:04:04.049            12.246          6123.000
         6   01 Jun 2027 04:35:39.972   01 Jun 2027 04:37:36.696           116.724         58362.000
         7   01 Jun 2027 04:38:10.155   01 Jun 2027 04:38:18.880             8.725          4362.500
         8   01 Jun 2027 04:38:38.851   01 Jun 2027 04:38:50.897            12.046          6023.000
         9   01 Jun 2027 04:39:15.880   01 Jun 2027 04:39:23.027             7.147          3573.500
        10   01 Jun 2027 04:40:00.016   01 Jun 2027 04:40:21.701            21.685         10842.500
        11   01 Jun 2027 04:41:43.666   01 Jun 2027 04:41:51.288             7.622          3811.000
        12   01 Jun 2027 04:42:21.221   01 Jun 2027 04:42:23.149             1.928           964.000
        13   01 Jun 2027 06:11:59.893   01 Jun 2027 06:14:10.815           130.922         65461.000
        14   01 Jun 2027 06:14:52.758   01 Jun 2027 06:15:09.599            16.841          8420.500
        15   01 Jun 2027 06:15:52.386   01 Jun 2027 06:16:09.030            16.644          8322.000
        16   01 Jun 2027 06:16:33.877   01 Jun 2027 06:16:39.829             5.952          2976.000
        17   01 Jun 2027 07:49:34.576   01 Jun 2027 07:52:37.222           182.646         91323.000
        18   01 Jun 2027 07:53:33.474   01 Jun 2027 07:53:55.444            21.970         10985.000
        19   01 Jun 2027 09:25:37.258   01 Jun 2027 09:28:38.941           181.683         90841.500
        20   01 Jun 2027 09:29:32.520   01 Jun 2027 09:29:47.312            14.792          7396.000
        21   02 Jun 2027 03:12:41.557   02 Jun 2027 03:16:09.203           207.646        103823.000
        22   02 Jun 2027 04:47:51.565   02 Jun 2027 04:53:41.781           350.216        175108.000
        23   02 Jun 2027 04:54:13.806   02 Jun 2027 04:54:13.839             0.033            16.500
        24   02 Jun 2027 06:24:12.536   02 Jun 2027 06:30:20.924           368.388        184194.000
        25   02 Jun 2027 08:01:29.406   02 Jun 2027 08:06:10.293           280.887        140443.500
        26   02 Jun 2027 09:38:13.547   02 Jun 2027 09:42:33.069           259.522        129761.000
        27   03 Jun 2027 03:24:29.421   03 Jun 2027 03:28:37.983           248.562        124281.000
        28   03 Jun 2027 04:59:22.994   03 Jun 2027 05:06:36.363           433.369        216684.500
        29   03 Jun 2027 06:36:14.175   03 Jun 2027 06:42:14.988           360.813        180406.500
        30   03 Jun 2027 08:14:19.027   03 Jun 2027 08:18:03.151           224.124        112062.000
        31   03 Jun 2027 09:49:47.673   03 Jun 2027 09:53:36.675           229.002        114501.000
        32   03 Jun 2027 09:54:07.938   03 Jun 2027 09:54:56.900            48.962         24481.000
        33   04 Jun 2027 03:34:45.665   04 Jun 2027 03:35:36.178            50.513         25256.500
        34   04 Jun 2027 03:36:14.237   04 Jun 2027 03:40:52.923           278.686        139343.000
        35   04 Jun 2027 05:11:04.084   04 Jun 2027 05:18:37.167           453.083        226541.500
        36   04 Jun 2027 06:48:32.272   04 Jun 2027 06:54:30.402           358.130        179065.000
        37   04 Jun 2027 08:26:27.472   04 Jun 2027 08:30:04.639           217.167        108583.500
        38   04 Jun 2027 09:59:11.709   04 Jun 2027 10:05:32.029           380.320        190160.000
        39   04 Jun 2027 10:06:41.267   04 Jun 2027 10:07:13.523            32.256         16128.000
        40   05 Jun 2027 03:45:54.567   05 Jun 2027 03:47:49.203           114.636         57318.000
        41   05 Jun 2027 03:47:58.157   05 Jun 2027 03:53:15.487           317.330        158665.000
        42   05 Jun 2027 05:23:22.966   05 Jun 2027 05:30:41.129           438.163        219081.500
        43   05 Jun 2027 07:00:10.183   05 Jun 2027 07:06:40.177           389.994        194997.000
        44   05 Jun 2027 08:38:09.427   05 Jun 2027 08:42:16.799           247.372        123686.000
        45   05 Jun 2027 10:12:07.911   05 Jun 2027 10:17:48.582           340.671        170335.500
        46   06 Jun 2027 03:57:22.519   06 Jun 2027 04:05:25.515           482.996        241498.000
        47   06 Jun 2027 04:05:57.451   06 Jun 2027 04:06:44.013            46.562         23281.000
        48   06 Jun 2027 05:35:16.015   06 Jun 2027 05:42:41.047           445.032        222516.000
        49   06 Jun 2027 07:12:08.043   06 Jun 2027 07:17:50.968           342.925        171462.500
        50   06 Jun 2027 07:18:08.888   06 Jun 2027 07:18:43.953            35.065         17532.500
        51   06 Jun 2027 08:50:37.179   06 Jun 2027 08:54:15.889           218.710        109355.000
        52   06 Jun 2027 10:25:50.405   06 Jun 2027 10:30:13.667           263.262        131631.000
        53   07 Jun 2027 04:10:14.718   07 Jun 2027 04:17:33.738           439.020        219510.000
        54   07 Jun 2027 04:17:55.159   07 Jun 2027 04:18:45.252            50.093         25046.500
        55   07 Jun 2027 05:47:23.509   07 Jun 2027 05:54:41.388           437.879        218939.500
        56   07 Jun 2027 07:25:33.689   07 Jun 2027 07:29:09.741           216.052        108026.000
        57   07 Jun 2027 07:29:19.492   07 Jun 2027 07:30:30.540            71.048         35524.000
        58   07 Jun 2027 09:01:33.862   07 Jun 2027 09:06:11.873           278.011        139005.500
        59   07 Jun 2027 10:38:07.534   07 Jun 2027 10:41:15.204           187.670         93835.000
        60   08 Jun 2027 04:22:38.268   08 Jun 2027 04:29:40.807           422.539        211269.500
        61   08 Jun 2027 04:29:42.899   08 Jun 2027 04:30:43.829            60.930         30465.000
        62   08 Jun 2027 05:59:48.872   08 Jun 2027 06:06:31.042           402.170        201085.000
        63   08 Jun 2027 07:37:23.283   08 Jun 2027 07:42:12.446           289.163        144581.500
        64   08 Jun 2027 09:13:36.960   08 Jun 2027 09:18:05.314           268.354        134177.000
        65   08 Jun 2027 10:52:05.450   08 Jun 2027 10:52:50.627            45.177         22588.500
        66   09 Jun 2027 03:00:45.815   09 Jun 2027 03:04:18.663           212.848        106424.000
        67   09 Jun 2027 04:35:54.650   09 Jun 2027 04:41:39.682           345.032        172516.000
        68   09 Jun 2027 04:41:40.431   09 Jun 2027 04:42:43.331            62.900         31450.000
        69   09 Jun 2027 06:12:14.723   09 Jun 2027 06:18:37.058           382.335        191167.500
        70   09 Jun 2027 07:49:49.124   09 Jun 2027 07:54:10.387           261.263        130631.500
        71   09 Jun 2027 09:25:58.433   09 Jun 2027 09:30:02.577           244.144        122072.000
        72   10 Jun 2027 03:12:56.143   10 Jun 2027 03:16:23.619           207.476        103738.000
        73   10 Jun 2027 04:48:06.307   10 Jun 2027 04:54:41.851           395.544        197772.000
        74   10 Jun 2027 06:25:17.500   10 Jun 2027 06:30:10.099           292.599        146299.500
        75   10 Jun 2027 06:30:12.465   10 Jun 2027 06:30:30.402            17.937          8968.500
        76   10 Jun 2027 08:01:43.864   10 Jun 2027 08:06:25.096           281.232        140616.000
        77   10 Jun 2027 09:38:28.614   10 Jun 2027 09:42:47.809           259.195        129597.500
        78   11 Jun 2027 03:24:43.613   11 Jun 2027 03:28:52.648           249.035        124517.500
        79   11 Jun 2027 04:59:36.918   11 Jun 2027 05:06:51.034           434.116        217058.000
        80   11 Jun 2027 06:36:27.319   11 Jun 2027 06:42:29.650           362.331        181165.500
        81   11 Jun 2027 08:14:35.447   11 Jun 2027 08:18:17.868           222.421        111210.500
        82   11 Jun 2027 09:50:04.855   11 Jun 2027 09:53:51.626           226.771        113385.500
        83   11 Jun 2027 09:54:32.647   11 Jun 2027 09:55:11.806            39.159         19579.500
        84   12 Jun 2027 03:34:59.950   12 Jun 2027 03:35:50.677            50.727         25363.500
        85   12 Jun 2027 03:36:28.813   12 Jun 2027 03:41:07.665           278.852        139426.000
        86   12 Jun 2027 05:11:19.061   12 Jun 2027 05:18:51.855           452.794        226397.000
        87   12 Jun 2027 06:48:46.891   12 Jun 2027 06:54:44.961           358.070        179035.000
        88   12 Jun 2027 08:26:43.832   12 Jun 2027 08:30:19.283           215.451        107725.500
        89   12 Jun 2027 09:59:26.343   12 Jun 2027 10:05:46.879           380.536        190268.000
        90   12 Jun 2027 10:06:56.735   12 Jun 2027 10:07:28.222            31.487         15743.500
        91   13 Jun 2027 03:46:08.723   13 Jun 2027 03:48:03.943           115.220         57610.000
        92   13 Jun 2027 03:48:12.773   13 Jun 2027 03:53:30.214           317.441        158720.500
        93   13 Jun 2027 05:23:37.447   13 Jun 2027 05:30:55.739           438.292        219146.000
        94   13 Jun 2027 07:00:25.250   13 Jun 2027 07:06:34.480           369.230        184615.000
        95   13 Jun 2027 07:06:39.315   13 Jun 2027 07:06:54.852            15.537          7768.500
        96   13 Jun 2027 08:38:24.735   13 Jun 2027 08:42:31.401           246.666        123333.000
        97   13 Jun 2027 10:12:07.909   13 Jun 2027 10:18:05.283           357.374        178687.000
