uniorb/output/strategy_4/Camera/Camera_KinoSat_110502.txt

KinoSat_110502
-------------------------
    Access    *     Start Time (UTCG)     *     Stop Time (UTCG)  *   Duration (s) *   Data (Mbytes)
         1   01 Jun 2027 04:14:47.485   01 Jun 2027 04:16:34.983           107.498         53749.000
         2   01 Jun 2027 04:17:48.430   01 Jun 2027 04:17:56.904             8.474          4237.000
         3   01 Jun 2027 04:19:03.383   01 Jun 2027 04:19:12.594             9.211          4605.500
         4   01 Jun 2027 04:19:39.658   01 Jun 2027 04:20:03.572            23.914         11957.000
         5   01 Jun 2027 04:20:18.386   01 Jun 2027 04:20:29.085            10.699          5349.500
         6   01 Jun 2027 04:22:07.181   01 Jun 2027 04:22:16.414             9.233          4616.500
         7   01 Jun 2027 04:22:20.927   01 Jun 2027 04:22:37.746            16.819          8409.500
         8   01 Jun 2027 04:23:19.896   01 Jun 2027 04:23:21.128             1.232           616.000
         9   01 Jun 2027 05:52:14.673   01 Jun 2027 05:54:16.232           121.559         60779.500
        10   01 Jun 2027 05:55:34.015   01 Jun 2027 05:56:38.359            64.344         32172.000
        11   01 Jun 2027 05:57:54.489   01 Jun 2027 05:58:11.129            16.640          8320.000
        12   01 Jun 2027 05:58:43.930   01 Jun 2027 05:58:51.345             7.415          3707.500
        13   01 Jun 2027 07:29:14.704   01 Jun 2027 07:30:25.988            71.284         35642.000
        14   01 Jun 2027 07:30:30.801   01 Jun 2027 07:32:00.126            89.325         44662.500
        15   01 Jun 2027 07:32:11.264   01 Jun 2027 07:32:19.958             8.694          4347.000
        16   01 Jun 2027 07:33:09.772   01 Jun 2027 07:33:20.169            10.397          5198.500
        17   01 Jun 2027 07:33:50.454   01 Jun 2027 07:34:14.224            23.770         11885.000
        18   01 Jun 2027 09:06:08.690   01 Jun 2027 09:08:33.134           144.444         72222.000
        19   01 Jun 2027 09:08:48.215   01 Jun 2027 09:09:37.631            49.416         24708.000
        20   01 Jun 2027 09:09:58.172   01 Jun 2027 09:10:05.038             6.866          3433.000
        21   01 Jun 2027 09:10:39.583   01 Jun 2027 09:10:45.290             5.707          2853.500
        22   01 Jun 2027 10:43:17.957   01 Jun 2027 10:45:47.143           149.186         74593.000
        23   02 Jun 2027 04:25:30.331   02 Jun 2027 04:25:38.790             8.459          4229.500
        24   02 Jun 2027 04:27:26.329   02 Jun 2027 04:34:14.170           407.841        203920.500
        25   02 Jun 2027 04:34:17.278   02 Jun 2027 04:35:03.967            46.689         23344.500
        26   02 Jun 2027 04:35:08.055   02 Jun 2027 04:35:15.338             7.283          3641.500
        27   02 Jun 2027 06:04:24.255   02 Jun 2027 06:09:12.636           288.381        144190.500
        28   02 Jun 2027 06:10:26.260   02 Jun 2027 06:10:36.709            10.449          5224.500
        29   02 Jun 2027 07:41:40.995   02 Jun 2027 07:45:49.902           248.907        124453.500
        30   02 Jun 2027 07:45:52.122   02 Jun 2027 07:46:30.955            38.833         19416.500
        31   02 Jun 2027 09:18:15.081   02 Jun 2027 09:23:16.254           301.173        150586.500
        32   02 Jun 2027 10:56:37.522   02 Jun 2027 10:57:10.075            32.553         16276.500
        33   03 Jun 2027 03:05:28.590   03 Jun 2027 03:09:07.365           218.775        109387.500
        34   03 Jun 2027 04:40:39.161   03 Jun 2027 04:47:17.439           398.278        199139.000
        35   03 Jun 2027 06:16:58.306   03 Jun 2027 06:23:15.249           376.943        188471.500
        36   03 Jun 2027 07:54:34.412   03 Jun 2027 07:58:53.911           259.499        129749.500
        37   03 Jun 2027 09:30:45.861   03 Jun 2027 09:34:46.584           240.723        120361.500
        38   04 Jun 2027 03:17:29.622   04 Jun 2027 03:20:58.531           208.909        104454.500
        39   04 Jun 2027 04:52:42.390   04 Jun 2027 04:59:22.898           400.508        200254.000
        40   04 Jun 2027 06:28:37.476   04 Jun 2027 06:34:56.382           378.906        189453.000
        41   04 Jun 2027 08:06:38.978   04 Jun 2027 08:11:00.675           261.697        130848.500
        42   04 Jun 2027 09:42:32.296   04 Jun 2027 09:46:41.118           248.822        124411.000
        43   04 Jun 2027 09:46:46.856   04 Jun 2027 09:47:38.050            51.194         25597.000
        44   05 Jun 2027 03:29:13.101   05 Jun 2027 03:33:33.999           260.898        130449.000
        45   05 Jun 2027 05:03:56.990   05 Jun 2027 05:11:30.033           453.043        226521.500
        46   05 Jun 2027 06:40:45.100   05 Jun 2027 06:47:05.980           380.880        190440.000
        47   05 Jun 2027 08:19:13.830   05 Jun 2027 08:22:54.981           221.151        110575.500
        48   05 Jun 2027 09:52:17.113   05 Jun 2027 09:53:49.588            92.475         46237.500
        49   05 Jun 2027 09:53:53.999   05 Jun 2027 09:58:37.770           283.771        141885.500
        50   05 Jun 2027 09:59:14.182   05 Jun 2027 10:00:00.393            46.211         23105.500
        51   06 Jun 2027 03:39:07.252   06 Jun 2027 03:40:25.335            78.083         39041.500
        52   06 Jun 2027 03:40:57.373   06 Jun 2027 03:45:50.485           293.112        146556.000
        53   06 Jun 2027 05:16:05.167   06 Jun 2027 05:23:29.128           443.961        221980.500
        54   06 Jun 2027 06:53:03.378   06 Jun 2027 06:58:56.268           352.890        176445.000
        55   06 Jun 2027 08:31:21.805   06 Jun 2027 08:34:57.511           215.706        107853.000
        56   06 Jun 2027 10:04:17.181   06 Jun 2027 10:10:33.475           376.294        188147.000
        57   06 Jun 2027 10:10:36.695   06 Jun 2027 10:11:56.047            79.352         39676.000
        58   07 Jun 2027 03:50:32.220   07 Jun 2027 03:58:10.029           457.809        228904.500
        59   07 Jun 2027 03:59:08.045   07 Jun 2027 03:59:10.138             2.093          1046.500
        60   07 Jun 2027 05:28:08.483   07 Jun 2027 05:35:32.890           444.407        222203.500
        61   07 Jun 2027 07:04:52.851   07 Jun 2027 07:10:56.030           363.179        181589.500
        62   07 Jun 2027 08:42:59.677   07 Jun 2027 08:47:06.634           246.957        123478.500
        63   07 Jun 2027 10:16:43.194   07 Jun 2027 10:22:35.715           352.521        176260.500
        64   08 Jun 2027 04:02:02.731   08 Jun 2027 04:10:17.751           495.020        247510.000
        65   08 Jun 2027 04:10:52.566   08 Jun 2027 04:11:36.335            43.769         21884.500
        66   08 Jun 2027 05:40:07.577   08 Jun 2027 05:47:34.379           446.802        223401.000
        67   08 Jun 2027 07:17:02.490   08 Jun 2027 07:22:08.940           306.450        153225.000
        68   08 Jun 2027 07:22:20.138   08 Jun 2027 07:23:28.684            68.546         34273.000
        69   08 Jun 2027 08:54:10.633   08 Jun 2027 08:59:04.871           294.238        147119.000
        70   08 Jun 2027 10:28:57.813   08 Jun 2027 10:30:09.744            71.931         35965.500
        71   08 Jun 2027 10:30:58.553   08 Jun 2027 10:34:14.753           196.200         98100.000
        72   09 Jun 2027 04:15:02.069   09 Jun 2027 04:23:35.729           513.660        256830.000
        73   09 Jun 2027 05:52:29.854   09 Jun 2027 05:59:19.420           409.566        204783.000
        74   09 Jun 2027 07:30:42.796   09 Jun 2027 07:33:59.113           196.317         98158.500
        75   09 Jun 2027 07:34:04.852   09 Jun 2027 07:35:20.849            75.997         37998.500
        76   09 Jun 2027 09:06:25.726   09 Jun 2027 09:10:59.779           274.053        137026.500
        77   09 Jun 2027 10:43:32.684   09 Jun 2027 10:46:01.633           148.949         74474.500
        78   10 Jun 2027 04:25:44.419   10 Jun 2027 04:25:53.382             8.963          4481.500
        79   10 Jun 2027 04:27:40.979   10 Jun 2027 04:34:28.839           407.860        203930.000
        80   10 Jun 2027 04:34:31.903   10 Jun 2027 04:35:18.990            47.087         23543.500
        81   10 Jun 2027 04:35:22.760   10 Jun 2027 04:35:29.970             7.210          3605.000
        82   10 Jun 2027 06:04:39.076   10 Jun 2027 06:11:23.933           404.857        202428.500
        83   10 Jun 2027 07:41:57.110   10 Jun 2027 07:46:04.669           247.559        123779.500
        84   10 Jun 2027 09:18:24.328   10 Jun 2027 09:23:30.812           306.484        153242.000
        85   10 Jun 2027 10:56:54.935   10 Jun 2027 10:57:22.982            28.047         14023.500
        86   11 Jun 2027 03:05:43.337   11 Jun 2027 03:09:21.945           218.608        109304.000
        87   11 Jun 2027 04:40:54.047   11 Jun 2027 04:47:32.088           398.041        199020.500
        88   11 Jun 2027 06:17:13.031   11 Jun 2027 06:23:29.910           376.879        188439.500
        89   11 Jun 2027 07:54:48.963   11 Jun 2027 07:59:08.659           259.696        129848.000
        90   11 Jun 2027 09:31:00.883   11 Jun 2027 09:35:01.416           240.533        120266.500
        91   12 Jun 2027 03:17:43.906   12 Jun 2027 03:21:13.309           209.403        104701.500
        92   12 Jun 2027 04:52:56.755   12 Jun 2027 04:59:37.737           400.982        200491.000
        93   12 Jun 2027 06:28:51.974   12 Jun 2027 06:35:11.258           379.284        189642.000
        94   12 Jun 2027 08:06:53.656   12 Jun 2027 08:11:15.255           261.599        130799.500
        95   12 Jun 2027 09:42:47.924   12 Jun 2027 09:46:55.680           247.756        123878.000
        96   12 Jun 2027 09:47:01.473   12 Jun 2027 09:47:52.904            51.431         25715.500
        97   13 Jun 2027 03:29:27.723   13 Jun 2027 03:33:49.084           261.361        130680.500
        98   13 Jun 2027 05:04:11.616   13 Jun 2027 05:11:44.676           453.060        226530.000
        99   13 Jun 2027 06:41:00.323   13 Jun 2027 06:47:20.646           380.323        190161.500
       100   13 Jun 2027 08:19:30.222   13 Jun 2027 08:23:09.596           219.374        109687.000
       101   13 Jun 2027 09:52:31.486   13 Jun 2027 09:54:04.046            92.560         46280.000
       102   13 Jun 2027 09:54:07.324   13 Jun 2027 09:58:52.763           285.439        142719.500
       103   13 Jun 2027 09:59:29.095   13 Jun 2027 10:00:15.442            46.347         23173.500
