uniorb/output/strategy_4/Camera/Camera_KinoSat_111105.txt

KinoSat_111105
-------------------------
    Access    *     Start Time (UTCG)     *     Stop Time (UTCG)  *   Duration (s) *   Data (Mbytes)
         1   01 Jun 2027 03:24:34.793   01 Jun 2027 03:25:06.653            31.860         15930.000
         2   01 Jun 2027 03:35:34.213   01 Jun 2027 03:37:11.808            97.595         48797.500
         3   01 Jun 2027 03:37:37.329   01 Jun 2027 03:38:23.624            46.295         23147.500
         4   01 Jun 2027 04:58:52.652   01 Jun 2027 04:59:30.560            37.908         18954.000
         5   01 Jun 2027 04:59:58.889   01 Jun 2027 05:00:11.459            12.570          6285.000
         6   01 Jun 2027 05:00:51.928   01 Jun 2027 05:00:53.479             1.551           775.500
         7   01 Jun 2027 05:01:02.720   01 Jun 2027 05:01:02.720             0.000             0.000
         8   01 Jun 2027 05:02:20.634   01 Jun 2027 05:02:24.647             4.013          2006.500
         9   01 Jun 2027 06:35:15.281   01 Jun 2027 06:37:15.501           120.220         60110.000
        10   01 Jun 2027 06:39:33.506   01 Jun 2027 06:39:33.506             0.000             0.000
        11   01 Jun 2027 08:10:00.552   01 Jun 2027 08:12:10.465           129.913         64956.500
        12   01 Jun 2027 08:14:46.732   01 Jun 2027 08:14:49.117             2.385          1192.500
        13   01 Jun 2027 08:15:54.875   01 Jun 2027 08:16:05.492            10.617          5308.500
        14   01 Jun 2027 08:16:41.528   01 Jun 2027 08:16:41.528             0.000             0.000
        15   01 Jun 2027 09:46:49.914   01 Jun 2027 09:49:30.707           160.793         80396.500
        16   01 Jun 2027 11:25:00.701   01 Jun 2027 11:27:17.246           136.545         68272.500
        17   01 Jun 2027 11:28:22.561   01 Jun 2027 11:28:35.465            12.904          6452.000
        18   02 Jun 2027 03:35:54.359   02 Jun 2027 03:36:08.687            14.328          7164.000
        19   02 Jun 2027 03:47:34.967   02 Jun 2027 03:48:59.075            84.108         42054.000
        20   02 Jun 2027 05:09:50.889   02 Jun 2027 05:11:06.538            75.649         37824.500
        21   02 Jun 2027 05:11:47.689   02 Jun 2027 05:12:25.554            37.865         18932.500
        22   02 Jun 2027 05:14:11.225   02 Jun 2027 05:14:11.225             0.000             0.000
        23   02 Jun 2027 06:45:03.483   02 Jun 2027 06:46:28.020            84.537         42268.500
        24   02 Jun 2027 06:46:59.229   02 Jun 2027 06:48:41.212           101.983         50991.500
        25   02 Jun 2027 06:49:58.774   02 Jun 2027 06:50:15.659            16.885          8442.500
        26   02 Jun 2027 08:22:07.748   02 Jun 2027 08:25:36.271           208.523        104261.500
        27   02 Jun 2027 08:26:53.924   02 Jun 2027 08:27:28.820            34.896         17448.000
        28   02 Jun 2027 08:28:38.308   02 Jun 2027 08:29:08.508            30.200         15100.000
        29   02 Jun 2027 09:59:05.773   02 Jun 2027 09:59:37.096            31.323         14052.594
        30   02 Jun 2027 10:00:31.822   02 Jun 2027 10:00:40.939             9.117           129.563
        31   02 Jun 2027 10:01:39.921   02 Jun 2027 10:01:39.942             0.021             5.062
        32   02 Jun 2027 10:03:17.978   02 Jun 2027 10:03:21.724             3.746           820.250
        33   02 Jun 2027 10:03:30.513   02 Jun 2027 10:03:32.525             2.012           274.656
        34   02 Jun 2027 10:03:38.192   02 Jun 2027 10:03:38.817             0.625           177.094
        35   02 Jun 2027 10:04:37.860   02 Jun 2027 10:04:41.510             3.650          1689.062
        36   02 Jun 2027 10:04:59.531   02 Jun 2027 10:05:00.148             0.617           279.156
        37   02 Jun 2027 11:37:02.186   02 Jun 2027 11:37:14.000            11.814          5531.937
        38   02 Jun 2027 11:37:54.722   02 Jun 2027 11:37:59.578             4.856           862.344
        39   02 Jun 2027 11:39:05.980   02 Jun 2027 11:39:10.059             4.079          1583.906
        40   02 Jun 2027 11:39:12.125   02 Jun 2027 11:39:13.817             1.692            46.906
        41   02 Jun 2027 11:40:17.033   02 Jun 2027 11:40:25.225             8.192          1702.375
        42   02 Jun 2027 11:40:42.820   02 Jun 2027 11:40:45.991             3.171           549.844
        43   02 Jun 2027 11:40:53.955   02 Jun 2027 11:40:57.857             3.902           134.500
        44   03 Jun 2027 03:47:16.595   03 Jun 2027 03:47:18.492             1.897           948.500
        45   03 Jun 2027 03:48:37.292   03 Jun 2027 03:48:55.888            18.596          9298.000
        46   03 Jun 2027 03:59:32.142   03 Jun 2027 04:00:27.216            55.074         27537.000
        47   03 Jun 2027 05:21:31.659   03 Jun 2027 05:22:53.763            82.104         41052.000
        48   03 Jun 2027 05:23:37.984   03 Jun 2027 05:23:45.368             7.384          3692.000
        49   03 Jun 2027 05:23:59.061   03 Jun 2027 05:24:24.411            25.350         12675.000
        50   03 Jun 2027 05:25:51.254   03 Jun 2027 05:25:51.254             0.000             0.000
        51   03 Jun 2027 06:56:31.029   03 Jun 2027 06:58:49.925           138.896         68773.406
        52   03 Jun 2027 06:59:33.436   03 Jun 2027 06:59:33.436             0.000             0.000
        53   03 Jun 2027 07:00:35.056   03 Jun 2027 07:00:43.019             7.963          3129.656
        54   03 Jun 2027 07:01:53.880   03 Jun 2027 07:01:58.587             4.707          2214.406
        55   03 Jun 2027 07:03:10.593   03 Jun 2027 07:03:12.362             1.769           884.500
        56   03 Jun 2027 07:03:20.500   03 Jun 2027 07:03:25.711             5.211          1609.875
        57   03 Jun 2027 07:04:03.998   03 Jun 2027 07:04:07.114             3.116           991.250
        58   03 Jun 2027 08:34:09.797   03 Jun 2027 08:34:15.436             5.639          2055.438
        59   03 Jun 2027 08:35:02.735   03 Jun 2027 08:35:05.646             2.911           959.906
        60   03 Jun 2027 08:36:16.853   03 Jun 2027 08:36:20.096             3.243           218.094
        61   03 Jun 2027 08:37:39.475   03 Jun 2027 08:37:42.778             3.303          1499.344
        62   03 Jun 2027 08:38:20.253   03 Jun 2027 08:38:21.687             1.434           658.844
        63   03 Jun 2027 08:38:32.095   03 Jun 2027 08:38:34.766             2.671           107.250
        64   03 Jun 2027 08:40:42.764   03 Jun 2027 08:40:48.148             5.384          1520.406
        65   03 Jun 2027 08:41:21.726   03 Jun 2027 08:41:22.374             0.648           315.344
        66   03 Jun 2027 08:41:36.305   03 Jun 2027 08:41:36.394             0.089            44.500
        67   03 Jun 2027 10:10:56.269   03 Jun 2027 10:11:08.138            11.869          4978.625
        68   03 Jun 2027 10:12:05.683   03 Jun 2027 10:12:12.814             7.131           231.031
        69   03 Jun 2027 10:13:11.506   03 Jun 2027 10:13:16.443             4.937          1321.219
        70   03 Jun 2027 10:13:47.655   03 Jun 2027 10:13:48.567             0.912           280.969
        71   03 Jun 2027 10:15:08.683   03 Jun 2027 10:15:10.768             2.085           984.531
        72   03 Jun 2027 10:15:13.772   03 Jun 2027 10:15:17.069             3.297            27.000
        73   03 Jun 2027 10:15:48.993   03 Jun 2027 10:15:52.815             3.822           589.531
        74   03 Jun 2027 10:16:05.491   03 Jun 2027 10:16:07.393             1.902           156.844
        75   03 Jun 2027 10:16:41.836   03 Jun 2027 10:16:47.062             5.226           755.500
        76   03 Jun 2027 10:17:20.116   03 Jun 2027 10:17:22.595             2.479           452.219
        77   03 Jun 2027 11:48:59.945   03 Jun 2027 11:49:17.428            17.483          7288.437
        78   03 Jun 2027 11:50:52.742   03 Jun 2027 11:50:55.425             2.683          1324.750
        79   03 Jun 2027 11:52:30.899   03 Jun 2027 11:52:32.807             1.908           682.406
        80   03 Jun 2027 11:52:56.046   03 Jun 2027 11:52:57.523             1.477           167.531
        81   03 Jun 2027 11:53:07.466   03 Jun 2027 11:53:08.310             0.844            90.188
        82   04 Jun 2027 03:59:23.690   04 Jun 2027 03:59:36.945            13.255          6627.500
        83   04 Jun 2027 04:00:09.701   04 Jun 2027 04:00:09.701             0.000             0.000
        84   04 Jun 2027 04:00:14.788   04 Jun 2027 04:00:38.520            23.732         11866.000
        85   04 Jun 2027 04:11:57.165   04 Jun 2027 04:11:58.404             1.239           619.500
        86   04 Jun 2027 05:33:12.371   04 Jun 2027 05:35:56.337           163.966         81983.000
        87   04 Jun 2027 05:37:11.587   04 Jun 2027 05:37:17.076             5.489          2744.500
        88   04 Jun 2027 05:38:15.836   04 Jun 2027 05:38:32.965            17.129          8564.500
        89   04 Jun 2027 07:08:04.817   04 Jun 2027 07:09:59.624           114.807         53509.000
        90   04 Jun 2027 07:10:30.118   04 Jun 2027 07:10:31.934             1.816           484.969
        91   04 Jun 2027 07:11:09.957   04 Jun 2027 07:11:12.166             2.209           887.781
        92   04 Jun 2027 07:12:11.787   04 Jun 2027 07:12:15.024             3.237           879.688
        93   04 Jun 2027 07:13:58.560   04 Jun 2027 07:14:11.245            12.685          3062.750
        94   04 Jun 2027 07:14:50.045   04 Jun 2027 07:14:50.045             0.000             0.000
        95   04 Jun 2027 07:15:05.082   04 Jun 2027 07:15:08.298             3.216          1352.938
        96   04 Jun 2027 07:15:18.416   04 Jun 2027 07:15:18.416             0.000             0.000
        97   04 Jun 2027 07:15:57.088   04 Jun 2027 07:16:02.227             5.139          1524.688
        98   04 Jun 2027 07:16:42.163   04 Jun 2027 07:16:45.443             3.280          1144.719
        99   04 Jun 2027 08:46:11.399   04 Jun 2027 08:46:21.953            10.554          5220.813
       100   04 Jun 2027 08:48:19.844   04 Jun 2027 08:48:19.844             0.000             0.000
       101   04 Jun 2027 08:48:59.334   04 Jun 2027 08:49:03.547             4.213          1587.438
       102   04 Jun 2027 08:50:24.339   04 Jun 2027 08:50:27.018             2.679           521.156
       103   04 Jun 2027 08:51:52.755   04 Jun 2027 08:51:55.956             3.201           746.594
       104   04 Jun 2027 08:52:52.989   04 Jun 2027 08:52:55.498             2.509          1188.688
       105   04 Jun 2027 08:53:04.876   04 Jun 2027 08:53:05.577             0.701           174.437
       106   04 Jun 2027 10:23:06.372   04 Jun 2027 10:23:23.564            17.192          6712.969
       107   04 Jun 2027 10:26:12.274   04 Jun 2027 10:26:13.503             1.229           554.031
       108   04 Jun 2027 10:27:47.978   04 Jun 2027 10:27:49.522             1.544           333.875
       109   04 Jun 2027 10:27:55.758   04 Jun 2027 10:27:57.914             2.156           194.875
       110   04 Jun 2027 10:29:10.611   04 Jun 2027 10:29:18.130             7.519          2153.313
       111   05 Jun 2027 04:11:19.112   05 Jun 2027 04:11:37.321            18.209          9104.500
       112   05 Jun 2027 04:11:57.146   05 Jun 2027 04:12:12.187            15.041          7520.500
       113   05 Jun 2027 05:47:33.804   05 Jun 2027 05:50:05.382           151.578         75789.000
       114   05 Jun 2027 07:21:06.085   05 Jun 2027 07:23:12.522           126.437         63218.500
       115   05 Jun 2027 07:23:25.226   05 Jun 2027 07:23:32.083             6.857          2055.469
       116   05 Jun 2027 07:23:45.052   05 Jun 2027 07:23:46.931             1.879           405.281
       117   05 Jun 2027 07:24:46.850   05 Jun 2027 07:24:46.850             0.000             0.000
       118   05 Jun 2027 07:25:23.204   05 Jun 2027 07:25:29.011             5.807          2598.469
       119   05 Jun 2027 07:26:45.429   05 Jun 2027 07:26:45.429             0.000             0.000
       120   05 Jun 2027 07:27:37.423   05 Jun 2027 07:27:46.422             8.999          3741.094
       121   05 Jun 2027 07:28:52.714   05 Jun 2027 07:28:56.791             4.077          1516.625
       122   05 Jun 2027 07:29:38.061   05 Jun 2027 07:29:39.412             1.351           675.500
       123   05 Jun 2027 08:58:38.651   05 Jun 2027 08:58:54.670            16.019          5357.594
       124   05 Jun 2027 09:01:00.872   05 Jun 2027 09:01:02.803             1.931           598.500
       125   05 Jun 2027 09:01:46.529   05 Jun 2027 09:01:47.343             0.814           100.094
       126   05 Jun 2027 09:02:04.807   05 Jun 2027 09:02:12.358             7.551           523.031
       127   05 Jun 2027 09:02:48.412   05 Jun 2027 09:02:50.419             2.007           792.688
       128   05 Jun 2027 09:03:50.219   05 Jun 2027 09:03:51.854             1.635           436.406
       129   05 Jun 2027 09:04:51.130   05 Jun 2027 09:04:55.077             3.947           651.125
       130   05 Jun 2027 10:35:33.459   05 Jun 2027 10:35:55.016            21.557          6681.469
       131   05 Jun 2027 10:38:00.538   05 Jun 2027 10:38:03.947             3.409           803.844
       132   05 Jun 2027 10:38:59.160   05 Jun 2027 10:39:01.119             1.959           545.406
       133   05 Jun 2027 10:39:07.596   05 Jun 2027 10:39:09.413             1.817            74.063
       134   05 Jun 2027 10:39:24.389   05 Jun 2027 10:39:25.554             1.165           166.656
       135   05 Jun 2027 10:39:26.625   05 Jun 2027 10:39:29.343             2.718            12.062
       136   05 Jun 2027 10:39:41.215   05 Jun 2027 10:39:44.223             3.008           265.500
       137   05 Jun 2027 10:40:07.732   05 Jun 2027 10:40:09.129             1.397           592.031
       138   05 Jun 2027 10:40:22.277   05 Jun 2027 10:40:24.734             2.457           208.688
       139   05 Jun 2027 10:41:01.645   05 Jun 2027 10:41:08.612             6.967           734.844
       140   05 Jun 2027 10:41:15.075   05 Jun 2027 10:41:23.971             8.896             0.969
       141   06 Jun 2027 03:00:09.311   06 Jun 2027 03:00:31.087            21.776         10888.000
       142   06 Jun 2027 03:01:17.292   06 Jun 2027 03:01:19.001             1.709           854.500
       143   06 Jun 2027 03:01:52.346   06 Jun 2027 03:02:10.210            17.864          8932.000
       144   06 Jun 2027 03:04:21.496   06 Jun 2027 03:04:23.940             2.444          1222.000
       145   06 Jun 2027 04:23:10.702   06 Jun 2027 04:24:19.997            69.295         34647.500
       146   06 Jun 2027 05:59:37.925   06 Jun 2027 06:02:20.187           162.262         81131.000
       147   06 Jun 2027 07:31:45.780   06 Jun 2027 07:31:56.377            10.597          5298.500
       148   06 Jun 2027 07:33:44.847   06 Jun 2027 07:34:28.369            43.522         21346.750
       149   06 Jun 2027 07:35:25.373   06 Jun 2027 07:35:26.671             1.298           465.125
       150   06 Jun 2027 07:35:43.709   06 Jun 2027 07:35:47.971             4.262           199.938
       151   06 Jun 2027 07:36:18.586   06 Jun 2027 07:36:21.348             2.762           939.812
       152   06 Jun 2027 07:36:57.285   06 Jun 2027 07:37:00.648             3.363          1033.000
       153   06 Jun 2027 07:38:46.273   06 Jun 2027 07:38:51.776             5.503          2230.750
       154   06 Jun 2027 07:38:57.393   06 Jun 2027 07:39:00.631             3.238            57.500
       155   06 Jun 2027 07:40:18.220   06 Jun 2027 07:40:20.602             2.382           335.781
       156   06 Jun 2027 07:41:06.184   06 Jun 2027 07:41:09.914             3.730          1074.656
       157   06 Jun 2027 07:41:33.509   06 Jun 2027 07:41:33.784             0.275           123.594
       158   06 Jun 2027 09:10:43.312   06 Jun 2027 09:10:53.568            10.256          4882.406
       159   06 Jun 2027 09:14:30.275   06 Jun 2027 09:14:32.386             2.111           175.875
       160   06 Jun 2027 09:15:04.152   06 Jun 2027 09:15:07.848             3.696           310.219
       161   06 Jun 2027 09:16:00.330   06 Jun 2027 09:16:04.169             3.839           825.375
       162   06 Jun 2027 09:17:08.347   06 Jun 2027 09:17:10.265             1.918           871.438
       163   06 Jun 2027 09:17:17.117   06 Jun 2027 09:17:19.602             2.485            20.125
       164   06 Jun 2027 10:48:13.540   06 Jun 2027 10:48:25.105            11.565          5639.875
       165   06 Jun 2027 10:50:05.713   06 Jun 2027 10:50:09.659             3.946          1213.187
       166   06 Jun 2027 10:50:45.817   06 Jun 2027 10:50:48.116             2.299           490.813
       167   06 Jun 2027 10:51:15.512   06 Jun 2027 10:51:20.895             5.383           611.281
       168   06 Jun 2027 10:51:21.352   06 Jun 2027 10:51:22.241             0.889            14.281
       169   06 Jun 2027 10:51:27.279   06 Jun 2027 10:51:28.377             1.098            32.969
       170   06 Jun 2027 10:52:05.579   06 Jun 2027 10:52:07.186             1.607           774.594
       171   07 Jun 2027 03:12:02.103   07 Jun 2027 03:13:44.467           102.364         51182.000
       172   07 Jun 2027 03:14:21.094   07 Jun 2027 03:14:36.231            15.137          7568.500
       173   07 Jun 2027 03:16:04.711   07 Jun 2027 03:16:16.725            12.014          6007.000
       174   07 Jun 2027 04:35:18.852   07 Jun 2027 04:36:16.988            58.136         29068.000
       175   07 Jun 2027 04:36:59.398   07 Jun 2027 04:36:59.398             0.000             0.000
       176   07 Jun 2027 04:37:06.688   07 Jun 2027 04:37:14.915             8.227          4113.500
       177   07 Jun 2027 06:11:47.858   07 Jun 2027 06:13:44.734           116.876         58438.000
       178   07 Jun 2027 06:13:48.996   07 Jun 2027 06:13:48.996             0.000             0.000
       179   07 Jun 2027 06:14:21.849   07 Jun 2027 06:14:28.083             6.234          2031.188
       180   07 Jun 2027 06:15:00.905   07 Jun 2027 06:15:04.364             3.459           944.656
       181   07 Jun 2027 07:46:58.910   07 Jun 2027 07:47:05.010             6.100          2292.313
       182   07 Jun 2027 07:48:05.641   07 Jun 2027 07:48:11.386             5.745          1208.469
       183   07 Jun 2027 07:48:25.584   07 Jun 2027 07:48:26.393             0.809           112.031
       184   07 Jun 2027 07:49:06.896   07 Jun 2027 07:49:09.252             2.356          1135.656
       185   07 Jun 2027 07:50:29.756   07 Jun 2027 07:50:33.532             3.776          1146.969
       186   07 Jun 2027 07:52:07.764   07 Jun 2027 07:52:15.003             7.239          2208.187
       187   07 Jun 2027 07:53:03.878   07 Jun 2027 07:53:06.900             3.022          1325.875
       188   07 Jun 2027 07:53:22.743   07 Jun 2027 07:53:25.918             3.175            79.187
       189   07 Jun 2027 09:23:17.906   07 Jun 2027 09:23:32.550            14.644          7159.094
       190   07 Jun 2027 09:24:20.220   07 Jun 2027 09:24:23.141             2.921           437.812
       191   07 Jun 2027 09:25:20.090   07 Jun 2027 09:25:21.936             1.846           762.281
       192   07 Jun 2027 09:25:53.584   07 Jun 2027 09:26:00.831             7.247            84.656
       193   07 Jun 2027 09:26:30.446   07 Jun 2027 09:26:31.950             1.504           663.563
       194   07 Jun 2027 09:28:06.480   07 Jun 2027 09:28:10.698             4.218          1664.813
       195   07 Jun 2027 09:28:56.590   07 Jun 2027 09:29:00.192             3.602           839.469
       196   07 Jun 2027 11:00:40.980   07 Jun 2027 11:00:57.045            16.065          6562.469
       197   07 Jun 2027 11:02:10.096   07 Jun 2027 11:02:14.293             4.197          1014.156
       198   07 Jun 2027 11:03:22.615   07 Jun 2027 11:03:24.502             1.887            14.906
       199   07 Jun 2027 11:03:49.973   07 Jun 2027 11:03:50.523             0.550            79.031
       200   07 Jun 2027 11:04:50.076   07 Jun 2027 11:04:54.006             3.930          1281.062
       201   08 Jun 2027 03:23:53.961   08 Jun 2027 03:24:30.318            36.357         18178.500
       202   08 Jun 2027 03:24:58.899   08 Jun 2027 03:27:24.952           146.053         73026.500
       203   08 Jun 2027 04:48:01.401   08 Jun 2027 04:48:19.771            18.370          9185.000
       204   08 Jun 2027 04:48:39.551   08 Jun 2027 04:48:46.647             7.096          3548.000
       205   08 Jun 2027 04:49:21.104   08 Jun 2027 04:49:40.555            19.451          9725.500
       206   08 Jun 2027 06:23:45.443   08 Jun 2027 06:24:57.284            71.841         35511.968
       207   08 Jun 2027 06:25:09.528   08 Jun 2027 06:25:11.217             1.689           260.375
       208   08 Jun 2027 06:26:00.084   08 Jun 2027 06:26:06.518             6.434          1527.094
       209   08 Jun 2027 06:26:18.614   08 Jun 2027 06:26:20.267             1.653           184.875
       210   08 Jun 2027 06:26:55.309   08 Jun 2027 06:26:57.686             2.377          1095.063
       211   08 Jun 2027 07:58:49.625   08 Jun 2027 07:59:02.065            12.440          2317.719
       212   08 Jun 2027 08:00:25.380   08 Jun 2027 08:00:29.744             4.364          2163.969
       213   08 Jun 2027 08:01:19.378   08 Jun 2027 08:01:26.128             6.750          1500.406
       214   08 Jun 2027 08:01:47.672   08 Jun 2027 08:01:47.817             0.145            60.594
       215   08 Jun 2027 08:02:32.257   08 Jun 2027 08:02:35.103             2.846          1345.781
       216   08 Jun 2027 08:04:07.495   08 Jun 2027 08:04:19.228            11.733          2131.594
       217   08 Jun 2027 08:05:13.091   08 Jun 2027 08:05:16.178             3.087          1516.000
       218   08 Jun 2027 09:34:55.189   08 Jun 2027 09:35:05.717            10.528          5237.375
       219   08 Jun 2027 09:37:36.011   08 Jun 2027 09:37:38.275             2.264           994.031
       220   08 Jun 2027 09:37:55.147   08 Jun 2027 09:37:57.843             2.696           527.250
       221   08 Jun 2027 09:38:29.591   08 Jun 2027 09:38:31.335             1.744           350.563
       222   08 Jun 2027 09:39:33.200   08 Jun 2027 09:39:41.388             8.188          1687.594
       223   08 Jun 2027 09:40:17.034   08 Jun 2027 09:40:19.324             2.290           750.344
       224   08 Jun 2027 11:12:53.698   08 Jun 2027 11:13:07.619            13.921          6951.031
       225   08 Jun 2027 11:14:15.041   08 Jun 2027 11:14:22.335             7.294           235.688
       226   08 Jun 2027 11:15:14.112   08 Jun 2027 11:15:16.821             2.709           365.062
       227   08 Jun 2027 11:15:29.036   08 Jun 2027 11:15:31.257             2.221           197.187
       228   08 Jun 2027 11:15:57.792   08 Jun 2027 11:15:59.577             1.785           665.906
       229   08 Jun 2027 11:16:22.057   08 Jun 2027 11:16:23.669             1.612            72.375
       230   08 Jun 2027 11:17:00.603   08 Jun 2027 11:17:02.016             1.413           126.156
       231   08 Jun 2027 11:17:06.776   08 Jun 2027 11:17:09.921             3.145           148.750
       232   09 Jun 2027 03:24:48.853   09 Jun 2027 03:25:03.767            14.914          7457.000
       233   09 Jun 2027 03:35:49.521   09 Jun 2027 03:38:41.880           172.359         86179.500
       234   09 Jun 2027 04:59:07.569   09 Jun 2027 04:59:45.753            38.184         19092.000
       235   09 Jun 2027 05:01:44.683   09 Jun 2027 05:01:44.683             0.000             0.000
       236   09 Jun 2027 06:35:30.167   09 Jun 2027 06:37:04.253            94.086         47043.000
       237   09 Jun 2027 06:37:30.680   09 Jun 2027 06:37:35.005             4.325          1660.750
       238   09 Jun 2027 06:38:17.033   09 Jun 2027 06:38:21.162             4.129          1183.906
       239   09 Jun 2027 06:38:44.054   09 Jun 2027 06:38:44.054             0.000             0.000
       240   09 Jun 2027 06:39:05.976   09 Jun 2027 06:39:08.673             2.697          1127.406
       241   09 Jun 2027 08:10:16.002   09 Jun 2027 08:10:22.016             6.014          1749.781
       242   09 Jun 2027 08:11:15.043   09 Jun 2027 08:11:17.851             2.808           678.250
       243   09 Jun 2027 08:13:01.298   09 Jun 2027 08:13:04.370             3.072          1018.500
       244   09 Jun 2027 08:14:21.935   09 Jun 2027 08:14:24.507             2.572          1188.500
       245   09 Jun 2027 08:15:04.010   09 Jun 2027 08:15:06.066             2.056           927.781
       246   09 Jun 2027 08:16:27.576   09 Jun 2027 08:16:30.806             3.230           656.500
       247   09 Jun 2027 09:47:05.606   09 Jun 2027 09:47:22.796            17.190          6046.812
       248   09 Jun 2027 09:49:09.976   09 Jun 2027 09:49:11.109             1.133            45.719
       249   09 Jun 2027 09:49:31.232   09 Jun 2027 09:49:33.924             2.692           569.813
       250   09 Jun 2027 09:50:51.590   09 Jun 2027 09:50:55.458             3.868          1742.156
       251   09 Jun 2027 09:51:58.871   09 Jun 2027 09:52:01.693             2.822          1140.500
       252   09 Jun 2027 09:52:26.985   09 Jun 2027 09:52:28.828             1.843           541.375
       253   09 Jun 2027 09:53:10.714   09 Jun 2027 09:53:11.656             0.942           106.875
       254   09 Jun 2027 11:25:15.982   09 Jun 2027 11:25:34.024            18.042          6423.187
       255   09 Jun 2027 11:25:47.369   09 Jun 2027 11:25:48.241             0.872           209.125
       256   09 Jun 2027 11:27:06.562   09 Jun 2027 11:27:17.006            10.444          1716.688
       257   09 Jun 2027 11:27:34.851   09 Jun 2027 11:27:36.378             1.527           383.438
       258   09 Jun 2027 11:28:45.896   09 Jun 2027 11:28:47.849             1.953           228.094
       259   09 Jun 2027 11:28:57.513   09 Jun 2027 11:29:03.552             6.039           154.594
       260   09 Jun 2027 11:29:08.648   09 Jun 2027 11:29:09.768             1.120           159.250
       261   10 Jun 2027 03:36:25.743   10 Jun 2027 03:36:51.191            25.448         12724.000
       262   10 Jun 2027 03:47:50.471   10 Jun 2027 03:49:13.918            83.447         41723.500
       263   10 Jun 2027 05:10:05.746   10 Jun 2027 05:11:21.409            75.663         37831.500
       264   10 Jun 2027 05:12:03.161   10 Jun 2027 05:12:56.885            53.724         26862.000
       265   10 Jun 2027 05:14:25.680   10 Jun 2027 05:14:37.392            11.712          5856.000
       266   10 Jun 2027 06:45:18.098   10 Jun 2027 06:46:35.390            77.292         36563.000
       267   10 Jun 2027 06:47:37.247   10 Jun 2027 06:47:41.578             4.331          1550.187
       268   10 Jun 2027 06:48:51.232   10 Jun 2027 06:48:59.295             8.063          2113.656
       269   10 Jun 2027 06:50:14.280   10 Jun 2027 06:50:14.418             0.138            69.000
       270   10 Jun 2027 06:50:33.081   10 Jun 2027 06:50:42.215             9.134          2857.500
       271   10 Jun 2027 06:51:38.617   10 Jun 2027 06:51:41.284             2.667          1247.563
       272   10 Jun 2027 08:22:22.885   10 Jun 2027 08:22:33.843            10.958          2126.750
       273   10 Jun 2027 08:25:36.797   10 Jun 2027 08:25:37.993             1.196            22.938
       274   10 Jun 2027 08:26:36.089   10 Jun 2027 08:26:41.986             5.897          1326.781
       275   10 Jun 2027 08:27:14.679   10 Jun 2027 08:27:18.608             3.929           733.406
       276   10 Jun 2027 08:28:02.725   10 Jun 2027 08:28:08.839             6.114          1102.344
       277   10 Jun 2027 08:28:53.137   10 Jun 2027 08:28:58.353             5.216           709.844
       278   10 Jun 2027 09:59:21.058   10 Jun 2027 09:59:30.446             9.388          4337.219
       279   10 Jun 2027 10:03:02.583   10 Jun 2027 10:03:07.775             5.192          2031.250
       280   10 Jun 2027 10:03:33.783   10 Jun 2027 10:03:36.577             2.794           812.750
       281   10 Jun 2027 10:03:52.799   10 Jun 2027 10:03:55.149             2.350           159.781
       282   10 Jun 2027 10:04:28.814   10 Jun 2027 10:04:33.054             4.240           892.813
       283   10 Jun 2027 10:05:05.846   10 Jun 2027 10:05:09.180             3.334           497.844
       284   10 Jun 2027 11:37:17.344   10 Jun 2027 11:37:29.947            12.603          4823.625
       285   10 Jun 2027 11:38:20.907   10 Jun 2027 11:38:22.304             1.397           308.375
       286   10 Jun 2027 11:39:21.611   10 Jun 2027 11:39:26.910             5.299          1616.500
       287   10 Jun 2027 11:39:54.861   10 Jun 2027 11:39:59.150             4.289           834.500
       288   10 Jun 2027 11:40:30.315   10 Jun 2027 11:40:33.121             2.806           973.906
       289   10 Jun 2027 11:40:58.985   10 Jun 2027 11:41:01.255             2.270           548.656
       290   11 Jun 2027 03:47:33.501   11 Jun 2027 03:47:35.769             2.268          1134.000
       291   11 Jun 2027 03:48:52.524   11 Jun 2027 03:48:56.756             4.232          2116.000
       292   11 Jun 2027 03:49:47.884   11 Jun 2027 03:49:49.144             1.260           630.000
       293   11 Jun 2027 03:59:47.576   11 Jun 2027 04:00:42.131            54.555         27277.500
       294   11 Jun 2027 05:21:48.195   11 Jun 2027 05:23:08.139            79.944         39972.000
       295   11 Jun 2027 05:23:53.234   11 Jun 2027 05:24:58.582            65.348         32674.000
       296   11 Jun 2027 06:56:45.552   11 Jun 2027 06:58:29.729           104.177         51526.937
       297   11 Jun 2027 06:58:44.575   11 Jun 2027 06:58:50.479             5.904           463.938
       298   11 Jun 2027 06:59:51.255   11 Jun 2027 06:59:51.255             0.000             0.000
       299   11 Jun 2027 07:00:51.634   11 Jun 2027 07:00:58.241             6.607          3098.219
       300   11 Jun 2027 07:02:36.182   11 Jun 2027 07:02:43.662             7.480          2983.531
       301   11 Jun 2027 07:03:00.054   11 Jun 2027 07:03:00.054             0.000             0.000
       302   11 Jun 2027 07:03:00.213   11 Jun 2027 07:03:01.805             1.592           189.344
       303   11 Jun 2027 07:03:36.536   11 Jun 2027 07:03:39.430             2.894           317.344
       304   11 Jun 2027 07:03:50.203   11 Jun 2027 07:03:53.607             3.404            66.125
       305   11 Jun 2027 07:04:56.986   11 Jun 2027 07:05:00.139             3.153           981.594
       306   11 Jun 2027 08:34:25.023   11 Jun 2027 08:34:29.505             4.482          2142.094
       307   11 Jun 2027 08:36:35.056   11 Jun 2027 08:36:35.056             0.000             0.000
       308   11 Jun 2027 08:37:23.300   11 Jun 2027 08:37:31.568             8.268          3844.406
       309   11 Jun 2027 08:38:05.220   11 Jun 2027 08:38:07.421             2.201           299.656
       310   11 Jun 2027 08:38:43.910   11 Jun 2027 08:38:46.986             3.076           704.469
       311   11 Jun 2027 08:39:37.166   11 Jun 2027 08:39:40.311             3.145          1568.125
       312   11 Jun 2027 08:41:00.942   11 Jun 2027 08:41:04.619             3.677          1620.406
       313   11 Jun 2027 08:41:36.863   11 Jun 2027 08:41:38.819             1.956           400.750
       314   11 Jun 2027 08:41:50.658   11 Jun 2027 08:41:51.756             1.098           301.906
       315   11 Jun 2027 10:11:12.080   11 Jun 2027 10:11:25.909            13.829          6501.844
       316   11 Jun 2027 10:13:54.282   11 Jun 2027 10:14:04.842            10.560           800.094
       317   11 Jun 2027 10:14:09.455   11 Jun 2027 10:14:09.824             0.369           127.000
       318   11 Jun 2027 10:14:41.747   11 Jun 2027 10:14:45.356             3.609           131.719
       319   11 Jun 2027 10:15:09.205   11 Jun 2027 10:15:12.978             3.773           702.594
       320   11 Jun 2027 10:15:28.135   11 Jun 2027 10:15:28.389             0.254           107.844
       321   11 Jun 2027 10:16:02.687   11 Jun 2027 10:16:08.652             5.965          1071.812
       322   11 Jun 2027 10:16:21.699   11 Jun 2027 10:16:25.000             3.301           207.281
       323   11 Jun 2027 10:16:54.916   11 Jun 2027 10:16:59.258             4.342           655.156
       324   11 Jun 2027 10:17:27.462   11 Jun 2027 10:17:28.865             1.403           278.750
       325   11 Jun 2027 11:49:14.425   11 Jun 2027 11:49:26.841            12.416          6182.750
       326   11 Jun 2027 11:51:24.917   11 Jun 2027 11:51:27.123             2.206           503.469
       327   11 Jun 2027 11:52:35.447   11 Jun 2027 11:52:40.576             5.129            76.594
       328   11 Jun 2027 11:53:05.885   11 Jun 2027 11:53:07.273             1.388           580.750
       329   11 Jun 2027 11:53:22.513   11 Jun 2027 11:53:23.612             1.099           305.219
       330   12 Jun 2027 03:59:39.078   12 Jun 2027 03:59:51.783            12.705          6352.500
       331   12 Jun 2027 03:59:55.258   12 Jun 2027 04:00:24.310            29.052         14526.000
       332   12 Jun 2027 05:33:27.016   12 Jun 2027 05:35:56.466           149.450         74725.000
       333   12 Jun 2027 05:37:00.265   12 Jun 2027 05:37:00.265             0.000             0.000
       334   12 Jun 2027 05:37:02.222   12 Jun 2027 05:37:10.229             8.007          4003.500
       335   12 Jun 2027 05:37:30.779   12 Jun 2027 05:38:08.091            37.312         18656.000
       336   12 Jun 2027 07:08:19.633   12 Jun 2027 07:09:51.828            92.195         46091.782
       337   12 Jun 2027 07:10:57.520   12 Jun 2027 07:11:02.720             5.200           841.094
       338   12 Jun 2027 07:12:01.125   12 Jun 2027 07:12:05.896             4.771          1510.062
       339   12 Jun 2027 07:12:30.042   12 Jun 2027 07:12:32.454             2.412           754.562
       340   12 Jun 2027 07:13:02.578   12 Jun 2027 07:13:03.008             0.430           215.000
       341   12 Jun 2027 07:13:37.847   12 Jun 2027 07:13:41.202             3.355          1665.063
       342   12 Jun 2027 07:15:26.044   12 Jun 2027 07:15:31.477             5.433          2612.250
       343   12 Jun 2027 07:16:15.088   12 Jun 2027 07:16:20.260             5.172          1225.812
       344   12 Jun 2027 07:16:58.566   12 Jun 2027 07:16:58.647             0.081            40.500
       345   12 Jun 2027 07:17:17.124   12 Jun 2027 07:17:20.994             3.870          1683.437
       346   12 Jun 2027 08:46:27.413   12 Jun 2027 08:46:40.286            12.873          5115.531
       347   12 Jun 2027 08:48:24.988   12 Jun 2027 08:48:31.686             6.698          2547.687
       348   12 Jun 2027 08:49:14.412   12 Jun 2027 08:49:17.334             2.922          1136.687
       349   12 Jun 2027 08:49:41.716   12 Jun 2027 08:49:48.522             6.806           733.313
       350   12 Jun 2027 08:51:45.580   12 Jun 2027 08:51:51.308             5.728          2059.188
       351   12 Jun 2027 08:52:28.233   12 Jun 2027 08:52:35.514             7.281           641.469
       352   12 Jun 2027 08:53:20.160   12 Jun 2027 08:53:21.260             1.100            92.094
       353   12 Jun 2027 08:53:24.412   12 Jun 2027 08:53:26.207             1.795            98.500
       354   12 Jun 2027 10:23:22.573   12 Jun 2027 10:23:41.041            18.468          6665.906
       355   12 Jun 2027 10:24:18.645   12 Jun 2027 10:24:21.965             3.320           494.594
       356   12 Jun 2027 10:27:13.495   12 Jun 2027 10:27:16.594             3.099          1465.625
       357   12 Jun 2027 10:27:32.476   12 Jun 2027 10:27:33.976             1.500           496.312
       358   12 Jun 2027 10:27:45.748   12 Jun 2027 10:27:47.893             2.145           367.875
       359   12 Jun 2027 10:29:25.461   12 Jun 2027 10:29:33.065             7.604          2535.687
       360   13 Jun 2027 04:11:34.111   13 Jun 2027 04:12:12.029            37.918         18959.000
       361   13 Jun 2027 05:47:49.322   13 Jun 2027 05:50:01.875           132.553         66276.500
       362   13 Jun 2027 05:50:22.727   13 Jun 2027 05:50:34.436            11.709          5854.500
       363   13 Jun 2027 07:21:21.769   13 Jun 2027 07:23:39.664           137.895         68334.656
       364   13 Jun 2027 07:23:49.884   13 Jun 2027 07:23:54.452             4.568           259.406
       365   13 Jun 2027 07:24:33.428   13 Jun 2027 07:24:38.054             4.626          1043.062
       366   13 Jun 2027 07:25:06.972   13 Jun 2027 07:25:10.012             3.040           867.281
       367   13 Jun 2027 07:27:55.356   13 Jun 2027 07:28:11.564            16.208          4190.031
       368   13 Jun 2027 07:28:23.027   13 Jun 2027 07:28:23.027             0.000             0.000
       369   13 Jun 2027 07:28:32.913   13 Jun 2027 07:28:34.400             1.487           389.406
       370   13 Jun 2027 07:29:15.511   13 Jun 2027 07:29:19.516             4.005           195.750
       371   13 Jun 2027 08:58:54.354   13 Jun 2027 08:59:09.834            15.480          5704.094
       372   13 Jun 2027 09:01:18.554   13 Jun 2027 09:01:22.429             3.875           681.656
       373   13 Jun 2027 09:02:12.191   13 Jun 2027 09:02:13.468             1.277           417.375
       374   13 Jun 2027 09:02:38.589   13 Jun 2027 09:02:40.253             1.664           575.406
       375   13 Jun 2027 09:04:24.322   13 Jun 2027 09:04:31.618             7.296          2076.375
       376   13 Jun 2027 09:05:06.552   13 Jun 2027 09:05:12.152             5.600           696.844
       377   13 Jun 2027 10:35:48.978   13 Jun 2027 10:36:10.908            21.930          7428.781
       378   13 Jun 2027 10:37:50.751   13 Jun 2027 10:37:52.392             1.641           319.000
       379   13 Jun 2027 10:39:14.597   13 Jun 2027 10:39:15.768             1.171           540.688
       380   13 Jun 2027 10:39:25.422   13 Jun 2027 10:39:26.544             1.122           179.375
       381   13 Jun 2027 10:39:39.299   13 Jun 2027 10:39:41.013             1.714           139.469
       382   13 Jun 2027 10:39:44.028   13 Jun 2027 10:39:45.519             1.491            92.156
       383   13 Jun 2027 10:39:56.351   13 Jun 2027 10:40:00.354             4.003           239.062
       384   13 Jun 2027 10:40:31.052   13 Jun 2027 10:40:33.788             2.736           702.719
       385   13 Jun 2027 10:41:29.950   13 Jun 2027 10:41:39.478             9.528          1512.437
