uniorb/output/strategy_4/Camera/Camera_KinoSat_111210.txt

KinoSat_111210
-------------------------
    Access    *     Start Time (UTCG)     *     Stop Time (UTCG)  *   Duration (s) *   Data (Mbytes)
         1   01 Jun 2027 04:07:56.964   01 Jun 2027 04:09:31.403            94.439         47219.500
         2   01 Jun 2027 04:19:40.805   01 Jun 2027 04:20:27.990            47.185         23592.500
         3   01 Jun 2027 05:41:56.203   01 Jun 2027 05:43:02.104            65.901         32950.500
         4   01 Jun 2027 05:43:53.189   01 Jun 2027 05:44:15.401            22.212         11106.000
         5   01 Jun 2027 07:16:54.122   01 Jun 2027 07:18:48.652           114.530         57265.000
         6   01 Jun 2027 07:18:57.744   01 Jun 2027 07:19:16.411            18.667          9333.500
         7   01 Jun 2027 07:20:45.691   01 Jun 2027 07:20:45.691             0.000             0.000
         8   01 Jun 2027 07:22:28.809   01 Jun 2027 07:22:49.512            20.703         10351.500
         9   01 Jun 2027 07:23:46.042   01 Jun 2027 07:24:06.043            20.001         10000.500
        10   01 Jun 2027 08:54:22.542   01 Jun 2027 08:57:05.113           162.571         81285.500
        11   01 Jun 2027 08:57:37.105   01 Jun 2027 08:57:45.267             8.162          4081.000
        12   01 Jun 2027 09:00:44.165   01 Jun 2027 09:00:55.065            10.900          5450.000
        13   01 Jun 2027 09:01:27.573   01 Jun 2027 09:01:33.760             6.187          3093.500
        14   01 Jun 2027 09:01:34.347   01 Jun 2027 09:01:36.084             1.737           868.500
        15   01 Jun 2027 09:01:40.143   01 Jun 2027 09:01:40.629             0.486           243.000
        16   01 Jun 2027 10:31:07.389   01 Jun 2027 10:33:39.505           152.116         76058.000
        17   01 Jun 2027 10:34:00.918   01 Jun 2027 10:34:07.430             6.512          3256.000
        18   01 Jun 2027 10:35:55.046   01 Jun 2027 10:35:56.315             1.269           634.500
        19   01 Jun 2027 10:36:22.912   01 Jun 2027 10:36:30.413             7.501          3750.500
        20   02 Jun 2027 03:00:00.000   02 Jun 2027 03:00:00.625             0.625           312.500
        21   02 Jun 2027 03:00:37.789   02 Jun 2027 03:01:10.606            32.817         16408.500
        22   02 Jun 2027 03:01:33.084   02 Jun 2027 03:01:36.735             3.651          1825.500
        23   02 Jun 2027 04:19:30.296   02 Jun 2027 04:20:14.422            44.126         22063.000
        24   02 Jun 2027 04:21:17.702   02 Jun 2027 04:21:17.702             0.000             0.000
        25   02 Jun 2027 04:31:46.627   02 Jun 2027 04:32:13.963            27.336         13668.000
        26   02 Jun 2027 05:53:29.739   02 Jun 2027 05:54:49.004            79.265         39632.500
        27   02 Jun 2027 05:55:22.574   02 Jun 2027 05:55:49.176            26.602         13301.000
        28   02 Jun 2027 05:56:53.644   02 Jun 2027 05:57:01.671             8.027          4013.500
        29   02 Jun 2027 05:58:08.955   02 Jun 2027 05:58:25.636            16.681          8340.500
        30   02 Jun 2027 05:58:51.984   02 Jun 2027 05:58:54.600             2.616          1308.000
        31   02 Jun 2027 07:28:22.081   02 Jun 2027 07:31:45.806           203.725        101862.500
        32   02 Jun 2027 07:36:00.329   02 Jun 2027 07:36:00.329             0.000             0.000
        33   02 Jun 2027 07:36:45.451   02 Jun 2027 07:36:51.763             6.312          3156.000
        34   02 Jun 2027 07:37:07.627   02 Jun 2027 07:37:43.436            35.809         17904.500
        35   02 Jun 2027 09:06:15.691   02 Jun 2027 09:09:04.409           168.718         84359.000
        36   02 Jun 2027 09:12:08.605   02 Jun 2027 09:13:15.005            66.400         32655.376
        37   02 Jun 2027 09:13:20.635   02 Jun 2027 09:13:20.890             0.255            77.875
        38   02 Jun 2027 10:42:59.617   02 Jun 2027 10:43:17.556            17.939          7974.406
        39   02 Jun 2027 10:43:33.900   02 Jun 2027 10:43:39.982             6.082           339.562
        40   02 Jun 2027 10:44:40.094   02 Jun 2027 10:44:44.749             4.655           900.125
        41   02 Jun 2027 10:45:58.723   02 Jun 2027 10:46:02.553             3.830           408.625
        42   02 Jun 2027 10:46:39.198   02 Jun 2027 10:46:42.814             3.616           372.250
        43   02 Jun 2027 10:47:12.554   02 Jun 2027 10:47:13.908             1.354           353.125
        44   02 Jun 2027 10:47:29.554   02 Jun 2027 10:47:31.122             1.568           477.094
        45   02 Jun 2027 10:48:28.056   02 Jun 2027 10:48:31.640             3.584          1747.000
        46   02 Jun 2027 10:49:19.177   02 Jun 2027 10:49:32.464            13.287          1457.813
        47   03 Jun 2027 03:07:31.474   03 Jun 2027 03:08:19.872            48.398         24199.000
        48   03 Jun 2027 03:10:16.165   03 Jun 2027 03:10:34.989            18.824          9412.000
        49   03 Jun 2027 03:10:54.069   03 Jun 2027 03:11:05.185            11.116          5558.000
        50   03 Jun 2027 03:11:07.533   03 Jun 2027 03:11:13.511             5.978          2989.000
        51   03 Jun 2027 03:11:19.133   03 Jun 2027 03:12:00.539            41.406         20703.000
        52   03 Jun 2027 04:31:26.284   03 Jun 2027 04:31:59.584            33.300         16650.000
        53   03 Jun 2027 06:07:27.166   03 Jun 2027 06:10:21.644           174.478         87239.000
        54   03 Jun 2027 06:10:25.745   03 Jun 2027 06:10:31.377             5.632          2816.000
        55   03 Jun 2027 07:41:14.590   03 Jun 2027 07:41:30.463            15.873          4535.593
        56   03 Jun 2027 07:42:35.674   03 Jun 2027 07:42:37.462             1.788           331.844
        57   03 Jun 2027 07:43:44.864   03 Jun 2027 07:43:46.013             1.149           571.781
        58   03 Jun 2027 07:44:27.113   03 Jun 2027 07:44:29.922             2.809          1149.625
        59   03 Jun 2027 07:44:59.495   03 Jun 2027 07:45:04.669             5.174           842.750
        60   03 Jun 2027 07:45:50.628   03 Jun 2027 07:45:56.732             6.104           921.969
        61   03 Jun 2027 07:46:30.581   03 Jun 2027 07:46:34.475             3.894           757.219
        62   03 Jun 2027 07:47:11.190   03 Jun 2027 07:47:13.878             2.688           889.969
        63   03 Jun 2027 07:47:57.328   03 Jun 2027 07:48:03.968             6.640          1180.844
        64   03 Jun 2027 07:48:17.260   03 Jun 2027 07:48:17.260             0.000             0.000
        65   03 Jun 2027 07:48:22.341   03 Jun 2027 07:48:23.225             0.884           295.906
        66   03 Jun 2027 07:48:57.092   03 Jun 2027 07:48:58.465             1.373           686.500
        67   03 Jun 2027 09:18:23.387   03 Jun 2027 09:18:38.953            15.566          6637.937
        68   03 Jun 2027 09:20:58.469   03 Jun 2027 09:21:01.582             3.113          1262.938
        69   03 Jun 2027 09:22:28.999   03 Jun 2027 09:22:36.798             7.799          2731.781
        70   03 Jun 2027 09:23:49.038   03 Jun 2027 09:23:50.305             1.267           141.969
        71   03 Jun 2027 09:24:53.210   03 Jun 2027 09:24:57.571             4.361          1828.688
        72   03 Jun 2027 09:25:17.054   03 Jun 2027 09:25:21.062             4.008           345.437
        73   03 Jun 2027 09:25:25.716   03 Jun 2027 09:25:27.901             2.185           116.469
        74   03 Jun 2027 10:55:37.879   03 Jun 2027 10:55:51.439            13.560          6616.344
        75   03 Jun 2027 10:55:52.834   03 Jun 2027 10:55:55.847             3.013            43.594
        76   03 Jun 2027 10:57:31.415   03 Jun 2027 10:57:35.564             4.149           129.406
        77   03 Jun 2027 10:58:05.167   03 Jun 2027 10:58:09.826             4.659           165.594
        78   03 Jun 2027 10:59:04.706   03 Jun 2027 10:59:05.923             1.217           229.719
        79   03 Jun 2027 10:59:16.747   03 Jun 2027 10:59:19.593             2.846           338.250
        80   03 Jun 2027 10:59:45.074   03 Jun 2027 10:59:50.404             5.330           587.375
        81   03 Jun 2027 11:00:19.373   03 Jun 2027 11:00:21.128             1.755           438.375
        82   03 Jun 2027 11:00:57.004   03 Jun 2027 11:00:59.900             2.896          1121.125
        83   04 Jun 2027 03:19:57.664   04 Jun 2027 03:23:57.637           239.973        119986.500
        84   04 Jun 2027 04:43:19.310   04 Jun 2027 04:43:30.049            10.739          5369.500
        85   04 Jun 2027 04:43:56.471   04 Jun 2027 04:44:19.975            23.504         11752.000
        86   04 Jun 2027 06:19:40.375   04 Jun 2027 06:20:41.302            60.927         30110.468
        87   04 Jun 2027 06:21:39.334   04 Jun 2027 06:21:42.959             3.625          1322.750
        88   04 Jun 2027 06:22:01.874   04 Jun 2027 06:22:01.874             0.000             0.000
        89   04 Jun 2027 06:22:31.308   04 Jun 2027 06:22:35.389             4.081          1469.969
        90   04 Jun 2027 07:53:38.646   04 Jun 2027 07:53:44.579             5.933          2600.000
        91   04 Jun 2027 07:55:35.888   04 Jun 2027 07:55:36.667             0.779           238.625
        92   04 Jun 2027 07:55:43.839   04 Jun 2027 07:55:43.839             0.000             0.000
        93   04 Jun 2027 07:56:34.392   04 Jun 2027 07:56:37.918             3.526          1583.844
        94   04 Jun 2027 07:57:25.196   04 Jun 2027 07:57:28.248             3.052          1229.000
        95   04 Jun 2027 07:58:53.316   04 Jun 2027 07:58:58.322             5.006          2313.687
        96   04 Jun 2027 07:59:07.635   04 Jun 2027 07:59:10.188             2.553            63.719
        97   04 Jun 2027 08:00:07.404   04 Jun 2027 08:00:08.359             0.955           345.437
        98   04 Jun 2027 08:00:18.234   04 Jun 2027 08:00:20.299             2.065            61.625
        99   04 Jun 2027 08:00:23.080   04 Jun 2027 08:00:26.453             3.373            86.906
       100   04 Jun 2027 08:00:58.318   04 Jun 2027 08:01:01.802             3.484           828.438
       101   04 Jun 2027 08:01:12.110   04 Jun 2027 08:01:12.110             0.000             0.000
       102   04 Jun 2027 08:01:38.948   04 Jun 2027 08:01:41.440             2.492           877.469
       103   04 Jun 2027 09:30:48.886   04 Jun 2027 09:31:07.396            18.510          6448.375
       104   04 Jun 2027 09:35:13.464   04 Jun 2027 09:35:18.080             4.616          1603.656
       105   04 Jun 2027 09:35:51.324   04 Jun 2027 09:35:53.335             2.011           161.875
       106   04 Jun 2027 09:36:55.583   04 Jun 2027 09:37:00.424             4.841          1889.187
       107   04 Jun 2027 11:07:48.228   04 Jun 2027 11:08:00.042            11.814          5434.312
       108   04 Jun 2027 11:11:36.394   04 Jun 2027 11:11:41.128             4.734          1296.625
       109   04 Jun 2027 11:12:59.002   04 Jun 2027 11:13:03.859             4.857          2300.281
       110   05 Jun 2027 03:32:15.217   05 Jun 2027 03:35:51.975           216.758        108379.000
       111   05 Jun 2027 04:55:12.802   05 Jun 2027 04:55:18.004             5.202          2601.000
       112   05 Jun 2027 04:56:28.556   05 Jun 2027 04:56:31.427             2.871          1435.500
       113   05 Jun 2027 04:57:05.424   05 Jun 2027 04:57:25.368            19.944          9972.000
       114   05 Jun 2027 06:31:45.902   05 Jun 2027 06:33:24.647            98.745         47534.594
       115   05 Jun 2027 06:33:38.238   05 Jun 2027 06:33:39.152             0.914           219.531
       116   05 Jun 2027 06:34:07.483   05 Jun 2027 06:34:09.024             1.541           770.500
       117   05 Jun 2027 06:34:18.830   05 Jun 2027 06:34:21.036             2.206           371.500
       118   05 Jun 2027 06:34:49.559   05 Jun 2027 06:34:58.590             9.031           639.406
       119   05 Jun 2027 08:06:54.759   05 Jun 2027 08:07:00.414             5.655          1888.687
       120   05 Jun 2027 08:07:35.174   05 Jun 2027 08:07:35.605             0.431           188.344
       121   05 Jun 2027 08:08:35.931   05 Jun 2027 08:08:43.212             7.281           915.625
       122   05 Jun 2027 08:10:02.724   05 Jun 2027 08:10:07.238             4.514          1517.562
       123   05 Jun 2027 08:10:36.118   05 Jun 2027 08:10:40.367             4.249           847.062
       124   05 Jun 2027 08:11:06.456   05 Jun 2027 08:11:08.369             1.913           637.000
       125   05 Jun 2027 08:12:09.241   05 Jun 2027 08:12:16.081             6.840           290.125
       126   05 Jun 2027 08:12:43.139   05 Jun 2027 08:12:44.914             1.775           792.063
       127   05 Jun 2027 08:13:26.296   05 Jun 2027 08:13:28.891             2.595          1046.125
       128   05 Jun 2027 08:13:36.184   05 Jun 2027 08:13:37.439             1.255           227.906
       129   05 Jun 2027 09:43:14.990   05 Jun 2027 09:43:24.628             9.638          4698.187
       130   05 Jun 2027 09:46:32.801   05 Jun 2027 09:46:41.264             8.463            24.812
       131   05 Jun 2027 09:47:19.123   05 Jun 2027 09:47:20.972             1.849           556.594
       132   05 Jun 2027 09:48:41.225   05 Jun 2027 09:48:45.481             4.256          1474.813
       133   05 Jun 2027 09:49:00.600   05 Jun 2027 09:49:02.416             1.816           472.469
       134   05 Jun 2027 09:49:23.861   05 Jun 2027 09:49:26.631             2.770           606.781
       135   05 Jun 2027 09:49:36.779   05 Jun 2027 09:49:36.889             0.110            55.000
       136   05 Jun 2027 11:20:49.203   05 Jun 2027 11:21:01.145            11.942          5029.719
       137   05 Jun 2027 11:22:23.662   05 Jun 2027 11:22:28.486             4.824           253.906
       138   05 Jun 2027 11:23:25.800   05 Jun 2027 11:23:29.964             4.164          1165.125
       139   05 Jun 2027 11:24:09.323   05 Jun 2027 11:24:12.245             2.922          1229.969
       140   05 Jun 2027 11:24:58.468   05 Jun 2027 11:25:00.540             2.072           493.938
       141   06 Jun 2027 03:44:00.485   06 Jun 2027 03:44:34.468            33.983         16991.500
       142   06 Jun 2027 03:44:48.992   06 Jun 2027 03:46:39.539           110.547         55273.500
       143   06 Jun 2027 03:46:48.546   06 Jun 2027 03:47:35.607            47.061         23530.500
       144   06 Jun 2027 03:47:42.191   06 Jun 2027 03:47:48.998             6.807          3403.500
       145   06 Jun 2027 05:07:20.938   06 Jun 2027 05:07:35.534            14.596          7298.000
       146   06 Jun 2027 05:07:44.234   06 Jun 2027 05:07:45.910             1.676           838.000
       147   06 Jun 2027 05:08:09.688   06 Jun 2027 05:08:24.919            15.231          7615.500
       148   06 Jun 2027 05:08:59.933   06 Jun 2027 05:09:02.851             2.918          1459.000
       149   06 Jun 2027 05:10:17.712   06 Jun 2027 05:10:17.712             0.000             0.000
       150   06 Jun 2027 05:10:27.216   06 Jun 2027 05:10:32.878             5.662          2831.000
       151   06 Jun 2027 06:43:56.364   06 Jun 2027 06:45:06.842            70.478         33837.563
       152   06 Jun 2027 06:45:22.933   06 Jun 2027 06:45:25.608             2.675           180.125
       153   06 Jun 2027 06:45:46.761   06 Jun 2027 06:45:48.701             1.940           661.031
       154   06 Jun 2027 06:46:20.441   06 Jun 2027 06:46:21.907             1.466           656.875
       155   06 Jun 2027 08:19:06.580   06 Jun 2027 08:19:13.556             6.976          1887.750
       156   06 Jun 2027 08:20:28.329   06 Jun 2027 08:20:33.000             4.671          1988.438
       157   06 Jun 2027 08:20:51.671   06 Jun 2027 08:20:55.279             3.608           455.531
       158   06 Jun 2027 08:21:55.245   06 Jun 2027 08:21:58.440             3.195           924.312
       159   06 Jun 2027 08:22:16.583   06 Jun 2027 08:22:18.772             2.189           536.000
       160   06 Jun 2027 08:23:23.992   06 Jun 2027 08:23:28.155             4.163          1653.469
       161   06 Jun 2027 08:23:46.212   06 Jun 2027 08:23:52.680             6.468           564.281
       162   06 Jun 2027 08:24:31.675   06 Jun 2027 08:24:36.404             4.729           902.469
       163   06 Jun 2027 08:24:46.628   06 Jun 2027 08:24:46.923             0.295            18.500
       164   06 Jun 2027 08:25:08.507   06 Jun 2027 08:25:10.759             2.252           150.656
       165   06 Jun 2027 08:25:27.483   06 Jun 2027 08:25:27.483             0.000             0.000
       166   06 Jun 2027 08:25:29.121   06 Jun 2027 08:25:30.731             1.610           264.687
       167   06 Jun 2027 09:55:27.338   06 Jun 2027 09:55:34.808             7.470          3624.969
       168   06 Jun 2027 09:58:25.542   06 Jun 2027 09:58:26.383             0.841           276.656
       169   06 Jun 2027 09:59:24.239   06 Jun 2027 09:59:28.525             4.286          1673.500
       170   06 Jun 2027 09:59:45.176   06 Jun 2027 09:59:48.533             3.357           295.094
       171   06 Jun 2027 10:00:35.370   06 Jun 2027 10:00:38.706             3.336          1031.094
       172   06 Jun 2027 11:32:52.588   06 Jun 2027 11:33:02.495             9.907          4828.594
       173   06 Jun 2027 11:35:30.889   06 Jun 2027 11:35:35.144             4.255          1968.094
       174   06 Jun 2027 11:36:20.670   06 Jun 2027 11:36:26.663             5.993           835.000
       175   06 Jun 2027 11:36:59.475   06 Jun 2027 11:37:00.563             1.088           160.094
       176   06 Jun 2027 11:37:16.960   06 Jun 2027 11:37:21.973             5.013           443.438
       177   07 Jun 2027 03:45:13.655   07 Jun 2027 03:45:14.683             1.028           514.000
       178   07 Jun 2027 03:55:57.295   07 Jun 2027 03:56:37.302            40.007         20003.500
       179   07 Jun 2027 03:56:55.458   07 Jun 2027 03:58:40.627           105.169         52584.500
       180   07 Jun 2027 05:19:54.260   07 Jun 2027 05:20:29.727            35.467         17733.500
       181   07 Jun 2027 05:20:33.242   07 Jun 2027 05:20:43.129             9.887          4943.500
       182   07 Jun 2027 05:21:05.420   07 Jun 2027 05:21:05.420             0.000             0.000
       183   07 Jun 2027 05:22:34.207   07 Jun 2027 05:22:37.113             2.906          1453.000
       184   07 Jun 2027 06:55:43.681   07 Jun 2027 06:57:36.055           112.374         55946.563
       185   07 Jun 2027 06:59:03.700   07 Jun 2027 06:59:07.034             3.334          1667.000
       186   07 Jun 2027 06:59:42.345   07 Jun 2027 06:59:48.291             5.946          2042.844
       187   07 Jun 2027 08:30:36.515   07 Jun 2027 08:30:40.750             4.235          1847.437
       188   07 Jun 2027 08:31:07.578   07 Jun 2027 08:31:12.061             4.483           618.188
       189   07 Jun 2027 08:32:56.485   07 Jun 2027 08:32:58.002             1.517           582.969
       190   07 Jun 2027 08:33:40.149   07 Jun 2027 08:33:41.412             1.263           611.375
       191   07 Jun 2027 08:33:45.738   07 Jun 2027 08:33:48.905             3.167            66.781
       192   07 Jun 2027 08:34:40.826   07 Jun 2027 08:34:44.090             3.264          1437.156
       193   07 Jun 2027 08:35:13.235   07 Jun 2027 08:35:18.897             5.662           626.156
       194   07 Jun 2027 08:36:02.696   07 Jun 2027 08:36:07.483             4.787          1259.219
       195   07 Jun 2027 08:36:53.475   07 Jun 2027 08:36:58.753             5.278          1387.125
       196   07 Jun 2027 08:37:47.430   07 Jun 2027 08:37:51.278             3.848          1511.062
       197   07 Jun 2027 10:07:06.462   07 Jun 2027 10:07:20.797            14.335          5391.281
       198   07 Jun 2027 10:09:51.496   07 Jun 2027 10:09:56.817             5.321           748.031
       199   07 Jun 2027 10:10:40.343   07 Jun 2027 10:10:42.553             2.210           487.156
       200   07 Jun 2027 10:11:16.308   07 Jun 2027 10:11:18.753             2.445           723.562
       201   07 Jun 2027 10:11:28.842   07 Jun 2027 10:11:35.265             6.423           312.438
       202   07 Jun 2027 10:11:48.833   07 Jun 2027 10:11:54.535             5.702           212.312
       203   07 Jun 2027 10:12:13.501   07 Jun 2027 10:12:20.515             7.014           212.437
       204   07 Jun 2027 10:12:29.340   07 Jun 2027 10:12:30.880             1.540           275.781
       205   07 Jun 2027 10:13:20.085   07 Jun 2027 10:13:23.652             3.567          1335.781
       206   07 Jun 2027 11:45:23.987   07 Jun 2027 11:45:37.879            13.892          6542.000
       207   07 Jun 2027 11:47:39.628   07 Jun 2027 11:47:42.524             2.896           265.938
       208   07 Jun 2027 11:48:17.755   07 Jun 2027 11:48:18.869             1.114           434.813
       209   07 Jun 2027 11:48:35.470   07 Jun 2027 11:48:42.350             6.880           251.188
       210   07 Jun 2027 11:49:04.374   07 Jun 2027 11:49:06.961             2.587           425.750
       211   08 Jun 2027 03:56:32.373   08 Jun 2027 03:56:52.038            19.665          9832.500
       212   08 Jun 2027 04:07:53.492   08 Jun 2027 04:09:34.204           100.712         50356.000
       213   08 Jun 2027 05:30:28.914   08 Jun 2027 05:31:32.669            63.755         31877.500
       214   08 Jun 2027 05:32:03.746   08 Jun 2027 05:32:29.141            25.395         12697.500
       215   08 Jun 2027 05:34:23.374   08 Jun 2027 05:34:23.374             0.000             0.000
       216   08 Jun 2027 07:06:00.152   08 Jun 2027 07:06:50.930            50.778         25389.000
       217   08 Jun 2027 07:07:28.996   08 Jun 2027 07:08:30.571            61.575         30563.375
       218   08 Jun 2027 07:09:13.151   08 Jun 2027 07:09:15.463             2.312          1011.844
       219   08 Jun 2027 07:10:22.603   08 Jun 2027 07:10:23.940             1.337           668.500
       220   08 Jun 2027 07:10:40.843   08 Jun 2027 07:10:44.469             3.626          1545.250
       221   08 Jun 2027 07:11:18.075   08 Jun 2027 07:11:20.462             2.387           891.906
       222   08 Jun 2027 07:11:35.626   08 Jun 2027 07:11:36.424             0.798             9.594
       223   08 Jun 2027 07:12:03.295   08 Jun 2027 07:12:05.019             1.724           359.406
       224   08 Jun 2027 08:42:19.980   08 Jun 2027 08:42:24.818             4.838          1673.688
       225   08 Jun 2027 08:44:38.065   08 Jun 2027 08:44:46.927             8.862          2348.219
       226   08 Jun 2027 08:45:34.135   08 Jun 2027 08:45:40.968             6.833           154.656
       227   08 Jun 2027 08:46:42.782   08 Jun 2027 08:46:49.504             6.722          1692.813
       228   08 Jun 2027 08:47:17.906   08 Jun 2027 08:47:21.801             3.895           733.938
       229   08 Jun 2027 08:47:32.384   08 Jun 2027 08:47:34.421             2.037           172.000
       230   08 Jun 2027 08:47:36.347   08 Jun 2027 08:47:36.583             0.236            56.969
       231   08 Jun 2027 08:48:39.199   08 Jun 2027 08:48:47.716             8.517          1034.187
       232   08 Jun 2027 08:49:32.262   08 Jun 2027 08:49:34.213             1.951           888.313
       233   08 Jun 2027 10:19:26.309   08 Jun 2027 10:19:40.619            14.310          4817.625
       234   08 Jun 2027 10:21:28.763   08 Jun 2027 10:21:29.250             0.487           144.219
       235   08 Jun 2027 10:22:21.734   08 Jun 2027 10:22:23.669             1.935           803.219
       236   08 Jun 2027 10:23:32.958   08 Jun 2027 10:23:37.517             4.559          1165.625
       237   08 Jun 2027 10:23:53.024   08 Jun 2027 10:23:54.196             1.172           371.344
       238   08 Jun 2027 10:24:10.261   08 Jun 2027 10:24:14.213             3.952           480.781
       239   08 Jun 2027 10:24:19.089   08 Jun 2027 10:24:20.440             1.351           152.375
       240   08 Jun 2027 10:25:44.002   08 Jun 2027 10:25:45.642             1.640           820.000
       241   08 Jun 2027 11:57:21.721   08 Jun 2027 11:57:34.289            12.568          5437.500
       242   08 Jun 2027 11:59:30.564   08 Jun 2027 11:59:39.250             8.686          2142.219
       243   09 Jun 2027 04:08:12.630   09 Jun 2027 04:08:35.864            23.234         11617.000
       244   09 Jun 2027 04:09:19.201   09 Jun 2027 04:09:39.950            20.749         10374.500
       245   09 Jun 2027 04:19:56.738   09 Jun 2027 04:20:44.968            48.230         24115.000
       246   09 Jun 2027 05:42:11.454   09 Jun 2027 05:43:17.480            66.026         33013.000
       247   09 Jun 2027 05:44:05.779   09 Jun 2027 05:44:42.139            36.360         18180.000
       248   09 Jun 2027 07:17:08.315   09 Jun 2027 07:19:04.839           116.524         58262.000
       249   09 Jun 2027 07:19:13.292   09 Jun 2027 07:19:34.861            21.569         10497.531
       250   09 Jun 2027 07:21:02.580   09 Jun 2027 07:21:09.251             6.671          2108.094
       251   09 Jun 2027 07:22:23.047   09 Jun 2027 07:22:27.626             4.579          2227.625
       252   09 Jun 2027 07:23:33.405   09 Jun 2027 07:23:39.978             6.573          1600.781
       253   09 Jun 2027 07:23:41.644   09 Jun 2027 07:23:47.005             5.361            52.063
       254   09 Jun 2027 07:24:24.303   09 Jun 2027 07:24:30.595             6.292           992.188
       255   09 Jun 2027 08:54:37.803   09 Jun 2027 08:54:42.731             4.928          2420.938
       256   09 Jun 2027 08:58:18.809   09 Jun 2027 08:58:25.844             7.035           362.750
       257   09 Jun 2027 08:59:27.019   09 Jun 2027 08:59:30.233             3.214          1331.469
       258   09 Jun 2027 09:00:06.463   09 Jun 2027 09:00:08.399             1.936           675.406
       259   09 Jun 2027 09:00:31.762   09 Jun 2027 09:00:36.363             4.601           539.000
       260   09 Jun 2027 09:00:49.141   09 Jun 2027 09:00:50.414             1.273           105.656
       261   09 Jun 2027 09:01:17.939   09 Jun 2027 09:01:22.744             4.805           468.906
       262   09 Jun 2027 09:01:48.988   09 Jun 2027 09:01:50.478             1.490           192.938
       263   09 Jun 2027 10:31:22.431   09 Jun 2027 10:31:33.845            11.414          5408.125
       264   09 Jun 2027 10:35:06.066   09 Jun 2027 10:35:08.665             2.599           155.437
       265   09 Jun 2027 10:35:23.320   09 Jun 2027 10:35:28.563             5.243           118.656
       266   09 Jun 2027 10:35:45.839   09 Jun 2027 10:35:49.641             3.802           237.375
       267   09 Jun 2027 10:37:08.084   09 Jun 2027 10:37:15.709             7.625          1794.594
       268   09 Jun 2027 10:37:52.527   09 Jun 2027 10:37:55.421             2.894           786.281
       269   10 Jun 2027 03:00:00.000   10 Jun 2027 03:00:16.105            16.105          8052.500
       270   10 Jun 2027 03:00:53.059   10 Jun 2027 03:00:59.078             6.019          3009.500
       271   10 Jun 2027 03:01:26.243   10 Jun 2027 03:01:26.243             0.000             0.000
       272   10 Jun 2027 03:01:39.182   10 Jun 2027 03:01:58.748            19.566          9783.000
       273   10 Jun 2027 04:19:46.132   10 Jun 2027 04:20:29.965            43.833         21916.500
       274   10 Jun 2027 04:21:32.218   10 Jun 2027 04:21:46.840            14.622          7311.000
       275   10 Jun 2027 04:31:59.016   10 Jun 2027 04:32:29.674            30.658         15329.000
       276   10 Jun 2027 05:53:43.408   10 Jun 2027 05:55:03.113            79.705         39852.500
       277   10 Jun 2027 05:55:51.901   10 Jun 2027 05:56:06.156            14.255          7127.500
       278   10 Jun 2027 05:57:39.632   10 Jun 2027 05:57:50.654            11.022          5511.000
       279   10 Jun 2027 05:58:39.829   10 Jun 2027 05:58:47.026             7.197          3598.500
       280   10 Jun 2027 07:28:37.120   10 Jun 2027 07:30:18.460           101.340         48912.062
       281   10 Jun 2027 07:30:50.380   10 Jun 2027 07:30:51.041             0.661           302.937
       282   10 Jun 2027 07:31:02.484   10 Jun 2027 07:31:03.285             0.801           357.594
       283   10 Jun 2027 07:32:04.064   10 Jun 2027 07:32:09.374             5.310          1448.375
       284   10 Jun 2027 07:32:12.461   10 Jun 2027 07:32:13.160             0.699            63.469
       285   10 Jun 2027 07:32:47.429   10 Jun 2027 07:32:51.844             4.415           939.062
       286   10 Jun 2027 07:33:37.075   10 Jun 2027 07:33:39.863             2.788          1071.937
       287   10 Jun 2027 07:35:08.548   10 Jun 2027 07:35:12.230             3.682          1693.844
       288   10 Jun 2027 07:35:33.696   10 Jun 2027 07:35:35.502             1.806           475.656
       289   10 Jun 2027 07:35:51.951   10 Jun 2027 07:35:56.634             4.683           224.094
       290   10 Jun 2027 07:36:27.713   10 Jun 2027 07:36:32.562             4.849           971.219
       291   10 Jun 2027 07:37:05.643   10 Jun 2027 07:37:08.679             3.036          1033.781
       292   10 Jun 2027 09:06:31.586   10 Jun 2027 09:06:42.285            10.699          4561.250
       293   10 Jun 2027 09:10:46.912   10 Jun 2027 09:10:48.346             1.434           154.875
       294   10 Jun 2027 09:11:42.293   10 Jun 2027 09:11:47.946             5.653           802.906
       295   10 Jun 2027 09:12:05.857   10 Jun 2027 09:12:07.606             1.749           377.875
       296   10 Jun 2027 09:12:22.990   10 Jun 2027 09:12:26.180             3.190           368.719
       297   10 Jun 2027 09:13:20.833   10 Jun 2027 09:13:22.448             1.615           343.344
       298   10 Jun 2027 09:13:36.075   10 Jun 2027 09:13:37.095             1.020           110.500
       299   10 Jun 2027 10:43:15.738   10 Jun 2027 10:43:27.342            11.604          5403.031
       300   10 Jun 2027 10:43:50.450   10 Jun 2027 10:43:54.016             3.566           380.594
       301   10 Jun 2027 10:46:42.859   10 Jun 2027 10:46:48.339             5.480          1879.437
       302   10 Jun 2027 10:47:19.572   10 Jun 2027 10:47:24.571             4.999           778.719
       303   10 Jun 2027 10:47:30.096   10 Jun 2027 10:47:30.245             0.149            61.500
       304   10 Jun 2027 10:47:46.234   10 Jun 2027 10:47:47.047             0.813           400.000
       305   10 Jun 2027 10:48:15.015   10 Jun 2027 10:48:22.406             7.391           405.875
       306   10 Jun 2027 10:48:36.267   10 Jun 2027 10:48:38.522             2.255           278.969
       307   10 Jun 2027 10:49:34.606   10 Jun 2027 10:49:49.904            15.298          1416.406
       308   11 Jun 2027 03:07:48.425   11 Jun 2027 03:08:54.204            65.779         32889.500
       309   11 Jun 2027 03:08:59.856   11 Jun 2027 03:09:14.317            14.461          7230.500
       310   11 Jun 2027 03:09:55.486   11 Jun 2027 03:10:05.814            10.328          5164.000
       311   11 Jun 2027 03:11:20.566   11 Jun 2027 03:11:23.175             2.609          1304.500
       312   11 Jun 2027 03:11:37.907   11 Jun 2027 03:12:15.927            38.020         19010.000
       313   11 Jun 2027 04:31:41.887   11 Jun 2027 04:32:14.260            32.373         16186.500
       314   11 Jun 2027 06:07:42.125   11 Jun 2027 06:10:28.655           166.530         83265.000
       315   11 Jun 2027 06:10:47.348   11 Jun 2027 06:10:53.058             5.710          2218.344
       316   11 Jun 2027 07:41:30.245   11 Jun 2027 07:41:38.151             7.906          2652.187
       317   11 Jun 2027 07:42:53.667   11 Jun 2027 07:42:58.822             5.155           384.969
       318   11 Jun 2027 07:44:01.480   11 Jun 2027 07:44:03.962             2.482           569.187
       319   11 Jun 2027 07:44:43.602   11 Jun 2027 07:44:45.980             2.378          1188.875
       320   11 Jun 2027 07:45:16.357   11 Jun 2027 07:45:19.240             2.883           838.000
       321   11 Jun 2027 07:46:06.123   11 Jun 2027 07:46:11.550             5.427           837.406
       322   11 Jun 2027 07:46:48.271   11 Jun 2027 07:46:58.853            10.582           812.469
       323   11 Jun 2027 07:47:28.004   11 Jun 2027 07:47:32.710             4.706           910.969
       324   11 Jun 2027 07:48:13.954   11 Jun 2027 07:48:18.802             4.848          1236.219
       325   11 Jun 2027 07:48:33.904   11 Jun 2027 07:48:34.562             0.658            86.937
       326   11 Jun 2027 07:48:39.625   11 Jun 2027 07:48:39.625             0.000             0.000
       327   11 Jun 2027 07:48:59.761   11 Jun 2027 07:49:02.985             3.224           753.094
       328   11 Jun 2027 09:18:40.339   11 Jun 2027 09:18:56.788            16.449          6328.437
       329   11 Jun 2027 09:21:13.578   11 Jun 2027 09:21:17.909             4.331          1213.281
       330   11 Jun 2027 09:22:46.478   11 Jun 2027 09:22:52.964             6.486          2722.812
       331   11 Jun 2027 09:24:02.846   11 Jun 2027 09:24:05.066             2.220           772.156
       332   11 Jun 2027 09:25:07.471   11 Jun 2027 09:25:13.055             5.584          1850.344
       333   11 Jun 2027 09:25:46.280   11 Jun 2027 09:25:48.896             2.616          1038.281
       334   11 Jun 2027 10:55:54.583   11 Jun 2027 10:56:09.166            14.583          6519.969
       335   11 Jun 2027 10:58:31.028   11 Jun 2027 10:58:32.438             1.410           581.656
       336   11 Jun 2027 10:59:22.294   11 Jun 2027 10:59:26.107             3.813           857.437
       337   11 Jun 2027 10:59:45.150   11 Jun 2027 10:59:46.804             1.654           446.656
       338   11 Jun 2027 10:59:54.261   11 Jun 2027 10:59:59.947             5.686           175.656
       339   11 Jun 2027 11:00:12.053   11 Jun 2027 11:00:14.180             2.127           378.313
       340   11 Jun 2027 11:00:16.144   11 Jun 2027 11:00:16.635             0.491            61.375
       341   11 Jun 2027 11:01:29.377   11 Jun 2027 11:01:33.944             4.567          1849.156
       342   12 Jun 2027 03:20:12.726   12 Jun 2027 03:23:05.384           172.658         86329.000
       343   12 Jun 2027 03:23:09.446   12 Jun 2027 03:23:09.446             0.000             0.000
       344   12 Jun 2027 03:23:15.958   12 Jun 2027 03:23:32.859            16.901          8450.500
       345   12 Jun 2027 04:43:34.466   12 Jun 2027 04:44:10.907            36.441         18220.500
       346   12 Jun 2027 06:19:55.397   12 Jun 2027 06:21:44.683           109.286         53650.218
       347   12 Jun 2027 06:21:57.556   12 Jun 2027 06:21:59.594             2.038           284.438
       348   12 Jun 2027 06:22:30.946   12 Jun 2027 06:22:32.109             1.163           448.125
       349   12 Jun 2027 06:22:43.553   12 Jun 2027 06:22:47.251             3.698           329.281
       350   12 Jun 2027 06:23:15.759   12 Jun 2027 06:23:15.759             0.000             0.000
       351   12 Jun 2027 07:53:57.459   12 Jun 2027 07:54:05.269             7.810          3236.906
       352   12 Jun 2027 07:55:52.685   12 Jun 2027 07:55:53.398             0.713           244.812
       353   12 Jun 2027 07:56:51.381   12 Jun 2027 07:56:55.475             4.094          1636.719
       354   12 Jun 2027 07:57:43.592   12 Jun 2027 07:57:47.364             3.772          1199.813
       355   12 Jun 2027 07:59:10.810   12 Jun 2027 07:59:16.760             5.950          2382.281
       356   12 Jun 2027 07:59:24.630   12 Jun 2027 07:59:32.037             7.407           134.531
       357   12 Jun 2027 08:00:22.212   12 Jun 2027 08:00:23.245             1.033           329.719
       358   12 Jun 2027 08:00:34.849   12 Jun 2027 08:00:36.626             1.777            10.906
       359   12 Jun 2027 08:00:36.754   12 Jun 2027 08:00:38.626             1.872             4.000
       360   12 Jun 2027 08:01:27.887   12 Jun 2027 08:01:33.672             5.785          1504.125
       361   12 Jun 2027 08:01:44.403   12 Jun 2027 08:01:46.139             1.736           182.500
       362   12 Jun 2027 08:01:56.940   12 Jun 2027 08:01:59.288             2.348           138.375
       363   12 Jun 2027 09:31:05.041   12 Jun 2027 09:31:23.602            18.561          6388.687
       364   12 Jun 2027 09:34:44.880   12 Jun 2027 09:34:47.382             2.502           955.719
       365   12 Jun 2027 09:35:54.654   12 Jun 2027 09:35:58.335             3.681           778.594
       366   12 Jun 2027 09:36:08.301   12 Jun 2027 09:36:09.839             1.538           220.687
       367   12 Jun 2027 09:37:10.670   12 Jun 2027 09:37:14.587             3.917          1897.531
       368   12 Jun 2027 11:08:02.942   12 Jun 2027 11:08:17.618            14.676          6644.250
       369   12 Jun 2027 11:11:37.318   12 Jun 2027 11:11:39.569             2.251           601.875
       370   12 Jun 2027 11:12:17.173   12 Jun 2027 11:12:21.006             3.833          1021.906
       371   13 Jun 2027 03:32:31.224   13 Jun 2027 03:34:46.309           135.085         67542.500
       372   13 Jun 2027 03:35:34.702   13 Jun 2027 03:35:58.341            23.639         11819.500
       373   13 Jun 2027 03:36:03.784   13 Jun 2027 03:36:15.427            11.643          5821.500
       374   13 Jun 2027 04:55:35.192   13 Jun 2027 04:56:38.042            62.850         31425.000
       375   13 Jun 2027 06:32:01.598   13 Jun 2027 06:33:15.499            73.901         36931.594
       376   13 Jun 2027 06:34:08.387   13 Jun 2027 06:34:12.126             3.739          1652.750
       377   13 Jun 2027 06:34:23.694   13 Jun 2027 06:34:23.952             0.258            22.281
       378   13 Jun 2027 06:34:46.832   13 Jun 2027 06:34:50.640             3.808           373.188
       379   13 Jun 2027 08:07:10.168   13 Jun 2027 08:07:15.407             5.239          2423.656
       380   13 Jun 2027 08:08:21.203   13 Jun 2027 08:08:23.425             2.222           967.219
       381   13 Jun 2027 08:08:52.893   13 Jun 2027 08:08:59.917             7.024           920.875
       382   13 Jun 2027 08:10:18.558   13 Jun 2027 08:10:22.408             3.850          1475.156
       383   13 Jun 2027 08:10:54.083   13 Jun 2027 08:10:56.860             2.777           932.344
       384   13 Jun 2027 08:11:23.629   13 Jun 2027 08:11:25.588             1.959           719.687
       385   13 Jun 2027 08:11:42.106   13 Jun 2027 08:11:42.848             0.742           133.281
       386   13 Jun 2027 08:12:21.157   13 Jun 2027 08:12:23.155             1.998           829.938
       387   13 Jun 2027 08:12:32.090   13 Jun 2027 08:12:35.342             3.252           244.875
       388   13 Jun 2027 08:12:37.820   13 Jun 2027 08:12:38.662             0.842            77.438
       389   13 Jun 2027 08:13:41.748   13 Jun 2027 08:13:45.758             4.010          1361.562
       390   13 Jun 2027 08:13:51.618   13 Jun 2027 08:13:51.997             0.379           183.125
       391   13 Jun 2027 09:43:30.674   13 Jun 2027 09:43:40.426             9.752          4789.875
       392   13 Jun 2027 09:46:28.418   13 Jun 2027 09:46:30.781             2.363            19.531
       393   13 Jun 2027 09:46:48.709   13 Jun 2027 09:46:57.091             8.382            70.187
       394   13 Jun 2027 09:47:15.151   13 Jun 2027 09:47:18.189             3.038           564.375
       395   13 Jun 2027 09:48:08.833   13 Jun 2027 09:48:12.056             3.223          1045.781
       396   13 Jun 2027 09:49:01.377   13 Jun 2027 09:49:07.863             6.486          1474.938
       397   13 Jun 2027 11:21:04.751   13 Jun 2027 11:21:19.625            14.874          6075.156
       398   13 Jun 2027 11:22:33.335   13 Jun 2027 11:22:36.609             3.274          1452.906
       399   13 Jun 2027 11:23:08.713   13 Jun 2027 11:23:17.531             8.818           914.094
       400   13 Jun 2027 11:23:44.766   13 Jun 2027 11:23:45.998             1.232            96.156
       401   13 Jun 2027 11:24:25.399   13 Jun 2027 11:24:28.747             3.348          1231.281
       402   13 Jun 2027 11:25:14.433   13 Jun 2027 11:25:15.552             1.119           394.594
