uniorb/output/strategy_4/Camera/Camera_KinoSat_111603.txt

KinoSat_111603
-------------------------
    Access    *     Start Time (UTCG)     *     Stop Time (UTCG)  *   Duration (s) *   Data (Mbytes)
         1   01 Jun 2027 03:33:44.241   01 Jun 2027 03:34:45.080            60.839         30419.500
         2   01 Jun 2027 03:34:50.756   01 Jun 2027 03:35:04.107            13.351          6675.500
         3   01 Jun 2027 03:35:21.319   01 Jun 2027 03:36:20.440            59.121         29560.500
         4   01 Jun 2027 03:36:41.932   01 Jun 2027 03:36:41.932             0.000             0.000
         5   01 Jun 2027 03:37:11.808   01 Jun 2027 03:37:16.565             4.757          2378.500
         6   01 Jun 2027 03:39:03.334   01 Jun 2027 03:39:07.148             3.814          1907.000
         7   01 Jun 2027 03:39:36.291   01 Jun 2027 03:39:50.379            14.088          7044.000
         8   01 Jun 2027 05:13:01.377   01 Jun 2027 05:14:29.664            88.287         44143.500
         9   01 Jun 2027 05:14:53.571   01 Jun 2027 05:15:11.946            18.375          9187.500
        10   01 Jun 2027 06:35:17.069   01 Jun 2027 06:36:13.232            56.163         28081.500
        11   01 Jun 2027 06:37:15.501   01 Jun 2027 06:37:21.746             6.245          3122.500
        12   01 Jun 2027 08:11:42.767   01 Jun 2027 08:13:57.513           134.746         67373.000
        13   01 Jun 2027 09:46:51.002   01 Jun 2027 09:49:01.971           130.969         65484.500
        14   01 Jun 2027 09:50:35.220   01 Jun 2027 09:50:35.220             0.000             0.000
        15   01 Jun 2027 09:52:07.507   01 Jun 2027 09:52:36.364            28.857         14428.500
        16   01 Jun 2027 09:52:37.524   01 Jun 2027 09:52:38.746             1.222           611.000
        17   01 Jun 2027 09:53:33.005   01 Jun 2027 09:53:38.951             5.946          2973.000
        18   01 Jun 2027 11:23:11.938   01 Jun 2027 11:24:40.825            88.887         44443.500
        19   01 Jun 2027 11:25:02.824   01 Jun 2027 11:25:19.191            16.367          8183.500
        20   01 Jun 2027 11:27:25.219   01 Jun 2027 11:28:22.561            57.342         28671.000
        21   02 Jun 2027 03:45:40.625   02 Jun 2027 03:46:34.736            54.111         27055.500
        22   02 Jun 2027 03:46:47.428   02 Jun 2027 03:48:04.696            77.268         38634.000
        23   02 Jun 2027 03:49:21.752   02 Jun 2027 03:49:55.782            34.030         17015.000
        24   02 Jun 2027 05:23:55.845   02 Jun 2027 05:24:32.182            36.337         18168.500
        25   02 Jun 2027 05:24:44.972   02 Jun 2027 05:27:41.692           176.720         88360.000
        26   02 Jun 2027 06:47:16.412   02 Jun 2027 06:47:58.210            41.798         20899.000
        27   02 Jun 2027 08:23:53.115   02 Jun 2027 08:26:28.193           155.078         77539.000
        28   02 Jun 2027 08:27:18.085   02 Jun 2027 08:27:20.509             2.424          1212.000
        29   02 Jun 2027 09:59:03.148   02 Jun 2027 10:01:11.622           128.474         63548.533
        30   02 Jun 2027 10:01:57.661   02 Jun 2027 10:02:00.983             3.322          1381.562
        31   02 Jun 2027 10:05:25.976   02 Jun 2027 10:05:38.896            12.920          6136.813
        32   02 Jun 2027 11:35:20.365   02 Jun 2027 11:35:33.573            13.208          6441.187
        33   02 Jun 2027 11:36:44.865   02 Jun 2027 11:36:51.981             7.116          1009.344
        34   02 Jun 2027 11:37:14.000   02 Jun 2027 11:37:16.735             2.735           688.094
        35   02 Jun 2027 11:38:04.469   02 Jun 2027 11:38:08.052             3.583           304.594
        36   02 Jun 2027 11:39:19.849   02 Jun 2027 11:39:22.557             2.708          1261.781
        37   02 Jun 2027 11:40:13.987   02 Jun 2027 11:40:17.033             3.046           959.563
        38   02 Jun 2027 11:40:25.225   02 Jun 2027 11:40:28.935             3.710           256.000
        39   03 Jun 2027 03:58:46.277   03 Jun 2027 04:01:09.911           143.634         71817.000
        40   03 Jun 2027 04:01:21.005   03 Jun 2027 04:01:27.484             6.479          3239.500
        41   03 Jun 2027 04:02:24.929   03 Jun 2027 04:02:28.956             4.027          2013.500
        42   03 Jun 2027 04:02:47.252   03 Jun 2027 04:02:52.892             5.640          2820.000
        43   03 Jun 2027 04:05:38.092   03 Jun 2027 04:05:50.983            12.891          6445.500
        44   03 Jun 2027 05:25:08.593   03 Jun 2027 05:25:13.998             5.405          2702.500
        45   03 Jun 2027 05:35:52.504   03 Jun 2027 05:38:25.772           153.268         75477.063
        46   03 Jun 2027 05:39:16.863   03 Jun 2027 05:39:19.459             2.596           979.344
        47   03 Jun 2027 06:59:52.695   03 Jun 2027 07:00:05.247            12.552          5860.531
        48   03 Jun 2027 07:00:18.313   03 Jun 2027 07:00:19.631             1.318           307.219
        49   03 Jun 2027 07:00:20.590   03 Jun 2027 07:00:21.157             0.567            29.969
        50   03 Jun 2027 07:00:43.019   03 Jun 2027 07:00:43.019             0.000             0.000
        51   03 Jun 2027 07:01:53.880   03 Jun 2027 07:01:58.911             5.031          2463.250
        52   03 Jun 2027 07:02:18.771   03 Jun 2027 07:02:20.063             1.292           620.625
        53   03 Jun 2027 08:35:37.344   03 Jun 2027 08:35:47.521            10.177          4192.781
        54   03 Jun 2027 08:36:39.339   03 Jun 2027 08:36:45.321             5.982          1418.531
        55   03 Jun 2027 08:37:12.038   03 Jun 2027 08:37:14.581             2.543           187.406
        56   03 Jun 2027 08:38:00.350   03 Jun 2027 08:38:03.103             2.753           549.125
        57   03 Jun 2027 08:38:58.450   03 Jun 2027 08:39:03.865             5.415          1538.187
        58   03 Jun 2027 08:39:46.102   03 Jun 2027 08:39:48.798             2.696          1319.906
        59   03 Jun 2027 10:10:30.908   03 Jun 2027 10:10:37.038             6.130          2531.250
        60   03 Jun 2027 10:12:16.151   03 Jun 2027 10:12:21.797             5.646          2348.750
        61   03 Jun 2027 10:13:25.611   03 Jun 2027 10:13:27.856             2.245           823.187
        62   03 Jun 2027 10:13:34.765   03 Jun 2027 10:13:34.765             0.000             0.000
        63   03 Jun 2027 10:13:53.091   03 Jun 2027 10:13:56.183             3.092           786.781
        64   03 Jun 2027 10:15:12.216   03 Jun 2027 10:15:12.908             0.692            94.187
        65   03 Jun 2027 10:16:00.472   03 Jun 2027 10:16:04.037             3.565           442.875
        66   03 Jun 2027 10:16:17.660   03 Jun 2027 10:16:21.741             4.081           380.281
        67   03 Jun 2027 10:17:16.771   03 Jun 2027 10:17:20.116             3.345          1091.719
        68   03 Jun 2027 11:47:03.984   03 Jun 2027 11:47:15.009            11.025          5213.281
        69   03 Jun 2027 11:49:29.861   03 Jun 2027 11:49:32.478             2.617           962.406
        70   03 Jun 2027 11:50:10.350   03 Jun 2027 11:50:14.776             4.426           886.750
        71   03 Jun 2027 11:50:56.664   03 Jun 2027 11:51:00.090             3.426           244.125
        72   03 Jun 2027 11:51:27.350   03 Jun 2027 11:51:29.504             2.154           726.719
        73   03 Jun 2027 11:52:09.062   03 Jun 2027 11:52:16.608             7.546           966.969
        74   03 Jun 2027 11:52:19.933   03 Jun 2027 11:52:24.574             4.641           103.906
        75   03 Jun 2027 11:52:50.685   03 Jun 2027 11:52:56.046             5.361           618.313
        76   03 Jun 2027 11:53:04.580   03 Jun 2027 11:53:06.858             2.278           266.687
        77   03 Jun 2027 11:53:07.303   03 Jun 2027 11:53:07.466             0.163            13.906
        78   04 Jun 2027 04:10:54.801   04 Jun 2027 04:13:17.649           142.848         71424.000
        79   04 Jun 2027 04:13:31.806   04 Jun 2027 04:13:33.809             2.003          1001.500
        80   04 Jun 2027 04:16:03.745   04 Jun 2027 04:16:14.730            10.985          5492.500
        81   04 Jun 2027 04:16:54.201   04 Jun 2027 04:16:57.800             3.599          1799.500
        82   04 Jun 2027 04:17:09.104   04 Jun 2027 04:17:12.386             3.282          1641.000
        83   04 Jun 2027 04:17:16.329   04 Jun 2027 04:17:19.913             3.584          1792.000
        84   04 Jun 2027 04:17:55.489   04 Jun 2027 04:18:29.605            34.116         17058.000
        85   04 Jun 2027 05:36:26.138   04 Jun 2027 05:37:11.587            45.449         22724.500
        86   04 Jun 2027 05:47:50.662   04 Jun 2027 05:49:19.974            89.312         44656.000
        87   04 Jun 2027 07:10:28.375   04 Jun 2027 07:10:50.025            21.650          8371.531
        88   04 Jun 2027 07:12:01.652   04 Jun 2027 07:12:07.082             5.430          1452.375
        89   04 Jun 2027 07:12:24.556   04 Jun 2027 07:12:29.887             5.331           399.031
        90   04 Jun 2027 07:13:19.953   04 Jun 2027 07:13:23.045             3.092          1402.906
        91   04 Jun 2027 07:15:08.298   04 Jun 2027 07:15:08.668             0.370           185.000
        92   04 Jun 2027 08:45:51.636   04 Jun 2027 08:45:53.421             1.785           892.500
        93   04 Jun 2027 08:46:44.734   04 Jun 2027 08:46:47.690             2.956          1478.000
        94   04 Jun 2027 08:47:23.002   04 Jun 2027 08:47:26.837             3.835          1585.313
        95   04 Jun 2027 08:49:24.839   04 Jun 2027 08:49:32.292             7.453          3200.500
        96   04 Jun 2027 08:50:46.653   04 Jun 2027 08:50:53.114             6.461           792.156
        97   04 Jun 2027 10:22:18.479   04 Jun 2027 10:22:24.810             6.331          3117.406
        98   04 Jun 2027 10:24:16.750   04 Jun 2027 10:24:26.668             9.918          3062.844
        99   04 Jun 2027 10:25:10.233   04 Jun 2027 10:25:15.303             5.070          1263.313
       100   04 Jun 2027 10:25:45.539   04 Jun 2027 10:25:46.613             1.074           393.625
       101   04 Jun 2027 10:26:42.771   04 Jun 2027 10:26:54.763            11.992          1748.188
       102   04 Jun 2027 10:27:21.828   04 Jun 2027 10:27:24.278             2.450           767.000
       103   04 Jun 2027 10:27:37.294   04 Jun 2027 10:27:41.790             4.496           309.062
       104   04 Jun 2027 10:28:26.085   04 Jun 2027 10:28:29.933             3.848          1190.844
       105   04 Jun 2027 10:29:10.333   04 Jun 2027 10:29:10.611             0.278            46.438
       106   04 Jun 2027 10:29:18.130   04 Jun 2027 10:29:22.235             4.105           234.969
       107   04 Jun 2027 11:59:25.122   04 Jun 2027 11:59:40.032            14.910          7221.844
       108   05 Jun 2027 04:23:20.696   05 Jun 2027 04:25:40.802           140.106         70053.000
       109   05 Jun 2027 04:28:37.172   05 Jun 2027 04:28:41.383             4.211          2105.500
       110   05 Jun 2027 04:29:05.745   05 Jun 2027 04:29:05.745             0.000             0.000
       111   05 Jun 2027 04:30:09.851   05 Jun 2027 04:30:27.172            17.321          8660.500
       112   05 Jun 2027 05:47:44.892   05 Jun 2027 05:48:19.737            34.845         17422.500
       113   05 Jun 2027 05:49:22.091   05 Jun 2027 05:49:23.644             1.553           776.500
       114   05 Jun 2027 05:59:50.039   05 Jun 2027 06:00:49.102            59.063         29531.500
       115   05 Jun 2027 07:22:07.128   05 Jun 2027 07:23:13.731            66.603         33301.500
       116   05 Jun 2027 07:24:01.777   05 Jun 2027 07:24:14.361            12.584          3722.094
       117   05 Jun 2027 07:25:40.104   05 Jun 2027 07:25:45.713             5.609          2654.062
       118   05 Jun 2027 07:26:24.669   05 Jun 2027 07:26:24.669             0.000             0.000
       119   05 Jun 2027 07:26:31.419   05 Jun 2027 07:26:35.709             4.290          1058.156
       120   05 Jun 2027 08:57:00.960   05 Jun 2027 08:57:07.271             6.311          2679.281
       121   05 Jun 2027 08:57:58.266   05 Jun 2027 08:58:00.068             1.802           805.156
       122   05 Jun 2027 08:58:06.028   05 Jun 2027 08:58:07.058             1.030            69.500
       123   05 Jun 2027 09:00:41.436   05 Jun 2027 09:00:52.088            10.652          4776.062
       124   05 Jun 2027 09:02:50.419   05 Jun 2027 09:02:54.159             3.740           975.219
       125   05 Jun 2027 09:03:32.588   05 Jun 2027 09:03:36.026             3.438          1200.906
       126   05 Jun 2027 09:03:44.303   05 Jun 2027 09:03:46.829             2.526           222.281
       127   05 Jun 2027 09:05:04.417   05 Jun 2027 09:05:07.368             2.951          1101.687
       128   05 Jun 2027 10:34:33.734   05 Jun 2027 10:34:42.588             8.854          3451.125
       129   05 Jun 2027 10:37:38.347   05 Jun 2027 10:37:44.290             5.943          2548.781
       130   05 Jun 2027 10:38:12.089   05 Jun 2027 10:38:13.306             1.217           173.031
       131   05 Jun 2027 10:38:58.192   05 Jun 2027 10:38:59.160             0.968           287.813
       132   05 Jun 2027 10:39:32.719   05 Jun 2027 10:39:37.553             4.834           190.437
       133   05 Jun 2027 10:40:56.553   05 Jun 2027 10:41:01.645             5.092          2354.312
       134   05 Jun 2027 10:41:48.088   05 Jun 2027 10:41:52.471             4.383          1451.344
       135   06 Jun 2027 03:00:00.000   06 Jun 2027 03:00:08.366             8.366          4183.000
       136   06 Jun 2027 03:00:45.425   06 Jun 2027 03:00:51.422             5.997          2998.500
       137   06 Jun 2027 03:01:19.001   06 Jun 2027 03:01:26.617             7.616          3808.000
       138   06 Jun 2027 03:02:12.804   06 Jun 2027 03:02:35.584            22.780         11390.000
       139   06 Jun 2027 04:35:25.297   06 Jun 2027 04:37:37.202           131.905         65952.500
       140   06 Jun 2027 04:39:24.679   06 Jun 2027 04:40:28.764            64.085         32042.500
       141   06 Jun 2027 04:41:16.473   06 Jun 2027 04:41:17.133             0.660           330.000
       142   06 Jun 2027 05:59:43.756   06 Jun 2027 06:00:13.362            29.606         14803.000
       143   06 Jun 2027 06:01:26.782   06 Jun 2027 06:01:38.953            12.171          6085.500
       144   06 Jun 2027 06:12:05.169   06 Jun 2027 06:12:23.591            18.422          9211.000
       145   06 Jun 2027 07:33:37.509   06 Jun 2027 07:34:33.419            55.910         26211.281
       146   06 Jun 2027 07:36:09.500   06 Jun 2027 07:36:15.927             6.427          2700.625
       147   06 Jun 2027 07:36:24.229   06 Jun 2027 07:36:25.107             0.878           176.344
       148   06 Jun 2027 07:37:24.385   06 Jun 2027 07:37:28.499             4.114          1593.656
       149   06 Jun 2027 07:37:34.889   06 Jun 2027 07:37:36.041             1.152           199.688
       150   06 Jun 2027 07:38:14.770   06 Jun 2027 07:38:17.868             3.098           593.656
       151   06 Jun 2027 07:38:55.553   06 Jun 2027 07:38:57.393             1.840           879.750
       152   06 Jun 2027 09:08:31.902   06 Jun 2027 09:08:38.222             6.320          2190.062
       153   06 Jun 2027 09:09:21.329   06 Jun 2027 09:09:25.425             4.096           254.844
       154   06 Jun 2027 09:10:42.648   06 Jun 2027 09:10:43.312             0.664           179.594
       155   06 Jun 2027 09:12:13.434   06 Jun 2027 09:12:18.383             4.949          2353.250
       156   06 Jun 2027 09:13:01.919   06 Jun 2027 09:13:06.392             4.473          1144.156
       157   06 Jun 2027 09:15:29.039   06 Jun 2027 09:15:33.918             4.879          2096.188
       158   06 Jun 2027 09:16:58.713   06 Jun 2027 09:17:02.478             3.765          1692.500
       159   06 Jun 2027 10:46:28.554   06 Jun 2027 10:46:37.462             8.908          4454.000
       160   06 Jun 2027 10:48:16.162   06 Jun 2027 10:48:25.105             8.943          3085.437
       161   06 Jun 2027 10:50:31.258   06 Jun 2027 10:50:37.343             6.085          2013.469
       162   06 Jun 2027 10:52:01.290   06 Jun 2027 10:52:05.579             4.289          1976.906
       163   06 Jun 2027 10:52:58.476   06 Jun 2027 10:53:02.289             3.813          1178.187
       164   06 Jun 2027 10:53:26.749   06 Jun 2027 10:53:28.382             1.633           726.781
       165   07 Jun 2027 03:09:19.721   07 Jun 2027 03:10:13.236            53.515         26757.500
       166   07 Jun 2027 03:10:40.209   07 Jun 2027 03:10:40.209             0.000             0.000
       167   07 Jun 2027 03:11:13.182   07 Jun 2027 03:11:17.797             4.615          2307.500
       168   07 Jun 2027 03:11:28.913   07 Jun 2027 03:11:32.542             3.629          1814.500
       169   07 Jun 2027 03:14:00.211   07 Jun 2027 03:14:21.094            20.883         10441.500
       170   07 Jun 2027 03:14:43.650   07 Jun 2027 03:14:55.796            12.146          6073.000
       171   07 Jun 2027 04:47:51.238   07 Jun 2027 04:49:36.393           105.155         52577.500
       172   07 Jun 2027 04:49:57.334   07 Jun 2027 04:51:36.552            99.218         48911.781
       173   07 Jun 2027 06:11:39.998   07 Jun 2027 06:12:08.147            28.149         13286.469
       174   07 Jun 2027 06:12:54.689   07 Jun 2027 06:12:58.743             4.054          1387.844
       175   07 Jun 2027 06:13:44.734   07 Jun 2027 06:13:44.734             0.000             0.000
       176   07 Jun 2027 06:13:48.996   07 Jun 2027 06:13:53.823             4.827          1313.156
       177   07 Jun 2027 07:47:39.311   07 Jun 2027 07:47:53.278            13.967          6359.281
       178   07 Jun 2027 07:48:26.393   07 Jun 2027 07:48:30.555             4.162           759.219
       179   07 Jun 2027 07:49:06.896   07 Jun 2027 07:49:09.252             2.356          1135.656
       180   07 Jun 2027 07:50:46.765   07 Jun 2027 07:50:53.934             7.169          2214.344
       181   07 Jun 2027 09:21:26.139   07 Jun 2027 09:21:33.434             7.295          2208.187
       182   07 Jun 2027 09:23:35.727   07 Jun 2027 09:23:38.893             3.166           141.344
       183   07 Jun 2027 09:23:58.419   07 Jun 2027 09:24:01.473             3.054           426.906
       184   07 Jun 2027 09:25:05.491   07 Jun 2027 09:25:10.784             5.293          1181.000
       185   07 Jun 2027 09:26:04.936   07 Jun 2027 09:26:08.456             3.520           634.469
       186   07 Jun 2027 09:27:20.809   07 Jun 2027 09:27:24.716             3.907          1857.094
       187   07 Jun 2027 09:27:57.607   07 Jun 2027 09:28:02.795             5.188           292.219
       188   07 Jun 2027 09:28:14.401   07 Jun 2027 09:28:16.241             1.840           147.594
       189   07 Jun 2027 09:29:12.639   07 Jun 2027 09:29:15.915             3.276          1541.187
       190   07 Jun 2027 10:58:42.562   07 Jun 2027 10:59:02.752            20.190          5643.375
       191   07 Jun 2027 11:00:14.742   07 Jun 2027 11:00:14.742             0.000             0.000
       192   07 Jun 2027 11:00:22.868   07 Jun 2027 11:00:25.519             2.651           581.125
       193   07 Jun 2027 11:03:00.045   07 Jun 2027 11:03:08.162             8.117          3411.656
       194   07 Jun 2027 11:03:48.001   07 Jun 2027 11:03:49.973             1.972           793.313
       195   07 Jun 2027 11:04:34.582   07 Jun 2027 11:04:48.820            14.238          1394.031
       196   07 Jun 2027 11:05:04.614   07 Jun 2027 11:05:05.775             1.161           454.313
       197   07 Jun 2027 11:05:16.300   07 Jun 2027 11:05:22.150             5.850            66.656
       198   07 Jun 2027 11:05:22.905   07 Jun 2027 11:05:23.700             0.795            11.437
       199   08 Jun 2027 03:21:53.301   08 Jun 2027 03:22:20.419            27.118         13559.000
       200   08 Jun 2027 03:22:31.045   08 Jun 2027 03:24:22.507           111.462         55731.000
       201   08 Jun 2027 03:24:48.996   08 Jun 2027 03:25:07.251            18.255          9127.500
       202   08 Jun 2027 03:25:18.616   08 Jun 2027 03:25:33.949            15.333          7666.500
       203   08 Jun 2027 03:25:57.903   08 Jun 2027 03:26:09.569            11.666          5833.000
       204   08 Jun 2027 03:26:53.618   08 Jun 2027 03:27:16.402            22.784         11392.000
       205   08 Jun 2027 03:28:00.218   08 Jun 2027 03:28:02.517             2.299          1149.500
       206   08 Jun 2027 05:00:09.740   08 Jun 2027 05:00:35.362            25.622         12811.000
       207   08 Jun 2027 05:01:01.281   08 Jun 2027 05:02:16.926            75.645         37822.500
       208   08 Jun 2027 05:02:41.129   08 Jun 2027 05:02:49.898             8.769          1659.718
       209   08 Jun 2027 05:02:58.487   08 Jun 2027 05:03:02.384             3.897           236.937
       210   08 Jun 2027 05:04:04.935   08 Jun 2027 05:04:08.660             3.725           998.937
       211   08 Jun 2027 05:04:41.507   08 Jun 2027 05:04:42.789             1.282           641.000
       212   08 Jun 2027 06:23:31.717   08 Jun 2027 06:23:44.536            12.819          5922.375
       213   08 Jun 2027 06:24:49.460   08 Jun 2027 06:24:52.540             3.080          1460.437
       214   08 Jun 2027 06:25:43.219   08 Jun 2027 06:25:46.309             3.090          1474.281
       215   08 Jun 2027 06:25:59.615   08 Jun 2027 06:25:59.615             0.000             0.000
       216   08 Jun 2027 07:59:53.939   08 Jun 2027 08:00:02.662             8.723          4238.969
       217   08 Jun 2027 08:00:28.465   08 Jun 2027 08:00:29.744             1.279           316.031
       218   08 Jun 2027 08:00:45.923   08 Jun 2027 08:00:47.019             1.096           499.812
       219   08 Jun 2027 08:01:45.520   08 Jun 2027 08:01:49.192             3.672          1654.313
       220   08 Jun 2027 08:02:32.257   08 Jun 2027 08:02:35.103             2.846          1345.781
       221   08 Jun 2027 09:32:11.020   08 Jun 2027 09:32:18.062             7.042          2844.125
       222   08 Jun 2027 09:36:02.798   08 Jun 2027 09:36:06.545             3.747           333.219
       223   08 Jun 2027 09:36:42.504   08 Jun 2027 09:36:53.171            10.667           396.156
       224   08 Jun 2027 09:38:20.061   08 Jun 2027 09:38:27.209             7.148          2137.250
       225   08 Jun 2027 09:40:15.291   08 Jun 2027 09:40:24.503             9.212          2722.531
       226   08 Jun 2027 09:40:40.925   08 Jun 2027 09:40:44.634             3.709           513.188
       227   08 Jun 2027 09:41:25.710   08 Jun 2027 09:41:31.002             5.292           877.937
       228   08 Jun 2027 09:41:42.380   08 Jun 2027 09:41:45.509             3.129            18.781
       229   08 Jun 2027 09:41:54.729   08 Jun 2027 09:41:55.007             0.278            62.906
       230   08 Jun 2027 11:11:02.301   08 Jun 2027 11:11:15.517            13.216          5542.094
       231   08 Jun 2027 11:12:39.432   08 Jun 2027 11:12:46.750             7.318           980.187
       232   08 Jun 2027 11:14:42.856   08 Jun 2027 11:14:51.360             8.504           911.000
       233   08 Jun 2027 11:15:02.430   08 Jun 2027 11:15:03.269             0.839           345.781
       234   08 Jun 2027 11:15:26.543   08 Jun 2027 11:15:28.246             1.703           388.469
       235   08 Jun 2027 11:15:36.483   08 Jun 2027 11:15:37.614             1.131           257.406
       236   08 Jun 2027 11:16:13.413   08 Jun 2027 11:16:15.089             1.676           511.188
       237   08 Jun 2027 11:16:56.566   08 Jun 2027 11:17:00.603             4.037          1078.406
       238   08 Jun 2027 11:17:06.395   08 Jun 2027 11:17:06.776             0.381           181.000
       239   08 Jun 2027 11:17:09.921   08 Jun 2027 11:17:10.429             0.508            98.281
       240   08 Jun 2027 11:17:35.317   08 Jun 2027 11:17:37.121             1.804           359.344
       241   08 Jun 2027 11:17:44.390   08 Jun 2027 11:17:44.871             0.481           169.750
       242   09 Jun 2027 03:34:00.136   09 Jun 2027 03:35:01.402            61.266         30633.000
       243   09 Jun 2027 03:35:07.139   09 Jun 2027 03:35:34.868            27.729         13864.500
       244   09 Jun 2027 03:36:28.892   09 Jun 2027 03:37:30.314            61.422         30711.000
       245   09 Jun 2027 03:39:01.460   09 Jun 2027 03:39:24.689            23.229         11614.500
       246   09 Jun 2027 05:13:02.427   09 Jun 2027 05:15:07.369           124.942         62437.469
       247   09 Jun 2027 06:35:35.310   09 Jun 2027 06:35:47.553            12.243          5418.406
       248   09 Jun 2027 06:36:50.488   09 Jun 2027 06:36:54.382             3.894          1820.031
       249   09 Jun 2027 06:37:39.148   09 Jun 2027 06:37:42.643             3.495          1298.719
       250   09 Jun 2027 06:38:13.760   09 Jun 2027 06:38:16.082             2.322           944.063
       251   09 Jun 2027 08:12:04.682   09 Jun 2027 08:12:08.089             3.407          1688.563
       252   09 Jun 2027 08:12:53.931   09 Jun 2027 08:12:58.913             4.982           929.000
       253   09 Jun 2027 08:13:34.889   09 Jun 2027 08:13:37.324             2.435          1049.719
       254   09 Jun 2027 08:13:43.903   09 Jun 2027 08:13:44.746             0.843           205.594
       255   09 Jun 2027 09:47:09.510   09 Jun 2027 09:47:22.796            13.286          3418.719
       256   09 Jun 2027 09:48:15.106   09 Jun 2027 09:48:24.262             9.156           982.594
       257   09 Jun 2027 09:48:31.646   09 Jun 2027 09:48:38.205             6.559           230.750
       258   09 Jun 2027 09:50:17.831   09 Jun 2027 09:50:22.673             4.842          1789.750
       259   09 Jun 2027 09:50:50.334   09 Jun 2027 09:50:54.223             3.889           814.312
       260   09 Jun 2027 09:51:23.125   09 Jun 2027 09:51:28.945             5.820           891.813
       261   09 Jun 2027 09:51:57.021   09 Jun 2027 09:51:57.497             0.476            19.281
       262   09 Jun 2027 09:52:49.647   09 Jun 2027 09:52:53.922             4.275           762.938
       263   09 Jun 2027 09:53:41.853   09 Jun 2027 09:53:41.853             0.000             0.000
       264   09 Jun 2027 09:53:49.439   09 Jun 2027 09:53:55.894             6.455          1177.719
       265   09 Jun 2027 11:23:30.967   09 Jun 2027 11:23:44.163            13.196          6508.063
       266   09 Jun 2027 11:26:47.294   09 Jun 2027 11:26:50.010             2.716           961.375
       267   09 Jun 2027 11:27:27.205   09 Jun 2027 11:27:29.960             2.755           708.344
       268   09 Jun 2027 11:27:42.929   09 Jun 2027 11:27:49.448             6.519            52.719
       269   09 Jun 2027 11:28:09.029   09 Jun 2027 11:28:11.083             2.054           416.969
       270   09 Jun 2027 11:29:03.552   09 Jun 2027 11:29:07.654             4.102          1510.063
       271   09 Jun 2027 11:29:22.961   09 Jun 2027 11:29:28.002             5.041           447.281
       272   09 Jun 2027 11:29:29.916   09 Jun 2027 11:29:31.584             1.668            59.812
       273   10 Jun 2027 03:45:57.967   10 Jun 2027 03:46:45.440            47.473         23736.500
       274   10 Jun 2027 03:47:04.446   10 Jun 2027 03:49:39.306           154.860         77430.000
       275   10 Jun 2027 05:24:11.775   10 Jun 2027 05:24:45.053            33.278         16639.000
       276   10 Jun 2027 05:25:01.837   10 Jun 2027 05:26:09.466            67.629         33086.125
       277   10 Jun 2027 05:27:00.787   10 Jun 2027 05:27:03.495             2.708          1125.250
       278   10 Jun 2027 05:27:14.783   10 Jun 2027 05:27:20.105             5.322           352.750
       279   10 Jun 2027 05:27:50.832   10 Jun 2027 05:27:51.145             0.313           156.500
       280   10 Jun 2027 06:47:32.199   10 Jun 2027 06:47:49.125            16.926          6673.500
       281   10 Jun 2027 06:48:23.534   10 Jun 2027 06:48:24.689             1.155           318.875
       282   10 Jun 2027 06:49:01.296   10 Jun 2027 06:49:02.620             1.324           662.000
       283   10 Jun 2027 06:50:14.418   10 Jun 2027 06:50:17.322             2.904          1452.000
       284   10 Jun 2027 06:50:37.118   10 Jun 2027 06:50:42.215             5.097          1836.094
       285   10 Jun 2027 08:24:09.937   10 Jun 2027 08:24:17.019             7.082          2183.750
       286   10 Jun 2027 08:24:55.945   10 Jun 2027 08:25:00.789             4.844          1178.750
       287   10 Jun 2027 08:25:36.063   10 Jun 2027 08:25:36.797             0.734           215.031
       288   10 Jun 2027 08:25:53.632   10 Jun 2027 08:25:54.700             1.068           526.094
       289   10 Jun 2027 08:26:58.720   10 Jun 2027 08:27:02.039             3.319          1469.156
       290   10 Jun 2027 09:59:19.901   10 Jun 2027 09:59:26.874             6.973          2945.094
       291   10 Jun 2027 10:00:33.096   10 Jun 2027 10:00:37.113             4.017          1903.031
       292   10 Jun 2027 10:01:00.511   10 Jun 2027 10:01:02.652             2.141           345.125
       293   10 Jun 2027 10:02:14.510   10 Jun 2027 10:02:17.237             2.727          1319.219
       294   10 Jun 2027 10:04:25.429   10 Jun 2027 10:04:33.054             7.625          3791.969
       295   10 Jun 2027 10:05:36.706   10 Jun 2027 10:05:42.259             5.553          1395.875
       296   10 Jun 2027 11:35:36.163   10 Jun 2027 11:35:48.312            12.149          5064.656
       297   10 Jun 2027 11:36:37.770   10 Jun 2027 11:36:45.230             7.460          1013.375
       298   10 Jun 2027 11:37:36.070   10 Jun 2027 11:37:37.888             1.818           331.625
       299   10 Jun 2027 11:38:10.568   10 Jun 2027 11:38:17.870             7.302           701.344
       300   10 Jun 2027 11:38:29.883   10 Jun 2027 11:38:34.420             4.537           280.500
       301   10 Jun 2027 11:39:06.676   10 Jun 2027 11:39:09.209             2.533           999.312
       302   10 Jun 2027 11:39:40.118   10 Jun 2027 11:39:43.099             2.981           578.344
       303   10 Jun 2027 11:39:59.150   10 Jun 2027 11:40:00.663             1.513           134.031
       304   10 Jun 2027 11:40:52.036   10 Jun 2027 11:40:56.426             4.390          1358.312
       305   10 Jun 2027 11:41:01.255   10 Jun 2027 11:41:03.169             1.914            70.938
       306   10 Jun 2027 11:41:10.652   10 Jun 2027 11:41:12.718             2.066           180.875
       307   10 Jun 2027 11:41:32.412   10 Jun 2027 11:41:35.819             3.407           375.844
       308   11 Jun 2027 03:59:03.392   11 Jun 2027 04:02:26.311           202.919        101459.500
       309   11 Jun 2027 04:02:50.506   11 Jun 2027 04:03:08.491            17.985          8992.500
       310   11 Jun 2027 04:05:57.149   11 Jun 2027 04:06:07.216            10.067          5033.500
       311   11 Jun 2027 05:25:22.891   11 Jun 2027 05:25:34.635            11.744          5872.000
       312   11 Jun 2027 05:36:09.298   11 Jun 2027 05:37:53.498           104.200         52091.281
       313   11 Jun 2027 05:39:01.100   11 Jun 2027 05:39:02.863             1.763           881.500
       314   11 Jun 2027 05:39:10.866   11 Jun 2027 05:39:16.420             5.554          1253.312
       315   11 Jun 2027 07:00:08.513   11 Jun 2027 07:00:26.733            18.220          7046.344
       316   11 Jun 2027 07:01:00.709   11 Jun 2027 07:01:00.709             0.000             0.000
       317   11 Jun 2027 07:02:14.598   11 Jun 2027 07:02:22.885             8.287          3370.781
       318   11 Jun 2027 08:35:53.634   11 Jun 2027 08:36:00.088             6.454          2550.312
       319   11 Jun 2027 08:38:02.225   11 Jun 2027 08:38:11.862             9.637          3510.688
       320   11 Jun 2027 08:38:16.581   11 Jun 2027 08:38:18.987             2.406            22.875
       321   11 Jun 2027 08:38:43.267   11 Jun 2027 08:38:46.986             3.719           461.187
       322   11 Jun 2027 10:10:44.899   11 Jun 2027 10:10:53.232             8.333          3032.219
       323   11 Jun 2027 10:13:18.802   11 Jun 2027 10:13:23.176             4.374          1395.969
       324   11 Jun 2027 10:13:47.030   11 Jun 2027 10:13:49.259             2.229           271.688
       325   11 Jun 2027 10:14:09.824   11 Jun 2027 10:14:09.824             0.000             0.000
       326   11 Jun 2027 10:16:25.000   11 Jun 2027 10:16:36.160            11.160          4687.438
       327   11 Jun 2027 10:17:07.836   11 Jun 2027 10:17:09.514             1.678           817.406
       328   11 Jun 2027 10:17:40.878   11 Jun 2027 10:17:42.430             1.552           753.813
       329   11 Jun 2027 11:47:20.490   11 Jun 2027 11:47:32.425            11.935          5477.094
       330   11 Jun 2027 11:48:26.055   11 Jun 2027 11:48:28.360             2.305           424.281
       331   11 Jun 2027 11:48:43.642   11 Jun 2027 11:48:48.709             5.067           253.813
       332   11 Jun 2027 11:49:13.783   11 Jun 2027 11:49:15.211             1.428           486.812
       333   11 Jun 2027 11:49:46.591   11 Jun 2027 11:49:51.803             5.212           980.625
       334   11 Jun 2027 11:50:27.631   11 Jun 2027 11:50:30.145             2.514           895.656
       335   11 Jun 2027 11:51:15.291   11 Jun 2027 11:51:16.146             0.855           270.687
       336   11 Jun 2027 11:51:29.368   11 Jun 2027 11:51:30.277             0.909           139.094
       337   11 Jun 2027 11:52:12.194   11 Jun 2027 11:52:14.488             2.294           853.906
       338   11 Jun 2027 11:52:47.301   11 Jun 2027 11:52:50.216             2.915           697.125
       339   12 Jun 2027 04:11:23.977   12 Jun 2027 04:13:50.469           146.492         73246.000
       340   12 Jun 2027 04:17:08.926   12 Jun 2027 04:17:12.547             3.621          1810.500
       341   12 Jun 2027 04:17:23.946   12 Jun 2027 04:17:34.719            10.773          5386.500
       342   12 Jun 2027 04:18:13.386   12 Jun 2027 04:18:45.179            31.793         15896.500
       343   12 Jun 2027 05:36:39.605   12 Jun 2027 05:37:02.222            22.617         11308.500
       344   12 Jun 2027 05:37:10.229   12 Jun 2027 05:37:30.779            20.550         10275.000
       345   12 Jun 2027 05:48:07.790   12 Jun 2027 05:49:23.651            75.861         37930.500
       346   12 Jun 2027 07:10:46.989   12 Jun 2027 07:11:23.538            36.549         17989.813
       347   12 Jun 2027 07:12:22.771   12 Jun 2027 07:12:29.986             7.215          1055.031
       348   12 Jun 2027 07:12:37.255   12 Jun 2027 07:12:37.255             0.000             0.000
       349   12 Jun 2027 07:12:40.549   12 Jun 2027 07:12:44.706             4.157           328.344
       350   12 Jun 2027 07:14:02.452   12 Jun 2027 07:14:09.850             7.398          2214.094
       351   12 Jun 2027 07:14:39.187   12 Jun 2027 07:14:39.187             0.000             0.000
       352   12 Jun 2027 07:15:06.004   12 Jun 2027 07:15:21.542            15.538          1618.219
       353   12 Jun 2027 08:46:06.906   12 Jun 2027 08:46:12.396             5.490          2621.500
       354   12 Jun 2027 08:47:02.056   12 Jun 2027 08:47:02.056             0.000             0.000
       355   12 Jun 2027 08:47:58.096   12 Jun 2027 08:48:05.538             7.442          3295.156
       356   12 Jun 2027 08:48:38.038   12 Jun 2027 08:48:41.475             3.437           407.812
       357   12 Jun 2027 08:50:34.418   12 Jun 2027 08:50:40.283             5.865          2932.500
       358   12 Jun 2027 08:50:47.950   12 Jun 2027 08:50:51.699             3.749           303.531
       359   12 Jun 2027 08:51:34.557   12 Jun 2027 08:51:38.044             3.487           942.594
       360   12 Jun 2027 10:22:37.188   12 Jun 2027 10:22:47.522            10.334          2535.063
       361   12 Jun 2027 10:24:34.678   12 Jun 2027 10:24:41.350             6.672          3159.250
       362   12 Jun 2027 10:26:03.409   12 Jun 2027 10:26:04.942             1.533           329.906
       363   12 Jun 2027 10:27:04.232   12 Jun 2027 10:27:10.396             6.164          1852.812
       364   12 Jun 2027 10:27:42.349   12 Jun 2027 10:27:44.819             2.470            55.938
       365   12 Jun 2027 10:28:04.319   12 Jun 2027 10:28:05.023             0.704           334.031
       366   12 Jun 2027 10:28:21.628   12 Jun 2027 10:28:23.364             1.736           349.625
       367   12 Jun 2027 10:29:19.332   12 Jun 2027 10:29:23.393             4.061          1734.437
       368   12 Jun 2027 10:29:25.509   12 Jun 2027 10:29:26.505             0.996             1.500
       369   12 Jun 2027 10:29:33.065   12 Jun 2027 10:29:34.955             1.890           184.812
       370   12 Jun 2027 11:59:41.794   12 Jun 2027 11:59:57.219            15.425          7313.906
       371   13 Jun 2027 04:23:39.465   13 Jun 2027 04:25:52.760           133.295         66647.500
       372   13 Jun 2027 04:26:03.425   13 Jun 2027 04:26:04.076             0.651           325.500
       373   13 Jun 2027 04:26:52.102   13 Jun 2027 04:26:54.309             2.207          1103.500
       374   13 Jun 2027 04:28:21.678   13 Jun 2027 04:28:40.150            18.472          9236.000
       375   13 Jun 2027 04:28:51.815   13 Jun 2027 04:29:16.309            24.494         12247.000
       376   13 Jun 2027 05:47:54.760   13 Jun 2027 05:48:23.756            28.996         14498.000
       377   13 Jun 2027 06:00:07.072   13 Jun 2027 06:01:04.806            57.734         28867.000
       378   13 Jun 2027 07:22:23.028   13 Jun 2027 07:23:29.726            66.698         33349.000
       379   13 Jun 2027 07:24:18.700   13 Jun 2027 07:24:29.147            10.447          4652.125
       380   13 Jun 2027 07:25:56.599   13 Jun 2027 07:26:01.533             4.934          2418.125
       381   13 Jun 2027 07:26:42.056   13 Jun 2027 07:26:42.056             0.000             0.000
       382   13 Jun 2027 07:27:16.686   13 Jun 2027 07:27:27.813            11.127          1984.344
       383   13 Jun 2027 08:57:16.456   13 Jun 2027 08:57:24.962             8.506          2793.594
       384   13 Jun 2027 08:58:27.790   13 Jun 2027 08:58:28.067             0.277           138.500
       385   13 Jun 2027 08:59:40.719   13 Jun 2027 08:59:46.682             5.963          2496.000
       386   13 Jun 2027 09:01:18.554   13 Jun 2027 09:01:22.429             3.875          1745.250
       387   13 Jun 2027 09:02:44.144   13 Jun 2027 09:02:45.026             0.882           158.312
       388   13 Jun 2027 09:05:20.810   13 Jun 2027 09:05:27.236             6.426          3111.094
       389   13 Jun 2027 10:34:50.442   13 Jun 2027 10:35:03.163            12.721          4979.219
       390   13 Jun 2027 10:37:54.727   13 Jun 2027 10:37:59.906             5.179          2502.344
       391   13 Jun 2027 10:38:32.462   13 Jun 2027 10:38:37.462             5.000           193.562
       392   13 Jun 2027 10:39:13.469   13 Jun 2027 10:39:14.597             1.128           252.062
       393   13 Jun 2027 10:40:24.256   13 Jun 2027 10:40:26.747             2.491           599.437
       394   13 Jun 2027 10:41:11.792   13 Jun 2027 10:41:15.570             3.778          1374.000
       395   13 Jun 2027 10:42:03.969   13 Jun 2027 10:42:06.937             2.968          1476.094
