uniorb/output/strategy_4/Camera/Camera_KinoSat_110603.txt

KinoSat_110603
-------------------------
    Access    *     Start Time (UTCG)     *     Stop Time (UTCG)  *   Duration (s) *   Data (Mbytes)
         1   01 Jun 2027 04:03:05.662   01 Jun 2027 04:05:15.332           129.670         64835.000
         2   01 Jun 2027 05:37:48.812   01 Jun 2027 05:39:31.668           102.856         51428.000
         3   01 Jun 2027 05:39:40.690   01 Jun 2027 05:40:10.397            29.707         14853.500
         4   01 Jun 2027 05:40:57.331   01 Jun 2027 05:41:11.655            14.324          7162.000
         5   01 Jun 2027 05:42:48.371   01 Jun 2027 05:43:00.149            11.778          5889.000
         6   01 Jun 2027 05:44:42.113   01 Jun 2027 05:44:42.122             0.009             4.500
         7   01 Jun 2027 05:45:15.502   01 Jun 2027 05:45:20.135             4.633          2316.500
         8   01 Jun 2027 07:14:34.634   01 Jun 2027 07:17:00.654           146.020         73010.000
         9   01 Jun 2027 07:18:12.662   01 Jun 2027 07:18:36.567            23.905         11952.500
        10   01 Jun 2027 07:18:51.370   01 Jun 2027 07:18:52.902             1.532           766.000
        11   01 Jun 2027 07:19:38.456   01 Jun 2027 07:19:41.213             2.757          1378.500
        12   01 Jun 2027 08:52:50.559   01 Jun 2027 08:55:46.572           176.013         88006.500
        13   01 Jun 2027 08:56:06.465   01 Jun 2027 08:56:24.667            18.202          9101.000
        14   01 Jun 2027 10:26:09.451   01 Jun 2027 10:27:38.714            89.263         44631.500
        15   01 Jun 2027 10:28:06.911   01 Jun 2027 10:28:24.033            17.122          8561.000
        16   01 Jun 2027 10:28:35.331   01 Jun 2027 10:29:02.162            26.831         13415.500
        17   01 Jun 2027 10:29:10.714   01 Jun 2027 10:29:17.389             6.675          3337.500
        18   01 Jun 2027 10:33:01.056   01 Jun 2027 10:33:27.426            26.370         13185.000
        19   02 Jun 2027 04:13:06.437   02 Jun 2027 04:13:49.031            42.594         21297.000
        20   02 Jun 2027 04:14:19.653   02 Jun 2027 04:14:20.500             0.847           423.500
        21   02 Jun 2027 04:14:48.938   02 Jun 2027 04:14:57.702             8.764          4382.000
        22   02 Jun 2027 04:15:21.825   02 Jun 2027 04:15:21.825             0.000             0.000
        23   02 Jun 2027 04:16:48.853   02 Jun 2027 04:16:54.313             5.460          2730.000
        24   02 Jun 2027 04:18:51.169   02 Jun 2027 04:18:54.819             3.650          1825.000
        25   02 Jun 2027 05:49:53.942   02 Jun 2027 05:52:43.136           169.194         84597.000
        26   02 Jun 2027 05:53:28.898   02 Jun 2027 05:53:46.084            17.186          8593.000
        27   02 Jun 2027 05:56:27.955   02 Jun 2027 05:56:41.486            13.531          6765.500
        28   02 Jun 2027 05:57:19.736   02 Jun 2027 05:57:20.003             0.267           133.500
        29   02 Jun 2027 07:26:54.985   02 Jun 2027 07:30:27.327           212.342        106171.000
        30   02 Jun 2027 09:04:48.425   02 Jun 2027 09:08:47.531           239.106        119553.000
        31   02 Jun 2027 10:38:05.131   02 Jun 2027 10:38:17.705            12.574          5933.782
        32   03 Jun 2027 04:24:26.449   03 Jun 2027 04:26:10.573           104.124         52062.000
        33   03 Jun 2027 04:28:09.158   03 Jun 2027 04:28:23.244            14.086          7043.000
        34   03 Jun 2027 04:30:19.746   03 Jun 2027 04:30:20.761             1.015           507.500
        35   03 Jun 2027 04:32:45.477   03 Jun 2027 04:33:00.073            14.596          7298.000
        36   03 Jun 2027 06:02:01.094   03 Jun 2027 06:04:56.203           175.109         87554.500
        37   03 Jun 2027 06:05:47.043   03 Jun 2027 06:06:13.672            26.629         13314.500
        38   03 Jun 2027 06:07:06.165   03 Jun 2027 06:07:26.417            20.252          8389.499
        39   03 Jun 2027 06:08:08.162   03 Jun 2027 06:08:10.480             2.318           683.719
        40   03 Jun 2027 07:38:44.216   03 Jun 2027 07:38:51.100             6.884          3187.187
        41   03 Jun 2027 07:43:45.686   03 Jun 2027 07:43:48.902             3.216          1476.188
        42   03 Jun 2027 07:45:04.669   03 Jun 2027 07:45:09.698             5.029          2149.750
        43   03 Jun 2027 09:16:47.897   03 Jun 2027 09:17:02.101            14.204          5512.937
        44   03 Jun 2027 09:20:49.285   03 Jun 2027 09:20:50.790             1.505           234.312
        45   03 Jun 2027 10:50:31.350   03 Jun 2027 10:50:36.470             5.120          1714.438
        46   04 Jun 2027 03:01:01.830   04 Jun 2027 03:01:09.888             8.058          4029.000
        47   04 Jun 2027 03:02:14.287   04 Jun 2027 03:02:22.002             7.715          3857.500
        48   04 Jun 2027 03:03:05.094   04 Jun 2027 03:03:22.063            16.969          8484.500
        49   04 Jun 2027 04:35:56.279   04 Jun 2027 04:38:17.940           141.661         70830.500
        50   04 Jun 2027 04:40:01.772   04 Jun 2027 04:40:02.279             0.507           253.500
        51   04 Jun 2027 04:40:37.536   04 Jun 2027 04:40:54.070            16.534          8267.000
        52   04 Jun 2027 04:44:32.809   04 Jun 2027 04:44:35.127             2.318          1159.000
        53   04 Jun 2027 04:44:55.926   04 Jun 2027 04:45:26.669            30.743         15371.500
        54   04 Jun 2027 06:13:56.345   04 Jun 2027 06:15:41.246           104.901         51991.375
        55   04 Jun 2027 06:16:29.285   04 Jun 2027 06:16:30.007             0.722           327.281
        56   04 Jun 2027 06:16:42.479   04 Jun 2027 06:16:44.061             1.582           389.750
        57   04 Jun 2027 06:18:27.033   04 Jun 2027 06:18:30.659             3.626          1813.000
        58   04 Jun 2027 06:18:33.219   04 Jun 2027 06:18:40.222             7.003           126.188
        59   04 Jun 2027 06:19:38.246   04 Jun 2027 06:19:40.375             2.129           637.344
        60   04 Jun 2027 07:50:51.489   04 Jun 2027 07:50:56.319             4.830          1010.781
        61   04 Jun 2027 07:56:01.749   04 Jun 2027 07:56:05.413             3.664          1484.219
        62   04 Jun 2027 09:28:25.371   04 Jun 2027 09:28:31.899             6.528          2140.500
        63   04 Jun 2027 11:02:48.880   04 Jun 2027 11:02:49.705             0.825           381.969
        64   05 Jun 2027 03:15:19.573   05 Jun 2027 03:15:48.196            28.623         14311.500
        65   05 Jun 2027 04:48:52.268   05 Jun 2027 04:51:55.557           183.289         91644.500
        66   05 Jun 2027 04:56:05.917   05 Jun 2027 04:56:22.517            16.600          8300.000
        67   05 Jun 2027 04:57:25.368   05 Jun 2027 04:57:26.408             1.040           520.000
        68   05 Jun 2027 06:26:18.290   05 Jun 2027 06:27:46.990            88.700         44021.156
        69   05 Jun 2027 06:28:16.386   05 Jun 2027 06:28:16.700             0.314           134.938
        70   05 Jun 2027 06:28:41.178   05 Jun 2027 06:28:41.178             0.000             0.000
        71   05 Jun 2027 06:28:44.345   05 Jun 2027 06:28:45.542             1.197           428.156
        72   05 Jun 2027 06:30:16.313   05 Jun 2027 06:30:21.134             4.821          1922.156
        73   05 Jun 2027 08:03:20.671   05 Jun 2027 08:03:22.349             1.678           197.969
        74   05 Jun 2027 09:40:08.805   05 Jun 2027 09:40:14.349             5.544          2279.187
        75   05 Jun 2027 09:40:41.794   05 Jun 2027 09:40:42.263             0.469           164.594
        76   05 Jun 2027 11:15:24.090   05 Jun 2027 11:15:24.864             0.774            60.063
        77   06 Jun 2027 03:27:30.934   06 Jun 2027 03:27:43.514            12.580          6290.000
        78   06 Jun 2027 03:30:05.342   06 Jun 2027 03:30:05.342             0.000             0.000
        79   06 Jun 2027 03:30:27.882   06 Jun 2027 03:30:38.391            10.509          5254.500
        80   06 Jun 2027 03:30:49.561   06 Jun 2027 03:30:58.749             9.188          4594.000
        81   06 Jun 2027 04:59:35.306   06 Jun 2027 04:59:44.950             9.644          4822.000
        82   06 Jun 2027 05:01:30.947   06 Jun 2027 05:04:30.476           179.529         89764.500
        83   06 Jun 2027 05:07:42.372   06 Jun 2027 05:08:12.764            30.392         15196.000
        84   06 Jun 2027 05:08:24.919   06 Jun 2027 05:08:28.760             3.841          1920.500
        85   06 Jun 2027 05:08:53.279   06 Jun 2027 05:08:59.933             6.654          3327.000
        86   06 Jun 2027 05:09:02.851   06 Jun 2027 05:09:21.120            18.269          9134.500
        87   06 Jun 2027 06:38:29.293   06 Jun 2027 06:39:08.015            38.722         18979.500
        88   06 Jun 2027 08:15:34.506   06 Jun 2027 08:15:36.486             1.980           560.906
        89   06 Jun 2027 09:52:12.171   06 Jun 2027 09:52:23.910            11.739          3325.906
        90   06 Jun 2027 09:57:18.254   06 Jun 2027 09:57:21.169             2.915            87.094
        91   06 Jun 2027 11:30:31.534   06 Jun 2027 11:30:33.686             2.152           796.094
        92   07 Jun 2027 03:39:33.301   07 Jun 2027 03:39:36.192             2.891          1445.500
        93   07 Jun 2027 03:40:15.474   07 Jun 2027 03:40:25.929            10.455          5227.500
        94   07 Jun 2027 03:41:30.168   07 Jun 2027 03:41:30.168             0.000             0.000
        95   07 Jun 2027 03:43:03.779   07 Jun 2027 03:43:08.053             4.274          2137.000
        96   07 Jun 2027 05:14:41.075   07 Jun 2027 05:16:22.700           101.625         50812.500
        97   07 Jun 2027 05:17:37.597   07 Jun 2027 05:18:28.398            50.801         25400.500
        98   07 Jun 2027 05:18:55.789   07 Jun 2027 05:19:38.486            42.697         21348.500
        99   07 Jun 2027 05:19:58.030   07 Jun 2027 05:20:23.484            25.454         12727.000
       100   07 Jun 2027 05:20:53.805   07 Jun 2027 05:20:55.270             1.465           732.500
       101   07 Jun 2027 05:21:19.372   07 Jun 2027 05:21:24.486             5.114          2557.000
       102   07 Jun 2027 06:51:02.719   07 Jun 2027 06:52:11.211            68.492         33586.844
       103   07 Jun 2027 06:57:18.215   07 Jun 2027 06:57:20.157             1.942            36.719
       104   07 Jun 2027 08:28:28.154   07 Jun 2027 08:28:32.616             4.462          1601.406
       105   07 Jun 2027 08:30:15.953   07 Jun 2027 08:30:17.564             1.611           398.500
       106   07 Jun 2027 08:30:40.931   07 Jun 2027 08:30:46.772             5.841           440.844
       107   07 Jun 2027 08:30:47.707   07 Jun 2027 08:30:47.796             0.089            29.219
       108   07 Jun 2027 10:04:39.066   07 Jun 2027 10:04:53.287            14.221          5808.688
       109   07 Jun 2027 10:06:09.518   07 Jun 2027 10:06:12.007             2.489           250.500
       110   08 Jun 2027 03:51:36.055   08 Jun 2027 03:52:03.819            27.764         13882.000
       111   08 Jun 2027 03:52:17.066   08 Jun 2027 03:52:17.066             0.000             0.000
       112   08 Jun 2027 03:52:57.801   08 Jun 2027 03:52:57.801             0.000             0.000
       113   08 Jun 2027 03:54:28.468   08 Jun 2027 03:54:28.468             0.000             0.000
       114   08 Jun 2027 05:26:47.958   08 Jun 2027 05:30:05.352           197.394         98697.000
       115   08 Jun 2027 05:32:29.141   08 Jun 2027 05:32:29.141             0.000             0.000
       116   08 Jun 2027 05:33:07.105   08 Jun 2027 05:33:26.765            19.660          9830.000
       117   08 Jun 2027 07:02:43.630   08 Jun 2027 07:04:00.150            76.520         38061.188
       118   08 Jun 2027 07:07:18.945   08 Jun 2027 07:07:25.659             6.714          1678.219
       119   08 Jun 2027 08:40:35.740   08 Jun 2027 08:40:46.028            10.288          4845.969
       120   08 Jun 2027 08:42:16.047   08 Jun 2027 08:42:19.074             3.027            12.281
       121   08 Jun 2027 08:42:34.840   08 Jun 2027 08:42:39.915             5.075           208.813
       122   08 Jun 2027 08:42:52.761   08 Jun 2027 08:42:53.766             1.005           242.063
       123   08 Jun 2027 10:16:33.494   08 Jun 2027 10:16:51.300            17.806          6880.688
       124   08 Jun 2027 10:21:24.148   08 Jun 2027 10:21:25.121             0.973            25.125
       125   09 Jun 2027 04:03:19.941   09 Jun 2027 04:03:43.795            23.854         11927.000
       126   09 Jun 2027 04:06:41.137   09 Jun 2027 04:06:50.039             8.902          4451.000
       127   09 Jun 2027 04:06:50.775   09 Jun 2027 04:07:01.242            10.467          5233.500
       128   09 Jun 2027 05:38:03.183   09 Jun 2027 05:40:58.198           175.015         87507.500
       129   09 Jun 2027 05:45:30.205   09 Jun 2027 05:45:34.848             4.643          2321.500
       130   09 Jun 2027 07:14:49.382   09 Jun 2027 07:16:48.055           118.673         59038.375
       131   09 Jun 2027 07:20:55.226   09 Jun 2027 07:20:58.412             3.186           161.656
       132   09 Jun 2027 08:53:05.040   09 Jun 2027 08:53:16.235            11.195          5279.563
       133   09 Jun 2027 10:26:24.018   09 Jun 2027 10:26:34.752            10.734          5207.531
       134   10 Jun 2027 04:13:20.988   10 Jun 2027 04:14:03.676            42.688         21344.000
       135   10 Jun 2027 04:14:18.367   10 Jun 2027 04:14:18.367             0.000             0.000
       136   10 Jun 2027 04:14:34.544   10 Jun 2027 04:14:35.137             0.593           296.500
       137   10 Jun 2027 04:15:03.452   10 Jun 2027 04:15:12.923             9.471          4735.500
       138   10 Jun 2027 04:18:48.351   10 Jun 2027 04:19:03.005            14.654          7327.000
       139   10 Jun 2027 05:50:08.820   10 Jun 2027 05:52:27.382           138.562         69281.000
       140   10 Jun 2027 05:52:56.891   10 Jun 2027 05:53:05.056             8.165          4082.500
       141   10 Jun 2027 05:56:56.112   10 Jun 2027 05:57:27.154            31.042         15521.000
       142   10 Jun 2027 05:57:34.432   10 Jun 2027 05:57:34.607             0.175            87.500
       143   10 Jun 2027 07:27:09.759   10 Jun 2027 07:28:56.282           106.523         51567.594
       144   10 Jun 2027 07:32:13.160   10 Jun 2027 07:32:16.504             3.344          1355.469
       145   10 Jun 2027 07:33:11.773   10 Jun 2027 07:33:12.806             1.033           340.812
       146   10 Jun 2027 09:05:03.172   10 Jun 2027 09:05:15.112            11.940          5135.500
       147   10 Jun 2027 09:08:53.248   10 Jun 2027 09:08:55.031             1.783            44.156
       148   10 Jun 2027 10:38:20.490   10 Jun 2027 10:38:31.240            10.750          5170.281
       149   11 Jun 2027 04:24:40.770   11 Jun 2027 04:25:35.750            54.980         27490.000
       150   11 Jun 2027 04:26:54.254   11 Jun 2027 04:27:54.865            60.611         30305.500
       151   11 Jun 2027 04:28:04.740   11 Jun 2027 04:28:06.778             2.038          1019.000
       152   11 Jun 2027 04:31:05.985   11 Jun 2027 04:31:19.023            13.038          6519.000
       153   11 Jun 2027 04:31:40.954   11 Jun 2027 04:31:43.186             2.232          1116.000
       154   11 Jun 2027 04:33:00.275   11 Jun 2027 04:33:14.815            14.540          7270.000
       155   11 Jun 2027 06:02:15.575   11 Jun 2027 06:05:01.627           166.052         83026.000
       156   11 Jun 2027 06:05:15.999   11 Jun 2027 06:05:28.790            12.791          6395.500
       157   11 Jun 2027 06:06:43.385   11 Jun 2027 06:06:45.740             2.355          1177.500
       158   11 Jun 2027 06:07:21.540   11 Jun 2027 06:07:47.553            26.013         12928.188
       159   11 Jun 2027 06:08:22.484   11 Jun 2027 06:08:23.958             1.474           659.469
       160   11 Jun 2027 07:38:58.840   11 Jun 2027 07:39:01.403             2.563           646.625
       161   11 Jun 2027 07:39:45.421   11 Jun 2027 07:39:48.864             3.443           357.219
       162   11 Jun 2027 07:43:13.828   11 Jun 2027 07:43:19.446             5.618           608.031
       163   11 Jun 2027 07:44:31.617   11 Jun 2027 07:44:33.383             1.766           327.156
       164   11 Jun 2027 09:17:02.408   11 Jun 2027 09:17:13.274            10.866          4631.469
       165   11 Jun 2027 09:20:49.567   11 Jun 2027 09:20:51.400             1.833           860.406
       166   11 Jun 2027 09:21:04.257   11 Jun 2027 09:21:07.152             2.895           235.000
       167   11 Jun 2027 10:50:46.232   11 Jun 2027 10:50:50.612             4.380          1691.156
       168   12 Jun 2027 03:01:16.179   12 Jun 2027 03:01:24.780             8.601          4300.500
       169   12 Jun 2027 03:03:19.317   12 Jun 2027 03:03:20.335             1.018           509.000
       170   12 Jun 2027 03:03:38.608   12 Jun 2027 03:03:59.326            20.718         10359.000
       171   12 Jun 2027 04:36:10.863   12 Jun 2027 04:36:51.715            40.852         20426.000
       172   12 Jun 2027 04:37:58.045   12 Jun 2027 04:39:44.929           106.884         53442.000
       173   12 Jun 2027 04:40:15.716   12 Jun 2027 04:40:41.970            26.254         13127.000
       174   12 Jun 2027 04:40:54.237   12 Jun 2027 04:41:06.196            11.959          5979.500
       175   12 Jun 2027 04:44:47.083   12 Jun 2027 04:44:57.041             9.958          4979.000
       176   12 Jun 2027 04:45:06.252   12 Jun 2027 04:45:20.652            14.400          7200.000
       177   12 Jun 2027 06:14:11.104   12 Jun 2027 06:15:41.911            90.807         42450.063
       178   12 Jun 2027 06:16:34.256   12 Jun 2027 06:16:39.501             5.245          1418.156
       179   12 Jun 2027 06:16:57.456   12 Jun 2027 06:16:58.528             1.072           403.781
       180   12 Jun 2027 06:17:21.944   12 Jun 2027 06:17:21.944             0.000             0.000
       181   12 Jun 2027 06:17:42.918   12 Jun 2027 06:17:47.258             4.340          1387.188
       182   12 Jun 2027 06:18:46.018   12 Jun 2027 06:18:46.278             0.260           126.625
       183   12 Jun 2027 06:19:17.559   12 Jun 2027 06:19:21.263             3.704           903.250
       184   12 Jun 2027 06:19:52.377   12 Jun 2027 06:19:54.191             1.814           603.125
       185   12 Jun 2027 07:51:32.684   12 Jun 2027 07:51:33.855             1.171           228.719
       186   12 Jun 2027 09:28:39.863   12 Jun 2027 09:28:46.632             6.769          2836.187
       187   12 Jun 2027 09:32:29.327   12 Jun 2027 09:32:29.458             0.131            38.469
       188   12 Jun 2027 11:03:02.624   12 Jun 2027 11:03:04.785             2.161           839.500
       189   13 Jun 2027 03:15:34.027   13 Jun 2027 03:15:37.926             3.899          1949.500
       190   13 Jun 2027 03:16:43.223   13 Jun 2027 03:16:46.174             2.951          1475.500
       191   13 Jun 2027 03:17:05.938   13 Jun 2027 03:17:13.103             7.165          3582.500
       192   13 Jun 2027 04:49:07.134   13 Jun 2027 04:51:46.347           159.213         79606.500
       193   13 Jun 2027 04:51:48.408   13 Jun 2027 04:52:01.204            12.796          6398.000
       194   13 Jun 2027 04:52:11.738   13 Jun 2027 04:52:22.741            11.003          5501.500
       195   13 Jun 2027 04:56:20.235   13 Jun 2027 04:56:37.694            17.459          8729.500
       196   13 Jun 2027 04:56:40.388   13 Jun 2027 04:56:46.579             6.191          3095.500
       197   13 Jun 2027 04:56:54.108   13 Jun 2027 04:57:20.525            26.417         13208.500
       198   13 Jun 2027 04:57:39.954   13 Jun 2027 04:57:41.005             1.051           525.500
       199   13 Jun 2027 06:26:33.103   13 Jun 2027 06:27:40.026            66.923         31109.531
       200   13 Jun 2027 06:28:30.847   13 Jun 2027 06:28:33.183             2.336           115.375
       201   13 Jun 2027 06:29:01.771   13 Jun 2027 06:29:04.288             2.517           480.844
       202   13 Jun 2027 06:30:31.825   13 Jun 2027 06:30:36.040             4.215          1914.469
       203   13 Jun 2027 06:30:51.768   13 Jun 2027 06:30:54.272             2.504           102.969
       204   13 Jun 2027 08:03:35.122   13 Jun 2027 08:03:38.750             3.628          1109.031
       205   13 Jun 2027 08:07:06.446   13 Jun 2027 08:07:07.746             1.300            89.969
       206   13 Jun 2027 09:40:23.955   13 Jun 2027 09:40:28.796             4.841          2348.906
       207   13 Jun 2027 09:41:00.618   13 Jun 2027 09:41:02.287             1.669           281.469
       208   13 Jun 2027 11:15:40.262   13 Jun 2027 11:15:40.426             0.164            69.625
