uniorb/output/strategy_4/Camera/Camera_KinoSat_111602.txt

KinoSat_111602
-------------------------
    Access    *     Start Time (UTCG)     *     Stop Time (UTCG)  *   Duration (s) *   Data (Mbytes)
         1   01 Jun 2027 03:43:13.705   01 Jun 2027 03:44:15.390            61.685         30842.500
         2   01 Jun 2027 03:44:22.091   01 Jun 2027 03:45:52.972            90.881         45440.500
         3   01 Jun 2027 03:46:47.696   01 Jun 2027 03:46:54.921             7.225          3612.500
         4   01 Jun 2027 05:21:31.599   01 Jun 2027 05:22:05.075            33.476         16738.000
         5   01 Jun 2027 05:22:20.142   01 Jun 2027 05:23:18.417            58.275         29137.500
         6   01 Jun 2027 05:23:51.861   01 Jun 2027 05:23:53.558             1.697           848.500
         7   01 Jun 2027 05:24:51.436   01 Jun 2027 05:24:51.436             0.000             0.000
         8   01 Jun 2027 05:25:04.383   01 Jun 2027 05:25:20.786            16.403          8201.500
         9   01 Jun 2027 06:44:53.998   01 Jun 2027 06:46:08.845            74.847         37423.500
        10   01 Jun 2027 08:21:26.752   01 Jun 2027 08:23:06.557            99.805         49902.500
        11   01 Jun 2027 08:23:52.741   01 Jun 2027 08:24:02.760            10.019          5009.500
        12   01 Jun 2027 09:56:37.240   01 Jun 2027 09:59:32.718           175.478         87739.000
        13   01 Jun 2027 10:03:01.925   01 Jun 2027 10:03:13.231            11.306          5653.000
        14   01 Jun 2027 11:32:58.787   01 Jun 2027 11:35:16.014           137.227         68613.500
        15   01 Jun 2027 11:37:23.598   01 Jun 2027 11:37:38.308            14.710          7355.000
        16   02 Jun 2027 03:56:20.334   02 Jun 2027 03:57:44.023            83.689         41844.500
        17   02 Jun 2027 03:58:10.249   02 Jun 2027 03:58:46.826            36.577         18288.500
        18   02 Jun 2027 03:58:48.238   02 Jun 2027 03:58:49.652             1.414           707.000
        19   02 Jun 2027 03:59:08.962   02 Jun 2027 03:59:48.439            39.477         19738.500
        20   02 Jun 2027 04:03:09.786   02 Jun 2027 04:03:58.648            48.862         24431.000
        21   02 Jun 2027 05:33:28.373   02 Jun 2027 05:34:08.264            39.891         19945.500
        22   02 Jun 2027 05:34:27.551   02 Jun 2027 05:37:03.565           156.014         78007.000
        23   02 Jun 2027 06:57:23.744   02 Jun 2027 06:57:52.166            28.422         14211.000
        24   02 Jun 2027 06:58:00.265   02 Jun 2027 06:58:00.265             0.000             0.000
        25   02 Jun 2027 06:59:33.341   02 Jun 2027 06:59:52.417            19.076          9538.000
        26   02 Jun 2027 08:33:18.502   02 Jun 2027 08:36:35.888           197.386         98693.000
        27   02 Jun 2027 08:37:21.096   02 Jun 2027 08:37:22.277             1.181           590.500
        28   02 Jun 2027 10:08:12.039   02 Jun 2027 10:09:34.622            82.583         40909.656
        29   02 Jun 2027 10:10:27.173   02 Jun 2027 10:10:29.572             2.399          1156.281
        30   02 Jun 2027 10:11:11.782   02 Jun 2027 10:11:11.782             0.000             0.000
        31   02 Jun 2027 10:11:28.451   02 Jun 2027 10:11:40.924            12.473           979.438
        32   02 Jun 2027 10:12:27.253   02 Jun 2027 10:12:29.884             2.631           857.031
        33   02 Jun 2027 10:12:45.739   02 Jun 2027 10:12:46.066             0.327           111.469
        34   02 Jun 2027 10:14:01.051   02 Jun 2027 10:14:04.283             3.232          1283.813
        35   02 Jun 2027 10:14:38.931   02 Jun 2027 10:14:41.315             2.384           838.969
        36   02 Jun 2027 10:15:17.744   02 Jun 2027 10:15:21.529             3.785           795.031
        37   02 Jun 2027 11:44:35.164   02 Jun 2027 11:44:46.467            11.303          5097.813
        38   02 Jun 2027 11:45:38.219   02 Jun 2027 11:45:39.154             0.935           464.500
        39   02 Jun 2027 11:47:26.631   02 Jun 2027 11:47:30.566             3.935          1691.219
        40   02 Jun 2027 11:48:38.995   02 Jun 2027 11:48:44.227             5.232          2138.406
        41   02 Jun 2027 11:48:45.803   02 Jun 2027 11:48:46.380             0.577            19.906
        42   02 Jun 2027 11:49:28.377   02 Jun 2027 11:49:35.929             7.552          1244.812
        43   02 Jun 2027 11:49:52.478   02 Jun 2027 11:49:54.978             2.500           494.125
        44   02 Jun 2027 11:50:36.417   02 Jun 2027 11:50:38.769             2.352          1157.563
        45   03 Jun 2027 04:08:24.289   03 Jun 2027 04:10:51.616           147.327         73663.500
        46   03 Jun 2027 04:11:37.414   03 Jun 2027 04:11:42.778             5.364          2682.000
        47   03 Jun 2027 04:14:38.041   03 Jun 2027 04:14:54.668            16.627          8313.500
        48   03 Jun 2027 04:15:26.584   03 Jun 2027 04:16:02.446            35.862         17931.000
        49   03 Jun 2027 05:34:10.218   03 Jun 2027 05:34:43.999            33.781         16890.500
        50   03 Jun 2027 05:45:24.666   03 Jun 2027 05:47:05.475           100.809         50404.500
        51   03 Jun 2027 05:48:04.713   03 Jun 2027 05:48:09.142             4.429          2214.500
        52   03 Jun 2027 07:08:01.240   03 Jun 2027 07:08:22.094            20.854          9502.969
        53   03 Jun 2027 07:09:15.220   03 Jun 2027 07:09:18.084             2.864          1395.594
        54   03 Jun 2027 07:09:45.296   03 Jun 2027 07:09:46.417             1.121           327.594
        55   03 Jun 2027 07:09:54.450   03 Jun 2027 07:09:54.450             0.000             0.000
        56   03 Jun 2027 07:10:19.950   03 Jun 2027 07:10:25.110             5.160          1047.906
        57   03 Jun 2027 07:11:23.104   03 Jun 2027 07:11:23.104             0.000             0.000
        58   03 Jun 2027 07:12:18.321   03 Jun 2027 07:12:23.960             5.639          2642.625
        59   03 Jun 2027 08:43:35.884   03 Jun 2027 08:43:43.683             7.799          2179.375
        60   03 Jun 2027 08:44:19.203   03 Jun 2027 08:44:21.746             2.543           483.469
        61   03 Jun 2027 08:45:43.222   03 Jun 2027 08:45:48.296             5.074          1919.844
        62   03 Jun 2027 08:46:36.691   03 Jun 2027 08:46:39.787             3.096          1351.625
        63   03 Jun 2027 08:47:58.404   03 Jun 2027 08:48:03.351             4.947           511.656
        64   03 Jun 2027 08:48:15.838   03 Jun 2027 08:48:16.381             0.543           244.500
        65   03 Jun 2027 08:49:17.609   03 Jun 2027 08:49:19.698             2.089           921.656
        66   03 Jun 2027 10:19:48.694   03 Jun 2027 10:19:50.010             1.316           658.000
        67   03 Jun 2027 10:20:18.441   03 Jun 2027 10:20:24.941             6.500          2339.688
        68   03 Jun 2027 10:22:59.820   03 Jun 2027 10:23:05.558             5.738          2154.437
        69   03 Jun 2027 10:23:22.580   03 Jun 2027 10:23:23.252             0.672           211.469
        70   03 Jun 2027 10:23:52.563   03 Jun 2027 10:23:58.308             5.745           784.156
        71   03 Jun 2027 10:25:40.824   03 Jun 2027 10:25:47.098             6.274          3106.563
        72   03 Jun 2027 10:26:46.265   03 Jun 2027 10:26:48.051             1.786           539.750
        73   03 Jun 2027 11:56:55.066   03 Jun 2027 11:57:09.377            14.311          6947.219
        74   03 Jun 2027 11:58:25.189   03 Jun 2027 11:58:30.002             4.813          1741.469
        75   03 Jun 2027 11:59:35.088   03 Jun 2027 11:59:37.075             1.987           909.250
        76   03 Jun 2027 11:59:59.149   03 Jun 2027 12:00:00.000             0.851           425.500
        77   04 Jun 2027 04:20:53.700   04 Jun 2027 04:23:09.068           135.368         67684.000
        78   04 Jun 2027 04:23:21.514   04 Jun 2027 04:23:24.123             2.609          1304.500
        79   04 Jun 2027 04:24:09.857   04 Jun 2027 04:24:12.988             3.131          1565.500
        80   04 Jun 2027 04:26:18.462   04 Jun 2027 04:26:18.462             0.000             0.000
        81   04 Jun 2027 04:27:41.358   04 Jun 2027 04:28:02.007            20.649         10324.500
        82   04 Jun 2027 05:45:44.631   04 Jun 2027 05:46:19.240            34.609         17304.500
        83   04 Jun 2027 05:57:28.061   04 Jun 2027 05:58:27.307            59.246         29623.000
        84   04 Jun 2027 07:19:43.540   04 Jun 2027 07:20:50.043            66.503         32983.250
        85   04 Jun 2027 07:22:09.043   04 Jun 2027 07:22:12.892             3.849          1783.531
        86   04 Jun 2027 07:23:14.323   04 Jun 2027 07:23:18.567             4.244          1677.125
        87   04 Jun 2027 07:23:58.366   04 Jun 2027 07:24:01.205             2.839           816.062
        88   04 Jun 2027 07:24:35.233   04 Jun 2027 07:24:39.675             4.442           808.000
        89   04 Jun 2027 08:54:42.609   04 Jun 2027 08:54:46.719             4.110          1911.906
        90   04 Jun 2027 08:55:39.570   04 Jun 2027 08:55:41.930             2.360           473.031
        91   04 Jun 2027 08:56:50.226   04 Jun 2027 08:56:53.725             3.499          1270.312
        92   04 Jun 2027 08:58:45.762   04 Jun 2027 08:58:55.755             9.993          3181.937
        93   04 Jun 2027 09:00:21.991   04 Jun 2027 09:00:23.621             1.630           809.031
        94   04 Jun 2027 09:01:05.902   04 Jun 2027 09:01:09.169             3.267          1086.125
        95   04 Jun 2027 09:02:40.557   04 Jun 2027 09:02:43.772             3.215          1276.844
        96   04 Jun 2027 10:32:08.923   04 Jun 2027 10:32:16.116             7.193          2367.094
        97   04 Jun 2027 10:35:14.612   04 Jun 2027 10:35:22.097             7.485          2611.531
        98   04 Jun 2027 10:35:37.743   04 Jun 2027 10:35:42.584             4.841            51.344
        99   04 Jun 2027 10:36:38.220   04 Jun 2027 10:36:40.118             1.898           420.812
       100   04 Jun 2027 10:37:05.703   04 Jun 2027 10:37:07.331             1.628           146.406
       101   04 Jun 2027 10:37:35.523   04 Jun 2027 10:37:37.632             2.109           389.219
       102   04 Jun 2027 10:38:24.051   04 Jun 2027 10:38:28.912             4.861          1406.188
       103   04 Jun 2027 10:38:36.220   04 Jun 2027 10:38:38.079             1.859           174.469
       104   04 Jun 2027 10:39:26.385   04 Jun 2027 10:39:27.346             0.961           480.500
       105   05 Jun 2027 03:00:00.000   05 Jun 2027 03:00:09.456             9.456          4728.000
       106   05 Jun 2027 04:32:55.939   05 Jun 2027 04:35:17.534           141.595         70797.500
       107   05 Jun 2027 04:35:21.180   05 Jun 2027 04:35:33.270            12.090          6045.000
       108   05 Jun 2027 04:36:44.386   05 Jun 2027 04:36:57.767            13.381          6690.500
       109   05 Jun 2027 04:37:43.939   05 Jun 2027 04:38:05.793            21.854         10927.000
       110   05 Jun 2027 04:39:54.181   05 Jun 2027 04:39:56.866             2.685          1342.500
       111   05 Jun 2027 05:57:17.053   05 Jun 2027 05:57:47.233            30.180         15090.000
       112   05 Jun 2027 05:59:09.905   05 Jun 2027 05:59:26.565            16.660          8330.000
       113   05 Jun 2027 06:09:33.549   05 Jun 2027 06:10:01.158            27.609         13804.500
       114   05 Jun 2027 07:31:22.320   05 Jun 2027 07:32:27.496            65.176         31007.219
       115   05 Jun 2027 07:33:26.431   05 Jun 2027 07:33:27.361             0.930           434.281
       116   05 Jun 2027 07:35:01.452   05 Jun 2027 07:35:09.470             8.018          2526.625
       117   05 Jun 2027 07:35:52.314   05 Jun 2027 07:35:54.922             2.608           677.312
       118   05 Jun 2027 07:36:32.065   05 Jun 2027 07:36:34.128             2.063           966.656
       119   05 Jun 2027 07:37:03.189   05 Jun 2027 07:37:05.420             2.231           908.156
       120   05 Jun 2027 09:06:10.649   05 Jun 2027 09:06:15.946             5.297          2430.000
       121   05 Jun 2027 09:08:03.385   05 Jun 2027 09:08:10.765             7.380          2033.781
       122   05 Jun 2027 09:09:16.888   05 Jun 2027 09:09:24.781             7.893          1168.625
       123   05 Jun 2027 09:09:56.498   05 Jun 2027 09:09:58.978             2.480           573.312
       124   05 Jun 2027 09:11:56.282   05 Jun 2027 09:12:04.824             8.542          3665.750
       125   05 Jun 2027 09:14:06.170   05 Jun 2027 09:14:11.290             5.120          2560.000
       126   05 Jun 2027 09:14:33.260   05 Jun 2027 09:14:34.970             1.710             3.312
       127   05 Jun 2027 10:44:03.329   05 Jun 2027 10:44:13.742            10.413          4302.219
       128   05 Jun 2027 10:45:07.283   05 Jun 2027 10:45:10.662             3.379           367.625
       129   05 Jun 2027 10:45:40.676   05 Jun 2027 10:45:42.165             1.489           148.813
       130   05 Jun 2027 10:46:13.502   05 Jun 2027 10:46:17.633             4.131           717.750
       131   05 Jun 2027 10:47:02.593   05 Jun 2027 10:47:14.720            12.127          1405.000
       132   05 Jun 2027 10:48:11.865   05 Jun 2027 10:48:16.497             4.632          1027.438
       133   05 Jun 2027 10:49:14.265   05 Jun 2027 10:49:21.164             6.899          1729.781
       134   05 Jun 2027 10:50:10.944   05 Jun 2027 10:50:17.035             6.091          1494.344
       135   05 Jun 2027 10:50:27.154   05 Jun 2027 10:50:29.194             2.040            71.688
       136   05 Jun 2027 10:51:09.320   05 Jun 2027 10:51:11.520             2.200           521.156
       137   06 Jun 2027 03:06:52.081   06 Jun 2027 03:07:10.826            18.745          9372.500
       138   06 Jun 2027 03:07:16.592   06 Jun 2027 03:07:59.868            43.276         21638.000
       139   06 Jun 2027 03:08:16.814   06 Jun 2027 03:08:18.928             2.114          1057.000
       140   06 Jun 2027 03:09:05.557   06 Jun 2027 03:09:08.632             3.075          1537.500
       141   06 Jun 2027 03:10:08.115   06 Jun 2027 03:10:20.329            12.214          6107.000
       142   06 Jun 2027 03:10:34.343   06 Jun 2027 03:10:43.064             8.721          4360.500
       143   06 Jun 2027 03:11:31.703   06 Jun 2027 03:11:37.314             5.611          2805.500
       144   06 Jun 2027 03:11:47.397   06 Jun 2027 03:11:57.871            10.474          5237.000
       145   06 Jun 2027 03:12:18.435   06 Jun 2027 03:12:26.358             7.923          3961.500
       146   06 Jun 2027 04:45:20.092   06 Jun 2027 04:47:58.195           158.103         79051.500
       147   06 Jun 2027 04:49:06.192   06 Jun 2027 04:49:38.600            32.408         15836.031
       148   06 Jun 2027 06:09:14.660   06 Jun 2027 06:09:46.023            31.363         15681.500
       149   06 Jun 2027 06:10:19.446   06 Jun 2027 06:10:22.267             2.821          1256.219
       150   06 Jun 2027 06:10:33.397   06 Jun 2027 06:10:33.397             0.000             0.000
       151   06 Jun 2027 06:11:16.350   06 Jun 2027 06:11:21.643             5.293          1690.094
       152   06 Jun 2027 07:45:12.834   06 Jun 2027 07:45:26.787            13.953          5949.719
       153   06 Jun 2027 07:45:56.955   06 Jun 2027 07:45:59.505             2.550           942.750
       154   06 Jun 2027 07:46:39.066   06 Jun 2027 07:46:41.750             2.684          1230.906
       155   06 Jun 2027 07:48:20.977   06 Jun 2027 07:48:29.520             8.543          3039.844
       156   06 Jun 2027 09:19:01.273   06 Jun 2027 09:19:07.026             5.753          2610.375
       157   06 Jun 2027 09:21:15.702   06 Jun 2027 09:21:17.550             1.848           541.031
       158   06 Jun 2027 09:21:33.838   06 Jun 2027 09:21:37.312             3.474           509.000
       159   06 Jun 2027 09:22:38.764   06 Jun 2027 09:22:42.709             3.945          1166.781
       160   06 Jun 2027 09:23:41.194   06 Jun 2027 09:23:44.703             3.509          1158.625
       161   06 Jun 2027 09:24:57.348   06 Jun 2027 09:25:05.137             7.789          1921.969
       162   06 Jun 2027 09:25:41.528   06 Jun 2027 09:25:43.722             2.194           934.125
       163   06 Jun 2027 09:25:57.254   06 Jun 2027 09:26:00.361             3.107           422.875
       164   06 Jun 2027 09:26:48.022   06 Jun 2027 09:26:50.774             2.752          1355.562
       165   06 Jun 2027 10:56:10.450   06 Jun 2027 10:56:21.742            11.292          5287.531
       166   06 Jun 2027 10:57:42.530   06 Jun 2027 10:57:44.887             2.357           800.125
       167   06 Jun 2027 10:58:48.935   06 Jun 2027 10:58:48.935             0.000             0.000
       168   06 Jun 2027 11:00:27.904   06 Jun 2027 11:00:39.121            11.217          4955.625
       169   06 Jun 2027 11:00:56.365   06 Jun 2027 11:00:58.621             2.256            27.469
       170   06 Jun 2027 11:01:17.686   06 Jun 2027 11:01:22.155             4.469            80.812
       171   06 Jun 2027 11:02:12.575   06 Jun 2027 11:02:16.253             3.678          1561.750
       172   06 Jun 2027 11:02:40.479   06 Jun 2027 11:02:43.951             3.472           581.156
       173   06 Jun 2027 11:02:53.996   06 Jun 2027 11:02:56.237             2.241            22.406
       174   06 Jun 2027 11:03:00.968   06 Jun 2027 11:03:03.802             2.834           147.844
       175   07 Jun 2027 03:19:36.725   07 Jun 2027 03:19:56.106            19.381          9690.500
       176   07 Jun 2027 03:20:10.867   07 Jun 2027 03:21:04.696            53.829         26914.500
       177   07 Jun 2027 03:21:06.306   07 Jun 2027 03:22:30.957            84.651         42325.500
       178   07 Jun 2027 03:24:31.553   07 Jun 2027 03:24:49.624            18.071          9035.500
       179   07 Jun 2027 04:57:44.488   07 Jun 2027 04:58:13.866            29.378         14689.000
       180   07 Jun 2027 04:58:29.321   07 Jun 2027 04:59:52.298            82.977         41488.500
       181   07 Jun 2027 05:00:24.590   07 Jun 2027 05:00:30.503             5.913          2426.094
       182   07 Jun 2027 05:01:15.068   07 Jun 2027 05:01:18.551             3.483          1324.312
       183   07 Jun 2027 05:01:55.526   07 Jun 2027 05:01:56.830             1.304           481.938
       184   07 Jun 2027 06:21:07.444   07 Jun 2027 06:21:20.853            13.409          6452.687
       185   07 Jun 2027 06:22:29.953   07 Jun 2027 06:22:35.516             5.563          1594.031
       186   07 Jun 2027 06:22:45.264   07 Jun 2027 06:22:52.221             6.957           179.188
       187   07 Jun 2027 06:23:18.518   07 Jun 2027 06:23:22.058             3.540           101.781
       188   07 Jun 2027 07:57:29.906   07 Jun 2027 07:57:45.873            15.967          6217.406
       189   07 Jun 2027 07:58:00.221   07 Jun 2027 07:58:00.722             0.501            41.688
       190   07 Jun 2027 07:58:44.046   07 Jun 2027 07:58:49.077             5.031          1353.875
       191   07 Jun 2027 07:59:24.337   07 Jun 2027 07:59:26.814             2.477          1043.375
       192   07 Jun 2027 08:00:06.080   07 Jun 2027 08:00:09.854             3.774          1069.844
       193   07 Jun 2027 09:31:24.005   07 Jun 2027 09:31:28.697             4.692          2332.781
       194   07 Jun 2027 09:33:33.064   07 Jun 2027 09:33:36.061             2.997           160.188
       195   07 Jun 2027 09:34:03.616   07 Jun 2027 09:34:06.404             2.788            61.531
       196   07 Jun 2027 09:35:54.686   07 Jun 2027 09:35:59.178             4.492          2196.750
       197   07 Jun 2027 09:37:42.589   07 Jun 2027 09:37:55.061            12.472          2862.469
       198   07 Jun 2027 09:38:03.432   07 Jun 2027 09:38:07.364             3.932           231.594
       199   07 Jun 2027 09:38:21.436   07 Jun 2027 09:38:23.038             1.602           375.688
       200   07 Jun 2027 09:39:29.943   07 Jun 2027 09:39:32.333             2.390          1029.406
       201   07 Jun 2027 11:08:36.562   07 Jun 2027 11:08:48.868            12.306          6118.312
       202   07 Jun 2027 11:09:42.440   07 Jun 2027 11:09:45.342             2.902           763.469
       203   07 Jun 2027 11:11:47.302   07 Jun 2027 11:11:50.458             3.156           562.344
       204   07 Jun 2027 11:12:36.407   07 Jun 2027 11:12:39.000             2.593           278.688
       205   07 Jun 2027 11:13:52.767   07 Jun 2027 11:13:55.907             3.140           715.187
       206   07 Jun 2027 11:14:43.903   07 Jun 2027 11:14:44.756             0.853           344.281
       207   07 Jun 2027 11:14:58.262   07 Jun 2027 11:14:59.333             1.071            32.031
       208   08 Jun 2027 03:31:44.673   08 Jun 2027 03:32:36.357            51.684         25842.000
       209   08 Jun 2027 03:32:42.309   08 Jun 2027 03:35:02.186           139.877         69938.500
       210   08 Jun 2027 03:35:09.145   08 Jun 2027 03:35:24.139            14.994          7497.000
       211   08 Jun 2027 03:36:51.945   08 Jun 2027 03:36:54.891             2.946          1473.000
       212   08 Jun 2027 05:10:03.211   08 Jun 2027 05:11:37.818            94.607         46550.000
       213   08 Jun 2027 05:12:16.633   08 Jun 2027 05:12:19.353             2.720          1120.000
       214   08 Jun 2027 05:13:33.557   08 Jun 2027 05:13:38.881             5.324          1984.719
       215   08 Jun 2027 06:32:57.490   08 Jun 2027 06:33:09.303            11.813          5618.781
       216   08 Jun 2027 06:34:24.641   08 Jun 2027 06:34:29.309             4.668          2287.125
       217   08 Jun 2027 06:35:12.869   08 Jun 2027 06:35:12.869             0.000             0.000
       218   08 Jun 2027 06:35:14.085   08 Jun 2027 06:35:19.478             5.393          1332.000
       219   08 Jun 2027 08:09:33.375   08 Jun 2027 08:09:40.164             6.789          3103.469
       220   08 Jun 2027 08:10:20.590   08 Jun 2027 08:10:22.258             1.668           657.594
       221   08 Jun 2027 08:11:28.968   08 Jun 2027 08:11:34.058             5.090          1899.469
       222   08 Jun 2027 08:12:08.198   08 Jun 2027 08:12:10.026             1.828           797.312
       223   08 Jun 2027 09:44:41.481   08 Jun 2027 09:44:50.112             8.631          2228.812
       224   08 Jun 2027 09:45:53.795   08 Jun 2027 09:45:57.972             4.177           400.594
       225   08 Jun 2027 09:46:52.706   08 Jun 2027 09:46:57.470             4.764          1475.063
       226   08 Jun 2027 09:48:28.883   08 Jun 2027 09:48:33.957             5.074          1800.750
       227   08 Jun 2027 09:49:30.635   08 Jun 2027 09:49:34.423             3.788           960.469
       228   08 Jun 2027 09:50:01.413   08 Jun 2027 09:50:09.525             8.112           834.219
       229   08 Jun 2027 09:50:43.305   08 Jun 2027 09:50:43.560             0.255           124.937
       230   08 Jun 2027 09:51:17.196   08 Jun 2027 09:51:17.731             0.535           147.219
       231   08 Jun 2027 09:51:22.628   08 Jun 2027 09:51:23.233             0.605           153.031
       232   08 Jun 2027 11:21:01.728   08 Jun 2027 11:21:15.803            14.075          6994.906
       233   08 Jun 2027 11:23:21.829   08 Jun 2027 11:23:25.607             3.778           753.813
       234   08 Jun 2027 11:24:20.413   08 Jun 2027 11:24:25.753             5.340           941.250
       235   08 Jun 2027 11:25:01.294   08 Jun 2027 11:25:05.086             3.792           712.094
       236   08 Jun 2027 11:25:24.652   08 Jun 2027 11:25:25.348             0.696           253.938
       237   08 Jun 2027 11:26:32.692   08 Jun 2027 11:26:37.739             5.047          1764.094
       238   08 Jun 2027 11:26:42.594   08 Jun 2027 11:26:44.218             1.624           151.719
       239   08 Jun 2027 11:27:14.809   08 Jun 2027 11:27:16.477             1.668           546.750
       240   09 Jun 2027 03:43:30.632   09 Jun 2027 03:44:31.462            60.830         30415.000
       241   09 Jun 2027 03:44:38.357   09 Jun 2027 03:46:53.019           134.662         67331.000
       242   09 Jun 2027 05:21:47.905   09 Jun 2027 05:22:22.581            34.676         17338.000
       243   09 Jun 2027 05:22:36.571   09 Jun 2027 05:24:04.409            87.838         42859.656
       244   09 Jun 2027 05:24:43.878   09 Jun 2027 05:24:48.599             4.721          1195.500
       245   09 Jun 2027 06:45:09.924   09 Jun 2027 06:45:19.602             9.678          4657.188
       246   09 Jun 2027 06:46:04.006   09 Jun 2027 06:46:06.424             2.418           216.156
       247   09 Jun 2027 06:46:36.085   09 Jun 2027 06:46:39.425             3.340           926.906
       248   09 Jun 2027 06:46:58.340   09 Jun 2027 06:47:06.446             8.106           492.281
       249   09 Jun 2027 08:21:44.533   09 Jun 2027 08:21:50.747             6.214          2538.563
       250   09 Jun 2027 08:22:29.833   09 Jun 2027 08:22:35.125             5.292          1120.750
       251   09 Jun 2027 08:24:19.800   09 Jun 2027 08:24:27.526             7.726          2501.344
       252   09 Jun 2027 08:25:00.739   09 Jun 2027 08:25:01.944             1.205           524.531
       253   09 Jun 2027 09:56:54.044   09 Jun 2027 09:57:02.618             8.574          2645.219
       254   09 Jun 2027 09:58:18.191   09 Jun 2027 09:58:22.263             4.072           348.656
       255   09 Jun 2027 09:59:03.833   09 Jun 2027 09:59:09.503             5.670          1218.031
       256   09 Jun 2027 10:00:04.864   09 Jun 2027 10:00:07.917             3.053           477.438
       257   09 Jun 2027 10:00:51.983   09 Jun 2027 10:00:55.383             3.400           314.875
       258   09 Jun 2027 10:03:14.003   09 Jun 2027 10:03:18.883             4.880          2322.813
       259   09 Jun 2027 11:33:15.362   09 Jun 2027 11:33:30.313            14.951          6253.188
       260   09 Jun 2027 11:35:14.328   09 Jun 2027 11:35:15.405             1.077           466.594
       261   09 Jun 2027 11:36:10.501   09 Jun 2027 11:36:17.157             6.656          1387.375
       262   09 Jun 2027 11:36:40.155   09 Jun 2027 11:36:43.428             3.273           393.625
       263   09 Jun 2027 11:37:02.192   09 Jun 2027 11:37:02.475             0.283            15.187
       264   09 Jun 2027 11:38:09.392   09 Jun 2027 11:38:17.823             8.431          1751.313
       265   09 Jun 2027 11:38:28.967   09 Jun 2027 11:38:31.643             2.676           348.250
       266   09 Jun 2027 11:38:44.574   09 Jun 2027 11:38:46.974             2.400           171.000
       267   09 Jun 2027 11:39:03.951   09 Jun 2027 11:39:07.486             3.535           420.344
       268   10 Jun 2027 03:56:37.244   10 Jun 2027 04:00:17.375           220.131        110065.500
       269   10 Jun 2027 04:03:33.116   10 Jun 2027 04:03:45.081            11.965          5982.500
       270   10 Jun 2027 05:33:44.706   10 Jun 2027 05:34:25.403            40.697         20348.500
       271   10 Jun 2027 05:34:42.476   10 Jun 2027 05:35:26.464            43.988         21994.000
       272   10 Jun 2027 05:35:56.509   10 Jun 2027 05:36:18.341            21.832          9338.469
       273   10 Jun 2027 05:37:06.609   10 Jun 2027 05:37:09.036             2.427           935.656
       274   10 Jun 2027 06:57:40.541   10 Jun 2027 06:57:53.900            13.359          6063.188
       275   10 Jun 2027 06:58:08.895   10 Jun 2027 06:58:10.770             1.875           269.906
       276   10 Jun 2027 06:58:19.551   10 Jun 2027 06:58:21.246             1.695           120.344
       277   10 Jun 2027 06:59:44.900   10 Jun 2027 06:59:49.036             4.136          2068.000
       278   10 Jun 2027 07:00:09.831   10 Jun 2027 07:00:12.972             3.141          1049.750
       279   10 Jun 2027 08:33:33.713   10 Jun 2027 08:33:39.734             6.021          2201.969
       280   10 Jun 2027 08:34:31.294   10 Jun 2027 08:34:31.294             0.000             0.000
       281   10 Jun 2027 08:35:30.287   10 Jun 2027 08:35:38.810             8.523          3253.094
       282   10 Jun 2027 08:35:45.360   10 Jun 2027 08:35:45.360             0.000             0.000
       283   10 Jun 2027 08:36:11.529   10 Jun 2027 08:36:16.387             4.858           915.750
       284   10 Jun 2027 08:36:52.630   10 Jun 2027 08:36:53.505             0.875           437.500
       285   10 Jun 2027 08:37:37.197   10 Jun 2027 08:37:40.302             3.105          1552.500
       286   10 Jun 2027 10:08:27.202   10 Jun 2027 10:08:34.459             7.257          2897.312
       287   10 Jun 2027 10:10:08.162   10 Jun 2027 10:10:13.188             5.026          2303.281
       288   10 Jun 2027 10:11:17.185   10 Jun 2027 10:11:19.903             2.718           954.687
       289   10 Jun 2027 10:13:59.381   10 Jun 2027 10:14:16.221            16.840          4820.750
       290   10 Jun 2027 10:14:41.909   10 Jun 2027 10:14:43.580             1.671           759.469
       291   10 Jun 2027 10:15:07.561   10 Jun 2027 10:15:09.132             1.571           646.125
       292   10 Jun 2027 11:44:53.040   10 Jun 2027 11:45:07.503            14.463          6017.094
       293   10 Jun 2027 11:46:14.749   10 Jun 2027 11:46:16.299             1.550           376.000
       294   10 Jun 2027 11:46:46.014   10 Jun 2027 11:46:48.145             2.131           354.500
       295   10 Jun 2027 11:46:57.379   10 Jun 2027 11:47:01.255             3.876           252.469
       296   10 Jun 2027 11:48:42.776   10 Jun 2027 11:48:54.057            11.281          2214.344
       297   10 Jun 2027 11:49:18.206   10 Jun 2027 11:49:21.073             2.867           737.781
       298   10 Jun 2027 11:49:54.047   10 Jun 2027 11:49:56.827             2.780           769.125
       299   10 Jun 2027 11:50:14.837   10 Jun 2027 11:50:16.974             2.137           187.781
       300   10 Jun 2027 11:50:40.188   10 Jun 2027 11:50:46.650             6.462           689.969
       301   10 Jun 2027 11:50:49.482   10 Jun 2027 11:50:52.696             3.214            88.500
       302   10 Jun 2027 11:50:57.958   10 Jun 2027 11:51:00.243             2.285           164.437
       303   11 Jun 2027 04:08:41.421   11 Jun 2027 04:10:28.385           106.964         53482.000
       304   11 Jun 2027 04:11:24.358   11 Jun 2027 04:12:05.607            41.249         20624.500
       305   11 Jun 2027 04:13:27.131   11 Jun 2027 04:13:30.867             3.736          1868.000
       306   11 Jun 2027 04:15:04.530   11 Jun 2027 04:15:12.083             7.553          3776.500
       307   11 Jun 2027 05:34:23.875   11 Jun 2027 05:34:44.380            20.505         10252.500
       308   11 Jun 2027 05:35:03.762   11 Jun 2027 05:35:26.634            22.872         11436.000
       309   11 Jun 2027 05:45:41.615   11 Jun 2027 05:47:21.714           100.099         50049.500
       310   11 Jun 2027 07:08:16.927   11 Jun 2027 07:08:34.925            17.998          8688.156
       311   11 Jun 2027 07:09:35.191   11 Jun 2027 07:09:36.598             1.407           703.500
       312   11 Jun 2027 07:09:41.365   11 Jun 2027 07:09:44.261             2.896           852.938
       313   11 Jun 2027 07:10:02.348   11 Jun 2027 07:10:03.552             1.204           373.219
       314   11 Jun 2027 07:10:36.363   11 Jun 2027 07:10:40.746             4.383          1025.344
       315   11 Jun 2027 07:12:35.573   11 Jun 2027 07:12:41.308             5.735          2623.687
       316   11 Jun 2027 07:12:57.145   11 Jun 2027 07:12:58.388             1.243           400.281
       317   11 Jun 2027 08:43:49.482   11 Jun 2027 08:43:56.985             7.503          2114.094
       318   11 Jun 2027 08:44:25.452   11 Jun 2027 08:44:29.702             4.250           104.031
       319   11 Jun 2027 08:45:59.686   11 Jun 2027 08:46:03.793             4.107          1881.000
       320   11 Jun 2027 08:46:51.808   11 Jun 2027 08:46:54.504             2.696          1255.406
       321   11 Jun 2027 08:48:10.579   11 Jun 2027 08:48:17.896             7.317          2376.875
       322   11 Jun 2027 08:48:21.994   11 Jun 2027 08:48:24.331             2.337           128.063
       323   11 Jun 2027 08:49:05.932   11 Jun 2027 08:49:12.431             6.499          1173.813
       324   11 Jun 2027 08:49:41.367   11 Jun 2027 08:49:42.372             1.005           241.438
       325   11 Jun 2027 10:20:07.308   11 Jun 2027 10:20:12.433             5.125          2386.594
       326   11 Jun 2027 10:22:08.818   11 Jun 2027 10:22:15.292             6.474          2980.813
       327   11 Jun 2027 10:23:35.157   11 Jun 2027 10:23:36.507             1.350           484.563
       328   11 Jun 2027 10:24:22.532   11 Jun 2027 10:24:26.859             4.327          1354.344
       329   11 Jun 2027 10:25:12.363   11 Jun 2027 10:25:14.000             1.637           702.813
       330   11 Jun 2027 10:25:23.089   11 Jun 2027 10:25:25.591             2.502            17.000
       331   11 Jun 2027 10:26:14.895   11 Jun 2027 10:26:17.796             2.901          1139.750
       332   11 Jun 2027 10:27:01.457   11 Jun 2027 10:27:02.793             1.336           498.688
       333   11 Jun 2027 11:57:13.046   11 Jun 2027 11:57:25.728            12.682          5764.312
       334   11 Jun 2027 11:59:22.690   11 Jun 2027 11:59:29.034             6.344           865.906
       335   11 Jun 2027 11:59:50.125   11 Jun 2027 11:59:51.691             1.566           337.375
       336   12 Jun 2027 04:21:11.612   12 Jun 2027 04:23:26.844           135.232         67616.000
       337   12 Jun 2027 04:23:40.049   12 Jun 2027 04:24:00.204            20.155         10077.500
       338   12 Jun 2027 04:24:47.400   12 Jun 2027 04:24:57.203             9.803          4901.500
       339   12 Jun 2027 04:25:57.854   12 Jun 2027 04:25:57.854             0.000             0.000
       340   12 Jun 2027 04:26:33.188   12 Jun 2027 04:26:45.210            12.022          6011.000
       341   12 Jun 2027 04:27:00.662   12 Jun 2027 04:27:18.334            17.672          8836.000
       342   12 Jun 2027 05:46:01.155   12 Jun 2027 05:46:35.911            34.756         17378.000
       343   12 Jun 2027 05:57:42.003   12 Jun 2027 05:58:43.269            61.266         30633.000
       344   12 Jun 2027 07:20:00.312   12 Jun 2027 07:21:06.270            65.958         31824.218
       345   12 Jun 2027 07:22:25.554   12 Jun 2027 07:22:30.576             5.022          1692.437
       346   12 Jun 2027 07:24:36.731   12 Jun 2027 07:24:45.571             8.840          3686.969
       347   12 Jun 2027 07:25:05.244   12 Jun 2027 07:25:05.244             0.000             0.000
       348   12 Jun 2027 08:54:57.983   12 Jun 2027 08:55:04.071             6.088          2123.562
       349   12 Jun 2027 08:55:58.843   12 Jun 2027 08:55:58.843             0.000             0.000
       350   12 Jun 2027 08:56:35.155   12 Jun 2027 08:56:40.633             5.478          1454.156
       351   12 Jun 2027 08:57:57.604   12 Jun 2027 08:58:03.325             5.721          1545.812
       352   12 Jun 2027 08:58:35.157   12 Jun 2027 08:58:38.955             3.798           646.094
       353   12 Jun 2027 09:00:13.290   12 Jun 2027 09:00:18.985             5.695          2514.281
       354   12 Jun 2027 09:01:37.907   12 Jun 2027 09:01:47.451             9.544          1824.188
       355   12 Jun 2027 09:02:56.873   12 Jun 2027 09:02:59.984             3.111          1079.281
       356   12 Jun 2027 10:32:26.594   12 Jun 2027 10:32:34.582             7.988          3967.437
       357   12 Jun 2027 10:35:31.039   12 Jun 2027 10:35:38.187             7.148          2566.156
       358   12 Jun 2027 10:36:41.132   12 Jun 2027 10:36:45.097             3.965          1558.625
       359   12 Jun 2027 10:37:23.307   12 Jun 2027 10:37:26.389             3.082           933.625
       360   12 Jun 2027 10:37:52.007   12 Jun 2027 10:37:52.815             0.808           395.000
       361   12 Jun 2027 10:38:12.129   12 Jun 2027 10:38:16.270             4.141           512.500
       362   12 Jun 2027 10:38:53.188   12 Jun 2027 10:38:56.693             3.505           838.750
       363   12 Jun 2027 10:39:39.029   12 Jun 2027 10:39:42.211             3.182          1057.719
       364   12 Jun 2027 10:39:44.097   12 Jun 2027 10:39:44.562             0.465            58.938
       365   13 Jun 2027 03:00:00.000   13 Jun 2027 03:00:12.437            12.437          6218.500
       366   13 Jun 2027 04:33:13.689   13 Jun 2027 04:35:32.559           138.870         69435.000
       367   13 Jun 2027 04:35:56.905   13 Jun 2027 04:36:07.979            11.074          5537.000
       368   13 Jun 2027 04:37:58.412   13 Jun 2027 04:38:20.524            22.112         11056.000
       369   13 Jun 2027 04:40:11.847   13 Jun 2027 04:40:12.459             0.612           306.000
       370   13 Jun 2027 05:57:34.517   13 Jun 2027 05:58:05.349            30.832         15416.000
       371   13 Jun 2027 05:59:19.095   13 Jun 2027 05:59:40.620            21.525         10762.500
       372   13 Jun 2027 06:09:50.188   13 Jun 2027 06:10:17.706            27.518         13759.000
       373   13 Jun 2027 07:31:33.482   13 Jun 2027 07:32:42.586            69.104         32476.625
       374   13 Jun 2027 07:33:58.906   13 Jun 2027 07:34:04.828             5.922          1961.594
       375   13 Jun 2027 07:34:14.918   13 Jun 2027 07:34:19.362             4.444           143.437
       376   13 Jun 2027 07:35:17.015   13 Jun 2027 07:35:17.015             0.000             0.000
       377   13 Jun 2027 07:36:37.610   13 Jun 2027 07:36:46.341             8.731          4159.906
       378   13 Jun 2027 07:37:23.846   13 Jun 2027 07:37:24.711             0.865           432.500
       379   13 Jun 2027 09:06:26.061   13 Jun 2027 09:06:30.528             4.467          2219.031
       380   13 Jun 2027 09:07:13.683   13 Jun 2027 09:07:14.213             0.530           247.750
       381   13 Jun 2027 09:08:28.451   13 Jun 2027 09:08:28.806             0.355            92.500
       382   13 Jun 2027 09:08:54.005   13 Jun 2027 09:08:57.666             3.661           509.375
       383   13 Jun 2027 09:09:54.484   13 Jun 2027 09:09:57.891             3.407          1089.844
       384   13 Jun 2027 09:10:53.577   13 Jun 2027 09:11:00.963             7.386          1330.875
       385   13 Jun 2027 09:13:14.042   13 Jun 2027 09:13:18.069             4.027          1894.375
       386   13 Jun 2027 09:13:40.067   13 Jun 2027 09:13:42.991             2.924           563.906
       387   13 Jun 2027 09:14:49.854   13 Jun 2027 09:14:53.087             3.233           694.594
       388   13 Jun 2027 10:44:19.918   13 Jun 2027 10:44:38.980            19.062          5996.063
       389   13 Jun 2027 10:45:21.598   13 Jun 2027 10:45:23.929             2.331           244.250
       390   13 Jun 2027 10:47:19.972   13 Jun 2027 10:47:19.972             0.000             0.000
       391   13 Jun 2027 10:48:19.992   13 Jun 2027 10:48:32.126            12.134          4113.000
       392   13 Jun 2027 10:49:53.617   13 Jun 2027 10:50:00.081             6.464          2208.312
       393   13 Jun 2027 10:50:47.806   13 Jun 2027 10:50:51.976             4.170          1424.219
       394   13 Jun 2027 10:51:09.130   13 Jun 2027 10:51:10.047             0.917           253.219
