uniorb/output/strategy_4/Camera/Camera_KinoSat_112003.txt

KinoSat_112003
-------------------------
    Access    *     Start Time (UTCG)     *     Stop Time (UTCG)  *   Duration (s) *   Data (Mbytes)
         1   01 Jun 2027 03:15:59.213   01 Jun 2027 03:17:18.269            79.056         39528.000
         2   01 Jun 2027 03:18:30.523   01 Jun 2027 03:18:52.429            21.906         10953.000
         3   01 Jun 2027 03:19:18.146   01 Jun 2027 03:19:25.480             7.334          3667.000
         4   01 Jun 2027 03:19:56.090   01 Jun 2027 03:20:04.850             8.760          4380.000
         5   01 Jun 2027 03:20:17.610   01 Jun 2027 03:20:31.916            14.306          7153.000
         6   01 Jun 2027 03:21:30.784   01 Jun 2027 03:21:40.344             9.560          4780.000
         7   01 Jun 2027 03:22:30.968   01 Jun 2027 03:22:37.858             6.890          3445.000
         8   01 Jun 2027 04:53:42.717   01 Jun 2027 04:53:52.797            10.080          5040.000
         9   01 Jun 2027 04:54:04.819   01 Jun 2027 04:55:06.441            61.622         30811.000
        10   01 Jun 2027 04:55:11.740   01 Jun 2027 04:55:32.250            20.510         10255.000
        11   01 Jun 2027 04:55:53.432   01 Jun 2027 04:55:55.325             1.893           946.500
        12   01 Jun 2027 04:57:39.308   01 Jun 2027 04:57:48.523             9.215          4607.500
        13   01 Jun 2027 04:59:16.627   01 Jun 2027 04:59:18.914             2.287          1143.500
        14   01 Jun 2027 06:32:15.969   01 Jun 2027 06:34:28.252           132.283         66141.500
        15   01 Jun 2027 07:56:01.330   01 Jun 2027 07:57:20.410            79.080         39540.000
        16   01 Jun 2027 09:32:00.449   01 Jun 2027 09:33:33.180            92.731         46365.500
        17   01 Jun 2027 09:34:44.353   01 Jun 2027 09:34:44.353             0.000             0.000
        18   01 Jun 2027 11:05:45.570   01 Jun 2027 11:08:17.138           151.568         75784.000
        19   01 Jun 2027 11:13:30.390   01 Jun 2027 11:14:19.859            49.469         24734.500
        20   02 Jun 2027 03:28:03.474   02 Jun 2027 03:28:31.396            27.922         13961.000
        21   02 Jun 2027 03:28:50.678   02 Jun 2027 03:29:04.588            13.910          6955.000
        22   02 Jun 2027 03:29:21.143   02 Jun 2027 03:29:21.143             0.000             0.000
        23   02 Jun 2027 03:29:57.860   02 Jun 2027 03:31:44.635           106.775         53387.500
        24   02 Jun 2027 03:33:29.978   02 Jun 2027 03:33:45.333            15.355          7677.500
        25   02 Jun 2027 03:34:26.280   02 Jun 2027 03:34:51.633            25.353         12676.500
        26   02 Jun 2027 05:06:10.837   02 Jun 2027 05:06:39.336            28.499         14249.500
        27   02 Jun 2027 05:06:45.441   02 Jun 2027 05:08:21.385            95.944         47972.000
        28   02 Jun 2027 05:10:15.823   02 Jun 2027 05:11:38.818            82.995         41497.500
        29   02 Jun 2027 06:44:11.554   02 Jun 2027 06:46:15.266           123.712         61856.000
        30   02 Jun 2027 06:46:45.936   02 Jun 2027 06:47:35.289            49.353         24676.500
        31   02 Jun 2027 08:07:52.969   02 Jun 2027 08:09:51.089           118.120         59060.000
        32   02 Jun 2027 08:10:25.905   02 Jun 2027 08:10:25.905             0.000             0.000
        33   02 Jun 2027 09:44:15.137   02 Jun 2027 09:45:36.957            81.820         40570.031
        34   02 Jun 2027 09:46:04.807   02 Jun 2027 09:46:06.168             1.361           400.937
        35   02 Jun 2027 09:46:27.603   02 Jun 2027 09:46:27.603             0.000             0.000
        36   02 Jun 2027 11:18:21.756   02 Jun 2027 11:18:45.976            24.220          9068.719
        37   02 Jun 2027 11:25:03.719   02 Jun 2027 11:25:13.073             9.354          4677.000
        38   02 Jun 2027 11:25:17.551   02 Jun 2027 11:25:27.665            10.114          4576.313
        39   02 Jun 2027 11:25:37.239   02 Jun 2027 11:25:38.377             1.138           299.188
        40   02 Jun 2027 11:26:13.895   02 Jun 2027 11:26:16.159             2.264           834.469
        41   03 Jun 2027 03:40:06.838   03 Jun 2027 03:40:55.217            48.379         24189.500
        42   03 Jun 2027 03:41:25.697   03 Jun 2027 03:43:59.157           153.460         76730.000
        43   03 Jun 2027 03:44:46.844   03 Jun 2027 03:45:20.373            33.529         16764.500
        44   03 Jun 2027 05:18:17.072   03 Jun 2027 05:18:42.677            25.605         12802.500
        45   03 Jun 2027 05:19:14.841   03 Jun 2027 05:19:20.746             5.905          2952.500
        46   03 Jun 2027 05:19:27.581   03 Jun 2027 05:20:16.120            48.539         24269.500
        47   03 Jun 2027 05:20:50.617   03 Jun 2027 05:21:15.831            25.214         12607.000
        48   03 Jun 2027 05:21:40.312   03 Jun 2027 05:22:03.638            23.326         11663.000
        49   03 Jun 2027 05:22:15.391   03 Jun 2027 05:22:16.463             1.072           536.000
        50   03 Jun 2027 06:57:25.329   03 Jun 2027 06:58:11.172            45.843         21561.750
        51   03 Jun 2027 06:59:40.545   03 Jun 2027 06:59:41.347             0.802           325.500
        52   03 Jun 2027 06:59:53.778   03 Jun 2027 06:59:55.131             1.353           305.250
        53   03 Jun 2027 08:19:56.894   03 Jun 2027 08:20:11.756            14.862          6700.688
        54   03 Jun 2027 08:21:22.973   03 Jun 2027 08:21:29.317             6.344          2042.250
        55   03 Jun 2027 08:21:41.208   03 Jun 2027 08:21:41.613             0.405            76.250
        56   03 Jun 2027 09:56:26.076   03 Jun 2027 09:56:32.959             6.883          2826.437
        57   03 Jun 2027 09:57:58.015   03 Jun 2027 09:58:04.653             6.638          1837.438
        58   03 Jun 2027 09:58:55.376   03 Jun 2027 09:59:08.965            13.589          1051.656
        59   03 Jun 2027 11:31:54.879   03 Jun 2027 11:32:10.949            16.070          5913.187
        60   03 Jun 2027 11:35:19.681   03 Jun 2027 11:35:29.403             9.722          4729.969
        61   03 Jun 2027 11:35:38.093   03 Jun 2027 11:35:38.884             0.791           195.031
        62   03 Jun 2027 11:36:03.133   03 Jun 2027 11:36:04.208             1.075           451.500
        63   03 Jun 2027 11:37:25.550   03 Jun 2027 11:37:30.452             4.902          2273.188
        64   03 Jun 2027 11:38:11.070   03 Jun 2027 11:38:14.045             2.975          1126.406
        65   04 Jun 2027 03:52:05.208   04 Jun 2027 03:52:49.325            44.117         22058.500
        66   04 Jun 2027 03:52:54.731   04 Jun 2027 03:56:04.245           189.514         94757.000
        67   04 Jun 2027 05:30:20.729   04 Jun 2027 05:31:01.631            40.902         20451.000
        68   04 Jun 2027 05:31:25.191   04 Jun 2027 05:32:33.560            68.369         32442.813
        69   04 Jun 2027 05:33:53.475   04 Jun 2027 05:34:03.860            10.385          1167.250
        70   04 Jun 2027 07:08:32.879   04 Jun 2027 07:08:46.230            13.351          6276.719
        71   04 Jun 2027 07:09:25.081   04 Jun 2027 07:09:26.239             1.158           425.219
        72   04 Jun 2027 07:10:03.885   04 Jun 2027 07:10:07.605             3.720           706.156
        73   04 Jun 2027 07:10:32.378   04 Jun 2027 07:10:37.123             4.745           755.844
        74   04 Jun 2027 07:11:35.204   04 Jun 2027 07:11:41.661             6.457           719.938
        75   04 Jun 2027 08:32:02.347   04 Jun 2027 08:32:30.926            28.579          9239.375
        76   04 Jun 2027 08:33:05.163   04 Jun 2027 08:33:07.508             2.345           817.250
        77   04 Jun 2027 08:33:21.775   04 Jun 2027 08:33:22.395             0.620           254.937
        78   04 Jun 2027 08:33:34.939   04 Jun 2027 08:33:36.905             1.966           347.000
        79   04 Jun 2027 08:34:55.160   04 Jun 2027 08:35:00.079             4.919          2364.031
        80   04 Jun 2027 10:08:31.073   04 Jun 2027 10:08:41.113            10.040          3755.219
        81   04 Jun 2027 10:10:13.761   04 Jun 2027 10:10:19.503             5.742          2329.344
        82   04 Jun 2027 10:10:42.593   04 Jun 2027 10:10:43.076             0.483           214.813
        83   04 Jun 2027 11:43:41.349   04 Jun 2027 11:43:56.474            15.125          6458.625
        84   04 Jun 2027 11:50:03.975   04 Jun 2027 11:50:17.555            13.580          6790.000
        85   05 Jun 2027 04:04:07.970   05 Jun 2027 04:06:43.507           155.537         77768.500
        86   05 Jun 2027 04:07:27.425   05 Jun 2027 04:07:35.341             7.916          3958.000
        87   05 Jun 2027 04:08:46.098   05 Jun 2027 04:08:55.922             9.824          4912.000
        88   05 Jun 2027 04:09:29.660   05 Jun 2027 04:09:51.990            22.330         11165.000
        89   05 Jun 2027 05:43:25.542   05 Jun 2027 05:44:37.787            72.245         36122.500
        90   05 Jun 2027 05:50:02.550   05 Jun 2027 05:51:13.941            71.391         35695.500
        91   05 Jun 2027 07:09:43.573   05 Jun 2027 07:09:56.637            13.064          6532.000
        92   05 Jun 2027 07:20:30.246   05 Jun 2027 07:21:03.484            33.238         16098.812
        93   05 Jun 2027 07:22:00.212   05 Jun 2027 07:22:03.902             3.690           691.219
        94   05 Jun 2027 07:22:20.866   05 Jun 2027 07:22:27.072             6.206           495.500
        95   05 Jun 2027 07:22:51.646   05 Jun 2027 07:22:53.818             2.172           474.156
        96   05 Jun 2027 07:23:40.347   05 Jun 2027 07:23:42.827             2.480           731.625
        97   05 Jun 2027 07:23:58.061   05 Jun 2027 07:24:00.053             1.992           476.063
        98   05 Jun 2027 08:44:29.451   05 Jun 2027 08:44:50.441            20.990          9650.188
        99   05 Jun 2027 08:45:07.754   05 Jun 2027 08:45:08.769             1.015           335.094
       100   05 Jun 2027 08:46:55.301   05 Jun 2027 08:47:04.725             9.424          2345.625
       101   05 Jun 2027 10:20:15.321   05 Jun 2027 10:20:22.097             6.776          2716.688
       102   05 Jun 2027 10:22:02.987   05 Jun 2027 10:22:10.432             7.445          2013.063
       103   05 Jun 2027 10:23:19.835   05 Jun 2027 10:23:25.435             5.600           406.875
       104   05 Jun 2027 11:55:38.304   05 Jun 2027 11:55:58.032            19.728          8415.781
       105   06 Jun 2027 04:16:48.420   06 Jun 2027 04:19:15.353           146.933         73466.500
       106   06 Jun 2027 04:20:41.348   06 Jun 2027 04:20:43.613             2.265          1132.500
       107   06 Jun 2027 05:55:46.862   06 Jun 2027 05:57:38.993           112.131         56065.500
       108   06 Jun 2027 05:58:17.202   06 Jun 2027 05:58:20.718             3.516          1758.000
       109   06 Jun 2027 05:58:39.586   06 Jun 2027 05:59:03.988            24.402         12201.000
       110   06 Jun 2027 06:01:42.013   06 Jun 2027 06:02:47.274            65.261         32170.781
       111   06 Jun 2027 07:20:59.533   06 Jun 2027 07:21:11.724            12.191          5426.813
       112   06 Jun 2027 07:21:37.332   06 Jun 2027 07:21:40.608             3.276           500.094
       113   06 Jun 2027 07:32:31.125   06 Jun 2027 07:32:38.913             7.788          2974.781
       114   06 Jun 2027 08:55:08.477   06 Jun 2027 08:55:27.172            18.695          7815.625
       115   06 Jun 2027 08:55:59.819   06 Jun 2027 08:56:02.515             2.696          1020.219
       116   06 Jun 2027 08:57:10.109   06 Jun 2027 08:57:15.101             4.992          1245.875
       117   06 Jun 2027 08:58:40.168   06 Jun 2027 08:58:48.516             8.348          2369.094
       118   06 Jun 2027 08:59:42.775   06 Jun 2027 08:59:47.221             4.446          1498.312
       119   06 Jun 2027 10:30:35.044   06 Jun 2027 10:30:45.428            10.384          5192.000
       120   06 Jun 2027 10:32:09.619   06 Jun 2027 10:32:16.393             6.774          2699.031
       121   06 Jun 2027 10:33:21.757   06 Jun 2027 10:33:36.695            14.938          1303.125
       122   06 Jun 2027 10:35:35.065   06 Jun 2027 10:35:42.887             7.822          3339.844
       123   06 Jun 2027 10:36:12.467   06 Jun 2027 10:36:13.466             0.999           474.625
       124   06 Jun 2027 10:36:35.890   06 Jun 2027 10:36:35.890             0.000             0.000
       125   07 Jun 2027 04:29:04.461   07 Jun 2027 04:30:58.983           114.522         57261.000
       126   07 Jun 2027 04:32:43.419   07 Jun 2027 04:32:52.876             9.457          4728.500
       127   07 Jun 2027 04:34:19.190   07 Jun 2027 04:34:37.691            18.501          9250.500
       128   07 Jun 2027 06:08:03.477   07 Jun 2027 06:11:27.225           203.748        100526.157
       129   07 Jun 2027 06:11:40.507   07 Jun 2027 06:11:41.987             1.480           152.250
       130   07 Jun 2027 06:13:11.491   07 Jun 2027 06:13:15.974             4.483          1125.625
       131   07 Jun 2027 06:13:56.591   07 Jun 2027 06:14:04.697             8.106           407.719
       132   07 Jun 2027 07:32:16.024   07 Jun 2027 07:32:30.437            14.413          6378.875
       133   07 Jun 2027 07:33:01.161   07 Jun 2027 07:33:01.161             0.000             0.000
       134   07 Jun 2027 07:33:18.704   07 Jun 2027 07:33:22.360             3.656          1156.969
       135   07 Jun 2027 07:34:22.803   07 Jun 2027 07:34:26.000             3.197          1495.938
       136   07 Jun 2027 07:44:28.673   07 Jun 2027 07:44:35.358             6.685          2241.469
       137   07 Jun 2027 09:06:44.219   07 Jun 2027 09:07:09.862            25.643         12813.531
       138   07 Jun 2027 09:08:39.923   07 Jun 2027 09:08:48.019             8.096          1427.750
       139   07 Jun 2027 09:09:12.200   07 Jun 2027 09:09:20.900             8.700           278.656
       140   07 Jun 2027 09:09:23.836   07 Jun 2027 09:09:25.192             1.356            91.750
       141   07 Jun 2027 09:10:53.639   07 Jun 2027 09:10:58.759             5.120          2010.000
       142   07 Jun 2027 09:11:44.189   07 Jun 2027 09:11:46.410             2.221           187.031
       143   07 Jun 2027 10:41:36.618   07 Jun 2027 10:41:43.439             6.821          2532.937
       144   07 Jun 2027 10:43:07.941   07 Jun 2027 10:43:14.850             6.909          1328.688
       145   07 Jun 2027 10:44:54.731   07 Jun 2027 10:45:01.378             6.647          2908.281
       146   07 Jun 2027 10:45:48.378   07 Jun 2027 10:45:50.587             2.209           666.813
       147   07 Jun 2027 10:48:26.107   07 Jun 2027 10:48:30.042             3.935           737.594
       148   07 Jun 2027 10:49:42.896   07 Jun 2027 10:49:46.321             3.425          1507.750
       149   08 Jun 2027 03:04:17.805   08 Jun 2027 03:04:28.272            10.467          5233.500
       150   08 Jun 2027 03:05:15.717   08 Jun 2027 03:05:31.737            16.020          8010.000
       151   08 Jun 2027 03:07:18.098   08 Jun 2027 03:07:46.789            28.691         14345.500
       152   08 Jun 2027 03:08:51.911   08 Jun 2027 03:09:04.477            12.566          6283.000
       153   08 Jun 2027 03:09:50.850   08 Jun 2027 03:10:03.543            12.693          6346.500
       154   08 Jun 2027 03:11:02.613   08 Jun 2027 03:11:14.130            11.517          5758.500
       155   08 Jun 2027 04:41:23.801   08 Jun 2027 04:41:36.870            13.069          6534.500
       156   08 Jun 2027 04:41:51.171   08 Jun 2027 04:44:18.573           147.402         73701.000
       157   08 Jun 2027 04:44:38.019   08 Jun 2027 04:44:39.947             1.928           964.000
       158   08 Jun 2027 06:20:10.338   08 Jun 2027 06:22:07.667           117.329         58072.094
       159   08 Jun 2027 06:23:33.530   08 Jun 2027 06:23:35.926             2.396          1085.125
       160   08 Jun 2027 06:24:30.279   08 Jun 2027 06:24:33.695             3.416          1553.844
       161   08 Jun 2027 06:25:32.393   08 Jun 2027 06:25:38.448             6.055          1238.313
       162   08 Jun 2027 07:44:22.062   08 Jun 2027 07:44:41.797            19.735          6644.781
       163   08 Jun 2027 07:45:16.097   08 Jun 2027 07:45:17.894             1.797           590.281
       164   08 Jun 2027 07:46:03.776   08 Jun 2027 07:46:08.819             5.043           888.438
       165   08 Jun 2027 07:56:53.796   08 Jun 2027 07:56:55.479             1.683           841.500
       166   08 Jun 2027 09:18:12.675   08 Jun 2027 09:18:29.594            16.919          8439.063
       167   08 Jun 2027 09:20:17.925   08 Jun 2027 09:20:24.088             6.163          2021.625
       168   08 Jun 2027 09:20:52.042   08 Jun 2027 09:20:55.166             3.124           494.469
       169   08 Jun 2027 09:21:57.852   08 Jun 2027 09:22:00.692             2.840          1370.875
       170   08 Jun 2027 10:53:06.594   08 Jun 2027 10:53:19.961            13.367          5277.562
       171   08 Jun 2027 10:55:34.299   08 Jun 2027 10:55:39.983             5.684          2563.219
       172   08 Jun 2027 10:56:51.183   08 Jun 2027 10:56:53.697             2.514          1254.312
       173   08 Jun 2027 10:57:05.199   08 Jun 2027 10:57:12.651             7.452           355.219
       174   08 Jun 2027 11:00:45.937   08 Jun 2027 11:00:45.937             0.000             0.000
       175   09 Jun 2027 03:16:16.940   09 Jun 2027 03:16:30.440            13.500          6750.000
       176   09 Jun 2027 03:18:32.385   09 Jun 2027 03:20:10.572            98.187         49093.500
       177   09 Jun 2027 03:20:13.862   09 Jun 2027 03:20:24.907            11.045          5522.500
       178   09 Jun 2027 03:20:58.919   09 Jun 2027 03:21:05.391             6.472          3236.000
       179   09 Jun 2027 03:21:13.281   09 Jun 2027 03:21:46.411            33.130         16565.000
       180   09 Jun 2027 03:23:39.475   09 Jun 2027 03:23:57.041            17.566          8783.000
       181   09 Jun 2027 04:54:01.683   09 Jun 2027 04:54:08.705             7.022          3511.000
       182   09 Jun 2027 04:54:23.093   09 Jun 2027 04:54:31.733             8.640          4320.000
       183   09 Jun 2027 04:54:33.151   09 Jun 2027 04:55:24.336            51.185         25592.500
       184   09 Jun 2027 04:55:29.188   09 Jun 2027 04:56:13.076            43.888         21944.000
       185   09 Jun 2027 04:59:28.220   09 Jun 2027 04:59:38.274            10.054          5027.000
       186   09 Jun 2027 06:32:47.878   09 Jun 2027 06:34:02.120            74.242         35940.719
       187   09 Jun 2027 06:35:33.903   09 Jun 2027 06:35:38.061             4.158          1446.375
       188   09 Jun 2027 06:35:53.915   09 Jun 2027 06:35:55.714             1.799           247.250
       189   09 Jun 2027 06:36:00.291   09 Jun 2027 06:36:01.637             1.346           143.031
       190   09 Jun 2027 06:36:17.329   09 Jun 2027 06:36:20.396             3.067           310.469
       191   09 Jun 2027 07:56:18.181   09 Jun 2027 07:56:32.834            14.653          6512.313
       192   09 Jun 2027 07:57:14.309   09 Jun 2027 07:57:16.579             2.270           478.938
       193   09 Jun 2027 07:57:54.926   09 Jun 2027 07:57:56.373             1.447           521.969
       194   09 Jun 2027 09:32:30.741   09 Jun 2027 09:32:41.565            10.824          4447.500
       195   09 Jun 2027 09:33:20.525   09 Jun 2027 09:33:26.628             6.103          1019.313
       196   09 Jun 2027 11:06:02.707   09 Jun 2027 11:06:14.833            12.126          5901.469
       197   09 Jun 2027 11:08:04.931   09 Jun 2027 11:08:04.931             0.000             0.000
       198   09 Jun 2027 11:08:46.186   09 Jun 2027 11:08:50.702             4.516          2143.563
       199   09 Jun 2027 11:12:11.275   09 Jun 2027 11:12:24.150            12.875          5619.437
       200   09 Jun 2027 11:12:47.861   09 Jun 2027 11:12:51.128             3.267           615.563
       201   09 Jun 2027 11:14:37.527   09 Jun 2027 11:14:37.672             0.145            72.500
       202   10 Jun 2027 03:28:21.635   10 Jun 2027 03:28:36.542            14.907          7453.500
       203   10 Jun 2027 03:29:35.895   10 Jun 2027 03:32:15.385           159.490         79745.000
       204   10 Jun 2027 03:33:06.515   10 Jun 2027 03:33:20.910            14.395          7197.500
       205   10 Jun 2027 03:35:20.873   10 Jun 2027 03:35:46.985            26.112         13056.000
       206   10 Jun 2027 05:06:28.299   10 Jun 2027 05:06:55.800            27.501         13750.500
       207   10 Jun 2027 05:06:59.607   10 Jun 2027 05:07:49.552            49.945         24972.500
       208   10 Jun 2027 05:08:36.137   10 Jun 2027 05:09:00.613            24.476         12238.000
       209   10 Jun 2027 05:10:27.457   10 Jun 2027 05:11:03.250            35.793         17224.500
       210   10 Jun 2027 05:11:35.489   10 Jun 2027 05:11:38.863             3.374           929.375
       211   10 Jun 2027 05:11:47.446   10 Jun 2027 05:11:48.697             1.251           147.344
       212   10 Jun 2027 05:12:03.573   10 Jun 2027 05:12:08.029             4.456           308.656
       213   10 Jun 2027 05:12:18.404   10 Jun 2027 05:12:19.740             1.336           105.875
       214   10 Jun 2027 05:12:37.726   10 Jun 2027 05:12:39.120             1.394           557.250
       215   10 Jun 2027 06:44:29.197   10 Jun 2027 06:44:52.974            23.777         11777.625
       216   10 Jun 2027 06:45:00.040   10 Jun 2027 06:45:00.512             0.472           176.156
       217   10 Jun 2027 06:47:26.923   10 Jun 2027 06:47:30.582             3.659          1017.875
       218   10 Jun 2027 06:47:52.019   10 Jun 2027 06:48:00.598             8.579           379.688
       219   10 Jun 2027 06:48:07.028   10 Jun 2027 06:48:08.449             1.421           200.937
       220   10 Jun 2027 06:48:31.285   10 Jun 2027 06:48:33.123             1.838           675.656
       221   10 Jun 2027 08:08:10.097   10 Jun 2027 08:08:21.002            10.905          5117.063
       222   10 Jun 2027 08:10:02.285   10 Jun 2027 08:10:06.153             3.868          1403.000
       223   10 Jun 2027 08:10:42.945   10 Jun 2027 08:10:46.285             3.340          1149.750
       224   10 Jun 2027 09:44:34.247   10 Jun 2027 09:44:42.386             8.139          3687.000
       225   10 Jun 2027 09:46:28.171   10 Jun 2027 09:46:36.934             8.763          2981.438
       226   10 Jun 2027 09:47:38.895   10 Jun 2027 09:47:43.739             4.844          1712.062
       227   10 Jun 2027 11:16:46.666   10 Jun 2027 11:16:54.179             7.513          3756.500
       228   10 Jun 2027 11:18:41.824   10 Jun 2027 11:18:50.248             8.424          3108.844
       229   10 Jun 2027 11:22:32.957   10 Jun 2027 11:22:41.780             8.823          3550.562
       230   10 Jun 2027 11:22:52.674   10 Jun 2027 11:23:04.733            12.059           340.438
       231   10 Jun 2027 11:23:10.087   10 Jun 2027 11:23:10.564             0.477           167.312
       232   10 Jun 2027 11:23:44.168   10 Jun 2027 11:23:44.921             0.753           279.937
       233   10 Jun 2027 11:26:23.716   10 Jun 2027 11:26:33.715             9.999          4604.625
       234   11 Jun 2027 03:40:24.724   11 Jun 2027 03:40:39.000            14.276          7138.000
       235   11 Jun 2027 03:41:11.956   11 Jun 2027 03:41:37.646            25.690         12845.000
       236   11 Jun 2027 03:41:40.745   11 Jun 2027 03:44:16.690           155.945         77972.500
       237   11 Jun 2027 03:45:03.259   11 Jun 2027 03:45:34.469            31.210         15605.000
       238   11 Jun 2027 05:18:34.499   11 Jun 2027 05:19:09.365            34.866         17433.000
       239   11 Jun 2027 05:20:30.847   11 Jun 2027 05:22:14.374           103.527         51756.438
       240   11 Jun 2027 05:24:47.567   11 Jun 2027 05:24:51.828             4.261          2130.500
       241   11 Jun 2027 06:57:42.878   11 Jun 2027 06:58:00.632            17.754          8263.531
       242   11 Jun 2027 06:58:17.692   11 Jun 2027 06:58:19.650             1.958           533.125
       243   11 Jun 2027 06:59:56.031   11 Jun 2027 06:59:58.661             2.630           354.375
       244   11 Jun 2027 07:00:20.291   11 Jun 2027 07:00:22.481             2.190           262.250
       245   11 Jun 2027 08:20:15.661   11 Jun 2027 08:20:29.991            14.330          6427.656
       246   11 Jun 2027 08:21:40.737   11 Jun 2027 08:21:46.166             5.429          2111.750
       247   11 Jun 2027 08:21:58.416   11 Jun 2027 08:21:59.006             0.590           147.313
       248   11 Jun 2027 09:56:44.757   11 Jun 2027 09:56:51.668             6.911          2981.344
       249   11 Jun 2027 09:58:17.287   11 Jun 2027 09:58:21.907             4.620          1886.469
       250   11 Jun 2027 09:58:41.020   11 Jun 2027 09:58:43.908             2.888            91.344
       251   11 Jun 2027 09:59:44.173   11 Jun 2027 09:59:47.746             3.573           894.062
       252   11 Jun 2027 11:32:09.611   11 Jun 2027 11:32:20.553            10.942          4858.375
       253   11 Jun 2027 11:33:21.879   11 Jun 2027 11:33:31.637             9.758           533.594
       254   11 Jun 2027 11:35:14.322   11 Jun 2027 11:35:21.058             6.736           664.219
       255   11 Jun 2027 11:37:56.124   11 Jun 2027 11:38:05.107             8.983          4411.531
       256   12 Jun 2027 03:52:22.687   12 Jun 2027 03:53:06.276            43.589         21794.500
       257   12 Jun 2027 03:53:09.945   12 Jun 2027 03:55:18.416           128.471         64235.500
       258   12 Jun 2027 03:59:20.912   12 Jun 2027 03:59:26.214             5.302          2651.000
       259   12 Jun 2027 05:30:39.316   12 Jun 2027 05:31:20.649            41.333         20666.500
       260   12 Jun 2027 05:31:42.716   12 Jun 2027 05:34:03.425           140.709         68204.250
       261   12 Jun 2027 07:08:51.950   12 Jun 2027 07:09:07.494            15.544          6783.031
       262   12 Jun 2027 07:09:26.111   12 Jun 2027 07:09:28.417             2.306           103.688
       263   12 Jun 2027 07:09:57.061   12 Jun 2027 07:10:00.731             3.670           503.625
       264   12 Jun 2027 07:10:48.028   12 Jun 2027 07:10:51.817             3.789           919.063
       265   12 Jun 2027 07:11:50.101   12 Jun 2027 07:11:51.802             1.701           724.219
       266   12 Jun 2027 08:32:19.280   12 Jun 2027 08:32:45.248            25.968         10465.813
       267   12 Jun 2027 08:33:23.094   12 Jun 2027 08:33:26.154             3.060           873.750
       268   12 Jun 2027 08:33:36.510   12 Jun 2027 08:33:37.368             0.858            84.781
       269   12 Jun 2027 10:08:48.137   12 Jun 2027 10:08:56.470             8.333          3532.656
       270   12 Jun 2027 10:10:29.968   12 Jun 2027 10:10:36.757             6.789          2284.406
       271   12 Jun 2027 10:11:01.878   12 Jun 2027 10:11:06.105             4.227           202.937
       272   12 Jun 2027 11:43:59.932   12 Jun 2027 11:44:12.087            12.155          6011.031
       273   12 Jun 2027 11:49:30.482   12 Jun 2027 11:49:51.118            20.636          9787.125
       274   12 Jun 2027 11:50:05.810   12 Jun 2027 11:50:07.308             1.498           108.156
       275   13 Jun 2027 04:04:26.663   13 Jun 2027 04:07:41.690           195.027         97513.500
       276   13 Jun 2027 05:43:43.918   13 Jun 2027 05:46:31.858           167.940         83970.000
       277   13 Jun 2027 05:49:53.560   13 Jun 2027 05:50:08.837            15.277          6418.812
       278   13 Jun 2027 05:50:36.817   13 Jun 2027 05:50:38.748             1.931           655.656
       279   13 Jun 2027 07:09:57.780   13 Jun 2027 07:10:15.118            17.338          7113.781
       280   13 Jun 2027 07:20:47.779   13 Jun 2027 07:20:53.590             5.811          2839.281
       281   13 Jun 2027 07:21:53.695   13 Jun 2027 07:21:55.715             2.020           805.000
       282   13 Jun 2027 07:22:19.745   13 Jun 2027 07:22:23.028             3.283           118.875
       283   13 Jun 2027 07:22:56.621   13 Jun 2027 07:23:03.830             7.209           628.406
       284   13 Jun 2027 07:23:55.246   13 Jun 2027 07:23:59.320             4.074           589.156
       285   13 Jun 2027 08:44:46.279   13 Jun 2027 08:45:06.449            20.170         10051.156
       286   13 Jun 2027 08:45:57.847   13 Jun 2027 08:46:00.953             3.106          1005.781
       287   13 Jun 2027 10:20:32.241   13 Jun 2027 10:20:36.982             4.741          2316.500
       288   13 Jun 2027 10:22:18.959   13 Jun 2027 10:22:25.381             6.422          1962.875
       289   13 Jun 2027 10:23:40.002   13 Jun 2027 10:23:41.029             1.027           424.625
       290   13 Jun 2027 11:55:53.145   13 Jun 2027 11:56:09.731            16.586          7854.281
