uniorb/output/strategy_4/Camera/Camera_KinoSat_111202.txt

KinoSat_111202
-------------------------
    Access    *     Start Time (UTCG)     *     Stop Time (UTCG)  *   Duration (s) *   Data (Mbytes)
         1   01 Jun 2027 03:49:35.183   01 Jun 2027 03:50:02.193            27.010         13505.000
         2   01 Jun 2027 04:00:30.828   01 Jun 2027 04:02:15.920           105.092         52546.000
         3   01 Jun 2027 04:02:40.091   01 Jun 2027 04:02:54.296            14.205          7102.500
         4   01 Jun 2027 04:03:22.862   01 Jun 2027 04:03:28.501             5.639          2819.500
         5   01 Jun 2027 05:24:27.806   01 Jun 2027 05:25:40.504            72.698         36349.000
         6   01 Jun 2027 05:27:07.007   01 Jun 2027 05:27:19.929            12.922          6461.000
         7   01 Jun 2027 07:00:12.696   01 Jun 2027 07:02:14.053           121.357         60678.500
         8   01 Jun 2027 07:03:01.790   01 Jun 2027 07:03:09.745             7.955          3977.500
         9   01 Jun 2027 07:03:59.610   01 Jun 2027 07:04:11.887            12.277          6138.500
        10   01 Jun 2027 08:34:56.531   01 Jun 2027 08:37:12.476           135.945         67972.500
        11   01 Jun 2027 08:38:13.958   01 Jun 2027 08:38:28.021            14.063          7031.500
        12   01 Jun 2027 08:41:00.604   01 Jun 2027 08:41:00.604             0.000             0.000
        13   01 Jun 2027 08:41:50.861   01 Jun 2027 08:42:03.155            12.294          6147.000
        14   01 Jun 2027 10:11:44.588   01 Jun 2027 10:13:49.229           124.641         62320.500
        15   01 Jun 2027 10:14:19.400   01 Jun 2027 10:14:28.889             9.489          4744.500
        16   01 Jun 2027 10:15:30.786   01 Jun 2027 10:15:51.688            20.902         10451.000
        17   01 Jun 2027 10:16:28.470   01 Jun 2027 10:16:41.082            12.612          6306.000
        18   01 Jun 2027 11:49:59.568   01 Jun 2027 11:50:57.713            58.145         29072.500
        19   01 Jun 2027 11:51:30.938   01 Jun 2027 11:51:33.689             2.751          1375.500
        20   01 Jun 2027 11:51:47.216   01 Jun 2027 11:52:51.863            64.647         32323.500
        21   02 Jun 2027 04:00:51.337   02 Jun 2027 04:01:22.967            31.630         15815.000
        22   02 Jun 2027 04:12:30.703   02 Jun 2027 04:13:57.226            86.523         43261.500
        23   02 Jun 2027 05:35:03.405   02 Jun 2027 05:36:03.980            60.575         30287.500
        24   02 Jun 2027 05:36:44.612   02 Jun 2027 05:37:18.341            33.729         16864.500
        25   02 Jun 2027 05:39:21.012   02 Jun 2027 05:39:21.012             0.000             0.000
        26   02 Jun 2027 05:39:43.553   02 Jun 2027 05:39:49.696             6.143          3071.500
        27   02 Jun 2027 07:10:06.879   02 Jun 2027 07:11:24.978            78.099         39049.500
        28   02 Jun 2027 07:11:57.146   02 Jun 2027 07:14:58.039           180.893         90446.500
        29   02 Jun 2027 08:47:04.839   02 Jun 2027 08:50:05.210           180.371         90185.500
        30   02 Jun 2027 08:51:54.959   02 Jun 2027 08:52:02.580             7.621          3810.500
        31   02 Jun 2027 08:53:36.506   02 Jun 2027 08:54:14.161            37.655         17308.156
        32   02 Jun 2027 08:54:29.053   02 Jun 2027 08:54:29.197             0.144            72.000
        33   02 Jun 2027 10:24:03.055   02 Jun 2027 10:24:28.055            25.000         11299.563
        34   02 Jun 2027 10:26:39.273   02 Jun 2027 10:26:41.925             2.652            38.344
        35   02 Jun 2027 10:27:00.574   02 Jun 2027 10:27:02.442             1.868           582.781
        36   02 Jun 2027 10:28:09.542   02 Jun 2027 10:28:11.809             2.267          1101.281
        37   02 Jun 2027 10:28:18.343   02 Jun 2027 10:28:20.893             2.550           126.062
        38   02 Jun 2027 10:28:46.059   02 Jun 2027 10:28:48.019             1.960           703.750
        39   02 Jun 2027 10:29:23.914   02 Jun 2027 10:29:28.919             5.005          1121.719
        40   03 Jun 2027 04:12:12.436   03 Jun 2027 04:12:58.691            46.255         23127.500
        41   03 Jun 2027 04:24:28.770   03 Jun 2027 04:25:24.391            55.621         27810.500
        42   03 Jun 2027 05:46:27.746   03 Jun 2027 05:47:51.398            83.652         41826.000
        43   03 Jun 2027 05:48:35.661   03 Jun 2027 05:49:07.131            31.470         15735.000
        44   03 Jun 2027 05:50:56.473   03 Jun 2027 05:50:56.473             0.000             0.000
        45   03 Jun 2027 05:51:09.242   03 Jun 2027 05:51:18.431             9.189          4594.500
        46   03 Jun 2027 07:21:31.744   03 Jun 2027 07:23:08.676            96.932         48293.406
        47   03 Jun 2027 07:24:48.447   03 Jun 2027 07:24:54.589             6.142          2919.656
        48   03 Jun 2027 07:25:20.401   03 Jun 2027 07:25:24.658             4.257           793.438
        49   03 Jun 2027 07:26:58.304   03 Jun 2027 07:27:13.250            14.946          2926.437
        50   03 Jun 2027 07:28:06.469   03 Jun 2027 07:28:09.426             2.957          1478.500
        51   03 Jun 2027 07:28:12.962   03 Jun 2027 07:28:13.469             0.507           169.656
        52   03 Jun 2027 07:28:25.725   03 Jun 2027 07:28:30.110             4.385           325.750
        53   03 Jun 2027 07:30:07.633   03 Jun 2027 07:30:09.526             1.893           946.500
        54   03 Jun 2027 08:59:07.837   03 Jun 2027 08:59:17.014             9.177          4215.219
        55   03 Jun 2027 09:00:01.301   03 Jun 2027 09:00:05.185             3.884          1059.531
        56   03 Jun 2027 09:01:58.711   03 Jun 2027 09:02:06.176             7.465          1461.875
        57   03 Jun 2027 09:02:57.747   03 Jun 2027 09:03:01.794             4.047          1435.937
        58   03 Jun 2027 09:03:18.927   03 Jun 2027 09:03:25.248             6.321           535.406
        59   03 Jun 2027 09:03:40.706   03 Jun 2027 09:03:43.326             2.620           411.500
        60   03 Jun 2027 09:04:48.232   03 Jun 2027 09:04:51.027             2.795          1350.219
        61   03 Jun 2027 09:05:16.251   03 Jun 2027 09:05:18.691             2.440           310.969
        62   03 Jun 2027 09:06:00.383   03 Jun 2027 09:06:04.589             4.206           520.344
        63   03 Jun 2027 09:06:22.384   03 Jun 2027 09:06:24.084             1.700            60.500
        64   03 Jun 2027 10:35:52.657   03 Jun 2027 10:36:04.719            12.062          5834.250
        65   03 Jun 2027 10:36:10.931   03 Jun 2027 10:36:14.396             3.465            74.375
        66   03 Jun 2027 10:39:31.078   03 Jun 2027 10:39:34.508             3.430          1407.656
        67   03 Jun 2027 10:40:08.128   03 Jun 2027 10:40:10.251             2.123           675.437
        68   03 Jun 2027 10:40:13.004   03 Jun 2027 10:40:14.049             1.045            46.656
        69   03 Jun 2027 10:40:45.493   03 Jun 2027 10:40:48.563             3.070           982.625
        70   03 Jun 2027 10:40:59.024   03 Jun 2027 10:40:59.851             0.827           326.906
        71   03 Jun 2027 10:41:56.976   03 Jun 2027 10:42:00.221             3.245          1182.156
        72   03 Jun 2027 10:42:26.762   03 Jun 2027 10:42:28.716             1.954           770.031
        73   04 Jun 2027 03:00:08.210   04 Jun 2027 03:00:19.506            11.296          5648.000
        74   04 Jun 2027 03:00:46.481   04 Jun 2027 03:00:55.650             9.169          4584.500
        75   04 Jun 2027 03:01:33.350   04 Jun 2027 03:02:07.685            34.335         17167.500
        76   04 Jun 2027 03:03:33.140   04 Jun 2027 03:03:46.166            13.026          6513.000
        77   04 Jun 2027 03:04:52.777   04 Jun 2027 03:05:29.961            37.184         18592.000
        78   04 Jun 2027 04:24:20.112   04 Jun 2027 04:25:06.770            46.658         23329.000
        79   04 Jun 2027 04:26:13.753   04 Jun 2027 04:26:14.644             0.891           445.500
        80   04 Jun 2027 04:36:51.513   04 Jun 2027 04:36:55.894             4.381          2190.500
        81   04 Jun 2027 05:58:09.624   04 Jun 2027 06:00:54.981           165.357         82678.500
        82   04 Jun 2027 06:03:04.636   04 Jun 2027 06:03:04.636             0.000             0.000
        83   04 Jun 2027 06:03:35.150   04 Jun 2027 06:03:46.803            11.653          5826.500
        84   04 Jun 2027 07:33:02.254   04 Jun 2027 07:33:29.940            27.686         12412.937
        85   04 Jun 2027 07:34:06.840   04 Jun 2027 07:34:07.471             0.631           302.531
        86   04 Jun 2027 07:35:15.958   04 Jun 2027 07:35:20.937             4.979          1985.656
        87   04 Jun 2027 07:35:28.976   04 Jun 2027 07:35:31.107             2.131           114.719
        88   04 Jun 2027 07:37:37.242   04 Jun 2027 07:37:41.636             4.394          1738.656
        89   04 Jun 2027 07:38:46.913   04 Jun 2027 07:38:50.477             3.564          1114.000
        90   04 Jun 2027 07:39:06.782   04 Jun 2027 07:39:11.596             4.814           509.531
        91   04 Jun 2027 07:39:45.568   04 Jun 2027 07:39:48.286             2.718           788.375
        92   04 Jun 2027 07:40:17.064   04 Jun 2027 07:40:21.619             4.555           352.781
        93   04 Jun 2027 07:40:40.059   04 Jun 2027 07:40:43.335             3.276           576.250
        94   04 Jun 2027 07:41:02.480   04 Jun 2027 07:41:07.815             5.335           463.875
        95   04 Jun 2027 07:41:43.764   04 Jun 2027 07:41:47.286             3.522          1123.406
        96   04 Jun 2027 09:11:07.633   04 Jun 2027 09:11:25.061            17.428          5815.375
        97   04 Jun 2027 09:13:54.518   04 Jun 2027 09:13:57.446             2.928          1372.250
        98   04 Jun 2027 09:15:21.030   04 Jun 2027 09:15:22.442             1.412           389.656
        99   04 Jun 2027 09:15:54.389   04 Jun 2027 09:15:58.125             3.736           861.250
       100   04 Jun 2027 09:16:41.196   04 Jun 2027 09:16:42.109             0.913           308.000
       101   04 Jun 2027 09:16:46.193   04 Jun 2027 09:16:46.550             0.357            88.469
       102   04 Jun 2027 09:17:22.669   04 Jun 2027 09:17:24.677             2.008           240.094
       103   04 Jun 2027 09:17:43.376   04 Jun 2027 09:17:45.646             2.270           417.750
       104   04 Jun 2027 09:18:03.889   04 Jun 2027 09:18:04.774             0.885           238.031
       105   04 Jun 2027 09:18:20.166   04 Jun 2027 09:18:21.911             1.745           453.375
       106   04 Jun 2027 10:48:00.994   04 Jun 2027 10:48:14.137            13.143          6135.437
       107   04 Jun 2027 10:48:33.430   04 Jun 2027 10:48:34.470             1.040           452.812
       108   04 Jun 2027 10:50:35.713   04 Jun 2027 10:50:40.086             4.373          1986.844
       109   04 Jun 2027 10:51:08.651   04 Jun 2027 10:51:09.752             1.101           488.844
       110   04 Jun 2027 10:51:44.634   04 Jun 2027 10:51:49.008             4.374           638.031
       111   04 Jun 2027 10:52:06.860   04 Jun 2027 10:52:11.099             4.239           335.406
       112   04 Jun 2027 10:52:31.362   04 Jun 2027 10:52:33.557             2.195           633.219
       113   04 Jun 2027 10:52:47.864   04 Jun 2027 10:52:50.255             2.391            64.375
       114   04 Jun 2027 10:53:35.528   04 Jun 2027 10:53:42.566             7.038          1171.250
       115   04 Jun 2027 10:54:03.061   04 Jun 2027 10:54:04.291             1.230           505.469
       116   04 Jun 2027 10:54:12.953   04 Jun 2027 10:54:13.628             0.675           193.344
       117   05 Jun 2027 03:12:33.504   05 Jun 2027 03:14:23.813           110.309         55154.500
       118   05 Jun 2027 03:15:53.361   05 Jun 2027 03:15:53.361             0.000             0.000
       119   05 Jun 2027 03:16:02.147   05 Jun 2027 03:16:16.201            14.054          7027.000
       120   05 Jun 2027 04:36:16.609   05 Jun 2027 04:36:56.202            39.593         19796.500
       121   05 Jun 2027 06:12:28.821   05 Jun 2027 06:14:58.227           149.406         72663.781
       122   05 Jun 2027 06:15:48.587   05 Jun 2027 06:15:51.886             3.299          1549.250
       123   05 Jun 2027 07:46:02.168   05 Jun 2027 07:46:16.642            14.474          2359.094
       124   05 Jun 2027 07:47:28.570   05 Jun 2027 07:47:31.490             2.920           378.625
       125   05 Jun 2027 07:48:24.385   05 Jun 2027 07:48:26.907             2.522           788.156
       126   05 Jun 2027 07:48:38.998   05 Jun 2027 07:48:39.875             0.877           207.875
       127   05 Jun 2027 07:50:14.162   05 Jun 2027 07:50:21.183             7.021          2633.500
       128   05 Jun 2027 07:51:23.281   05 Jun 2027 07:51:26.570             3.289           818.844
       129   05 Jun 2027 07:52:00.862   05 Jun 2027 07:52:03.966             3.104          1071.625
       130   05 Jun 2027 07:52:58.448   05 Jun 2027 07:53:03.646             5.198          1656.375
       131   05 Jun 2027 07:53:09.025   05 Jun 2027 07:53:12.647             3.622            98.219
       132   05 Jun 2027 07:53:35.072   05 Jun 2027 07:53:36.928             1.856           643.250
       133   05 Jun 2027 07:54:35.002   05 Jun 2027 07:54:36.042             1.040           520.000
       134   05 Jun 2027 09:23:30.472   05 Jun 2027 09:23:44.405            13.933          6896.312
       135   05 Jun 2027 09:26:47.626   05 Jun 2027 09:26:47.856             0.230             7.844
       136   05 Jun 2027 09:27:17.089   05 Jun 2027 09:27:18.331             1.242           213.094
       137   05 Jun 2027 09:28:27.109   05 Jun 2027 09:28:32.606             5.497          2109.938
       138   05 Jun 2027 09:28:39.064   05 Jun 2027 09:28:39.276             0.212            10.000
       139   05 Jun 2027 09:28:56.906   05 Jun 2027 09:29:00.287             3.381           329.750
       140   05 Jun 2027 09:29:52.038   05 Jun 2027 09:29:55.447             3.409           654.125
       141   05 Jun 2027 11:00:29.288   05 Jun 2027 11:00:50.227            20.939          6129.469
       142   05 Jun 2027 11:03:55.224   05 Jun 2027 11:03:57.935             2.711           173.187
       143   05 Jun 2027 11:04:08.301   05 Jun 2027 11:04:10.694             2.393           323.938
       144   05 Jun 2027 11:04:23.827   05 Jun 2027 11:04:24.381             0.554           169.219
       145   05 Jun 2027 11:05:48.907   05 Jun 2027 11:05:59.117            10.210          2403.000
       146   05 Jun 2027 11:06:17.451   05 Jun 2027 11:06:20.836             3.385           418.344
       147   06 Jun 2027 03:24:28.307   06 Jun 2027 03:27:14.468           166.161         83080.500
       148   06 Jun 2027 03:27:40.383   06 Jun 2027 03:28:22.178            41.795         20897.500
       149   06 Jun 2027 04:48:07.332   06 Jun 2027 04:48:09.783             2.451          1225.500
       150   06 Jun 2027 04:49:33.033   06 Jun 2027 04:49:52.070            19.037          9518.500
       151   06 Jun 2027 06:24:34.220   06 Jun 2027 06:26:18.520           104.300         51838.500
       152   06 Jun 2027 06:26:28.420   06 Jun 2027 06:26:29.921             1.501           204.250
       153   06 Jun 2027 06:27:02.467   06 Jun 2027 06:27:04.534             2.067           852.531
       154   06 Jun 2027 06:27:18.673   06 Jun 2027 06:27:22.326             3.653           441.844
       155   06 Jun 2027 07:56:43.720   06 Jun 2027 07:56:52.479             8.759          3353.531
       156   06 Jun 2027 07:59:16.424   06 Jun 2027 07:59:25.180             8.756          2650.688
       157   06 Jun 2027 08:00:34.230   06 Jun 2027 08:00:35.355             1.125            79.063
       158   06 Jun 2027 08:01:26.445   06 Jun 2027 08:01:32.179             5.734          1361.687
       159   06 Jun 2027 08:02:55.359   06 Jun 2027 08:03:02.902             7.543          1728.594
       160   06 Jun 2027 08:03:26.070   06 Jun 2027 08:03:27.675             1.605           516.187
       161   06 Jun 2027 08:04:49.291   06 Jun 2027 08:04:54.072             4.781          2004.656
       162   06 Jun 2027 08:05:09.824   06 Jun 2027 08:05:09.920             0.096            18.000
       163   06 Jun 2027 08:05:12.702   06 Jun 2027 08:05:14.460             1.758            28.281
       164   06 Jun 2027 08:05:57.437   06 Jun 2027 08:05:59.601             2.164           990.219
       165   06 Jun 2027 08:06:26.246   06 Jun 2027 08:06:30.622             4.376           567.594
       166   06 Jun 2027 09:35:39.613   06 Jun 2027 09:35:54.488            14.875          5963.969
       167   06 Jun 2027 09:40:07.049   06 Jun 2027 09:40:10.807             3.758          1788.875
       168   06 Jun 2027 09:40:45.763   06 Jun 2027 09:40:51.111             5.348           953.125
       169   06 Jun 2027 09:41:50.712   06 Jun 2027 09:41:52.398             1.686           317.656
       170   06 Jun 2027 11:12:59.114   06 Jun 2027 11:13:13.552            14.438          5581.375
       171   06 Jun 2027 11:15:04.332   06 Jun 2027 11:15:08.460             4.128          1181.125
       172   06 Jun 2027 11:15:44.610   06 Jun 2027 11:15:45.602             0.992           489.844
       173   06 Jun 2027 11:16:13.923   06 Jun 2027 11:16:15.286             1.363           581.344
       174   06 Jun 2027 11:16:55.282   06 Jun 2027 11:16:58.528             3.246          1092.750
       175   07 Jun 2027 03:37:41.784   07 Jun 2027 03:40:44.797           183.013         91506.500
       176   07 Jun 2027 03:40:51.271   07 Jun 2027 03:41:14.914            23.643         11821.500
       177   07 Jun 2027 05:00:15.500   07 Jun 2027 05:00:31.012            15.512          7756.000
       178   07 Jun 2027 05:02:07.354   07 Jun 2027 05:02:14.679             7.325          3662.500
       179   07 Jun 2027 05:03:17.857   07 Jun 2027 05:03:18.207             0.350           175.000
       180   07 Jun 2027 06:36:43.775   07 Jun 2027 06:38:02.243            78.468         38989.749
       181   07 Jun 2027 06:38:20.724   07 Jun 2027 06:38:24.803             4.079            58.625
       182   07 Jun 2027 06:38:56.438   07 Jun 2027 06:39:00.308             3.870           538.750
       183   07 Jun 2027 06:39:21.968   07 Jun 2027 06:39:26.577             4.609           351.437
       184   07 Jun 2027 08:11:54.724   07 Jun 2027 08:12:06.449            11.725          3593.031
       185   07 Jun 2027 08:12:21.942   07 Jun 2027 08:12:22.596             0.654           107.531
       186   07 Jun 2027 08:13:27.836   07 Jun 2027 08:13:30.519             2.683           397.250
       187   07 Jun 2027 08:14:52.707   07 Jun 2027 08:14:55.405             2.698          1338.688
       188   07 Jun 2027 08:15:49.021   07 Jun 2027 08:15:55.297             6.276           950.844
       189   07 Jun 2027 08:17:10.141   07 Jun 2027 08:17:15.040             4.899          2250.875
       190   07 Jun 2027 08:18:01.296   07 Jun 2027 08:18:05.194             3.898           816.813
       191   07 Jun 2027 08:18:18.457   07 Jun 2027 08:18:19.503             1.046           414.469
       192   07 Jun 2027 09:48:13.540   07 Jun 2027 09:48:32.169            18.629          5636.687
       193   07 Jun 2027 09:51:37.485   07 Jun 2027 09:51:41.360             3.875          1049.156
       194   07 Jun 2027 09:52:30.608   07 Jun 2027 09:52:34.879             4.271          1085.625
       195   07 Jun 2027 09:53:34.053   07 Jun 2027 09:53:37.261             3.208          1352.250
       196   07 Jun 2027 11:25:36.699   07 Jun 2027 11:25:53.829            17.130          6088.594
       197   07 Jun 2027 11:26:19.115   07 Jun 2027 11:26:20.642             1.527            99.281
       198   07 Jun 2027 11:27:42.686   07 Jun 2027 11:27:46.057             3.371          1059.312
       199   07 Jun 2027 11:29:39.389   07 Jun 2027 11:29:50.391            11.002          2241.625
       200   07 Jun 2027 11:30:07.299   07 Jun 2027 11:30:08.870             1.571           453.719
       201   08 Jun 2027 03:48:49.363   08 Jun 2027 03:49:27.079            37.716         18858.000
       202   08 Jun 2027 03:49:55.870   08 Jun 2027 03:52:21.942           146.072         73036.000
       203   08 Jun 2027 05:12:16.613   08 Jun 2027 05:12:41.418            24.805         12402.500
       204   08 Jun 2027 05:13:15.603   08 Jun 2027 05:13:27.388            11.785          5892.500
       205   08 Jun 2027 05:14:21.340   08 Jun 2027 05:15:10.098            48.758         24379.000
       206   08 Jun 2027 06:48:44.105   08 Jun 2027 06:49:17.717            33.612         16775.719
       207   08 Jun 2027 06:50:00.435   08 Jun 2027 06:50:06.963             6.528           967.406
       208   08 Jun 2027 06:50:45.638   08 Jun 2027 06:50:52.401             6.763          1067.281
       209   08 Jun 2027 06:51:12.202   08 Jun 2027 06:51:13.963             1.761           385.250
       210   08 Jun 2027 06:51:54.132   08 Jun 2027 06:51:54.132             0.000             0.000
       211   08 Jun 2027 06:52:12.956   08 Jun 2027 06:52:13.528             0.572           286.000
       212   08 Jun 2027 08:23:56.932   08 Jun 2027 08:24:00.213             3.281          1623.000
       213   08 Jun 2027 08:25:28.828   08 Jun 2027 08:25:34.673             5.845          2306.344
       214   08 Jun 2027 08:26:41.689   08 Jun 2027 08:26:47.073             5.384           597.156
       215   08 Jun 2027 08:26:50.325   08 Jun 2027 08:26:51.278             0.953            44.031
       216   08 Jun 2027 08:28:05.512   08 Jun 2027 08:28:12.549             7.037          1358.406
       217   08 Jun 2027 08:28:12.841   08 Jun 2027 08:28:15.522             2.681             9.125
       218   08 Jun 2027 08:28:54.772   08 Jun 2027 08:28:58.405             3.633          1095.187
       219   08 Jun 2027 08:29:15.738   08 Jun 2027 08:29:21.386             5.648           182.719
       220   08 Jun 2027 08:29:33.025   08 Jun 2027 08:29:39.128             6.103           357.688
       221   08 Jun 2027 08:30:35.439   08 Jun 2027 08:30:37.382             1.943           971.500
       222   08 Jun 2027 09:59:52.310   08 Jun 2027 10:00:02.128             9.818          4779.312
       223   08 Jun 2027 10:02:03.789   08 Jun 2027 10:02:06.627             2.838          1278.500
       224   08 Jun 2027 10:02:36.697   08 Jun 2027 10:02:37.379             0.682            14.375
       225   08 Jun 2027 10:02:57.770   08 Jun 2027 10:03:00.799             3.029            97.469
       226   08 Jun 2027 10:03:04.971   08 Jun 2027 10:03:06.439             1.468            59.656
       227   08 Jun 2027 10:03:34.907   08 Jun 2027 10:03:39.852             4.945           619.469
       228   08 Jun 2027 10:04:14.716   08 Jun 2027 10:04:17.383             2.667           242.281
       229   08 Jun 2027 10:04:41.827   08 Jun 2027 10:04:45.314             3.487           763.875
       230   08 Jun 2027 10:05:08.566   08 Jun 2027 10:05:16.163             7.597           406.281
       231   08 Jun 2027 10:05:28.975   08 Jun 2027 10:05:31.565             2.590           384.594
       232   08 Jun 2027 10:06:06.570   08 Jun 2027 10:06:08.737             2.167           970.438
       233   08 Jun 2027 11:37:51.315   08 Jun 2027 11:38:01.671            10.356          5065.719
       234   08 Jun 2027 11:38:46.524   08 Jun 2027 11:38:51.205             4.681          1151.563
       235   08 Jun 2027 11:39:57.163   08 Jun 2027 11:40:01.111             3.948           412.219
       236   08 Jun 2027 11:40:10.884   08 Jun 2027 11:40:18.084             7.200           152.781
       237   08 Jun 2027 11:40:27.613   08 Jun 2027 11:40:32.514             4.901           166.969
       238   08 Jun 2027 11:41:12.288   08 Jun 2027 11:41:14.126             1.838           774.062
       239   08 Jun 2027 11:41:47.271   08 Jun 2027 11:41:50.309             3.038           932.844
       240   08 Jun 2027 11:42:06.917   08 Jun 2027 11:42:09.095             2.178           519.000
       241   08 Jun 2027 11:42:10.771   08 Jun 2027 11:42:11.897             1.126            52.375
       242   09 Jun 2027 03:49:49.267   09 Jun 2027 03:50:05.810            16.543          8271.500
       243   09 Jun 2027 04:00:46.372   09 Jun 2027 04:03:41.395           175.023         87511.500
       244   09 Jun 2027 04:04:14.267   09 Jun 2027 04:04:14.829             0.562           281.000
       245   09 Jun 2027 05:24:42.897   09 Jun 2027 05:25:14.775            31.878         15939.000
       246   09 Jun 2027 05:26:43.723   09 Jun 2027 05:27:12.937            29.214         14607.000
       247   09 Jun 2027 07:00:28.395   09 Jun 2027 07:01:32.298            63.903         29911.906
       248   09 Jun 2027 07:02:06.384   09 Jun 2027 07:02:08.658             2.274          1065.187
       249   09 Jun 2027 07:03:13.322   09 Jun 2027 07:03:17.613             4.291          1780.563
       250   09 Jun 2027 07:03:55.925   09 Jun 2027 07:03:58.935             3.010          1197.250
       251   09 Jun 2027 07:04:44.644   09 Jun 2027 07:04:47.697             3.053          1346.094
       252   09 Jun 2027 08:35:12.245   09 Jun 2027 08:35:16.719             4.474          1872.938
       253   09 Jun 2027 08:37:29.365   09 Jun 2027 08:37:38.258             8.893          2357.531
       254   09 Jun 2027 08:38:30.950   09 Jun 2027 08:38:34.515             3.565           952.406
       255   09 Jun 2027 08:38:42.980   09 Jun 2027 08:38:43.703             0.723           264.531
       256   09 Jun 2027 08:39:33.163   09 Jun 2027 08:39:42.733             9.570          1545.625
       257   09 Jun 2027 08:40:18.966   09 Jun 2027 08:40:21.050             2.084           618.469
       258   09 Jun 2027 08:40:56.503   09 Jun 2027 08:40:59.001             2.498           314.906
       259   09 Jun 2027 08:41:18.808   09 Jun 2027 08:41:20.233             1.425           307.156
       260   09 Jun 2027 08:42:02.636   09 Jun 2027 08:42:04.388             1.752           450.156
       261   09 Jun 2027 08:42:06.049   09 Jun 2027 08:42:06.580             0.531            51.906
       262   09 Jun 2027 10:12:02.012   09 Jun 2027 10:12:15.231            13.219          5577.875
       263   09 Jun 2027 10:15:38.157   09 Jun 2027 10:15:41.111             2.954           912.313
       264   09 Jun 2027 10:15:47.033   09 Jun 2027 10:15:48.708             1.675           156.750
       265   09 Jun 2027 10:16:08.032   09 Jun 2027 10:16:14.492             6.460           242.844
       266   09 Jun 2027 10:16:56.815   09 Jun 2027 10:16:59.579             2.764          1322.594
       267   09 Jun 2027 10:17:28.477   09 Jun 2027 10:17:32.579             4.102           903.063
       268   09 Jun 2027 11:50:13.905   09 Jun 2027 11:50:23.865             9.960          4926.188
       269   09 Jun 2027 11:52:22.186   09 Jun 2027 11:52:30.997             8.811          2134.188
       270   09 Jun 2027 11:53:33.691   09 Jun 2027 11:53:37.481             3.790          1880.875
       271   09 Jun 2027 11:53:53.198   09 Jun 2027 11:53:56.177             2.979           491.156
       272   10 Jun 2027 04:01:06.997   10 Jun 2027 04:01:26.976            19.979          9989.500
       273   10 Jun 2027 04:12:46.911   10 Jun 2027 04:14:12.451            85.540         42770.000
       274   10 Jun 2027 05:35:17.922   10 Jun 2027 05:36:19.251            61.329         30664.500
       275   10 Jun 2027 05:37:00.098   10 Jun 2027 05:37:54.164            54.066         27033.000
       276   10 Jun 2027 07:10:21.304   10 Jun 2027 07:11:40.626            79.322         39661.000
       277   10 Jun 2027 07:12:12.203   10 Jun 2027 07:12:30.908            18.705          8370.938
       278   10 Jun 2027 07:12:42.399   10 Jun 2027 07:12:45.047             2.648           278.750
       279   10 Jun 2027 07:13:34.969   10 Jun 2027 07:13:38.356             3.387           885.563
       280   10 Jun 2027 07:15:14.145   10 Jun 2027 07:15:16.484             2.339          1169.500
       281   10 Jun 2027 07:15:40.866   10 Jun 2027 07:15:40.866             0.000             0.000
       282   10 Jun 2027 07:15:57.625   10 Jun 2027 07:16:04.262             6.637          2631.656
       283   10 Jun 2027 07:16:38.749   10 Jun 2027 07:16:41.394             2.645           739.188
       284   10 Jun 2027 08:47:20.273   10 Jun 2027 08:47:24.749             4.476          1682.187
       285   10 Jun 2027 08:49:29.366   10 Jun 2027 08:49:37.176             7.810          2315.406
       286   10 Jun 2027 08:50:36.677   10 Jun 2027 08:50:38.893             2.216            45.031
       287   10 Jun 2027 08:51:15.918   10 Jun 2027 08:51:20.860             4.942           217.625
       288   10 Jun 2027 08:52:12.785   10 Jun 2027 08:52:15.281             2.496          1181.094
       289   10 Jun 2027 08:52:57.402   10 Jun 2027 08:53:00.722             3.320           847.219
       290   10 Jun 2027 08:53:21.730   10 Jun 2027 08:53:26.071             4.341           452.000
       291   10 Jun 2027 08:54:00.077   10 Jun 2027 08:54:01.709             1.632           581.938
       292   10 Jun 2027 10:24:18.310   10 Jun 2027 10:24:32.493            14.183          5817.313
       293   10 Jun 2027 10:28:01.676   10 Jun 2027 10:28:07.330             5.654          2045.969
       294   10 Jun 2027 10:28:39.512   10 Jun 2027 10:28:43.236             3.724          1001.219
       295   10 Jun 2027 10:28:43.683   10 Jun 2027 10:28:44.762             1.079            13.969
       296   10 Jun 2027 10:29:03.568   10 Jun 2027 10:29:10.958             7.390           460.844
       297   11 Jun 2027 04:12:27.982   11 Jun 2027 04:13:13.769            45.787         22893.500
       298   11 Jun 2027 04:24:44.321   11 Jun 2027 04:25:39.702            55.381         27690.500
       299   11 Jun 2027 05:46:42.839   11 Jun 2027 05:48:07.176            84.337         42168.500
       300   11 Jun 2027 05:48:50.720   11 Jun 2027 05:49:22.617            31.897         15948.500
       301   11 Jun 2027 07:21:44.521   11 Jun 2027 07:23:22.179            97.658         48600.218
       302   11 Jun 2027 07:23:39.978   11 Jun 2027 07:23:41.148             1.170           269.594
       303   11 Jun 2027 07:24:13.335   11 Jun 2027 07:24:15.724             2.389           280.125
       304   11 Jun 2027 07:25:54.085   11 Jun 2027 07:25:58.618             4.533          2000.687
       305   11 Jun 2027 07:27:14.276   11 Jun 2027 07:27:18.926             4.650          2220.844
       306   11 Jun 2027 07:28:22.328   11 Jun 2027 07:28:25.580             3.252          1479.812
       307   11 Jun 2027 07:28:29.507   11 Jun 2027 07:28:31.708             2.201           122.719
       308   11 Jun 2027 07:28:40.704   11 Jun 2027 07:28:41.918             1.214           281.125
       309   11 Jun 2027 07:29:54.078   11 Jun 2027 07:29:56.871             2.793           974.531
       310   11 Jun 2027 08:59:22.228   11 Jun 2027 08:59:37.439            15.211          6683.844
       311   11 Jun 2027 09:00:19.152   11 Jun 2027 09:00:28.415             9.263          1058.563
       312   11 Jun 2027 09:02:16.124   11 Jun 2027 09:02:25.023             8.899          1481.156
       313   11 Jun 2027 09:03:15.742   11 Jun 2027 09:03:19.844             4.102          1515.469
       314   11 Jun 2027 09:03:36.468   11 Jun 2027 09:03:41.057             4.589           519.500
       315   11 Jun 2027 09:03:47.805   11 Jun 2027 09:03:52.093             4.288           210.875
       316   11 Jun 2027 09:05:04.596   11 Jun 2027 09:05:07.330             2.734          1297.875
       317   11 Jun 2027 09:05:30.940   11 Jun 2027 09:05:34.033             3.093           202.406
       318   11 Jun 2027 09:06:15.766   11 Jun 2027 09:06:19.149             3.383           419.750
       319   11 Jun 2027 09:06:34.897   11 Jun 2027 09:06:36.392             1.495           331.500
       320   11 Jun 2027 10:36:08.321   11 Jun 2027 10:36:19.022            10.701          4895.313
       321   11 Jun 2027 10:36:27.646   11 Jun 2027 10:36:29.524             1.878           122.906
       322   11 Jun 2027 10:39:04.098   11 Jun 2027 10:39:05.590             1.492           316.281
       323   11 Jun 2027 10:39:26.228   11 Jun 2027 10:39:26.818             0.590             8.656
       324   11 Jun 2027 10:40:20.257   11 Jun 2027 10:40:22.929             2.672           294.875
       325   11 Jun 2027 10:40:25.352   11 Jun 2027 10:40:26.128             0.776            66.156
       326   11 Jun 2027 10:40:29.135   11 Jun 2027 10:40:29.529             0.394            91.875
       327   11 Jun 2027 10:40:31.834   11 Jun 2027 10:40:35.867             4.033            72.031
       328   11 Jun 2027 10:40:41.941   11 Jun 2027 10:40:43.236             1.295           160.562
       329   11 Jun 2027 10:41:05.267   11 Jun 2027 10:41:10.587             5.320           347.406
       330   11 Jun 2027 10:41:35.791   11 Jun 2027 10:41:40.424             4.633           694.625
       331   11 Jun 2027 10:42:19.319   11 Jun 2027 10:42:23.582             4.263           584.875
       332   11 Jun 2027 10:42:24.859   11 Jun 2027 10:42:29.234             4.375            39.906
       333   12 Jun 2027 03:00:24.923   12 Jun 2027 03:00:59.189            34.266         17133.000
       334   12 Jun 2027 03:01:46.598   12 Jun 2027 03:01:46.598             0.000             0.000
       335   12 Jun 2027 03:02:26.281   12 Jun 2027 03:02:31.420             5.139          2569.500
       336   12 Jun 2027 03:02:39.304   12 Jun 2027 03:02:51.683            12.379          6189.500
       337   12 Jun 2027 03:03:40.328   12 Jun 2027 03:03:47.885             7.557          3778.500
       338   12 Jun 2027 03:03:51.771   12 Jun 2027 03:03:53.831             2.060          1030.000
       339   12 Jun 2027 03:05:51.685   12 Jun 2027 03:06:08.433            16.748          8374.000
       340   12 Jun 2027 04:24:35.856   12 Jun 2027 04:25:22.293            46.437         23218.500
       341   12 Jun 2027 04:26:28.699   12 Jun 2027 04:26:30.493             1.794           897.000
       342   12 Jun 2027 04:37:08.291   12 Jun 2027 04:37:11.308             3.017          1508.500
       343   12 Jun 2027 05:58:25.300   12 Jun 2027 06:01:10.007           164.707         82353.500
       344   12 Jun 2027 06:03:20.730   12 Jun 2027 06:03:50.808            30.078         15039.000
       345   12 Jun 2027 07:33:17.304   12 Jun 2027 07:33:46.177            28.873         11679.657
       346   12 Jun 2027 07:34:23.551   12 Jun 2027 07:34:25.196             1.645           272.375
       347   12 Jun 2027 07:35:32.266   12 Jun 2027 07:35:38.664             6.398          2039.875
       348   12 Jun 2027 07:36:59.941   12 Jun 2027 07:37:04.434             4.493          1560.969
       349   12 Jun 2027 07:39:02.487   12 Jun 2027 07:39:10.707             8.220          2137.687
       350   12 Jun 2027 07:39:38.037   12 Jun 2027 07:39:46.219             8.182           752.500
       351   12 Jun 2027 07:40:30.288   12 Jun 2027 07:40:32.171             1.883           928.156
       352   12 Jun 2027 07:41:03.949   12 Jun 2027 07:41:08.483             4.534           385.094
       353   12 Jun 2027 07:41:32.212   12 Jun 2027 07:41:33.405             1.193           480.219
       354   12 Jun 2027 07:42:16.184   12 Jun 2027 07:42:18.934             2.750           863.625
       355   12 Jun 2027 07:42:49.282   12 Jun 2027 07:42:52.036             2.754            50.625
       356   12 Jun 2027 09:11:23.081   12 Jun 2027 09:11:39.944            16.863          6889.969
       357   12 Jun 2027 09:14:12.152   12 Jun 2027 09:14:17.873             5.721          1400.156
       358   12 Jun 2027 09:15:36.613   12 Jun 2027 09:15:37.457             0.844           401.281
       359   12 Jun 2027 09:16:59.237   12 Jun 2027 09:17:00.758             1.521           718.156
       360   12 Jun 2027 09:17:02.150   12 Jun 2027 09:17:03.316             1.166            34.812
       361   12 Jun 2027 09:18:03.567   12 Jun 2027 09:18:10.698             7.131          1106.031
       362   12 Jun 2027 09:18:18.601   12 Jun 2027 09:18:20.568             1.967           130.438
       363   12 Jun 2027 09:18:35.639   12 Jun 2027 09:18:37.056             1.417           453.406
       364   12 Jun 2027 10:48:17.615   12 Jun 2027 10:48:31.852            14.237          6179.031
       365   12 Jun 2027 10:48:49.891   12 Jun 2027 10:48:53.888             3.997           489.500
       366   12 Jun 2027 10:50:51.541   12 Jun 2027 10:50:57.961             6.420          1958.688
       367   12 Jun 2027 10:51:23.113   12 Jun 2027 10:51:24.593             1.480           378.781
       368   12 Jun 2027 10:52:12.922   12 Jun 2027 10:52:14.164             1.242           399.719
       369   12 Jun 2027 10:52:30.157   12 Jun 2027 10:52:32.072             1.915           495.469
       370   12 Jun 2027 10:53:01.572   12 Jun 2027 10:53:06.904             5.332           921.875
       371   12 Jun 2027 10:53:44.565   12 Jun 2027 10:53:52.225             7.660          1176.906
       372   12 Jun 2027 10:54:22.937   12 Jun 2027 10:54:25.374             2.437           933.969
       373   13 Jun 2027 03:12:49.833   13 Jun 2027 03:15:18.422           148.589         74294.500
       374   13 Jun 2027 03:16:22.903   13 Jun 2027 03:16:31.121             8.218          4109.000
       375   13 Jun 2027 04:36:31.870   13 Jun 2027 04:37:10.672            38.802         19401.000
       376   13 Jun 2027 06:12:44.716   13 Jun 2027 06:14:55.946           131.230         61658.375
       377   13 Jun 2027 06:15:22.173   13 Jun 2027 06:15:24.771             2.598           819.594
       378   13 Jun 2027 07:46:17.971   13 Jun 2027 07:46:31.131            13.160          3411.750
       379   13 Jun 2027 07:47:46.557   13 Jun 2027 07:47:50.548             3.991           432.000
       380   13 Jun 2027 07:48:49.035   13 Jun 2027 07:48:50.042             1.007           246.688
       381   13 Jun 2027 07:49:41.711   13 Jun 2027 07:49:45.212             3.501          1484.594
       382   13 Jun 2027 07:50:32.443   13 Jun 2027 07:50:35.378             2.935          1215.375
       383   13 Jun 2027 07:51:40.962   13 Jun 2027 07:51:42.789             1.827           874.375
       384   13 Jun 2027 07:52:17.752   13 Jun 2027 07:52:20.251             2.499          1092.594
       385   13 Jun 2027 07:53:15.134   13 Jun 2027 07:53:18.703             3.569          1715.094
       386   13 Jun 2027 07:53:29.836   13 Jun 2027 07:53:29.836             0.000             0.000
       387   13 Jun 2027 07:53:34.915   13 Jun 2027 07:53:42.363             7.448           378.250
       388   13 Jun 2027 07:54:10.524   13 Jun 2027 07:54:15.481             4.957           880.031
       389   13 Jun 2027 09:23:49.418   13 Jun 2027 09:24:00.050            10.632          5075.500
       390   13 Jun 2027 09:27:16.669   13 Jun 2027 09:27:20.397             3.728          1334.187
       391   13 Jun 2027 09:27:29.338   13 Jun 2027 09:27:31.841             2.503           125.844
       392   13 Jun 2027 09:28:40.895   13 Jun 2027 09:28:49.403             8.508          2050.000
       393   13 Jun 2027 09:28:55.753   13 Jun 2027 09:28:56.763             1.010            49.125
       394   13 Jun 2027 09:30:07.673   13 Jun 2027 09:30:09.701             2.028           699.781
       395   13 Jun 2027 11:00:45.535   13 Jun 2027 11:01:06.487            20.952          5847.687
       396   13 Jun 2027 11:03:16.990   13 Jun 2027 11:03:18.951             1.961           843.375
       397   13 Jun 2027 11:04:24.074   13 Jun 2027 11:04:27.530             3.456           597.000
       398   13 Jun 2027 11:04:38.802   13 Jun 2027 11:04:39.900             1.098           134.688
       399   13 Jun 2027 11:04:48.326   13 Jun 2027 11:04:48.931             0.605           263.312
       400   13 Jun 2027 11:05:29.859   13 Jun 2027 11:05:31.769             1.910           779.562
       401   13 Jun 2027 11:06:14.412   13 Jun 2027 11:06:19.165             4.753           544.469
       402   13 Jun 2027 11:06:34.295   13 Jun 2027 11:06:35.920             1.625           472.812
