uniorb/output/strategy_4/Camera/Camera_KinoSat_111406.txt

KinoSat_111406
-------------------------
    Access    *     Start Time (UTCG)     *     Stop Time (UTCG)  *   Duration (s) *   Data (Mbytes)
         1   01 Jun 2027 03:13:26.374   01 Jun 2027 03:15:07.808           101.434         50717.000
         2   01 Jun 2027 03:15:36.266   01 Jun 2027 03:15:36.266             0.000             0.000
         3   01 Jun 2027 03:15:46.102   01 Jun 2027 03:15:46.826             0.724           362.000
         4   01 Jun 2027 03:15:56.264   01 Jun 2027 03:15:56.727             0.463           231.500
         5   01 Jun 2027 03:16:23.561   01 Jun 2027 03:16:30.126             6.565          3282.500
         6   01 Jun 2027 03:18:00.797   01 Jun 2027 03:18:09.326             8.529          4264.500
         7   01 Jun 2027 03:19:36.555   01 Jun 2027 03:19:50.757            14.202          7101.000
         8   01 Jun 2027 03:20:22.396   01 Jun 2027 03:20:32.304             9.908          4954.000
         9   01 Jun 2027 03:20:51.323   01 Jun 2027 03:21:13.625            22.302         11151.000
        10   01 Jun 2027 04:39:36.088   01 Jun 2027 04:39:52.917            16.829          8414.500
        11   01 Jun 2027 04:50:30.951   01 Jun 2027 04:51:15.365            44.414         22207.000
        12   01 Jun 2027 04:51:55.037   01 Jun 2027 04:52:08.529            13.492          6746.000
        13   01 Jun 2027 04:52:39.951   01 Jun 2027 04:52:49.608             9.657          4828.500
        14   01 Jun 2027 06:14:28.283   01 Jun 2027 06:15:27.437            59.154         29577.000
        15   01 Jun 2027 07:50:13.141   01 Jun 2027 07:52:32.162           139.021         69510.500
        16   01 Jun 2027 09:24:56.984   01 Jun 2027 09:27:11.965           134.981         67490.500
        17   01 Jun 2027 09:30:55.302   01 Jun 2027 09:32:14.129            78.827         39413.500
        18   01 Jun 2027 09:32:25.022   01 Jun 2027 09:32:29.627             4.605          2302.500
        19   01 Jun 2027 11:01:45.281   01 Jun 2027 11:04:10.368           145.087         72543.500
        20   01 Jun 2027 11:05:00.291   01 Jun 2027 11:05:11.760            11.469          5734.500
        21   01 Jun 2027 11:05:29.215   01 Jun 2027 11:05:31.450             2.235          1117.500
        22   02 Jun 2027 03:25:47.605   02 Jun 2027 03:26:49.801            62.196         31098.000
        23   02 Jun 2027 03:27:22.111   02 Jun 2027 03:28:35.753            73.642         36821.000
        24   02 Jun 2027 03:31:13.005   02 Jun 2027 03:31:30.550            17.545          8772.500
        25   02 Jun 2027 03:32:38.160   02 Jun 2027 03:33:07.274            29.114         14557.000
        26   02 Jun 2027 04:50:51.892   02 Jun 2027 04:51:12.421            20.529         10264.500
        27   02 Jun 2027 04:51:23.757   02 Jun 2027 04:51:23.757             0.000             0.000
        28   02 Jun 2027 05:02:31.711   02 Jun 2027 05:03:56.933            85.222         42611.000
        29   02 Jun 2027 06:25:03.799   02 Jun 2027 06:26:04.487            60.688         30344.000
        30   02 Jun 2027 06:26:45.141   02 Jun 2027 06:28:09.797            84.656         42328.000
        31   02 Jun 2027 06:28:35.032   02 Jun 2027 06:28:52.195            17.163          8581.500
        32   02 Jun 2027 08:00:06.967   02 Jun 2027 08:01:25.553            78.586         39293.000
        33   02 Jun 2027 08:01:57.600   02 Jun 2027 08:03:36.399            98.799         49399.500
        34   02 Jun 2027 08:04:43.045   02 Jun 2027 08:05:00.129            17.084          8542.000
        35   02 Jun 2027 08:05:17.325   02 Jun 2027 08:05:26.841             9.516          4758.000
        36   02 Jun 2027 09:37:05.338   02 Jun 2027 09:38:12.880            67.542         33235.500
        37   02 Jun 2027 09:40:24.061   02 Jun 2027 09:40:32.664             8.603          2248.438
        38   02 Jun 2027 09:40:37.881   02 Jun 2027 09:40:38.349             0.468            36.469
        39   02 Jun 2027 09:41:47.833   02 Jun 2027 09:41:53.814             5.981          1996.000
        40   02 Jun 2027 09:42:16.209   02 Jun 2027 09:42:17.851             1.642           477.406
        41   02 Jun 2027 09:43:06.370   02 Jun 2027 09:43:11.640             5.270          1106.906
        42   02 Jun 2027 09:43:19.043   02 Jun 2027 09:43:20.729             1.686           201.156
        43   02 Jun 2027 11:14:03.475   02 Jun 2027 11:14:17.996            14.521          5904.313
        44   02 Jun 2027 11:15:36.161   02 Jun 2027 11:15:44.976             8.815           469.469
        45   02 Jun 2027 11:17:29.011   02 Jun 2027 11:17:34.598             5.587          1448.688
        46   02 Jun 2027 11:17:52.574   02 Jun 2027 11:17:56.580             4.006           443.813
        47   02 Jun 2027 11:18:20.808   02 Jun 2027 11:18:22.791             1.983           737.969
        48   02 Jun 2027 11:19:22.124   02 Jun 2027 11:19:30.024             7.900          1521.500
        49   02 Jun 2027 11:20:00.829   02 Jun 2027 11:20:02.811             1.982           606.344
        50   03 Jun 2027 03:38:04.049   03 Jun 2027 03:41:14.407           190.358         95179.000
        51   03 Jun 2027 03:44:09.250   03 Jun 2027 03:44:20.279            11.029          5514.500
        52   03 Jun 2027 05:02:13.026   03 Jun 2027 05:02:59.107            46.081         23040.500
        53   03 Jun 2027 05:14:29.037   03 Jun 2027 05:15:24.299            55.262         27631.000
        54   03 Jun 2027 06:36:28.068   03 Jun 2027 06:36:49.749            21.681         10796.156
        55   03 Jun 2027 06:37:17.973   03 Jun 2027 06:37:25.740             7.767           485.562
        56   03 Jun 2027 06:38:36.196   03 Jun 2027 06:38:40.397             4.201          1655.469
        57   03 Jun 2027 06:39:06.126   03 Jun 2027 06:39:07.301             1.175           531.781
        58   03 Jun 2027 06:39:35.151   03 Jun 2027 06:39:37.184             2.033           689.156
        59   03 Jun 2027 06:40:23.097   03 Jun 2027 06:40:23.097             0.000             0.000
        60   03 Jun 2027 06:41:25.534   03 Jun 2027 06:41:31.796             6.262          3131.000
        61   03 Jun 2027 08:11:31.708   03 Jun 2027 08:11:37.903             6.195          3035.812
        62   03 Jun 2027 08:13:06.682   03 Jun 2027 08:13:07.656             0.974           325.344
        63   03 Jun 2027 08:13:25.325   03 Jun 2027 08:13:29.728             4.403           310.813
        64   03 Jun 2027 08:15:36.969   03 Jun 2027 08:15:44.681             7.712          3111.938
        65   03 Jun 2027 08:17:01.854   03 Jun 2027 08:17:08.317             6.463          2261.313
        66   03 Jun 2027 08:17:42.214   03 Jun 2027 08:17:42.214             0.000             0.000
        67   03 Jun 2027 08:18:35.705   03 Jun 2027 08:18:43.497             7.792          2098.563
        68   03 Jun 2027 08:19:39.403   03 Jun 2027 08:19:40.753             1.350           518.250
        69   03 Jun 2027 09:49:07.645   03 Jun 2027 09:49:17.568             9.923          3500.500
        70   03 Jun 2027 09:51:47.901   03 Jun 2027 09:51:52.436             4.535           921.000
        71   03 Jun 2027 09:53:05.836   03 Jun 2027 09:53:06.653             0.817            28.063
        72   03 Jun 2027 09:53:57.952   03 Jun 2027 09:54:01.787             3.835          1603.094
        73   03 Jun 2027 09:54:09.558   03 Jun 2027 09:54:09.887             0.329            40.750
        74   03 Jun 2027 09:54:32.179   03 Jun 2027 09:54:34.907             2.728           696.625
        75   03 Jun 2027 09:54:49.346   03 Jun 2027 09:54:51.062             1.716           451.219
        76   03 Jun 2027 09:55:17.245   03 Jun 2027 09:55:19.606             2.361           816.437
        77   03 Jun 2027 09:55:35.055   03 Jun 2027 09:55:39.986             4.931            68.781
        78   03 Jun 2027 09:55:54.459   03 Jun 2027 09:55:56.410             1.951           383.531
        79   03 Jun 2027 09:56:24.523   03 Jun 2027 09:56:26.076             1.553           165.594
        80   03 Jun 2027 11:25:53.226   03 Jun 2027 11:26:11.328            18.102          7617.344
        81   03 Jun 2027 11:27:21.935   03 Jun 2027 11:27:26.105             4.170           216.563
        82   03 Jun 2027 11:28:13.605   03 Jun 2027 11:28:14.097             0.492            47.031
        83   03 Jun 2027 11:28:54.684   03 Jun 2027 11:28:56.349             1.665           408.344
        84   03 Jun 2027 11:30:04.958   03 Jun 2027 11:30:07.509             2.551          1238.594
        85   03 Jun 2027 11:30:12.988   03 Jun 2027 11:30:15.319             2.331           166.031
        86   03 Jun 2027 11:30:16.596   03 Jun 2027 11:30:16.977             0.381            36.906
        87   03 Jun 2027 11:30:24.417   03 Jun 2027 11:30:27.737             3.320            61.219
        88   03 Jun 2027 11:31:57.772   03 Jun 2027 11:32:03.226             5.454          2240.750
        89   03 Jun 2027 11:32:14.487   03 Jun 2027 11:32:15.367             0.880           351.906
        90   03 Jun 2027 11:32:29.527   03 Jun 2027 11:32:31.188             1.661           295.750
        91   04 Jun 2027 03:50:10.535   04 Jun 2027 03:54:15.491           244.956        122478.000
        92   04 Jun 2027 03:54:31.947   04 Jun 2027 03:54:47.765            15.818          7909.000
        93   04 Jun 2027 05:14:20.788   04 Jun 2027 05:15:02.032            41.244         20622.000
        94   04 Jun 2027 05:26:53.918   04 Jun 2027 05:26:55.636             1.718           859.000
        95   04 Jun 2027 06:48:10.273   04 Jun 2027 06:49:01.981            51.708         23958.157
        96   04 Jun 2027 06:49:52.515   04 Jun 2027 06:49:59.645             7.130           986.906
        97   04 Jun 2027 06:50:38.339   04 Jun 2027 06:50:44.838             6.499          1092.281
        98   04 Jun 2027 06:51:04.181   04 Jun 2027 06:51:06.637             2.456           381.531
        99   04 Jun 2027 06:51:45.338   04 Jun 2027 06:51:47.606             2.268          1040.187
       100   04 Jun 2027 06:52:48.130   04 Jun 2027 06:52:54.363             6.233          1851.438
       101   04 Jun 2027 06:52:58.200   04 Jun 2027 06:52:59.346             1.146            79.219
       102   04 Jun 2027 06:53:27.508   04 Jun 2027 06:53:33.538             6.030           602.781
       103   04 Jun 2027 08:23:02.629   04 Jun 2027 08:23:07.458             4.829          2330.094
       104   04 Jun 2027 08:24:01.299   04 Jun 2027 08:24:06.401             5.102          1017.375
       105   04 Jun 2027 08:25:20.366   04 Jun 2027 08:25:26.455             6.089          2311.406
       106   04 Jun 2027 08:26:33.292   04 Jun 2027 08:26:40.113             6.821           607.219
       107   04 Jun 2027 08:26:43.402   04 Jun 2027 08:26:44.037             0.635            73.875
       108   04 Jun 2027 08:27:51.701   04 Jun 2027 08:27:56.752             5.051           920.906
       109   04 Jun 2027 08:29:06.628   04 Jun 2027 08:29:07.745             1.117           156.344
       110   04 Jun 2027 08:30:17.219   04 Jun 2027 08:30:22.785             5.566          1472.188
       111   04 Jun 2027 08:30:36.133   04 Jun 2027 08:30:41.599             5.466           325.719
       112   04 Jun 2027 08:31:07.137   04 Jun 2027 08:31:09.315             2.178           510.406
       113   04 Jun 2027 08:31:49.069   04 Jun 2027 08:31:53.536             4.467          1193.344
       114   04 Jun 2027 10:01:08.175   04 Jun 2027 10:01:21.414            13.239          5256.937
       115   04 Jun 2027 10:02:05.771   04 Jun 2027 10:02:07.191             1.420           247.687
       116   04 Jun 2027 10:02:46.629   04 Jun 2027 10:02:47.903             1.274           557.844
       117   04 Jun 2027 10:03:04.531   04 Jun 2027 10:03:05.675             1.144           460.750
       118   04 Jun 2027 10:05:00.370   04 Jun 2027 10:05:07.158             6.788           413.500
       119   04 Jun 2027 10:05:33.211   04 Jun 2027 10:05:37.274             4.063           814.156
       120   04 Jun 2027 10:06:34.607   04 Jun 2027 10:06:41.267             6.660           122.687
       121   04 Jun 2027 10:07:03.998   04 Jun 2027 10:07:06.586             2.588           623.219
       122   04 Jun 2027 10:07:24.233   04 Jun 2027 10:07:33.107             8.874           430.094
       123   04 Jun 2027 10:07:43.289   04 Jun 2027 10:07:45.967             2.678           318.188
       124   04 Jun 2027 10:07:52.275   04 Jun 2027 10:07:56.221             3.946            49.937
       125   04 Jun 2027 10:08:25.759   04 Jun 2027 10:08:28.447             2.688           549.156
       126   04 Jun 2027 11:38:01.974   04 Jun 2027 11:38:13.476            11.502          5185.500
       127   04 Jun 2027 11:39:47.065   04 Jun 2027 11:39:48.554             1.489           368.250
       128   04 Jun 2027 11:40:39.101   04 Jun 2027 11:40:40.749             1.648            27.063
       129   04 Jun 2027 11:41:09.289   04 Jun 2027 11:41:12.964             3.675           608.250
       130   04 Jun 2027 11:41:40.856   04 Jun 2027 11:41:45.062             4.206            33.281
       131   04 Jun 2027 11:42:03.632   04 Jun 2027 11:42:03.836             0.204            94.938
       132   04 Jun 2027 11:42:46.508   04 Jun 2027 11:42:48.733             2.225           839.906
       133   04 Jun 2027 11:43:36.407   04 Jun 2027 11:43:40.582             4.175          1357.219
       134   04 Jun 2027 11:44:02.423   04 Jun 2027 11:44:05.147             2.724           617.094
       135   05 Jun 2027 04:02:47.871   05 Jun 2027 04:05:04.580           136.709         68354.500
       136   05 Jun 2027 04:05:52.645   05 Jun 2027 04:06:26.043            33.398         16699.000
       137   05 Jun 2027 04:07:02.436   05 Jun 2027 04:07:18.513            16.077          8038.500
       138   05 Jun 2027 05:26:17.259   05 Jun 2027 05:26:36.333            19.074          9537.000
       139   05 Jun 2027 07:02:29.607   05 Jun 2027 07:04:23.268           113.661         56697.969
       140   05 Jun 2027 07:05:26.430   05 Jun 2027 07:05:34.421             7.991          1806.469
       141   05 Jun 2027 08:36:02.951   05 Jun 2027 08:36:10.400             7.449          2595.375
       142   05 Jun 2027 08:38:22.452   05 Jun 2027 08:38:27.595             5.143           959.719
       143   05 Jun 2027 08:38:53.628   05 Jun 2027 08:38:55.947             2.319           555.156
       144   05 Jun 2027 08:39:56.456   05 Jun 2027 08:40:00.170             3.714          1002.969
       145   05 Jun 2027 08:42:29.560   05 Jun 2027 08:42:37.069             7.509          3392.750
       146   05 Jun 2027 08:43:12.909   05 Jun 2027 08:43:15.868             2.959           590.656
       147   05 Jun 2027 08:44:15.271   05 Jun 2027 08:44:21.645             6.374          1801.594
       148   05 Jun 2027 10:13:33.162   05 Jun 2027 10:13:45.162            12.000          5009.438
       149   05 Jun 2027 10:16:37.212   05 Jun 2027 10:16:38.103             0.891           434.937
       150   05 Jun 2027 10:16:51.177   05 Jun 2027 10:16:51.651             0.474            69.719
       151   05 Jun 2027 10:18:28.962   05 Jun 2027 10:18:29.460             0.498            39.281
       152   05 Jun 2027 10:19:18.004   05 Jun 2027 10:19:21.778             3.774          1123.063
       153   05 Jun 2027 10:20:06.284   05 Jun 2027 10:20:08.395             2.111           353.625
       154   05 Jun 2027 11:50:30.090   05 Jun 2027 11:50:42.138            12.048          5934.187
       155   05 Jun 2027 11:53:25.490   05 Jun 2027 11:53:30.041             4.551          1904.563
       156   05 Jun 2027 11:53:45.087   05 Jun 2027 11:53:46.059             0.972           470.188
       157   05 Jun 2027 11:54:49.876   05 Jun 2027 11:54:54.154             4.278           866.500
       158   05 Jun 2027 11:55:05.977   05 Jun 2027 11:55:06.623             0.646           270.438
       159   05 Jun 2027 11:55:59.980   05 Jun 2027 11:56:02.568             2.588           474.312
       160   06 Jun 2027 04:14:28.930   06 Jun 2027 04:17:19.402           170.472         85236.000
       161   06 Jun 2027 05:38:08.082   06 Jun 2027 05:39:03.341            55.259         27629.500
       162   06 Jun 2027 07:14:34.965   06 Jun 2027 07:16:26.410           111.445         55106.188
       163   06 Jun 2027 07:16:37.047   06 Jun 2027 07:16:38.370             1.323           202.750
       164   06 Jun 2027 07:17:26.227   06 Jun 2027 07:17:30.323             4.096          1467.750
       165   06 Jun 2027 08:46:43.712   06 Jun 2027 08:46:48.989             5.277          2579.250
       166   06 Jun 2027 08:50:26.385   06 Jun 2027 08:50:28.887             2.502           393.000
       167   06 Jun 2027 08:50:48.426   06 Jun 2027 08:50:51.057             2.631           610.594
       168   06 Jun 2027 08:52:03.871   06 Jun 2027 08:52:03.871             0.000             0.000
       169   06 Jun 2027 08:52:11.876   06 Jun 2027 08:52:15.036             3.160          1427.250
       170   06 Jun 2027 08:52:27.582   06 Jun 2027 08:52:28.779             1.197           210.219
       171   06 Jun 2027 08:53:12.639   06 Jun 2027 08:53:18.376             5.737           424.625
       172   06 Jun 2027 08:54:50.845   06 Jun 2027 08:55:07.153            16.308          2447.313
       173   06 Jun 2027 08:55:27.172   06 Jun 2027 08:55:28.801             1.629           441.500
       174   06 Jun 2027 08:56:17.006   06 Jun 2027 08:56:19.015             2.009           674.938
       175   06 Jun 2027 10:25:40.778   06 Jun 2027 10:25:50.405             9.627          4289.000
       176   06 Jun 2027 10:27:54.827   06 Jun 2027 10:27:58.551             3.724             0.719
       177   06 Jun 2027 10:28:54.439   06 Jun 2027 10:29:02.312             7.873           716.094
       178   06 Jun 2027 10:30:16.763   06 Jun 2027 10:30:18.836             2.073           183.531
       179   06 Jun 2027 10:30:48.574   06 Jun 2027 10:30:50.180             1.606           706.344
       180   06 Jun 2027 10:31:44.849   06 Jun 2027 10:31:53.353             8.504          1708.406
       181   06 Jun 2027 10:32:05.161   06 Jun 2027 10:32:06.286             1.125           350.031
       182   06 Jun 2027 10:32:18.062   06 Jun 2027 10:32:19.177             1.115           368.000
       183   06 Jun 2027 10:32:19.846   06 Jun 2027 10:32:22.687             2.841            20.906
       184   07 Jun 2027 04:27:42.367   07 Jun 2027 04:29:46.498           124.131         62065.500
       185   07 Jun 2027 04:30:32.706   07 Jun 2027 04:30:36.615             3.909          1954.500
       186   07 Jun 2027 04:30:53.874   07 Jun 2027 04:31:06.240            12.366          6183.000
       187   07 Jun 2027 05:50:16.415   07 Jun 2027 05:50:47.561            31.146         15573.000
       188   07 Jun 2027 05:51:29.867   07 Jun 2027 05:51:45.163            15.296          7648.000
       189   07 Jun 2027 05:52:23.236   07 Jun 2027 05:52:59.701            36.465         18232.500
       190   07 Jun 2027 07:26:44.829   07 Jun 2027 07:28:29.685           104.856         52326.001
       191   07 Jun 2027 07:29:08.186   07 Jun 2027 07:29:12.349             4.163          1092.781
       192   07 Jun 2027 07:29:44.158   07 Jun 2027 07:29:46.253             2.095           924.125
       193   07 Jun 2027 09:01:55.968   07 Jun 2027 09:02:01.640             5.672          2517.062
       194   07 Jun 2027 09:02:19.525   07 Jun 2027 09:02:23.016             3.491           378.375
       195   07 Jun 2027 09:03:10.819   07 Jun 2027 09:03:12.851             2.032           127.344
       196   07 Jun 2027 09:04:14.043   07 Jun 2027 09:04:17.554             3.511          1448.250
       197   07 Jun 2027 09:05:53.041   07 Jun 2027 09:05:58.945             5.904          1976.688
       198   07 Jun 2027 09:06:30.036   07 Jun 2027 09:06:32.451             2.415            73.812
       199   07 Jun 2027 09:07:14.371   07 Jun 2027 09:07:16.936             2.565          1055.750
       200   07 Jun 2027 09:08:25.818   07 Jun 2027 09:08:30.262             4.444           834.531
       201   07 Jun 2027 10:38:14.603   07 Jun 2027 10:38:24.157             9.554          4381.625
       202   07 Jun 2027 10:40:07.621   07 Jun 2027 10:40:09.945             2.324           912.719
       203   07 Jun 2027 10:40:21.069   07 Jun 2027 10:40:21.789             0.720            30.562
       204   07 Jun 2027 10:40:56.917   07 Jun 2027 10:41:02.941             6.024           345.656
       205   07 Jun 2027 10:41:27.469   07 Jun 2027 10:41:29.076             1.607           661.875
       206   07 Jun 2027 10:42:10.591   07 Jun 2027 10:42:16.002             5.411           562.281
       207   07 Jun 2027 10:42:16.407   07 Jun 2027 10:42:16.533             0.126            12.656
       208   07 Jun 2027 10:42:54.221   07 Jun 2027 10:42:57.983             3.762          1022.625
       209   07 Jun 2027 10:43:18.956   07 Jun 2027 10:43:20.940             1.984           128.313
       210   07 Jun 2027 10:43:49.097   07 Jun 2027 10:43:50.586             1.489           663.219
       211   07 Jun 2027 10:44:02.431   07 Jun 2027 10:44:03.668             1.237           118.687
       212   07 Jun 2027 10:44:11.013   07 Jun 2027 10:44:12.883             1.870           229.531
       213   07 Jun 2027 10:44:17.901   07 Jun 2027 10:44:18.916             1.015             7.500
       214   08 Jun 2027 03:00:38.307   08 Jun 2027 03:00:51.765            13.458          6729.000
       215   08 Jun 2027 03:01:02.195   08 Jun 2027 03:01:03.644             1.449           724.500
       216   08 Jun 2027 03:01:42.128   08 Jun 2027 03:02:16.394            34.266         17133.000
       217   08 Jun 2027 03:03:40.515   08 Jun 2027 03:03:46.210             5.695          2847.500
       218   08 Jun 2027 03:05:44.039   08 Jun 2027 03:05:44.039             0.000             0.000
       219   08 Jun 2027 03:06:05.360   08 Jun 2027 03:06:14.948             9.588          4794.000
       220   08 Jun 2027 03:09:00.304   08 Jun 2027 03:09:17.108            16.804          8402.000
       221   08 Jun 2027 04:38:51.375   08 Jun 2027 04:39:27.761            36.386         18193.000
       222   08 Jun 2027 04:39:56.361   08 Jun 2027 04:42:01.716           125.355         62677.500
       223   08 Jun 2027 06:02:17.465   08 Jun 2027 06:03:22.524            65.059         32529.500
       224   08 Jun 2027 06:03:42.980   08 Jun 2027 06:03:55.598            12.618          6309.000
       225   08 Jun 2027 06:05:04.791   08 Jun 2027 06:05:05.707             0.916           458.000
       226   08 Jun 2027 07:38:44.691   08 Jun 2027 07:39:15.225            30.534         14111.218
       227   08 Jun 2027 07:40:21.154   08 Jun 2027 07:40:21.154             0.000             0.000
       228   08 Jun 2027 07:40:25.996   08 Jun 2027 07:40:29.051             3.055          1067.969
       229   08 Jun 2027 07:40:55.793   08 Jun 2027 07:41:01.137             5.344           388.656
       230   08 Jun 2027 07:41:23.996   08 Jun 2027 07:41:25.393             1.397           511.313
       231   08 Jun 2027 09:13:57.595   08 Jun 2027 09:14:06.069             8.474          3779.188
       232   08 Jun 2027 09:15:28.793   08 Jun 2027 09:15:34.211             5.418          2560.500
       233   08 Jun 2027 09:16:27.124   08 Jun 2027 09:16:30.958             3.834          1024.750
       234   08 Jun 2027 09:17:17.920   08 Jun 2027 09:17:20.288             2.368           803.187
       235   08 Jun 2027 09:19:13.233   08 Jun 2027 09:19:19.010             5.777          2456.125
       236   08 Jun 2027 09:20:08.592   08 Jun 2027 09:20:13.274             4.682          1471.125
       237   08 Jun 2027 09:20:24.088   08 Jun 2027 09:20:24.626             0.538           101.969
       238   08 Jun 2027 09:20:36.333   08 Jun 2027 09:20:37.958             1.625            33.281
       239   08 Jun 2027 10:49:53.382   08 Jun 2027 10:50:10.389            17.007          7986.313
       240   08 Jun 2027 10:52:06.081   08 Jun 2027 10:52:09.754             3.673          1568.531
       241   08 Jun 2027 10:52:39.743   08 Jun 2027 10:52:42.293             2.550           222.750
       242   08 Jun 2027 10:52:58.140   08 Jun 2027 10:52:58.581             0.441           139.094
       243   08 Jun 2027 10:53:36.150   08 Jun 2027 10:53:42.919             6.769          1174.031
       244   08 Jun 2027 10:54:15.240   08 Jun 2027 10:54:17.700             2.460           959.094
       245   08 Jun 2027 10:55:17.384   08 Jun 2027 10:55:21.376             3.992          1749.719
       246   08 Jun 2027 10:55:36.415   08 Jun 2027 10:55:38.267             1.852           299.531
       247   08 Jun 2027 10:55:50.392   08 Jun 2027 10:55:51.425             1.033           297.000
       248   09 Jun 2027 03:13:42.870   09 Jun 2027 03:15:12.972            90.102         45051.000
       249   09 Jun 2027 03:16:17.180   09 Jun 2027 03:16:22.290             5.110          2555.000
       250   09 Jun 2027 03:16:28.394   09 Jun 2027 03:16:46.842            18.448          9224.000
       251   09 Jun 2027 03:17:16.403   09 Jun 2027 03:17:34.935            18.532          9266.000
       252   09 Jun 2027 03:20:24.907   09 Jun 2027 03:20:29.996             5.089          2544.500
       253   09 Jun 2027 03:20:48.408   09 Jun 2027 03:21:06.285            17.877          8938.500
       254   09 Jun 2027 04:39:50.165   09 Jun 2027 04:40:19.342            29.177         14588.500
       255   09 Jun 2027 04:50:47.018   09 Jun 2027 04:53:03.152           136.134         67887.219
       256   09 Jun 2027 06:14:43.710   09 Jun 2027 06:14:56.210            12.500          5708.094
       257   09 Jun 2027 06:15:30.580   09 Jun 2027 06:15:32.594             2.014           721.344
       258   09 Jun 2027 06:17:06.674   09 Jun 2027 06:17:06.674             0.000             0.000
       259   09 Jun 2027 07:50:29.435   09 Jun 2027 07:50:41.827            12.392          4408.125
       260   09 Jun 2027 07:51:32.122   09 Jun 2027 07:51:34.678             2.556           846.562
       261   09 Jun 2027 07:52:09.308   09 Jun 2027 07:52:12.850             3.542          1082.187
       262   09 Jun 2027 07:53:06.791   09 Jun 2027 07:53:11.175             4.384          1685.656
       263   09 Jun 2027 07:53:17.342   09 Jun 2027 07:53:20.013             2.671            72.969
       264   09 Jun 2027 07:53:25.605   09 Jun 2027 07:53:25.605             0.000             0.000
       265   09 Jun 2027 07:53:43.088   09 Jun 2027 07:53:44.133             1.045           522.500
       266   09 Jun 2027 07:54:31.185   09 Jun 2027 07:54:37.158             5.973          1617.719
       267   09 Jun 2027 07:54:46.229   09 Jun 2027 07:54:46.919             0.690           108.125
       268   09 Jun 2027 09:25:13.354   09 Jun 2027 09:25:16.726             3.372          1686.000
       269   09 Jun 2027 09:25:27.157   09 Jun 2027 09:25:33.675             6.518          1435.500
       270   09 Jun 2027 09:26:01.619   09 Jun 2027 09:26:04.047             2.428           385.844
       271   09 Jun 2027 09:27:03.144   09 Jun 2027 09:27:09.225             6.081           240.406
       272   09 Jun 2027 09:28:33.998   09 Jun 2027 09:28:41.470             7.472          2079.812
       273   09 Jun 2027 09:28:47.367   09 Jun 2027 09:28:48.211             0.844           127.875
       274   09 Jun 2027 09:29:20.207   09 Jun 2027 09:29:23.006             2.799           878.031
       275   09 Jun 2027 09:29:59.856   09 Jun 2027 09:30:02.577             2.721           676.875
       276   09 Jun 2027 09:30:45.459   09 Jun 2027 09:30:47.800             2.341           705.844
       277   09 Jun 2027 09:31:01.014   09 Jun 2027 09:31:02.601             1.587           270.531
       278   09 Jun 2027 09:32:07.297   09 Jun 2027 09:32:12.666             5.369          1716.625
       279   09 Jun 2027 09:32:41.565   09 Jun 2027 09:32:46.198             4.633           393.812
       280   09 Jun 2027 11:02:03.069   09 Jun 2027 11:02:17.401            14.332          6603.281
       281   09 Jun 2027 11:04:02.863   09 Jun 2027 11:04:06.121             3.258           151.406
       282   09 Jun 2027 11:04:26.453   09 Jun 2027 11:04:29.371             2.918           358.063
       283   09 Jun 2027 11:04:33.095   09 Jun 2027 11:04:35.631             2.536            55.687
       284   09 Jun 2027 11:05:48.474   09 Jun 2027 11:05:51.901             3.427          1207.063
       285   09 Jun 2027 11:06:53.566   09 Jun 2027 11:07:03.122             9.556          1462.469
       286   09 Jun 2027 11:07:05.724   09 Jun 2027 11:07:08.904             3.180            81.313
       287   09 Jun 2027 11:07:11.958   09 Jun 2027 11:07:16.211             4.253            73.687
       288   10 Jun 2027 03:26:04.781   10 Jun 2027 03:29:11.538           186.757         93378.500
       289   10 Jun 2027 03:29:55.726   10 Jun 2027 03:30:10.112            14.386          7193.000
       290   10 Jun 2027 03:30:27.168   10 Jun 2027 03:30:57.139            29.971         14985.500
       291   10 Jun 2027 04:51:08.105   10 Jun 2027 04:51:21.801            13.696          6848.000
       292   10 Jun 2027 04:52:28.531   10 Jun 2027 04:52:28.531             0.000             0.000
       293   10 Jun 2027 05:02:48.107   10 Jun 2027 05:04:11.622            83.515         41757.500
       294   10 Jun 2027 06:25:04.933   10 Jun 2027 06:25:14.460             9.527          4427.562
       295   10 Jun 2027 06:25:32.025   10 Jun 2027 06:25:33.500             1.475           445.469
       296   10 Jun 2027 06:25:57.513   10 Jun 2027 06:25:57.513             0.000             0.000
       297   10 Jun 2027 06:27:01.114   10 Jun 2027 06:27:07.034             5.920          2157.187
       298   10 Jun 2027 06:27:30.294   10 Jun 2027 06:27:30.294             0.000             0.000
       299   10 Jun 2027 06:27:59.222   10 Jun 2027 06:28:04.484             5.262          1514.469
       300   10 Jun 2027 06:28:49.929   10 Jun 2027 06:28:49.929             0.000             0.000
       301   10 Jun 2027 06:29:41.227   10 Jun 2027 06:29:44.777             3.550          1775.000
       302   10 Jun 2027 06:29:58.340   10 Jun 2027 06:30:00.297             1.957           961.969
       303   10 Jun 2027 08:00:19.685   10 Jun 2027 08:00:23.569             3.884          1635.750
       304   10 Jun 2027 08:00:42.566   10 Jun 2027 08:00:43.400             0.834           103.094
       305   10 Jun 2027 08:02:12.995   10 Jun 2027 08:02:14.976             1.981           833.469
       306   10 Jun 2027 08:03:53.883   10 Jun 2027 08:04:00.096             6.213          2556.281
       307   10 Jun 2027 08:05:18.126   10 Jun 2027 08:05:18.193             0.067            33.500
       308   10 Jun 2027 08:05:23.819   10 Jun 2027 08:05:29.810             5.991          2370.562
       309   10 Jun 2027 08:06:03.695   10 Jun 2027 08:06:07.319             3.624           922.531
       310   10 Jun 2027 08:06:34.621   10 Jun 2027 08:06:38.360             3.739           562.250
       311   10 Jun 2027 09:37:21.197   10 Jun 2027 09:37:29.716             8.519          3501.969
       312   10 Jun 2027 09:41:02.711   10 Jun 2027 09:41:04.934             2.223           617.563
       313   10 Jun 2027 09:42:06.583   10 Jun 2027 09:42:14.349             7.766          1386.656
       314   10 Jun 2027 09:42:46.678   10 Jun 2027 09:42:47.809             1.131           389.969
       315   10 Jun 2027 09:43:21.116   10 Jun 2027 09:43:21.795             0.679           334.031
       316   10 Jun 2027 09:43:32.646   10 Jun 2027 09:43:33.836             1.190           330.219
       317   10 Jun 2027 09:44:20.465   10 Jun 2027 09:44:24.646             4.181          1424.875
       318   10 Jun 2027 11:14:19.176   10 Jun 2027 11:14:34.309            15.133          6561.750
       319   10 Jun 2027 11:17:03.284   10 Jun 2027 11:17:06.907             3.623          1091.969
       320   10 Jun 2027 11:17:58.626   10 Jun 2027 11:18:02.833             4.207          1426.062
       321   10 Jun 2027 11:18:35.949   10 Jun 2027 11:18:38.278             2.329           976.688
       322   10 Jun 2027 11:19:04.558   10 Jun 2027 11:19:06.404             1.846           447.188
       323   10 Jun 2027 11:19:35.663   10 Jun 2027 11:19:39.198             3.535           914.344
       324   10 Jun 2027 11:19:54.482   10 Jun 2027 11:19:56.289             1.807           477.625
       325   11 Jun 2027 03:38:22.381   11 Jun 2027 03:41:28.875           186.494         93247.000
       326   11 Jun 2027 03:42:45.539   11 Jun 2027 03:43:33.634            48.095         24047.500
       327   11 Jun 2027 03:45:06.435   11 Jun 2027 03:45:08.277             1.842           921.000
       328   11 Jun 2027 05:03:15.244   11 Jun 2027 05:03:26.663            11.419          5709.500
       329   11 Jun 2027 05:04:29.166   11 Jun 2027 05:04:31.779             2.613          1306.500
       330   11 Jun 2027 05:14:45.329   11 Jun 2027 05:15:39.746            54.417         27208.500
       331   11 Jun 2027 06:36:44.161   11 Jun 2027 06:37:14.221            30.060         14856.844
       332   11 Jun 2027 06:37:35.069   11 Jun 2027 06:37:40.172             5.103           537.844
       333   11 Jun 2027 06:38:51.662   11 Jun 2027 06:38:55.044             3.382          1660.563
       334   11 Jun 2027 06:39:29.454   11 Jun 2027 06:39:34.454             5.000          1027.906
       335   11 Jun 2027 06:41:05.737   11 Jun 2027 06:41:13.339             7.602          2332.344
       336   11 Jun 2027 06:41:22.406   11 Jun 2027 06:41:24.816             2.410           283.344
       337   11 Jun 2027 06:41:54.008   11 Jun 2027 06:41:54.008             0.000             0.000
       338   11 Jun 2027 06:42:10.333   11 Jun 2027 06:42:16.824             6.491          1346.375
       339   11 Jun 2027 08:11:44.674   11 Jun 2027 08:11:48.653             3.979          1368.937
       340   11 Jun 2027 08:13:13.346   11 Jun 2027 08:13:16.168             2.822          1371.438
       341   11 Jun 2027 08:13:36.308   11 Jun 2027 08:13:38.082             1.774           398.188
       342   11 Jun 2027 08:14:35.464   11 Jun 2027 08:14:41.854             6.390          1670.562
       343   11 Jun 2027 08:15:02.874   11 Jun 2027 08:15:03.194             0.320            70.656
       344   11 Jun 2027 08:15:37.487   11 Jun 2027 08:15:38.760             1.273           109.875
       345   11 Jun 2027 08:17:13.284   11 Jun 2027 08:17:18.424             5.140          2464.531
       346   11 Jun 2027 08:17:21.657   11 Jun 2027 08:17:21.657             0.000             0.000
       347   11 Jun 2027 08:18:05.992   11 Jun 2027 08:18:09.158             3.166          1486.500
       348   11 Jun 2027 08:19:20.143   11 Jun 2027 08:19:26.464             6.321          2196.813
       349   11 Jun 2027 08:19:55.371   11 Jun 2027 08:19:58.112             2.741           519.938
       350   11 Jun 2027 09:49:23.251   11 Jun 2027 09:49:32.956             9.705          3499.969
       351   11 Jun 2027 09:53:42.033   11 Jun 2027 09:53:47.354             5.321          1337.594
       352   11 Jun 2027 09:54:43.936   11 Jun 2027 09:54:47.604             3.668          1724.125
       353   11 Jun 2027 09:54:49.911   11 Jun 2027 09:54:52.762             2.851            72.094
       354   11 Jun 2027 09:55:19.380   11 Jun 2027 09:55:26.187             6.807           431.719
       355   11 Jun 2027 09:55:54.479   11 Jun 2027 09:55:56.230             1.751           177.344
       356   11 Jun 2027 09:56:09.160   11 Jun 2027 09:56:11.266             2.106           347.469
       357   11 Jun 2027 09:56:47.581   11 Jun 2027 09:56:49.694             2.113          1013.594
       358   11 Jun 2027 11:26:09.537   11 Jun 2027 11:26:20.876            11.339          5248.094
       359   11 Jun 2027 11:28:10.097   11 Jun 2027 11:28:11.400             1.303           561.563
       360   11 Jun 2027 11:28:35.627   11 Jun 2027 11:28:36.077             0.450           172.000
       361   11 Jun 2027 11:29:10.040   11 Jun 2027 11:29:10.987             0.947           373.531
       362   11 Jun 2027 11:30:15.794   11 Jun 2027 11:30:16.947             1.153           477.375
       363   11 Jun 2027 11:30:25.152   11 Jun 2027 11:30:30.595             5.443           114.281
       364   11 Jun 2027 11:31:08.896   11 Jun 2027 11:31:17.289             8.393          1196.906
       365   11 Jun 2027 11:32:20.553   11 Jun 2027 11:32:28.536             7.983          1113.625
       366   12 Jun 2027 03:50:28.629   12 Jun 2027 03:54:33.059           244.430        122215.000
       367   12 Jun 2027 03:54:46.285   12 Jun 2027 03:55:03.762            17.477          8738.500
       368   12 Jun 2027 05:14:37.117   12 Jun 2027 05:15:18.161            41.044         20522.000
       369   12 Jun 2027 06:48:26.273   12 Jun 2027 06:49:37.211            70.938         34808.125
       370   12 Jun 2027 06:50:08.357   12 Jun 2027 06:50:11.156             2.799           948.063
       371   12 Jun 2027 06:50:42.901   12 Jun 2027 06:50:42.901             0.000             0.000
       372   12 Jun 2027 06:50:44.708   12 Jun 2027 06:50:47.798             3.090           666.625
       373   12 Jun 2027 06:51:07.774   12 Jun 2027 06:51:07.774             0.000             0.000
       374   12 Jun 2027 06:51:20.219   12 Jun 2027 06:51:27.919             7.700           852.687
       375   12 Jun 2027 06:52:02.923   12 Jun 2027 06:52:11.845             8.922          1093.875
       376   12 Jun 2027 06:53:42.754   12 Jun 2027 06:53:51.622             8.868          2025.312
       377   12 Jun 2027 08:23:18.296   12 Jun 2027 08:23:22.955             4.659          2248.687
       378   12 Jun 2027 08:25:37.287   12 Jun 2027 08:25:42.071             4.784          2301.187
       379   12 Jun 2027 08:26:31.298   12 Jun 2027 08:26:32.572             1.274           601.813
       380   12 Jun 2027 08:27:54.516   12 Jun 2027 08:28:00.187             5.671          2178.937
       381   12 Jun 2027 08:29:18.153   12 Jun 2027 08:29:23.214             5.061          2156.906
       382   12 Jun 2027 08:30:17.984   12 Jun 2027 08:30:23.653             5.669          1660.594
       383   12 Jun 2027 08:30:42.964   12 Jun 2027 08:30:43.552             0.588           294.000
       384   12 Jun 2027 08:31:09.949   12 Jun 2027 08:31:17.114             7.165          1111.750
       385   12 Jun 2027 08:32:06.610   12 Jun 2027 08:32:12.555             5.945          1201.750
       386   12 Jun 2027 10:01:24.480   12 Jun 2027 10:01:36.111            11.631          5366.531
       387   12 Jun 2027 10:03:05.752   12 Jun 2027 10:03:06.789             1.037            96.406
       388   12 Jun 2027 10:03:28.440   12 Jun 2027 10:03:32.172             3.732           494.875
       389   12 Jun 2027 10:05:03.989   12 Jun 2027 10:05:06.799             2.810          1024.281
       390   12 Jun 2027 10:05:25.074   12 Jun 2027 10:05:25.650             0.576           259.594
       391   12 Jun 2027 10:06:46.326   12 Jun 2027 10:06:52.389             6.063          2142.750
       392   12 Jun 2027 10:07:30.730   12 Jun 2027 10:07:38.575             7.845          1198.156
       393   12 Jun 2027 10:07:51.237   12 Jun 2027 10:07:52.736             1.499           369.688
       394   12 Jun 2027 10:08:06.762   12 Jun 2027 10:08:10.765             4.003           395.906
       395   12 Jun 2027 10:08:24.062   12 Jun 2027 10:08:26.147             2.085           397.250
       396   12 Jun 2027 10:08:28.238   12 Jun 2027 10:08:30.222             1.984            65.344
       397   12 Jun 2027 10:08:40.747   12 Jun 2027 10:08:41.814             1.067           316.562
       398   12 Jun 2027 11:38:19.380   12 Jun 2027 11:38:31.871            12.491          5289.813
       399   12 Jun 2027 11:38:51.651   12 Jun 2027 11:38:53.486             1.835           614.844
       400   12 Jun 2027 11:41:25.545   12 Jun 2027 11:41:31.511             5.966           613.781
       401   12 Jun 2027 11:42:02.294   12 Jun 2027 11:42:06.245             3.951           235.875
       402   12 Jun 2027 11:42:50.320   12 Jun 2027 11:42:54.793             4.473          1254.812
       403   12 Jun 2027 11:43:07.099   12 Jun 2027 11:43:07.797             0.698           131.625
       404   12 Jun 2027 11:43:50.826   12 Jun 2027 11:43:55.447             4.621          1258.187
       405   12 Jun 2027 11:44:17.197   12 Jun 2027 11:44:19.797             2.600           576.750
       406   13 Jun 2027 04:03:05.097   13 Jun 2027 04:03:56.004            50.907         25453.500
       407   13 Jun 2027 04:04:19.242   13 Jun 2027 04:06:29.722           130.480         65240.000
       408   13 Jun 2027 04:07:12.832   13 Jun 2027 04:07:33.191            20.359         10179.500
       409   13 Jun 2027 05:26:33.171   13 Jun 2027 05:26:51.114            17.943          8971.500
       410   13 Jun 2027 05:27:20.997   13 Jun 2027 05:27:20.997             0.000             0.000
       411   13 Jun 2027 07:02:46.308   13 Jun 2027 07:04:42.554           116.246         57336.312
       412   13 Jun 2027 07:05:42.988   13 Jun 2027 07:05:49.054             6.066          1764.969
       413   13 Jun 2027 08:36:19.384   13 Jun 2027 08:36:25.632             6.248          2288.375
       414   13 Jun 2027 08:38:39.451   13 Jun 2027 08:38:41.439             1.988           945.187
       415   13 Jun 2027 08:38:51.538   13 Jun 2027 08:38:51.538             0.000             0.000
       416   13 Jun 2027 08:39:11.242   13 Jun 2027 08:39:11.458             0.216           108.000
       417   13 Jun 2027 08:39:54.086   13 Jun 2027 08:40:00.994             6.908          1977.063
       418   13 Jun 2027 08:41:17.218   13 Jun 2027 08:41:21.832             4.614          1972.969
       419   13 Jun 2027 08:42:13.061   13 Jun 2027 08:42:16.767             3.706          1411.094
       420   13 Jun 2027 08:43:27.868   13 Jun 2027 08:43:29.410             1.542           603.094
       421   13 Jun 2027 08:44:17.929   13 Jun 2027 08:44:22.337             4.408          1516.219
       422   13 Jun 2027 10:13:51.781   13 Jun 2027 10:14:01.508             9.727          4459.563
       423   13 Jun 2027 10:17:04.686   13 Jun 2027 10:17:07.977             3.291          1335.844
       424   13 Jun 2027 10:18:44.553   13 Jun 2027 10:18:45.645             1.092           102.656
       425   13 Jun 2027 10:19:33.601   13 Jun 2027 10:19:38.222             4.621          1057.281
       426   13 Jun 2027 10:20:11.055   13 Jun 2027 10:20:13.385             2.330           977.031
       427   13 Jun 2027 10:20:31.676   13 Jun 2027 10:20:34.525             2.849           303.094
       428   13 Jun 2027 11:50:47.160   13 Jun 2027 11:50:59.717            12.557          6122.406
       429   13 Jun 2027 11:51:57.386   13 Jun 2027 11:52:01.094             3.708          1037.656
       430   13 Jun 2027 11:52:51.586   13 Jun 2027 11:53:01.325             9.739            49.469
       431   13 Jun 2027 11:54:01.952   13 Jun 2027 11:54:05.905             3.953          1837.625
       432   13 Jun 2027 11:55:06.412   13 Jun 2027 11:55:09.347             2.935           861.000
       433   13 Jun 2027 11:55:21.544   13 Jun 2027 11:55:22.844             1.300           297.437
       434   13 Jun 2027 11:56:14.727   13 Jun 2027 11:56:15.667             0.940           433.281
