uniorb/output/strategy_4/Camera/Camera_KinoSat_111407.txt

KinoSat_111407
-------------------------
    Access    *     Start Time (UTCG)     *     Stop Time (UTCG)  *   Duration (s) *   Data (Mbytes)
         1   01 Jun 2027 03:02:48.219   01 Jun 2027 03:03:05.541            17.322          8661.000
         2   01 Jun 2027 03:03:50.857   01 Jun 2027 03:04:21.230            30.373         15186.500
         3   01 Jun 2027 03:04:44.506   01 Jun 2027 03:04:52.878             8.372          4186.000
         4   01 Jun 2027 03:05:53.130   01 Jun 2027 03:06:16.329            23.199         11599.500
         5   01 Jun 2027 03:08:24.522   01 Jun 2027 03:08:33.905             9.383          4691.500
         6   01 Jun 2027 03:10:25.885   01 Jun 2027 03:10:31.622             5.737          2868.500
         7   01 Jun 2027 04:40:59.677   01 Jun 2027 04:41:37.064            37.387         18693.500
         8   01 Jun 2027 04:42:07.225   01 Jun 2027 04:43:20.143            72.918         36459.000
         9   01 Jun 2027 06:05:05.673   01 Jun 2027 06:06:32.974            87.301         43650.500
        10   01 Jun 2027 07:40:51.268   01 Jun 2027 07:43:18.405           147.137         73568.500
        11   01 Jun 2027 09:15:48.713   01 Jun 2027 09:18:12.308           143.595         71797.500
        12   01 Jun 2027 09:22:25.887   01 Jun 2027 09:22:49.438            23.551         11775.500
        13   01 Jun 2027 10:52:00.956   01 Jun 2027 10:53:21.375            80.419         40209.500
        14   01 Jun 2027 10:57:08.180   01 Jun 2027 10:57:42.434            34.254         17127.000
        15   02 Jun 2027 03:15:53.453   02 Jun 2027 03:17:56.508           123.055         61527.500
        16   02 Jun 2027 03:18:30.619   02 Jun 2027 03:18:36.884             6.265          3132.500
        17   02 Jun 2027 03:18:57.120   02 Jun 2027 03:18:57.273             0.153            76.500
        18   02 Jun 2027 03:19:57.485   02 Jun 2027 03:19:57.485             0.000             0.000
        19   02 Jun 2027 03:20:02.190   02 Jun 2027 03:20:26.187            23.997         11998.500
        20   02 Jun 2027 03:22:02.783   02 Jun 2027 03:22:04.544             1.761           880.500
        21   02 Jun 2027 03:22:16.656   02 Jun 2027 03:22:17.011             0.355           177.500
        22   02 Jun 2027 03:22:29.865   02 Jun 2027 03:22:41.778            11.913          5956.500
        23   02 Jun 2027 04:41:53.305   02 Jun 2027 04:42:13.701            20.396         10198.000
        24   02 Jun 2027 04:52:55.790   02 Jun 2027 04:54:39.185           103.395         51697.500
        25   02 Jun 2027 04:54:50.536   02 Jun 2027 04:56:15.234            84.698         42349.000
        26   02 Jun 2027 06:15:55.329   02 Jun 2027 06:16:28.071            32.742         16371.000
        27   02 Jun 2027 06:17:19.691   02 Jun 2027 06:17:24.891             5.200          2600.000
        28   02 Jun 2027 06:17:53.334   02 Jun 2027 06:18:05.918            12.584          6292.000
        29   02 Jun 2027 06:18:33.625   02 Jun 2027 06:19:07.565            33.940         16970.000
        30   02 Jun 2027 07:51:27.273   02 Jun 2027 07:51:33.593             6.320          3160.000
        31   02 Jun 2027 07:52:36.993   02 Jun 2027 07:55:03.628           146.635         73317.500
        32   02 Jun 2027 07:55:25.851   02 Jun 2027 07:55:30.334             4.483          2241.500
        33   02 Jun 2027 09:27:22.387   02 Jun 2027 09:28:51.424            89.037         43055.375
        34   02 Jun 2027 09:30:21.443   02 Jun 2027 09:30:27.245             5.802          1527.719
        35   02 Jun 2027 09:30:56.438   02 Jun 2027 09:30:57.786             1.348           613.844
        36   02 Jun 2027 09:31:28.338   02 Jun 2027 09:31:28.338             0.000             0.000
        37   02 Jun 2027 09:32:08.098   02 Jun 2027 09:32:14.048             5.950          1747.531
        38   02 Jun 2027 09:32:55.588   02 Jun 2027 09:32:59.008             3.420           144.156
        39   02 Jun 2027 09:33:36.264   02 Jun 2027 09:33:39.765             3.501           889.219
        40   02 Jun 2027 11:04:22.451   02 Jun 2027 11:04:38.274            15.823          7395.625
        41   02 Jun 2027 11:06:24.327   02 Jun 2027 11:06:26.556             2.229           581.531
        42   02 Jun 2027 11:06:52.083   02 Jun 2027 11:06:58.686             6.603           489.969
        43   02 Jun 2027 11:07:29.910   02 Jun 2027 11:07:33.620             3.710           694.844
        44   02 Jun 2027 11:08:15.006   02 Jun 2027 11:08:17.736             2.730           467.719
        45   02 Jun 2027 11:08:44.640   02 Jun 2027 11:08:56.109            11.469           715.750
        46   02 Jun 2027 11:09:17.485   02 Jun 2027 11:09:26.916             9.431           668.000
        47   02 Jun 2027 11:09:42.130   02 Jun 2027 11:09:42.607             0.477           221.719
        48   02 Jun 2027 11:10:02.351   02 Jun 2027 11:10:05.551             3.200           225.500
        49   02 Jun 2027 11:10:25.451   02 Jun 2027 11:10:27.141             1.690           573.344
        50   03 Jun 2027 03:28:17.280   03 Jun 2027 03:31:43.775           206.495        103247.500
        51   03 Jun 2027 03:32:24.219   03 Jun 2027 03:32:31.883             7.664          3832.000
        52   03 Jun 2027 03:33:59.579   03 Jun 2027 03:34:18.330            18.751          9375.500
        53   03 Jun 2027 03:35:06.774   03 Jun 2027 03:35:11.137             4.363          2181.500
        54   03 Jun 2027 04:53:15.633   03 Jun 2027 04:53:44.002            28.369         14184.500
        55   03 Jun 2027 05:04:57.586   03 Jun 2027 05:06:10.304            72.718         36238.969
        56   03 Jun 2027 06:27:11.485   03 Jun 2027 06:27:22.779            11.294          4797.719
        57   03 Jun 2027 06:27:39.754   03 Jun 2027 06:27:41.248             1.494           416.500
        58   03 Jun 2027 06:29:11.511   03 Jun 2027 06:29:15.424             3.913          1924.562
        59   03 Jun 2027 06:29:26.891   03 Jun 2027 06:29:28.457             1.566           177.313
        60   03 Jun 2027 06:29:39.835   03 Jun 2027 06:29:39.835             0.000             0.000
        61   03 Jun 2027 06:30:36.210   03 Jun 2027 06:30:42.418             6.208          1929.625
        62   03 Jun 2027 06:31:56.302   03 Jun 2027 06:32:06.887            10.585          1807.844
        63   03 Jun 2027 08:02:19.074   03 Jun 2027 08:02:25.263             6.189          2582.063
        64   03 Jun 2027 08:03:27.628   03 Jun 2027 08:03:27.628             0.000             0.000
        65   03 Jun 2027 08:04:20.561   03 Jun 2027 08:04:28.392             7.831          2113.000
        66   03 Jun 2027 08:06:02.288   03 Jun 2027 08:06:13.709            11.421          2667.500
        67   03 Jun 2027 08:07:26.619   03 Jun 2027 08:07:32.511             5.892          2231.188
        68   03 Jun 2027 08:07:52.997   03 Jun 2027 08:07:55.464             2.467           467.125
        69   03 Jun 2027 08:08:51.246   03 Jun 2027 08:08:54.667             3.421          1671.094
        70   03 Jun 2027 09:39:30.757   03 Jun 2027 09:39:42.513            11.756          3218.875
        71   03 Jun 2027 09:41:56.039   03 Jun 2027 09:41:59.075             3.036           508.875
        72   03 Jun 2027 09:42:57.630   03 Jun 2027 09:43:01.590             3.960           296.563
        73   03 Jun 2027 09:43:30.307   03 Jun 2027 09:43:38.040             7.733           506.969
        74   03 Jun 2027 09:44:20.666   03 Jun 2027 09:44:22.988             2.322           726.000
        75   03 Jun 2027 09:45:18.958   03 Jun 2027 09:45:24.719             5.761          1441.656
        76   03 Jun 2027 09:45:43.676   03 Jun 2027 09:45:47.084             3.408           159.469
        77   03 Jun 2027 09:46:29.167   03 Jun 2027 09:46:32.369             3.202          1315.094
        78   03 Jun 2027 11:16:28.127   03 Jun 2027 11:16:40.915            12.788          5261.188
        79   03 Jun 2027 11:18:07.862   03 Jun 2027 11:18:09.088             1.226           603.656
        80   03 Jun 2027 11:18:59.353   03 Jun 2027 11:19:01.742             2.389           370.813
        81   03 Jun 2027 11:20:03.145   03 Jun 2027 11:20:09.078             5.933          1718.281
        82   03 Jun 2027 11:20:23.199   03 Jun 2027 11:20:26.985             3.786           441.281
        83   03 Jun 2027 11:20:56.131   03 Jun 2027 11:20:57.455             1.324           520.188
        84   03 Jun 2027 11:22:23.752   03 Jun 2027 11:22:28.280             4.528          2199.094
        85   04 Jun 2027 03:40:35.839   04 Jun 2027 03:42:52.449           136.610         68305.000
        86   04 Jun 2027 03:43:42.981   04 Jun 2027 03:44:18.955            35.974         17987.000
        87   04 Jun 2027 03:44:25.362   04 Jun 2027 03:44:42.544            17.182          8591.000
        88   04 Jun 2027 03:47:20.063   04 Jun 2027 03:47:30.299            10.236          5118.000
        89   04 Jun 2027 05:04:42.168   04 Jun 2027 05:05:25.314            43.146         21573.000
        90   04 Jun 2027 05:16:54.443   04 Jun 2027 05:17:33.250            38.807         19403.500
        91   04 Jun 2027 06:38:56.482   04 Jun 2027 06:39:27.937            31.455         14508.656
        92   04 Jun 2027 06:40:59.847   04 Jun 2027 06:41:03.517             3.670          1560.812
        93   04 Jun 2027 06:42:09.622   04 Jun 2027 06:42:13.950             4.328          1935.375
        94   04 Jun 2027 06:42:45.622   04 Jun 2027 06:42:46.488             0.866           150.156
        95   04 Jun 2027 06:43:51.346   04 Jun 2027 06:43:53.946             2.600          1114.250
        96   04 Jun 2027 08:13:48.725   04 Jun 2027 08:13:54.432             5.707          2024.781
        97   04 Jun 2027 08:15:26.795   04 Jun 2027 08:15:31.332             4.537          1537.094
        98   04 Jun 2027 08:16:29.258   04 Jun 2027 08:16:34.237             4.979          1497.063
        99   04 Jun 2027 08:18:02.779   04 Jun 2027 08:18:09.549             6.770          2452.188
       100   04 Jun 2027 08:19:27.516   04 Jun 2027 08:19:35.847             8.331          2251.750
       101   04 Jun 2027 08:20:16.099   04 Jun 2027 08:20:20.369             4.270           669.313
       102   04 Jun 2027 08:20:32.284   04 Jun 2027 08:20:33.271             0.987           334.500
       103   04 Jun 2027 08:21:35.313   04 Jun 2027 08:21:38.191             2.878          1439.000
       104   04 Jun 2027 08:22:04.193   04 Jun 2027 08:22:06.241             2.048           254.656
       105   04 Jun 2027 08:22:08.026   04 Jun 2027 08:22:08.908             0.882             2.688
       106   04 Jun 2027 09:51:32.492   04 Jun 2027 09:51:41.688             9.196          4104.875
       107   04 Jun 2027 09:53:15.761   04 Jun 2027 09:53:16.169             0.408           117.875
       108   04 Jun 2027 09:53:45.433   04 Jun 2027 09:53:47.207             1.774           793.000
       109   04 Jun 2027 09:55:09.046   04 Jun 2027 09:55:12.188             3.142           676.906
       110   04 Jun 2027 09:55:37.554   04 Jun 2027 09:55:37.554             0.000             0.000
       111   04 Jun 2027 09:56:26.130   04 Jun 2027 09:56:29.782             3.652          1693.531
       112   04 Jun 2027 09:56:35.470   04 Jun 2027 09:56:36.620             1.150            73.094
       113   04 Jun 2027 09:58:01.685   04 Jun 2027 09:58:08.027             6.342          2026.750
       114   04 Jun 2027 09:58:17.272   04 Jun 2027 09:58:20.554             3.282            46.000
       115   04 Jun 2027 09:58:50.925   04 Jun 2027 09:58:53.175             2.250           790.000
       116   04 Jun 2027 09:58:57.653   04 Jun 2027 09:58:58.999             1.346            13.750
       117   04 Jun 2027 11:28:20.601   04 Jun 2027 11:28:32.125            11.524          5132.594
       118   04 Jun 2027 11:28:42.616   04 Jun 2027 11:28:48.718             6.102             5.094
       119   04 Jun 2027 11:30:39.396   04 Jun 2027 11:30:42.195             2.799             4.312
       120   04 Jun 2027 11:31:06.756   04 Jun 2027 11:31:09.414             2.658           264.531
       121   04 Jun 2027 11:31:58.099   04 Jun 2027 11:32:04.730             6.631          1050.063
       122   04 Jun 2027 11:32:24.847   04 Jun 2027 11:32:28.046             3.199           434.094
       123   04 Jun 2027 11:32:38.016   04 Jun 2027 11:32:38.749             0.733           311.562
       124   04 Jun 2027 11:32:48.599   04 Jun 2027 11:32:51.010             2.411           177.406
       125   04 Jun 2027 11:34:06.574   04 Jun 2027 11:34:13.730             7.156          2361.375
       126   04 Jun 2027 11:34:39.008   04 Jun 2027 11:34:40.822             1.814           625.469
       127   04 Jun 2027 11:34:55.059   04 Jun 2027 11:35:02.803             7.744           146.937
       128   05 Jun 2027 03:52:41.020   05 Jun 2027 03:54:29.142           108.122         54061.000
       129   05 Jun 2027 03:54:36.095   05 Jun 2027 03:56:42.396           126.301         63150.500
       130   05 Jun 2027 03:56:49.812   05 Jun 2027 03:57:13.403            23.591         11795.500
       131   05 Jun 2027 05:16:46.130   05 Jun 2027 05:17:27.855            41.725         20862.500
       132   05 Jun 2027 06:52:43.583   05 Jun 2027 06:53:45.856            62.273         31051.344
       133   05 Jun 2027 06:54:23.896   05 Jun 2027 06:54:26.633             2.737           420.937
       134   05 Jun 2027 06:55:51.909   05 Jun 2027 06:55:56.945             5.036          2518.000
       135   05 Jun 2027 08:26:32.986   05 Jun 2027 08:26:47.575            14.589          2604.906
       136   05 Jun 2027 08:28:31.350   05 Jun 2027 08:28:34.127             2.777          1190.562
       137   05 Jun 2027 08:30:02.818   05 Jun 2027 08:30:07.298             4.480          2153.781
       138   05 Jun 2027 08:31:27.156   05 Jun 2027 08:31:32.136             4.980          2155.094
       139   05 Jun 2027 08:32:25.352   05 Jun 2027 08:32:29.136             3.784          1633.531
       140   05 Jun 2027 08:32:59.495   05 Jun 2027 08:33:06.291             6.796           836.656
       141   05 Jun 2027 08:33:36.899   05 Jun 2027 08:33:44.267             7.368           956.500
       142   05 Jun 2027 10:03:35.969   05 Jun 2027 10:03:47.868            11.899          5706.406
       143   05 Jun 2027 10:06:24.478   05 Jun 2027 10:06:33.090             8.612          3885.656
       144   05 Jun 2027 10:06:48.311   05 Jun 2027 10:06:54.865             6.554           475.656
       145   05 Jun 2027 10:07:30.746   05 Jun 2027 10:07:32.725             1.979           532.844
       146   05 Jun 2027 10:07:46.735   05 Jun 2027 10:07:48.345             1.610            75.187
       147   05 Jun 2027 10:08:29.925   05 Jun 2027 10:08:32.032             2.107           780.094
       148   05 Jun 2027 10:08:39.179   05 Jun 2027 10:08:39.458             0.279           124.406
       149   05 Jun 2027 10:09:03.016   05 Jun 2027 10:09:08.756             5.740           736.187
       150   05 Jun 2027 10:09:08.831   05 Jun 2027 10:09:10.379             1.548             2.344
       151   05 Jun 2027 10:10:01.382   05 Jun 2027 10:10:05.693             4.311           902.437
       152   05 Jun 2027 10:10:21.202   05 Jun 2027 10:10:21.400             0.198            26.125
       153   05 Jun 2027 10:10:37.005   05 Jun 2027 10:10:39.118             2.113           243.000
       154   05 Jun 2027 11:40:30.674   05 Jun 2027 11:40:43.128            12.454          5486.563
       155   05 Jun 2027 11:40:52.690   05 Jun 2027 11:40:54.880             2.190           298.813
       156   05 Jun 2027 11:41:03.841   05 Jun 2027 11:41:05.195             1.354           129.844
       157   05 Jun 2027 11:42:47.152   05 Jun 2027 11:42:50.935             3.783          1421.937
       158   05 Jun 2027 11:43:05.451   05 Jun 2027 11:43:07.364             1.913            42.188
       159   05 Jun 2027 11:44:12.709   05 Jun 2027 11:44:16.305             3.596          1609.188
       160   05 Jun 2027 11:44:54.179   05 Jun 2027 11:44:56.562             2.383          1158.938
       161   05 Jun 2027 11:45:19.274   05 Jun 2027 11:45:20.602             1.328           478.781
       162   05 Jun 2027 11:46:01.226   05 Jun 2027 11:46:05.447             4.221           465.875
       163   05 Jun 2027 11:46:27.508   05 Jun 2027 11:46:30.798             3.290           587.500
       164   06 Jun 2027 04:05:16.113   06 Jun 2027 04:06:58.996           102.883         51441.500
       165   06 Jun 2027 04:07:06.814   06 Jun 2027 04:08:51.796           104.982         52491.000
       166   06 Jun 2027 04:09:26.261   06 Jun 2027 04:09:39.883            13.622          6811.000
       167   06 Jun 2027 05:28:41.045   06 Jun 2027 05:29:31.044            49.999         24999.500
       168   06 Jun 2027 07:05:00.670   06 Jun 2027 07:06:08.017            67.347         32487.906
       169   06 Jun 2027 07:06:56.361   06 Jun 2027 07:07:00.788             4.427          1347.344
       170   06 Jun 2027 07:07:09.245   06 Jun 2027 07:07:10.828             1.583           126.156
       171   06 Jun 2027 07:07:21.994   06 Jun 2027 07:07:21.994             0.000             0.000
       172   06 Jun 2027 07:07:27.933   06 Jun 2027 07:07:28.638             0.705           347.375
       173   06 Jun 2027 08:38:31.088   06 Jun 2027 08:38:41.189            10.101          3086.781
       174   06 Jun 2027 08:40:46.249   06 Jun 2027 08:40:47.800             1.551           694.875
       175   06 Jun 2027 08:41:32.973   06 Jun 2027 08:41:38.358             5.385          1067.750
       176   06 Jun 2027 08:42:23.489   06 Jun 2027 08:42:28.458             4.969          1030.469
       177   06 Jun 2027 08:45:19.354   06 Jun 2027 08:45:28.074             8.720          4221.188
       178   06 Jun 2027 08:45:38.105   06 Jun 2027 08:45:39.670             1.565           234.187
       179   06 Jun 2027 08:45:57.215   06 Jun 2027 08:46:06.846             9.631           482.063
       180   06 Jun 2027 08:47:00.827   06 Jun 2027 08:47:02.347             1.520           760.000
       181   06 Jun 2027 10:16:01.886   06 Jun 2027 10:16:11.800             9.914          4899.000
       182   06 Jun 2027 10:19:10.786   06 Jun 2027 10:19:17.571             6.785          1263.469
       183   06 Jun 2027 10:19:46.086   06 Jun 2027 10:19:48.115             2.029           891.094
       184   06 Jun 2027 10:20:54.030   06 Jun 2027 10:20:55.876             1.846           315.875
       185   06 Jun 2027 10:21:39.641   06 Jun 2027 10:21:43.502             3.861           951.031
       186   06 Jun 2027 10:22:19.043   06 Jun 2027 10:22:23.081             4.038           215.250
       187   06 Jun 2027 10:22:32.321   06 Jun 2027 10:22:33.998             1.677            36.062
       188   06 Jun 2027 10:22:43.545   06 Jun 2027 10:22:45.114             1.569           277.156
       189   06 Jun 2027 11:52:58.283   06 Jun 2027 11:53:19.671            21.388          7058.875
       190   06 Jun 2027 11:55:53.228   06 Jun 2027 11:55:59.250             6.022          1930.531
       191   06 Jun 2027 11:57:19.924   06 Jun 2027 11:57:24.480             4.556          2208.344
       192   06 Jun 2027 11:58:14.776   06 Jun 2027 11:58:18.799             4.023          1230.938
       193   07 Jun 2027 04:16:54.847   07 Jun 2027 04:18:33.841            98.994         49497.000
       194   07 Jun 2027 04:18:54.186   07 Jun 2027 04:20:06.685            72.499         36249.500
       195   07 Jun 2027 04:20:35.742   07 Jun 2027 04:20:52.061            16.319          8159.500
       196   07 Jun 2027 05:40:31.739   07 Jun 2027 05:41:26.102            54.363         27181.500
       197   07 Jun 2027 07:17:02.956   07 Jun 2027 07:18:34.147            91.191         41976.687
       198   07 Jun 2027 07:18:57.946   07 Jun 2027 07:19:00.066             2.120           697.000
       199   07 Jun 2027 07:19:31.293   07 Jun 2027 07:19:33.475             2.182           850.281
       200   07 Jun 2027 07:20:23.515   07 Jun 2027 07:20:27.217             3.702          1397.938
       201   07 Jun 2027 08:51:10.844   07 Jun 2027 08:51:16.709             5.865          2331.344
       202   07 Jun 2027 08:52:52.782   07 Jun 2027 08:52:57.538             4.756           459.656
       203   07 Jun 2027 08:53:18.399   07 Jun 2027 08:53:20.038             1.639           583.156
       204   07 Jun 2027 08:54:31.468   07 Jun 2027 08:54:36.848             5.380          1224.344
       205   07 Jun 2027 08:55:24.248   07 Jun 2027 08:55:27.285             3.037           812.062
       206   07 Jun 2027 08:56:05.994   07 Jun 2027 08:56:08.725             2.731           842.875
       207   07 Jun 2027 08:57:38.883   07 Jun 2027 08:57:45.122             6.239          2514.406
       208   07 Jun 2027 08:58:28.268   07 Jun 2027 08:58:30.925             2.657           915.500
       209   07 Jun 2027 08:58:43.253   07 Jun 2027 08:58:43.879             0.626           191.781
       210   07 Jun 2027 10:28:08.677   07 Jun 2027 10:28:19.773            11.096          5026.656
       211   07 Jun 2027 10:30:43.970   07 Jun 2027 10:30:49.961             5.991           997.156
       212   07 Jun 2027 10:31:02.609   07 Jun 2027 10:31:05.858             3.249           395.250
       213   07 Jun 2027 10:31:48.673   07 Jun 2027 10:31:52.853             4.180           874.906
       214   07 Jun 2027 10:33:08.204   07 Jun 2027 10:33:11.354             3.150           545.250
       215   07 Jun 2027 10:34:08.830   07 Jun 2027 10:34:12.618             3.788          1665.531
       216   07 Jun 2027 10:34:46.064   07 Jun 2027 10:34:49.711             3.647           627.781
       217   08 Jun 2027 04:29:20.019   08 Jun 2027 04:29:46.668            26.649         13324.500
       218   08 Jun 2027 04:30:08.029   08 Jun 2027 04:31:57.668           109.639         54819.500
       219   08 Jun 2027 04:32:57.975   08 Jun 2027 04:33:19.085            21.110         10555.000
       220   08 Jun 2027 05:52:41.551   08 Jun 2027 05:53:36.348            54.797         27398.500
       221   08 Jun 2027 05:55:30.189   08 Jun 2027 05:55:32.028             1.839           919.500
       222   08 Jun 2027 07:29:12.437   08 Jun 2027 07:30:42.442            90.005         44580.594
       223   08 Jun 2027 07:30:57.168   08 Jun 2027 07:30:58.411             1.243           371.156
       224   08 Jun 2027 07:32:43.585   08 Jun 2027 07:32:46.846             3.261          1630.500
       225   08 Jun 2027 09:04:22.364   08 Jun 2027 09:04:29.491             7.127          3336.313
       226   08 Jun 2027 09:04:42.836   08 Jun 2027 09:04:43.765             0.929           333.594
       227   08 Jun 2027 09:05:53.702   08 Jun 2027 09:05:54.588             0.886           383.656
       228   08 Jun 2027 09:07:41.724   08 Jun 2027 09:07:41.724             0.000             0.000
       229   08 Jun 2027 09:07:43.917   08 Jun 2027 09:07:49.929             6.012          1927.687
       230   08 Jun 2027 09:09:39.155   08 Jun 2027 09:09:44.665             5.510          2519.094
       231   08 Jun 2027 09:10:17.999   08 Jun 2027 09:10:20.477             2.478           882.062
       232   08 Jun 2027 09:10:50.008   08 Jun 2027 09:10:51.738             1.730           565.500
       233   08 Jun 2027 10:40:44.861   08 Jun 2027 10:40:55.395            10.534          5094.281
       234   08 Jun 2027 10:42:36.332   08 Jun 2027 10:42:39.281             2.949          1136.875
       235   08 Jun 2027 10:42:45.178   08 Jun 2027 10:42:47.315             2.137           149.594
       236   08 Jun 2027 10:43:18.734   08 Jun 2027 10:43:22.112             3.378           685.250
       237   08 Jun 2027 10:43:22.985   08 Jun 2027 10:43:24.683             1.698            27.281
       238   08 Jun 2027 10:44:15.467   08 Jun 2027 10:44:18.555             3.088           652.344
       239   08 Jun 2027 10:44:36.450   08 Jun 2027 10:44:41.261             4.811           559.219
       240   08 Jun 2027 10:44:43.135   08 Jun 2027 10:44:45.946             2.811            58.562
       241   08 Jun 2027 10:45:21.008   08 Jun 2027 10:45:24.567             3.559          1095.687
       242   08 Jun 2027 10:45:47.616   08 Jun 2027 10:45:50.148             2.532            69.156
       243   08 Jun 2027 10:46:02.450   08 Jun 2027 10:46:07.485             5.035           106.625
       244   08 Jun 2027 10:46:24.866   08 Jun 2027 10:46:26.171             1.305           443.281
       245   08 Jun 2027 10:46:29.788   08 Jun 2027 10:46:31.148             1.360            36.469
       246   09 Jun 2027 03:03:04.494   09 Jun 2027 03:03:42.635            38.141         19070.500
       247   09 Jun 2027 03:04:15.143   09 Jun 2027 03:04:24.285             9.142          4571.000
       248   09 Jun 2027 03:04:44.885   09 Jun 2027 03:04:56.851            11.966          5983.000
       249   09 Jun 2027 03:05:17.557   09 Jun 2027 03:05:24.338             6.781          3390.500
       250   09 Jun 2027 03:06:00.261   09 Jun 2027 03:06:06.128             5.867          2933.500
       251   09 Jun 2027 03:06:22.300   09 Jun 2027 03:06:39.823            17.523          8761.500
       252   09 Jun 2027 03:07:00.566   09 Jun 2027 03:07:02.826             2.260          1130.000
       253   09 Jun 2027 03:09:08.318   09 Jun 2027 03:09:12.527             4.209          2104.500
       254   09 Jun 2027 03:11:14.699   09 Jun 2027 03:11:57.092            42.393         21196.500
       255   09 Jun 2027 04:41:15.734   09 Jun 2027 04:41:53.598            37.864         18932.000
       256   09 Jun 2027 04:42:23.235   09 Jun 2027 04:44:07.007           103.772         51886.000
       257   09 Jun 2027 04:44:25.448   09 Jun 2027 04:44:50.804            25.356         12678.000
       258   09 Jun 2027 06:05:21.615   09 Jun 2027 06:05:56.070            34.455         17227.500
       259   09 Jun 2027 06:06:21.708   09 Jun 2027 06:06:21.708             0.000             0.000
       260   09 Jun 2027 06:06:50.126   09 Jun 2027 06:07:01.496            11.370          5608.125
       261   09 Jun 2027 07:41:06.978   09 Jun 2027 07:41:18.629            11.651          5024.687
       262   09 Jun 2027 07:42:17.829   09 Jun 2027 07:42:24.212             6.383          1850.000
       263   09 Jun 2027 07:42:47.945   09 Jun 2027 07:42:49.782             1.837           290.250
       264   09 Jun 2027 07:43:36.867   09 Jun 2027 07:43:40.920             4.053          1383.187
       265   09 Jun 2027 07:44:19.756   09 Jun 2027 07:44:22.558             2.802          1177.312
       266   09 Jun 2027 09:16:04.355   09 Jun 2027 09:16:15.979            11.624          5371.813
       267   09 Jun 2027 09:16:29.325   09 Jun 2027 09:16:30.367             1.042            23.687
       268   09 Jun 2027 09:18:55.933   09 Jun 2027 09:19:02.838             6.905           785.938
       269   09 Jun 2027 09:19:17.322   09 Jun 2027 09:19:19.187             1.865           261.406
       270   09 Jun 2027 09:20:27.721   09 Jun 2027 09:20:31.434             3.713          1591.312
       271   09 Jun 2027 09:22:41.623   09 Jun 2027 09:22:45.632             4.009          1962.375
       272   09 Jun 2027 09:23:03.103   09 Jun 2027 09:23:06.439             3.336           108.000
       273   09 Jun 2027 10:52:16.996   09 Jun 2027 10:52:28.866            11.870          5934.875
       274   09 Jun 2027 10:54:51.859   09 Jun 2027 10:54:52.881             1.022            93.094
       275   09 Jun 2027 10:55:24.474   09 Jun 2027 10:55:27.054             2.580           421.250
       276   09 Jun 2027 10:56:39.393   09 Jun 2027 10:56:47.433             8.040          2191.563
       277   09 Jun 2027 10:57:24.233   09 Jun 2027 10:57:26.244             2.011           750.625
       278   09 Jun 2027 10:57:59.190   09 Jun 2027 10:58:00.820             1.630           738.469
       279   09 Jun 2027 10:58:11.915   09 Jun 2027 10:58:12.697             0.782           239.813
       280   10 Jun 2027 03:16:09.873   10 Jun 2027 03:18:11.801           121.928         60964.000
       281   10 Jun 2027 03:18:42.658   10 Jun 2027 03:19:41.009            58.351         29175.500
       282   10 Jun 2027 03:20:07.182   10 Jun 2027 03:20:12.735             5.553          2776.500
       283   10 Jun 2027 03:23:02.836   10 Jun 2027 03:23:02.836             0.000             0.000
       284   10 Jun 2027 03:23:08.549   10 Jun 2027 03:23:11.188             2.639          1319.500
       285   10 Jun 2027 04:42:07.277   10 Jun 2027 04:42:31.176            23.899         11949.500
       286   10 Jun 2027 04:42:35.582   10 Jun 2027 04:42:48.800            13.218          6609.000
       287   10 Jun 2027 04:53:11.897   10 Jun 2027 04:54:46.319            94.422         45497.625
       288   10 Jun 2027 04:56:01.358   10 Jun 2027 04:56:02.346             0.988           195.531
       289   10 Jun 2027 06:16:10.117   10 Jun 2027 06:16:21.018            10.901          4001.125
       290   10 Jun 2027 06:17:01.029   10 Jun 2027 06:17:04.987             3.958          1221.437
       291   10 Jun 2027 06:17:35.111   10 Jun 2027 06:17:37.774             2.663           749.563
       292   10 Jun 2027 06:19:33.636   10 Jun 2027 06:19:43.098             9.462          3520.563
       293   10 Jun 2027 06:19:48.972   10 Jun 2027 06:19:48.972             0.000             0.000
       294   10 Jun 2027 07:51:42.461   10 Jun 2027 07:51:45.871             3.410          1333.437
       295   10 Jun 2027 07:53:08.616   10 Jun 2027 07:53:13.048             4.432          1811.188
       296   10 Jun 2027 07:53:56.759   10 Jun 2027 07:53:58.463             1.704           825.563
       297   10 Jun 2027 07:54:34.314   10 Jun 2027 07:54:37.414             3.100          1120.344
       298   10 Jun 2027 07:55:40.608   10 Jun 2027 07:55:43.196             2.588           676.750
       299   10 Jun 2027 07:56:16.347   10 Jun 2027 07:56:24.004             7.657          1035.969
       300   10 Jun 2027 07:57:07.548   10 Jun 2027 07:57:11.652             4.104          1138.406
       301   10 Jun 2027 09:27:37.806   10 Jun 2027 09:27:47.539             9.733          3040.656
       302   10 Jun 2027 09:28:27.357   10 Jun 2027 09:28:29.557             2.200           529.594
       303   10 Jun 2027 09:29:38.353   10 Jun 2027 09:29:44.893             6.540          1949.000
       304   10 Jun 2027 09:30:40.071   10 Jun 2027 09:30:45.931             5.860          1401.000
       305   10 Jun 2027 09:31:46.442   10 Jun 2027 09:31:53.834             7.392          1084.937
       306   10 Jun 2027 09:32:23.088   10 Jun 2027 09:32:26.108             3.020           840.313
       307   10 Jun 2027 09:33:37.799   10 Jun 2027 09:33:42.974             5.175          2232.750
       308   10 Jun 2027 09:34:52.936   10 Jun 2027 09:34:57.051             4.115          1904.437
       309   10 Jun 2027 11:04:39.228   10 Jun 2027 11:04:54.270            15.042          7095.812
       310   10 Jun 2027 11:06:59.587   10 Jun 2027 11:07:05.443             5.856          1146.750
       311   10 Jun 2027 11:08:22.599   10 Jun 2027 11:08:29.553             6.954          2353.219
       312   10 Jun 2027 11:08:52.396   10 Jun 2027 11:08:57.454             5.058           498.719
       313   10 Jun 2027 11:09:19.252   10 Jun 2027 11:09:25.738             6.486           560.219
       314   10 Jun 2027 11:09:53.376   10 Jun 2027 11:09:57.301             3.925           743.500
       315   11 Jun 2027 03:28:35.802   11 Jun 2027 03:31:09.143           153.341         76670.500
       316   11 Jun 2027 03:32:04.067   11 Jun 2027 03:32:04.386             0.319           159.500
       317   11 Jun 2027 03:32:13.706   11 Jun 2027 03:32:44.369            30.663         15331.500
       318   11 Jun 2027 03:33:08.141   11 Jun 2027 03:33:13.143             5.002          2501.000
       319   11 Jun 2027 03:34:33.821   11 Jun 2027 03:35:25.966            52.145         26072.500
       320   11 Jun 2027 04:53:31.418   11 Jun 2027 04:53:59.412            27.994         13997.000
       321   11 Jun 2027 05:05:14.205   11 Jun 2027 05:06:17.574            63.369         31449.187
       322   11 Jun 2027 06:27:26.819   11 Jun 2027 06:27:38.422            11.603          3893.625
       323   11 Jun 2027 06:27:56.363   11 Jun 2027 06:27:58.083             1.720           458.781
       324   11 Jun 2027 06:29:28.568   11 Jun 2027 06:29:32.918             4.350          1878.812
       325   11 Jun 2027 06:29:42.958   11 Jun 2027 06:29:44.051             1.093           220.344
       326   11 Jun 2027 06:30:53.651   11 Jun 2027 06:30:57.917             4.266          1953.063
       327   11 Jun 2027 06:32:14.369   11 Jun 2027 06:32:22.891             8.522          1907.437
       328   11 Jun 2027 08:02:34.195   11 Jun 2027 08:02:39.413             5.218          2580.375
       329   11 Jun 2027 08:03:15.930   11 Jun 2027 08:03:17.467             1.537           402.938
       330   11 Jun 2027 08:04:54.272   11 Jun 2027 08:04:55.439             1.167           583.500
       331   11 Jun 2027 08:06:19.765   11 Jun 2027 08:06:29.177             9.412          3455.906
       332   11 Jun 2027 08:07:43.886   11 Jun 2027 08:07:50.883             6.997          2236.469
       333   11 Jun 2027 08:08:11.065   11 Jun 2027 08:08:13.930             2.865           445.187
       334   11 Jun 2027 08:09:10.003   11 Jun 2027 08:09:12.601             2.598          1299.000
       335   11 Jun 2027 09:39:47.547   11 Jun 2027 09:39:54.857             7.310          3557.656
       336   11 Jun 2027 09:42:10.340   11 Jun 2027 09:42:12.993             2.653           460.250
       337   11 Jun 2027 09:43:16.592   11 Jun 2027 09:43:18.424             1.832           388.563
       338   11 Jun 2027 09:44:13.265   11 Jun 2027 09:44:16.714             3.449          1647.531
       339   11 Jun 2027 09:44:53.546   11 Jun 2027 09:44:55.100             1.554           603.906
       340   11 Jun 2027 09:45:07.021   11 Jun 2027 09:45:09.547             2.526           210.875
       341   11 Jun 2027 09:45:16.910   11 Jun 2027 09:45:20.885             3.975           188.125
       342   11 Jun 2027 09:46:14.759   11 Jun 2027 09:46:18.403             3.644          1213.250
       343   11 Jun 2027 11:16:43.765   11 Jun 2027 11:17:05.679            21.914          8071.469
       344   11 Jun 2027 11:19:15.761   11 Jun 2027 11:19:17.325             1.564           405.156
       345   11 Jun 2027 11:20:18.284   11 Jun 2027 11:20:23.658             5.374          1675.219
       346   11 Jun 2027 11:20:58.439   11 Jun 2027 11:21:03.362             4.923           758.625
       347   11 Jun 2027 11:21:11.581   11 Jun 2027 11:21:13.494             1.913           241.312
       348   11 Jun 2027 11:22:38.490   11 Jun 2027 11:22:43.202             4.712          2156.281
       349   11 Jun 2027 11:22:44.154   11 Jun 2027 11:22:44.583             0.429            21.719
       350   12 Jun 2027 03:40:50.399   12 Jun 2027 03:42:17.223            86.824         43412.000
       351   12 Jun 2027 03:42:28.273   12 Jun 2027 03:43:42.764            74.491         37245.500
       352   12 Jun 2027 03:44:02.976   12 Jun 2027 03:44:57.187            54.211         27105.500
       353   12 Jun 2027 03:47:34.541   12 Jun 2027 03:47:34.541             0.000             0.000
       354   12 Jun 2027 03:47:37.075   12 Jun 2027 03:47:49.940            12.865          6432.500
       355   12 Jun 2027 05:04:59.420   12 Jun 2027 05:05:41.447            42.027         21013.500
       356   12 Jun 2027 05:17:11.106   12 Jun 2027 05:17:48.788            37.682         18841.000
       357   12 Jun 2027 06:39:12.426   12 Jun 2027 06:39:31.551            19.125          9069.375
       358   12 Jun 2027 06:40:24.950   12 Jun 2027 06:40:28.189             3.239          1524.281
       359   12 Jun 2027 06:41:25.139   12 Jun 2027 06:41:26.425             1.286           509.562
       360   12 Jun 2027 06:41:55.258   12 Jun 2027 06:41:57.270             2.012           873.375
       361   12 Jun 2027 06:43:30.823   12 Jun 2027 06:43:38.835             8.012          2923.531
       362   12 Jun 2027 06:43:48.603   12 Jun 2027 06:43:49.576             0.973           276.125
       363   12 Jun 2027 06:44:30.254   12 Jun 2027 06:44:36.665             6.411          1271.187
       364   12 Jun 2027 08:14:03.650   12 Jun 2027 08:14:10.170             6.520          1835.688
       365   12 Jun 2027 08:15:43.905   12 Jun 2027 08:15:47.480             3.575          1602.594
       366   12 Jun 2027 08:16:03.920   12 Jun 2027 08:16:06.778             2.858           425.875
       367   12 Jun 2027 08:16:32.351   12 Jun 2027 08:16:35.302             2.951           787.219
       368   12 Jun 2027 08:18:20.219   12 Jun 2027 08:18:27.237             7.018          2412.375
       369   12 Jun 2027 08:19:44.078   12 Jun 2027 08:19:51.073             6.995          2229.250
       370   12 Jun 2027 08:21:23.393   12 Jun 2027 08:21:28.118             4.725          2208.156
       371   12 Jun 2027 08:22:20.348   12 Jun 2027 08:22:23.045             2.697           740.875
       372   12 Jun 2027 09:51:49.559   12 Jun 2027 09:51:58.819             9.260          4361.000
       373   12 Jun 2027 09:53:37.017   12 Jun 2027 09:53:37.829             0.812           142.906
       374   12 Jun 2027 09:54:53.957   12 Jun 2027 09:55:00.686             6.729          1857.125
       375   12 Jun 2027 09:55:25.937   12 Jun 2027 09:55:28.325             2.388           735.375
       376   12 Jun 2027 09:55:56.643   12 Jun 2027 09:55:58.089             1.446           208.344
       377   12 Jun 2027 09:57:11.506   12 Jun 2027 09:57:17.271             5.765          1944.375
       378   12 Jun 2027 09:57:30.059   12 Jun 2027 09:57:33.051             2.992           281.875
       379   12 Jun 2027 09:57:43.603   12 Jun 2027 09:57:44.951             1.348            60.125
       380   12 Jun 2027 09:58:24.106   12 Jun 2027 09:58:26.924             2.818           201.406
       381   12 Jun 2027 09:58:31.955   12 Jun 2027 09:58:35.508             3.553             8.219
       382   12 Jun 2027 09:59:02.279   12 Jun 2027 09:59:03.676             1.397           614.375
       383   12 Jun 2027 09:59:11.829   12 Jun 2027 09:59:12.757             0.928           254.781
       384   12 Jun 2027 11:28:37.161   12 Jun 2027 11:28:50.667            13.506          5933.094
       385   12 Jun 2027 11:29:00.194   12 Jun 2027 11:29:05.555             5.361           101.813
       386   12 Jun 2027 11:30:16.997   12 Jun 2027 11:30:21.280             4.283          1023.594
       387   12 Jun 2027 11:31:25.899   12 Jun 2027 11:31:30.889             4.990           918.125
       388   12 Jun 2027 11:32:17.124   12 Jun 2027 11:32:24.936             7.812          1139.813
       389   12 Jun 2027 11:32:53.354   12 Jun 2027 11:32:55.396             2.042           844.625
       390   12 Jun 2027 11:33:06.404   12 Jun 2027 11:33:07.870             1.466           339.375
       391   12 Jun 2027 11:33:54.922   12 Jun 2027 11:33:58.801             3.879          1470.375
       392   12 Jun 2027 11:34:39.127   12 Jun 2027 11:34:42.871             3.744           746.281
       393   12 Jun 2027 11:34:44.999   12 Jun 2027 11:34:53.463             8.464            35.594
       394   13 Jun 2027 03:52:58.712   13 Jun 2027 03:56:19.595           200.883        100441.500
       395   13 Jun 2027 05:17:02.242   13 Jun 2027 05:17:42.602            40.360         20180.000
       396   13 Jun 2027 06:52:59.467   13 Jun 2027 06:54:20.174            80.707         40278.031
       397   13 Jun 2027 06:54:39.592   13 Jun 2027 06:54:39.592             0.000             0.000
       398   13 Jun 2027 06:55:28.124   13 Jun 2027 06:55:32.092             3.968          1925.625
       399   13 Jun 2027 06:55:42.906   13 Jun 2027 06:55:47.961             5.055           263.344
       400   13 Jun 2027 06:56:03.118   13 Jun 2027 06:56:03.118             0.000             0.000
       401   13 Jun 2027 06:56:17.532   13 Jun 2027 06:56:17.794             0.262           131.000
       402   13 Jun 2027 08:26:49.358   13 Jun 2027 08:27:02.668            13.310          2687.062
       403   13 Jun 2027 08:28:48.592   13 Jun 2027 08:28:53.695             5.103          1188.844
       404   13 Jun 2027 08:29:11.899   13 Jun 2027 08:29:12.821             0.922           372.906
       405   13 Jun 2027 08:30:20.214   13 Jun 2027 08:30:26.908             6.694          2106.031
       406   13 Jun 2027 08:31:43.676   13 Jun 2027 08:31:51.290             7.614          2125.375
       407   13 Jun 2027 08:32:42.534   13 Jun 2027 08:32:46.135             3.601          1601.375
       408   13 Jun 2027 08:33:16.800   13 Jun 2027 08:33:18.652             1.852           899.750
       409   13 Jun 2027 08:33:36.511   13 Jun 2027 08:33:39.238             2.727           558.094
       410   13 Jun 2027 08:34:34.402   13 Jun 2027 08:34:37.544             3.142          1257.469
       411   13 Jun 2027 10:03:52.805   13 Jun 2027 10:04:07.711            14.906          6148.313
       412   13 Jun 2027 10:05:53.059   13 Jun 2027 10:05:57.800             4.741          2303.531
       413   13 Jun 2027 10:06:22.629   13 Jun 2027 10:06:30.514             7.885           747.031
       414   13 Jun 2027 10:07:51.168   13 Jun 2027 10:07:59.083             7.915          2223.156
       415   13 Jun 2027 10:09:11.628   13 Jun 2027 10:09:16.241             4.613          2147.906
       416   13 Jun 2027 10:09:45.483   13 Jun 2027 10:09:47.154             1.671           805.031
       417   13 Jun 2027 10:10:19.408   13 Jun 2027 10:10:20.647             1.239           222.937
       418   13 Jun 2027 10:10:40.220   13 Jun 2027 10:10:44.369             4.149           116.875
       419   13 Jun 2027 10:10:46.591   13 Jun 2027 10:10:46.803             0.212            47.750
       420   13 Jun 2027 11:40:47.445   13 Jun 2027 11:40:59.098            11.653          5536.594
       421   13 Jun 2027 11:41:10.634   13 Jun 2027 11:41:13.276             2.642           354.187
       422   13 Jun 2027 11:41:21.089   13 Jun 2027 11:41:22.104             1.015           191.625
       423   13 Jun 2027 11:43:09.821   13 Jun 2027 11:43:14.792             4.971          1585.531
       424   13 Jun 2027 11:43:40.059   13 Jun 2027 11:43:42.197             2.138           501.969
       425   13 Jun 2027 11:44:18.489   13 Jun 2027 11:44:21.340             2.851           760.563
       426   13 Jun 2027 11:44:37.600   13 Jun 2027 11:44:43.671             6.071           311.875
       427   13 Jun 2027 11:45:13.411   13 Jun 2027 11:45:16.971             3.560           929.375
       428   13 Jun 2027 11:46:37.266   13 Jun 2027 11:46:42.280             5.014          2133.375
       429   13 Jun 2027 11:46:46.114   13 Jun 2027 11:46:48.293             2.179           119.812
