uniorb/output/strategy_4/Camera/Camera_KinoSat_111604.txt

KinoSat_111604
-------------------------
    Access    *     Start Time (UTCG)     *     Stop Time (UTCG)  *   Duration (s) *   Data (Mbytes)
         1   01 Jun 2027 03:23:58.839   01 Jun 2027 03:24:27.239            28.400         14200.000
         2   01 Jun 2027 03:24:33.606   01 Jun 2027 03:26:23.589           109.983         54991.500
         3   01 Jun 2027 03:29:04.518   01 Jun 2027 03:29:21.104            16.586          8293.000
         4   01 Jun 2027 05:01:59.335   01 Jun 2027 05:03:09.118            69.783         34891.500
         5   01 Jun 2027 05:03:15.516   01 Jun 2027 05:03:32.302            16.786          8393.000
         6   01 Jun 2027 05:05:01.159   01 Jun 2027 05:05:19.188            18.029          9014.500
         7   01 Jun 2027 06:25:39.854   01 Jun 2027 06:26:58.713            78.859         39429.500
         8   01 Jun 2027 08:02:06.389   01 Jun 2027 08:03:43.773            97.384         48692.000
         9   01 Jun 2027 09:34:16.081   01 Jun 2027 09:34:25.357             9.276          4638.000
        10   01 Jun 2027 09:36:11.116   01 Jun 2027 09:37:50.736            99.620         49810.000
        11   01 Jun 2027 09:40:28.386   01 Jun 2027 09:41:09.120            40.734         20367.000
        12   01 Jun 2027 09:42:32.443   01 Jun 2027 09:42:32.701             0.258           129.000
        13   01 Jun 2027 09:43:15.036   01 Jun 2027 09:43:35.876            20.840         10420.000
        14   01 Jun 2027 09:43:55.723   01 Jun 2027 09:44:05.634             9.911          4955.500
        15   01 Jun 2027 11:13:10.060   01 Jun 2027 11:15:17.261           127.201         63600.500
        16   01 Jun 2027 11:17:53.921   01 Jun 2027 11:18:19.147            25.226         12613.000
        17   01 Jun 2027 11:19:12.213   01 Jun 2027 11:19:35.286            23.073         11536.500
        18   02 Jun 2027 03:36:05.241   02 Jun 2027 03:37:08.463            63.222         31611.000
        19   02 Jun 2027 03:37:15.287   02 Jun 2027 03:38:02.304            47.017         23508.500
        20   02 Jun 2027 03:38:53.421   02 Jun 2027 03:39:37.826            44.405         22202.500
        21   02 Jun 2027 03:40:02.626   02 Jun 2027 03:40:41.754            39.128         19564.000
        22   02 Jun 2027 05:15:12.950   02 Jun 2027 05:18:46.275           213.325        106662.500
        23   02 Jun 2027 06:37:45.328   02 Jun 2027 06:38:25.471            40.143         20071.500
        24   02 Jun 2027 06:39:35.269   02 Jun 2027 06:39:35.269             0.000             0.000
        25   02 Jun 2027 06:40:23.772   02 Jun 2027 06:40:23.772             0.000             0.000
        26   02 Jun 2027 08:14:14.334   02 Jun 2027 08:17:43.864           209.530        104765.000
        27   02 Jun 2027 09:49:21.923   02 Jun 2027 09:50:18.554            56.631         27966.219
        28   02 Jun 2027 09:51:29.899   02 Jun 2027 09:51:35.992             6.093          1861.750
        29   02 Jun 2027 09:52:56.420   02 Jun 2027 09:52:56.420             0.000             0.000
        30   02 Jun 2027 09:54:33.374   02 Jun 2027 09:54:41.369             7.995          3979.594
        31   02 Jun 2027 09:55:57.404   02 Jun 2027 09:55:59.502             2.098          1006.094
        32   02 Jun 2027 11:25:43.628   02 Jun 2027 11:25:51.771             8.143          4024.750
        33   02 Jun 2027 11:27:37.701   02 Jun 2027 11:27:42.006             4.305          1078.844
        34   02 Jun 2027 11:28:25.390   02 Jun 2027 11:28:34.467             9.077          1355.750
        35   02 Jun 2027 11:29:14.501   02 Jun 2027 11:29:18.262             3.761           779.250
        36   02 Jun 2027 11:29:49.859   02 Jun 2027 11:29:58.570             8.711           355.625
        37   02 Jun 2027 11:31:04.516   02 Jun 2027 11:31:14.136             9.620          1641.688
        38   02 Jun 2027 11:31:18.015   02 Jun 2027 11:31:18.845             0.830           121.219
        39   02 Jun 2027 11:31:37.679   02 Jun 2027 11:31:38.956             1.277           588.563
        40   03 Jun 2027 03:48:08.232   03 Jun 2027 03:48:49.041            40.809         20404.500
        41   03 Jun 2027 03:49:12.824   03 Jun 2027 03:50:48.585            95.761         47880.500
        42   03 Jun 2027 03:54:15.372   03 Jun 2027 03:54:15.671             0.299           149.500
        43   03 Jun 2027 05:26:20.437   03 Jun 2027 05:26:58.311            37.874         18937.000
        44   03 Jun 2027 05:27:11.960   03 Jun 2027 05:29:20.598           128.638         63904.531
        45   03 Jun 2027 06:49:48.735   03 Jun 2027 06:49:59.656            10.921          5412.281
        46   03 Jun 2027 06:50:33.032   03 Jun 2027 06:50:34.980             1.948            40.375
        47   03 Jun 2027 06:51:07.370   03 Jun 2027 06:51:07.370             0.000             0.000
        48   03 Jun 2027 06:51:10.404   03 Jun 2027 06:51:15.442             5.038           886.156
        49   03 Jun 2027 06:52:24.360   03 Jun 2027 06:52:24.360             0.000             0.000
        50   03 Jun 2027 06:52:42.031   03 Jun 2027 06:52:47.805             5.774          2497.563
        51   03 Jun 2027 08:26:17.597   03 Jun 2027 08:26:26.296             8.699          3966.250
        52   03 Jun 2027 08:27:04.009   03 Jun 2027 08:27:07.746             3.737          1178.531
        53   03 Jun 2027 08:27:45.307   03 Jun 2027 08:27:45.752             0.445           222.500
        54   03 Jun 2027 08:28:21.674   03 Jun 2027 08:28:24.601             2.927          1177.344
        55   03 Jun 2027 08:29:21.439   03 Jun 2027 08:29:28.806             7.367          1143.406
        56   03 Jun 2027 10:01:29.205   03 Jun 2027 10:01:36.333             7.128          2516.687
        57   03 Jun 2027 10:02:41.124   03 Jun 2027 10:02:45.384             4.260          1930.906
        58   03 Jun 2027 10:03:16.857   03 Jun 2027 10:03:18.624             1.767           475.437
        59   03 Jun 2027 10:04:22.546   03 Jun 2027 10:04:26.175             3.629          1267.406
        60   03 Jun 2027 10:06:33.507   03 Jun 2027 10:06:43.386             9.879          3912.531
        61   03 Jun 2027 10:07:46.138   03 Jun 2027 10:07:49.921             3.783          1584.688
        62   03 Jun 2027 10:08:04.841   03 Jun 2027 10:08:05.393             0.552           276.000
        63   03 Jun 2027 11:37:24.810   03 Jun 2027 11:37:35.025            10.215          4555.281
        64   03 Jun 2027 11:40:01.429   03 Jun 2027 11:40:03.869             2.440           989.812
        65   03 Jun 2027 11:40:49.778   03 Jun 2027 11:40:51.989             2.211           620.938
        66   03 Jun 2027 11:41:44.138   03 Jun 2027 11:41:49.312             5.174          1212.250
        67   03 Jun 2027 11:42:13.839   03 Jun 2027 11:42:17.231             3.392           326.156
        68   03 Jun 2027 11:42:59.937   03 Jun 2027 11:43:06.085             6.148          1334.562
        69   03 Jun 2027 11:43:12.985   03 Jun 2027 11:43:14.385             1.400           215.625
        70   03 Jun 2027 11:43:20.037   03 Jun 2027 11:43:20.284             0.247           123.500
        71   03 Jun 2027 11:43:24.475   03 Jun 2027 11:43:25.320             0.845            21.281
        72   03 Jun 2027 11:43:42.713   03 Jun 2027 11:43:44.886             2.173           395.344
        73   04 Jun 2027 04:01:12.955   04 Jun 2027 04:04:50.037           217.082        108541.000
        74   04 Jun 2027 04:07:28.159   04 Jun 2027 04:07:28.159             0.000             0.000
        75   04 Jun 2027 04:08:08.354   04 Jun 2027 04:08:13.266             4.912          2456.000
        76   04 Jun 2027 05:27:26.416   04 Jun 2027 05:27:34.963             8.547          4273.500
        77   04 Jun 2027 05:38:17.711   04 Jun 2027 05:39:51.376            93.665         46315.719
        78   04 Jun 2027 05:40:40.436   04 Jun 2027 05:40:42.605             2.169           869.125
        79   04 Jun 2027 05:41:46.785   04 Jun 2027 05:41:47.223             0.438           219.000
        80   04 Jun 2027 07:02:15.608   04 Jun 2027 07:02:34.961            19.353          8665.125
        81   04 Jun 2027 07:02:44.455   04 Jun 2027 07:02:45.692             1.237           108.406
        82   04 Jun 2027 07:03:09.206   04 Jun 2027 07:03:10.185             0.979           264.094
        83   04 Jun 2027 07:04:24.456   04 Jun 2027 07:04:30.244             5.788          2320.969
        84   04 Jun 2027 08:38:01.737   04 Jun 2027 08:38:08.780             7.043          2393.781
        85   04 Jun 2027 08:40:09.767   04 Jun 2027 08:40:17.562             7.795          3506.937
        86   04 Jun 2027 08:40:33.772   04 Jun 2027 08:40:36.198             2.426           152.125
        87   04 Jun 2027 08:40:51.516   04 Jun 2027 08:40:52.430             0.914           397.781
        88   04 Jun 2027 10:12:44.502   04 Jun 2027 10:12:50.822             6.320          3117.219
        89   04 Jun 2027 10:13:43.605   04 Jun 2027 10:13:47.228             3.623          1032.094
        90   04 Jun 2027 10:14:54.713   04 Jun 2027 10:15:01.867             7.154           858.375
        91   04 Jun 2027 10:15:36.685   04 Jun 2027 10:15:37.799             1.114           159.906
        92   04 Jun 2027 10:16:12.994   04 Jun 2027 10:16:12.994             0.000             0.000
        93   04 Jun 2027 10:16:17.660   04 Jun 2027 10:16:21.132             3.472           642.594
        94   04 Jun 2027 10:17:37.793   04 Jun 2027 10:17:39.978             2.185           188.562
        95   04 Jun 2027 10:18:12.340   04 Jun 2027 10:18:14.413             2.073           933.750
        96   04 Jun 2027 10:18:42.442   04 Jun 2027 10:18:44.640             2.198           732.719
        97   04 Jun 2027 10:18:44.697   04 Jun 2027 10:18:46.880             2.183             1.781
        98   04 Jun 2027 10:20:11.288   04 Jun 2027 10:20:15.777             4.489           941.406
        99   04 Jun 2027 11:49:31.043   04 Jun 2027 11:49:43.874            12.831          6069.031
       100   04 Jun 2027 11:51:20.611   04 Jun 2027 11:51:26.712             6.101          1968.969
       101   04 Jun 2027 11:52:09.075   04 Jun 2027 11:52:10.710             1.635           496.125
       102   04 Jun 2027 11:53:29.153   04 Jun 2027 11:53:35.092             5.939          2057.531
       103   04 Jun 2027 11:53:37.963   04 Jun 2027 11:53:39.356             1.393            52.656
       104   04 Jun 2027 11:54:18.444   04 Jun 2027 11:54:21.686             3.242           763.906
       105   04 Jun 2027 11:54:58.520   04 Jun 2027 11:55:05.634             7.114          1151.062
       106   04 Jun 2027 11:55:22.146   04 Jun 2027 11:55:25.010             2.864           180.469
       107   04 Jun 2027 11:55:41.152   04 Jun 2027 11:55:42.056             0.904           335.781
       108   05 Jun 2027 04:13:34.032   05 Jun 2027 04:16:00.337           146.305         73152.500
       109   05 Jun 2027 04:18:54.887   05 Jun 2027 04:18:54.887             0.000             0.000
       110   05 Jun 2027 04:20:24.308   05 Jun 2027 04:20:52.837            28.529         14264.500
       111   05 Jun 2027 05:38:41.479   05 Jun 2027 05:39:09.590            28.111         14055.500
       112   05 Jun 2027 05:50:18.401   05 Jun 2027 05:51:44.137            85.736         42868.000
       113   05 Jun 2027 07:12:52.754   05 Jun 2027 07:13:48.011            55.257         27590.938
       114   05 Jun 2027 07:14:31.443   05 Jun 2027 07:14:32.516             1.073           286.687
       115   05 Jun 2027 07:14:46.640   05 Jun 2027 07:14:53.768             7.128           261.031
       116   05 Jun 2027 07:15:46.233   05 Jun 2027 07:15:46.233             0.000             0.000
       117   05 Jun 2027 07:16:10.999   05 Jun 2027 07:16:17.303             6.304          2198.250
       118   05 Jun 2027 07:16:48.117   05 Jun 2027 07:16:52.432             4.315           754.313
       119   05 Jun 2027 08:47:56.884   05 Jun 2027 08:48:04.888             8.004          2763.687
       120   05 Jun 2027 08:49:00.099   05 Jun 2027 08:49:08.775             8.676          1296.969
       121   05 Jun 2027 08:49:45.268   05 Jun 2027 08:49:48.360             3.092           689.781
       122   05 Jun 2027 08:52:39.298   05 Jun 2027 08:52:48.379             9.081          4540.500
       123   05 Jun 2027 08:52:58.552   05 Jun 2027 08:53:01.669             3.117           595.250
       124   05 Jun 2027 08:53:45.416   05 Jun 2027 08:53:49.016             3.600           700.031
       125   05 Jun 2027 08:54:07.050   05 Jun 2027 08:54:07.735             0.685           190.781
       126   05 Jun 2027 10:24:51.135   05 Jun 2027 10:24:58.517             7.382          3691.000
       127   05 Jun 2027 10:26:42.597   05 Jun 2027 10:26:51.033             8.436          3689.406
       128   05 Jun 2027 10:28:15.407   05 Jun 2027 10:28:21.060             5.653           284.719
       129   05 Jun 2027 10:29:21.000   05 Jun 2027 10:29:25.382             4.382          1546.781
       130   05 Jun 2027 10:30:31.732   05 Jun 2027 10:30:36.091             4.359          2073.438
       131   05 Jun 2027 10:31:34.309   05 Jun 2027 10:31:37.197             2.888          1264.594
       132   05 Jun 2027 10:32:15.953   05 Jun 2027 10:32:16.506             0.553           276.500
       133   06 Jun 2027 04:25:50.293   06 Jun 2027 04:28:08.059           137.766         68883.000
       134   06 Jun 2027 04:30:53.245   06 Jun 2027 04:31:01.753             8.508          4254.000
       135   06 Jun 2027 04:31:04.313   06 Jun 2027 04:31:31.687            27.374         13687.000
       136   06 Jun 2027 04:31:51.143   06 Jun 2027 04:31:58.489             7.346          3673.000
       137   06 Jun 2027 05:50:02.342   06 Jun 2027 05:50:27.537            25.195         12597.500
       138   06 Jun 2027 05:50:44.555   06 Jun 2027 05:51:11.219            26.664         13332.000
       139   06 Jun 2027 06:02:15.905   06 Jun 2027 06:03:11.385            55.480         27740.000
       140   06 Jun 2027 07:24:28.025   06 Jun 2027 07:25:22.495            54.470         25024.500
       141   06 Jun 2027 07:26:25.748   06 Jun 2027 07:26:30.047             4.299          1852.500
       142   06 Jun 2027 07:27:49.909   06 Jun 2027 07:27:55.328             5.419          2150.781
       143   06 Jun 2027 08:59:21.571   06 Jun 2027 08:59:31.988            10.417          4016.781
       144   06 Jun 2027 09:00:42.585   06 Jun 2027 09:00:44.655             2.070           104.188
       145   06 Jun 2027 09:01:45.981   06 Jun 2027 09:01:46.645             0.664           332.000
       146   06 Jun 2027 09:03:07.366   06 Jun 2027 09:03:07.366             0.000             0.000
       147   06 Jun 2027 09:04:43.854   06 Jun 2027 09:05:04.598            20.744          6590.344
       148   06 Jun 2027 09:06:38.488   06 Jun 2027 09:06:43.549             5.061          2317.938
       149   06 Jun 2027 09:07:27.415   06 Jun 2027 09:07:29.958             2.543          1128.750
       150   06 Jun 2027 10:36:57.390   06 Jun 2027 10:37:14.308            16.918          4511.750
       151   06 Jun 2027 10:40:01.954   06 Jun 2027 10:40:09.629             7.675          2482.813
       152   06 Jun 2027 10:40:46.720   06 Jun 2027 10:40:50.374             3.654           298.594
       153   06 Jun 2027 10:41:18.321   06 Jun 2027 10:41:21.180             2.859           155.687
       154   06 Jun 2027 10:42:14.466   06 Jun 2027 10:42:19.583             5.117           439.531
       155   06 Jun 2027 10:42:51.303   06 Jun 2027 10:42:56.420             5.117           991.250
       156   06 Jun 2027 10:44:09.932   06 Jun 2027 10:44:13.112             3.180          1401.187
       157   07 Jun 2027 03:00:00.000   07 Jun 2027 03:00:22.162            22.162         11081.000
       158   07 Jun 2027 03:00:46.798   07 Jun 2027 03:00:46.798             0.000             0.000
       159   07 Jun 2027 03:01:21.090   07 Jun 2027 03:01:35.238            14.148          7074.000
       160   07 Jun 2027 03:01:48.340   07 Jun 2027 03:01:50.492             2.152          1076.000
       161   07 Jun 2027 03:03:17.762   07 Jun 2027 03:03:18.050             0.288           144.000
       162   07 Jun 2027 03:03:24.011   07 Jun 2027 03:03:39.581            15.570          7785.000
       163   07 Jun 2027 03:04:09.830   07 Jun 2027 03:04:17.306             7.476          3738.000
       164   07 Jun 2027 04:37:56.894   07 Jun 2027 04:39:56.751           119.857         59928.500
       165   07 Jun 2027 04:40:29.859   07 Jun 2027 04:40:53.965            24.106         12053.000
       166   07 Jun 2027 04:41:51.614   07 Jun 2027 04:42:33.791            42.177         21088.500
       167   07 Jun 2027 04:43:01.102   07 Jun 2027 04:43:11.475            10.373          5186.500
       168   07 Jun 2027 06:02:07.892   07 Jun 2027 06:02:39.519            31.627         15813.500
       169   07 Jun 2027 06:02:47.610   07 Jun 2027 06:02:57.150             9.540          4770.000
       170   07 Jun 2027 06:14:40.337   07 Jun 2027 06:14:42.954             2.617          1308.500
       171   07 Jun 2027 07:35:58.047   07 Jun 2027 07:36:59.215            61.168         29626.875
       172   07 Jun 2027 07:37:31.997   07 Jun 2027 07:37:36.194             4.197           911.906
       173   07 Jun 2027 07:38:00.973   07 Jun 2027 07:38:06.904             5.931           352.187
       174   07 Jun 2027 07:38:22.025   07 Jun 2027 07:38:24.004             1.979           267.750
       175   07 Jun 2027 07:39:14.999   07 Jun 2027 07:39:19.317             4.318          1140.094
       176   07 Jun 2027 07:40:20.868   07 Jun 2027 07:40:25.012             4.144          1756.500
       177   07 Jun 2027 07:40:53.662   07 Jun 2027 07:40:55.071             1.409           510.750
       178   07 Jun 2027 09:10:52.446   07 Jun 2027 09:10:58.759             6.313          2512.281
       179   07 Jun 2027 09:13:02.857   07 Jun 2027 09:13:13.227            10.370          2458.375
       180   07 Jun 2027 09:14:27.855   07 Jun 2027 09:14:30.150             2.295           918.937
       181   07 Jun 2027 09:14:51.620   07 Jun 2027 09:14:53.126             1.506           537.281
       182   07 Jun 2027 09:16:37.476   07 Jun 2027 09:16:46.024             8.548          2976.844
       183   07 Jun 2027 09:17:54.118   07 Jun 2027 09:17:58.977             4.859          2078.375
       184   07 Jun 2027 09:18:21.813   07 Jun 2027 09:18:25.184             3.371           603.438
       185   07 Jun 2027 09:19:30.106   07 Jun 2027 09:19:33.927             3.821          1319.813
       186   07 Jun 2027 10:48:54.138   07 Jun 2027 10:49:14.738            20.600          5007.656
       187   07 Jun 2027 10:49:42.240   07 Jun 2027 10:49:46.321             4.081           748.437
       188   07 Jun 2027 10:53:02.686   07 Jun 2027 10:53:11.943             9.257          4405.031
       189   07 Jun 2027 10:53:51.935   07 Jun 2027 10:53:55.209             3.274           860.719
       190   07 Jun 2027 10:54:14.113   07 Jun 2027 10:54:18.637             4.524           146.531
       191   07 Jun 2027 10:54:36.587   07 Jun 2027 10:54:37.246             0.659           322.594
       192   07 Jun 2027 10:55:24.374   07 Jun 2027 10:55:29.455             5.081           928.969
       193   07 Jun 2027 10:55:52.332   07 Jun 2027 10:55:54.859             2.527           714.906
       194   07 Jun 2027 10:56:20.145   07 Jun 2027 10:56:21.984             1.839           516.969
       195   08 Jun 2027 03:11:48.329   08 Jun 2027 03:11:56.711             8.382          4191.000
       196   08 Jun 2027 03:12:20.068   08 Jun 2027 03:13:11.367            51.299         25649.500
       197   08 Jun 2027 03:13:16.246   08 Jun 2027 03:13:25.956             9.710          4855.000
       198   08 Jun 2027 03:13:37.430   08 Jun 2027 03:13:42.204             4.774          2387.000
       199   08 Jun 2027 03:13:59.560   08 Jun 2027 03:14:05.139             5.579          2789.500
       200   08 Jun 2027 03:14:21.983   08 Jun 2027 03:14:51.771            29.788         14894.000
       201   08 Jun 2027 03:17:08.844   08 Jun 2027 03:17:25.218            16.374          8187.000
       202   08 Jun 2027 04:50:34.651   08 Jun 2027 04:53:23.327           168.676         84317.688
       203   08 Jun 2027 04:53:39.295   08 Jun 2027 04:53:40.879             1.584           475.500
       204   08 Jun 2027 04:54:33.129   08 Jun 2027 04:54:34.157             1.028           119.000
       205   08 Jun 2027 04:55:04.270   08 Jun 2027 04:55:05.455             1.185           182.844
       206   08 Jun 2027 06:14:05.023   08 Jun 2027 06:14:24.652            19.629          9507.625
       207   08 Jun 2027 06:14:41.583   08 Jun 2027 06:14:42.825             1.242           497.562
       208   08 Jun 2027 06:15:40.957   08 Jun 2027 06:15:45.923             4.966          1816.625
       209   08 Jun 2027 07:50:16.628   08 Jun 2027 07:50:24.864             8.236          3075.375
       210   08 Jun 2027 07:50:48.504   08 Jun 2027 07:50:51.469             2.965           386.500
       211   08 Jun 2027 07:51:05.474   08 Jun 2027 07:51:10.405             4.931           437.656
       212   08 Jun 2027 07:51:24.604   08 Jun 2027 07:51:25.468             0.864           240.563
       213   08 Jun 2027 07:52:17.934   08 Jun 2027 07:52:21.259             3.325          1346.437
       214   08 Jun 2027 07:52:48.427   08 Jun 2027 07:52:50.635             2.208           789.781
       215   08 Jun 2027 07:53:23.035   08 Jun 2027 07:53:27.555             4.520           839.875
       216   08 Jun 2027 09:23:50.031   08 Jun 2027 09:23:55.217             5.186          1928.500
       217   08 Jun 2027 09:26:22.932   08 Jun 2027 09:26:22.932             0.000             0.000
       218   08 Jun 2027 09:26:53.960   08 Jun 2027 09:27:06.557            12.597          1250.469
       219   08 Jun 2027 09:27:13.066   08 Jun 2027 09:27:13.414             0.348           165.625
       220   08 Jun 2027 09:29:44.130   08 Jun 2027 09:29:49.825             5.695          1788.687
       221   08 Jun 2027 09:30:49.368   08 Jun 2027 09:30:52.939             3.571           152.594
       222   08 Jun 2027 09:31:01.426   08 Jun 2027 09:31:09.106             7.680           129.187
       223   08 Jun 2027 09:32:23.546   08 Jun 2027 09:32:24.515             0.969           484.500
       224   08 Jun 2027 11:01:16.456   08 Jun 2027 11:01:33.716            17.260          5836.250
       225   08 Jun 2027 11:03:02.309   08 Jun 2027 11:03:03.470             1.161           206.875
       226   08 Jun 2027 11:05:32.383   08 Jun 2027 11:05:40.288             7.905          3746.344
       227   08 Jun 2027 11:06:19.484   08 Jun 2027 11:06:21.601             2.117           930.094
       228   08 Jun 2027 11:07:39.456   08 Jun 2027 11:07:44.439             4.983          1346.875
       229   08 Jun 2027 11:08:05.324   08 Jun 2027 11:08:08.829             3.505           652.656
       230   09 Jun 2027 03:24:15.251   09 Jun 2027 03:24:43.194            27.943         13971.500
       231   09 Jun 2027 03:24:46.932   09 Jun 2027 03:27:14.072           147.140         73570.000
       232   09 Jun 2027 03:27:44.370   09 Jun 2027 03:27:59.725            15.355          7677.500
       233   09 Jun 2027 03:28:32.762   09 Jun 2027 03:29:03.432            30.670         15335.000
       234   09 Jun 2027 05:02:15.970   09 Jun 2027 05:03:50.963            94.993         46900.656
       235   09 Jun 2027 05:04:57.453   09 Jun 2027 05:05:04.569             7.116          1864.875
       236   09 Jun 2027 05:05:51.005   09 Jun 2027 05:05:53.254             2.249          1042.500
       237   09 Jun 2027 05:06:38.031   09 Jun 2027 05:06:39.399             1.368           262.000
       238   09 Jun 2027 06:25:55.808   09 Jun 2027 06:26:07.324            11.516          4637.844
       239   09 Jun 2027 06:27:15.348   09 Jun 2027 06:27:20.295             4.947          1529.844
       240   09 Jun 2027 06:27:46.821   09 Jun 2027 06:27:46.821             0.000             0.000
       241   09 Jun 2027 06:28:07.991   09 Jun 2027 06:28:12.499             4.508          1432.750
       242   09 Jun 2027 06:28:23.618   09 Jun 2027 06:28:24.940             1.322           125.219
       243   09 Jun 2027 08:02:23.525   09 Jun 2027 08:02:35.803            12.278          5741.563
       244   09 Jun 2027 08:04:13.578   09 Jun 2027 08:04:20.526             6.948          2788.594
       245   09 Jun 2027 08:05:25.739   09 Jun 2027 08:05:31.221             5.482           853.469
       246   09 Jun 2027 09:34:33.367   09 Jun 2027 09:34:41.553             8.186          3114.688
       247   09 Jun 2027 09:36:29.043   09 Jun 2027 09:36:30.976             1.933           485.812
       248   09 Jun 2027 09:38:09.553   09 Jun 2027 09:38:15.004             5.451          2054.313
       249   09 Jun 2027 09:38:32.680   09 Jun 2027 09:38:35.918             3.238           513.563
       250   09 Jun 2027 09:39:24.525   09 Jun 2027 09:39:27.482             2.957           890.562
       251   09 Jun 2027 09:40:45.389   09 Jun 2027 09:40:50.104             4.715          2072.562
       252   09 Jun 2027 09:42:44.606   09 Jun 2027 09:42:50.463             5.857          2490.625
       253   09 Jun 2027 09:43:12.618   09 Jun 2027 09:43:18.353             5.735           692.344
       254   09 Jun 2027 09:43:54.555   09 Jun 2027 09:43:58.814             4.259           635.406
       255   09 Jun 2027 09:44:19.452   09 Jun 2027 09:44:21.224             1.772           309.063
       256   09 Jun 2027 11:13:26.867   09 Jun 2027 11:13:40.123            13.256          5195.625
       257   09 Jun 2027 11:16:03.427   09 Jun 2027 11:16:10.249             6.822           617.313
       258   09 Jun 2027 11:16:24.156   09 Jun 2027 11:16:28.815             4.659           400.875
       259   09 Jun 2027 11:17:09.187   09 Jun 2027 11:17:15.264             6.077           909.937
       260   09 Jun 2027 11:17:43.808   09 Jun 2027 11:17:44.966             1.158           479.781
       261   09 Jun 2027 11:17:53.716   09 Jun 2027 11:17:56.009             2.293            41.062
       262   09 Jun 2027 11:18:22.969   09 Jun 2027 11:18:24.186             1.217           457.906
       263   09 Jun 2027 11:18:33.689   09 Jun 2027 11:18:39.422             5.733           296.969
       264   09 Jun 2027 11:18:52.354   09 Jun 2027 11:18:53.197             0.843            52.813
       265   09 Jun 2027 11:19:27.861   09 Jun 2027 11:19:28.903             1.042           499.594
       266   09 Jun 2027 11:20:10.257   09 Jun 2027 11:20:11.231             0.974           487.000
       267   10 Jun 2027 03:36:21.258   10 Jun 2027 03:37:24.583            63.325         31662.500
       268   10 Jun 2027 03:37:32.058   10 Jun 2027 03:39:10.270            98.212         49106.000
       269   10 Jun 2027 03:39:20.477   10 Jun 2027 03:39:25.711             5.234          2617.000
       270   10 Jun 2027 03:39:44.491   10 Jun 2027 03:39:53.941             9.450          4725.000
       271   10 Jun 2027 03:40:21.178   10 Jun 2027 03:41:03.611            42.433         21216.500
       272   10 Jun 2027 03:41:47.702   10 Jun 2027 03:41:50.694             2.992          1496.000
       273   10 Jun 2027 05:15:29.565   10 Jun 2027 05:17:01.338            91.773         45689.719
       274   10 Jun 2027 05:18:14.967   10 Jun 2027 05:18:19.185             4.218          1842.375
       275   10 Jun 2027 06:38:03.284   10 Jun 2027 06:38:11.384             8.100          4047.094
       276   10 Jun 2027 06:39:16.323   10 Jun 2027 06:39:16.323             0.000             0.000
       277   10 Jun 2027 06:39:23.730   10 Jun 2027 06:39:28.734             5.004          2142.969
       278   10 Jun 2027 06:39:50.477   10 Jun 2027 06:39:53.510             3.033           668.500
       279   10 Jun 2027 06:40:16.566   10 Jun 2027 06:40:16.566             0.000             0.000
       280   10 Jun 2027 06:40:42.765   10 Jun 2027 06:40:46.562             3.797          1202.531
       281   10 Jun 2027 06:40:58.128   10 Jun 2027 06:40:58.128             0.000             0.000
       282   10 Jun 2027 08:14:31.408   10 Jun 2027 08:14:38.075             6.667          1988.469
       283   10 Jun 2027 08:15:20.473   10 Jun 2027 08:15:23.485             3.012           990.469
       284   10 Jun 2027 08:16:25.972   10 Jun 2027 08:16:31.046             5.074          1828.281
       285   10 Jun 2027 08:17:11.890   10 Jun 2027 08:17:11.890             0.000             0.000
       286   10 Jun 2027 08:18:10.082   10 Jun 2027 08:18:10.362             0.280           140.000
       287   10 Jun 2027 09:49:41.762   10 Jun 2027 09:49:47.299             5.537          2728.875
       288   10 Jun 2027 09:50:49.513   10 Jun 2027 09:50:54.890             5.377          1321.250
       289   10 Jun 2027 09:50:57.773   10 Jun 2027 09:51:01.015             3.242            90.094
       290   10 Jun 2027 09:52:42.953   10 Jun 2027 09:52:49.521             6.568          1700.438
       291   10 Jun 2027 09:53:30.671   10 Jun 2027 09:53:32.172             1.501           600.969
       292   10 Jun 2027 09:54:23.374   10 Jun 2027 09:54:28.677             5.303           120.062
       293   10 Jun 2027 09:54:51.089   10 Jun 2027 09:54:52.021             0.932           261.031
       294   10 Jun 2027 09:56:11.362   10 Jun 2027 09:56:11.362             0.000             0.000
       295   10 Jun 2027 09:56:13.810   10 Jun 2027 09:56:16.358             2.548           918.750
       296   10 Jun 2027 11:26:01.283   10 Jun 2027 11:26:11.805            10.522          3848.000
       297   10 Jun 2027 11:27:54.963   10 Jun 2027 11:27:58.486             3.523          1148.437
       298   10 Jun 2027 11:28:42.729   10 Jun 2027 11:28:50.225             7.496          1382.594
       299   10 Jun 2027 11:30:00.474   10 Jun 2027 11:30:05.257             4.783          1442.281
       300   10 Jun 2027 11:30:21.127   10 Jun 2027 11:30:22.798             1.671           482.719
       301   10 Jun 2027 11:31:21.461   10 Jun 2027 11:31:28.911             7.450          1602.594
       302   10 Jun 2027 11:31:34.710   10 Jun 2027 11:31:36.261             1.551           167.312
       303   10 Jun 2027 11:31:49.457   10 Jun 2027 11:31:53.518             4.061           379.469
       304   11 Jun 2027 03:48:25.495   11 Jun 2027 03:49:06.963            41.468         20734.000
       305   11 Jun 2027 03:49:29.331   11 Jun 2027 03:52:06.171           156.840         78420.000
       306   11 Jun 2027 03:53:30.537   11 Jun 2027 03:53:45.167            14.630          7315.000
       307   11 Jun 2027 05:26:38.608   11 Jun 2027 05:27:15.034            36.426         18213.000
       308   11 Jun 2027 05:27:33.321   11 Jun 2027 05:28:40.432            67.111         30251.532
       309   11 Jun 2027 05:29:26.886   11 Jun 2027 05:29:30.499             3.613          1085.875
       310   11 Jun 2027 05:29:45.492   11 Jun 2027 05:29:48.987             3.495           468.531
       311   11 Jun 2027 06:50:05.294   11 Jun 2027 06:50:18.347            13.053          5566.250
       312   11 Jun 2027 06:50:49.065   11 Jun 2027 06:50:49.986             0.921           336.281
       313   11 Jun 2027 06:50:58.783   11 Jun 2027 06:51:01.369             2.586           274.906
       314   11 Jun 2027 06:52:02.370   11 Jun 2027 06:52:02.370             0.000             0.000
       315   11 Jun 2027 06:52:38.960   11 Jun 2027 06:52:45.270             6.310          2561.125
       316   11 Jun 2027 06:53:07.216   11 Jun 2027 06:53:09.668             2.452           536.594
       317   11 Jun 2027 08:26:33.575   11 Jun 2027 08:26:42.377             8.802          2554.687
       318   11 Jun 2027 08:27:22.049   11 Jun 2027 08:27:26.298             4.249          1239.750
       319   11 Jun 2027 08:27:41.836   11 Jun 2027 08:27:46.489             4.653           177.594
       320   11 Jun 2027 08:28:00.639   11 Jun 2027 08:28:04.529             3.890           222.031
       321   11 Jun 2027 08:28:40.777   11 Jun 2027 08:28:40.777             0.000             0.000
       322   11 Jun 2027 08:29:07.671   11 Jun 2027 08:29:15.021             7.350          1958.688
       323   11 Jun 2027 10:01:46.009   11 Jun 2027 10:01:55.014             9.005          2943.375
       324   11 Jun 2027 10:02:59.140   11 Jun 2027 10:03:03.507             4.367          2003.937
       325   11 Jun 2027 10:03:36.544   11 Jun 2027 10:03:39.675             3.131           488.437
       326   11 Jun 2027 10:04:39.373   11 Jun 2027 10:04:41.788             2.415          1202.625
       327   11 Jun 2027 10:06:51.166   11 Jun 2027 10:07:09.700            18.534          4017.750
       328   11 Jun 2027 10:08:01.427   11 Jun 2027 10:08:06.095             4.668          1616.469
       329   11 Jun 2027 11:37:40.894   11 Jun 2027 11:37:52.814            11.920          5888.281
       330   11 Jun 2027 11:39:52.381   11 Jun 2027 11:39:55.023             2.642           642.437
       331   11 Jun 2027 11:40:58.933   11 Jun 2027 11:41:02.362             3.429          1228.406
       332   11 Jun 2027 11:41:22.919   11 Jun 2027 11:41:29.431             6.512           641.219
       333   11 Jun 2027 11:41:52.074   11 Jun 2027 11:41:54.129             2.055           605.156
       334   11 Jun 2027 11:42:20.570   11 Jun 2027 11:42:23.491             2.921           826.281
       335   11 Jun 2027 11:42:59.192   11 Jun 2027 11:43:05.145             5.953           920.875
       336   11 Jun 2027 11:43:21.400   11 Jun 2027 11:43:27.387             5.987           507.969
       337   11 Jun 2027 11:43:45.252   11 Jun 2027 11:43:48.294             3.042           502.344
       338   12 Jun 2027 04:01:30.104   12 Jun 2027 04:04:49.583           199.479         99739.500
       339   12 Jun 2027 04:05:14.403   12 Jun 2027 04:05:29.728            15.325          7662.500
       340   12 Jun 2027 04:06:34.577   12 Jun 2027 04:06:35.120             0.543           271.500
       341   12 Jun 2027 05:27:51.519   12 Jun 2027 05:28:05.841            14.322          7161.000
       342   12 Jun 2027 05:38:34.315   12 Jun 2027 05:40:21.670           107.355         52789.406
       343   12 Jun 2027 05:40:58.256   12 Jun 2027 05:41:02.119             3.863           953.687
       344   12 Jun 2027 07:02:32.087   12 Jun 2027 07:02:42.875            10.788          5260.500
       345   12 Jun 2027 07:02:53.212   12 Jun 2027 07:02:54.603             1.391           270.062
       346   12 Jun 2027 07:03:26.517   12 Jun 2027 07:03:27.295             0.778           389.000
       347   12 Jun 2027 07:04:02.306   12 Jun 2027 07:04:08.793             6.487          1643.594
       348   12 Jun 2027 08:38:16.842   12 Jun 2027 08:38:24.028             7.186          2571.188
       349   12 Jun 2027 08:40:34.311   12 Jun 2027 08:40:43.233             8.922          3777.187
       350   12 Jun 2027 08:40:51.240   12 Jun 2027 08:40:55.286             4.046           148.187
       351   12 Jun 2027 08:40:58.114   12 Jun 2027 08:40:59.995             1.881            70.375
       352   12 Jun 2027 08:41:49.661   12 Jun 2027 08:41:57.922             8.261          1443.594
       353   12 Jun 2027 10:13:00.628   12 Jun 2027 10:13:07.914             7.286          2656.688
       354   12 Jun 2027 10:15:00.079   12 Jun 2027 10:15:10.973            10.894          2563.312
       355   12 Jun 2027 10:16:16.269   12 Jun 2027 10:16:19.448             3.179           870.500
       356   12 Jun 2027 10:18:50.593   12 Jun 2027 10:18:59.486             8.893          4286.875
       357   12 Jun 2027 10:19:56.394   12 Jun 2027 10:19:59.959             3.565          1730.500
       358   12 Jun 2027 11:49:48.829   12 Jun 2027 11:50:02.349            13.520          5713.719
       359   12 Jun 2027 11:51:12.689   12 Jun 2027 11:51:13.549             0.860           128.344
       360   12 Jun 2027 11:51:38.206   12 Jun 2027 11:51:41.496             3.290           518.219
       361   12 Jun 2027 11:52:26.090   12 Jun 2027 11:52:30.682             4.592           543.313
       362   12 Jun 2027 11:53:44.735   12 Jun 2027 11:53:49.847             5.112          2028.687
       363   12 Jun 2027 11:53:56.824   12 Jun 2027 11:53:58.424             1.600           149.375
       364   12 Jun 2027 11:54:32.877   12 Jun 2027 11:54:34.364             1.487           667.625
       365   12 Jun 2027 11:55:15.981   12 Jun 2027 11:55:21.924             5.943          1132.656
       366   12 Jun 2027 11:55:38.845   12 Jun 2027 11:55:39.872             1.027           227.406
       367   12 Jun 2027 11:55:56.734   12 Jun 2027 11:56:01.385             4.651           262.125
       368   13 Jun 2027 04:13:52.035   13 Jun 2027 04:16:18.086           146.051         73025.500
       369   13 Jun 2027 04:20:42.177   13 Jun 2027 04:21:06.630            24.453         12226.500
       370   13 Jun 2027 05:38:55.719   13 Jun 2027 05:39:02.606             6.887          3443.500
       371   13 Jun 2027 05:39:54.534   13 Jun 2027 05:40:20.907            26.373         13186.500
       372   13 Jun 2027 05:50:35.445   13 Jun 2027 05:51:59.286            83.841         41920.500
       373   13 Jun 2027 07:13:07.627   13 Jun 2027 07:13:54.649            47.022         23511.000
       374   13 Jun 2027 07:15:17.187   13 Jun 2027 07:15:23.988             6.801          2867.562
       375   13 Jun 2027 07:16:39.635   13 Jun 2027 07:16:46.397             6.762          2210.469
       376   13 Jun 2027 07:17:27.755   13 Jun 2027 07:17:27.755             0.000             0.000
       377   13 Jun 2027 07:17:46.037   13 Jun 2027 07:17:53.465             7.428          1266.406
       378   13 Jun 2027 08:48:10.709   13 Jun 2027 08:48:14.275             3.566          1783.000
       379   13 Jun 2027 08:48:41.464   13 Jun 2027 08:48:45.038             3.574           861.531
       380   13 Jun 2027 08:50:01.385   13 Jun 2027 08:50:05.870             4.485          1140.625
       381   13 Jun 2027 08:52:52.156   13 Jun 2027 08:53:01.796             9.640          4732.219
       382   13 Jun 2027 08:53:13.366   13 Jun 2027 08:53:15.067             1.701           280.344
       383   13 Jun 2027 08:54:03.316   13 Jun 2027 08:54:06.010             2.694           702.375
       384   13 Jun 2027 08:54:23.048   13 Jun 2027 08:54:24.557             1.509           260.969
       385   13 Jun 2027 10:25:09.060   13 Jun 2027 10:25:20.798            11.738          4232.281
       386   13 Jun 2027 10:28:26.296   13 Jun 2027 10:28:34.874             8.578          2680.750
       387   13 Jun 2027 10:29:47.281   13 Jun 2027 10:29:52.585             5.304          2262.719
       388   13 Jun 2027 10:30:08.683   13 Jun 2027 10:30:10.362             1.679           215.750
       389   13 Jun 2027 10:30:58.581   13 Jun 2027 10:31:03.528             4.947          1506.844
       390   13 Jun 2027 10:31:49.467   13 Jun 2027 10:31:52.220             2.753          1223.000
