uniorb/output/strategy_4/Camera/Camera_KinoSat_111202.txt

KinoSat_111202
-------------------------
    Access    *     Start Time (UTCG)     *     Stop Time (UTCG)  *   Duration (s) *   Data (Mbytes)
         1   01 Jun 2027 03:49:35.183   01 Jun 2027 03:50:02.193            27.010         13505.000
         2   01 Jun 2027 04:00:30.828   01 Jun 2027 04:02:15.920           105.092         52546.000
         3   01 Jun 2027 04:02:40.091   01 Jun 2027 04:02:54.296            14.205          7102.500
         4   01 Jun 2027 04:03:22.862   01 Jun 2027 04:03:28.501             5.639          2819.500
         5   01 Jun 2027 05:24:27.806   01 Jun 2027 05:25:40.504            72.698         36349.000
         6   01 Jun 2027 05:27:07.007   01 Jun 2027 05:27:19.929            12.922          6461.000
         7   01 Jun 2027 07:00:12.696   01 Jun 2027 07:02:14.053           121.357         60678.500
         8   01 Jun 2027 07:03:01.790   01 Jun 2027 07:03:09.745             7.955          3977.500
         9   01 Jun 2027 07:03:59.610   01 Jun 2027 07:04:11.887            12.277          6138.500
        10   01 Jun 2027 08:34:56.531   01 Jun 2027 08:36:50.229           113.698         56849.000
        11   01 Jun 2027 08:37:43.015   01 Jun 2027 08:37:43.015             0.000             0.000
        12   01 Jun 2027 08:39:47.646   01 Jun 2027 08:40:08.273            20.627         10313.500
        13   01 Jun 2027 08:40:31.795   01 Jun 2027 08:40:39.481             7.686          3843.000
        14   01 Jun 2027 08:42:27.127   01 Jun 2027 08:42:29.304             2.177          1088.500
        15   01 Jun 2027 10:11:44.588   01 Jun 2027 10:14:28.889           164.301         82150.500
        16   01 Jun 2027 10:15:13.178   01 Jun 2027 10:15:19.264             6.086          3043.000
        17   01 Jun 2027 11:49:59.568   01 Jun 2027 11:50:57.713            58.145         29072.500
        18   01 Jun 2027 11:51:30.938   01 Jun 2027 11:52:27.163            56.225         28112.500
        19   01 Jun 2027 11:52:28.606   01 Jun 2027 11:52:37.294             8.688          4344.000
        20   02 Jun 2027 04:00:51.337   02 Jun 2027 04:01:28.230            36.893         18446.500
        21   02 Jun 2027 04:12:30.703   02 Jun 2027 04:13:57.226            86.523         43261.500
        22   02 Jun 2027 05:35:03.405   02 Jun 2027 05:36:03.980            60.575         30287.500
        23   02 Jun 2027 05:36:44.612   02 Jun 2027 05:37:18.341            33.729         16864.500
        24   02 Jun 2027 05:39:35.209   02 Jun 2027 05:39:41.929             6.720          3360.000
        25   02 Jun 2027 07:10:06.879   02 Jun 2027 07:11:24.978            78.099         39049.500
        26   02 Jun 2027 07:11:57.146   02 Jun 2027 07:14:04.275           127.129         63564.500
        27   02 Jun 2027 07:14:47.415   02 Jun 2027 07:14:58.039            10.624          5312.000
        28   02 Jun 2027 07:16:22.370   02 Jun 2027 07:16:28.822             6.452          3226.000
        29   02 Jun 2027 07:16:47.200   02 Jun 2027 07:16:49.793             2.593          1296.500
        30   02 Jun 2027 08:47:04.839   02 Jun 2027 08:49:12.515           127.676         63838.000
        31   02 Jun 2027 08:50:05.210   02 Jun 2027 08:50:21.094            15.884          7942.000
        32   02 Jun 2027 08:51:17.415   02 Jun 2027 08:51:54.959            37.544         18772.000
        33   02 Jun 2027 08:53:36.506   02 Jun 2027 08:54:29.197            52.691         26345.500
        34   02 Jun 2027 10:24:03.055   02 Jun 2027 10:24:42.082            39.027         19375.595
        35   02 Jun 2027 10:27:42.078   02 Jun 2027 10:27:46.396             4.318          1962.656
        36   02 Jun 2027 10:27:47.399   02 Jun 2027 10:27:49.763             2.364            24.094
        37   02 Jun 2027 10:28:23.539   02 Jun 2027 10:28:26.154             2.615          1012.156
        38   02 Jun 2027 10:28:48.019   02 Jun 2027 10:28:53.663             5.644           453.563
        39   02 Jun 2027 10:29:37.337   02 Jun 2027 10:29:39.459             2.122           728.844
        40   02 Jun 2027 10:30:01.457   02 Jun 2027 10:30:03.992             2.535           582.406
        41   02 Jun 2027 10:30:09.172   02 Jun 2027 10:30:11.223             2.051            41.719
        42   03 Jun 2027 04:12:12.436   03 Jun 2027 04:12:58.691            46.255         23127.500
        43   03 Jun 2027 04:14:23.647   03 Jun 2027 04:14:23.647             0.000             0.000
        44   03 Jun 2027 04:24:28.770   03 Jun 2027 04:25:24.391            55.621         27810.500
        45   03 Jun 2027 05:46:27.746   03 Jun 2027 05:47:47.319            79.573         39786.500
        46   03 Jun 2027 05:49:43.990   03 Jun 2027 05:49:48.021             4.031          2015.500
        47   03 Jun 2027 05:50:56.473   03 Jun 2027 05:51:09.242            12.769          6384.500
        48   03 Jun 2027 07:21:31.744   03 Jun 2027 07:23:44.242           132.498         65643.968
        49   03 Jun 2027 07:23:56.855   03 Jun 2027 07:23:57.909             1.054           266.687
        50   03 Jun 2027 07:24:31.913   03 Jun 2027 07:24:35.811             3.898          1062.625
        51   03 Jun 2027 07:24:55.011   03 Jun 2027 07:25:00.101             5.090           205.125
        52   03 Jun 2027 07:25:24.658   03 Jun 2027 07:25:25.144             0.486           133.031
        53   03 Jun 2027 07:26:10.321   03 Jun 2027 07:26:10.321             0.000             0.000
        54   03 Jun 2027 07:26:53.583   03 Jun 2027 07:26:58.304             4.721          2360.500
        55   03 Jun 2027 07:27:17.264   03 Jun 2027 07:27:17.264             0.000             0.000
        56   03 Jun 2027 07:28:06.469   03 Jun 2027 07:28:11.507             5.038          2156.406
        57   03 Jun 2027 07:28:15.301   03 Jun 2027 07:28:19.016             3.715            73.094
        58   03 Jun 2027 07:28:34.326   03 Jun 2027 07:28:35.389             1.063           356.000
        59   03 Jun 2027 08:59:07.837   03 Jun 2027 08:59:18.881            11.044          5050.344
        60   03 Jun 2027 09:01:11.931   03 Jun 2027 09:01:19.204             7.273          2207.187
        61   03 Jun 2027 09:03:25.594   03 Jun 2027 09:03:30.760             5.166          1179.000
        62   03 Jun 2027 09:04:48.232   03 Jun 2027 09:04:51.027             2.795          1350.219
        63   03 Jun 2027 09:05:16.251   03 Jun 2027 09:05:18.691             2.440           310.969
        64   03 Jun 2027 09:06:00.383   03 Jun 2027 09:06:04.589             4.206           520.344
        65   03 Jun 2027 10:35:52.657   03 Jun 2027 10:36:08.551            15.894          6867.094
        66   03 Jun 2027 10:36:10.931   03 Jun 2027 10:36:14.396             3.465            74.375
        67   03 Jun 2027 10:38:38.087   03 Jun 2027 10:38:44.226             6.139          2086.219
        68   03 Jun 2027 10:39:31.078   03 Jun 2027 10:39:34.508             3.430          1407.656
        69   03 Jun 2027 10:40:06.666   03 Jun 2027 10:40:07.368             0.702           271.563
        70   03 Jun 2027 10:40:11.511   03 Jun 2027 10:40:12.019             0.508           105.719
        71   03 Jun 2027 10:40:42.961   03 Jun 2027 10:40:44.541             1.580           580.969
        72   03 Jun 2027 10:42:07.948   03 Jun 2027 10:42:13.756             5.808          2576.719
        73   04 Jun 2027 03:00:08.210   04 Jun 2027 03:00:19.506            11.296          5648.000
        74   04 Jun 2027 03:00:46.481   04 Jun 2027 03:00:53.601             7.120          3560.000
        75   04 Jun 2027 03:01:30.914   04 Jun 2027 03:01:33.350             2.436          1218.000
        76   04 Jun 2027 03:02:07.685   04 Jun 2027 03:02:22.639            14.954          7477.000
        77   04 Jun 2027 03:02:38.315   04 Jun 2027 03:02:46.071             7.756          3878.000
        78   04 Jun 2027 03:03:12.566   04 Jun 2027 03:03:21.586             9.020          4510.000
        79   04 Jun 2027 03:03:48.663   04 Jun 2027 03:03:49.120             0.457           228.500
        80   04 Jun 2027 03:04:05.115   04 Jun 2027 03:04:11.737             6.622          3311.000
        81   04 Jun 2027 03:04:24.876   04 Jun 2027 03:04:32.727             7.851          3925.500
        82   04 Jun 2027 04:24:20.112   04 Jun 2027 04:25:06.770            46.658         23329.000
        83   04 Jun 2027 04:26:13.753   04 Jun 2027 04:26:14.644             0.891           445.500
        84   04 Jun 2027 04:36:51.513   04 Jun 2027 04:36:55.894             4.381          2190.500
        85   04 Jun 2027 05:58:09.624   04 Jun 2027 06:00:54.981           165.357         82678.500
        86   04 Jun 2027 06:03:04.636   04 Jun 2027 06:03:35.150            30.514         15257.000
        87   04 Jun 2027 07:33:02.254   04 Jun 2027 07:33:21.875            19.621          9520.219
        88   04 Jun 2027 07:33:57.159   04 Jun 2027 07:34:01.516             4.357           697.000
        89   04 Jun 2027 07:36:41.605   04 Jun 2027 07:36:44.928             3.323          1545.375
        90   04 Jun 2027 07:38:58.017   04 Jun 2027 07:39:04.596             6.579          2172.250
        91   04 Jun 2027 07:39:45.568   04 Jun 2027 07:39:48.286             2.718           788.375
        92   04 Jun 2027 07:39:55.593   04 Jun 2027 07:40:01.088             5.495           228.344
        93   04 Jun 2027 07:40:17.064   04 Jun 2027 07:40:21.619             4.555           352.781
        94   04 Jun 2027 07:40:47.636   04 Jun 2027 07:40:52.393             4.757           392.219
        95   04 Jun 2027 07:41:15.777   04 Jun 2027 07:41:17.326             1.549           542.281
        96   04 Jun 2027 07:42:00.966   04 Jun 2027 07:42:03.270             2.304           900.656
        97   04 Jun 2027 09:11:07.633   04 Jun 2027 09:11:18.898            11.265          5461.656
        98   04 Jun 2027 09:14:39.316   04 Jun 2027 09:14:43.390             4.074          1808.719
        99   04 Jun 2027 09:15:21.030   04 Jun 2027 09:15:22.442             1.412           389.656
       100   04 Jun 2027 09:15:54.389   04 Jun 2027 09:15:58.125             3.736           861.250
       101   04 Jun 2027 09:16:41.196   04 Jun 2027 09:16:42.109             0.913           308.000
       102   04 Jun 2027 09:16:45.184   04 Jun 2027 09:16:45.891             0.707            22.094
       103   04 Jun 2027 09:16:46.550   04 Jun 2027 09:16:46.884             0.334            11.156
       104   04 Jun 2027 09:17:22.669   04 Jun 2027 09:17:24.677             2.008           240.094
       105   04 Jun 2027 09:18:03.889   04 Jun 2027 09:18:04.774             0.885           238.031
       106   04 Jun 2027 09:18:20.166   04 Jun 2027 09:18:21.911             1.745           453.375
       107   04 Jun 2027 10:48:18.940   04 Jun 2027 10:48:33.430            14.490          6053.844
       108   04 Jun 2027 10:51:24.217   04 Jun 2027 10:51:34.398            10.181          2027.594
       109   04 Jun 2027 10:51:56.879   04 Jun 2027 10:51:57.862             0.983           382.656
       110   04 Jun 2027 10:52:11.099   04 Jun 2027 10:52:12.780             1.681           413.656
       111   04 Jun 2027 10:52:45.804   04 Jun 2027 10:52:47.864             2.060           932.500
       112   04 Jun 2027 10:52:55.278   04 Jun 2027 10:52:57.883             2.605           231.687
       113   04 Jun 2027 10:53:46.886   04 Jun 2027 10:53:50.299             3.413           948.000
       114   04 Jun 2027 10:54:26.204   04 Jun 2027 10:54:29.368             3.164           723.219
       115   05 Jun 2027 03:12:33.504   05 Jun 2027 03:14:02.270            88.766         44383.000
       116   05 Jun 2027 03:14:39.340   05 Jun 2027 03:14:59.446            20.106         10053.000
       117   05 Jun 2027 03:15:34.990   05 Jun 2027 03:15:39.095             4.105          2052.500
       118   05 Jun 2027 03:16:50.783   05 Jun 2027 03:17:27.972            37.189         18594.500
       119   05 Jun 2027 04:36:16.609   05 Jun 2027 04:37:09.492            52.883         26441.500
       120   05 Jun 2027 06:12:28.821   05 Jun 2027 06:14:40.146           131.325         65662.500
       121   05 Jun 2027 06:15:06.777   05 Jun 2027 06:15:10.011             3.234          1520.312
       122   05 Jun 2027 07:46:02.168   05 Jun 2027 07:46:16.642            14.474          3380.063
       123   05 Jun 2027 07:48:24.385   05 Jun 2027 07:48:26.907             2.522           788.156
       124   05 Jun 2027 07:48:38.998   05 Jun 2027 07:48:39.875             0.877           207.875
       125   05 Jun 2027 07:48:53.583   05 Jun 2027 07:48:53.583             0.000             0.000
       126   05 Jun 2027 07:49:36.753   05 Jun 2027 07:49:41.840             5.087          1464.469
       127   05 Jun 2027 07:49:52.955   05 Jun 2027 07:49:53.332             0.377           184.438
       128   05 Jun 2027 07:50:37.643   05 Jun 2027 07:50:39.191             1.548           733.781
       129   05 Jun 2027 07:51:23.281   05 Jun 2027 07:51:26.570             3.289           818.844
       130   05 Jun 2027 07:52:00.862   05 Jun 2027 07:52:03.966             3.104          1071.625
       131   05 Jun 2027 07:52:58.448   05 Jun 2027 07:53:03.646             5.198          1656.375
       132   05 Jun 2027 07:53:09.025   05 Jun 2027 07:53:12.647             3.622            98.219
       133   05 Jun 2027 07:53:35.072   05 Jun 2027 07:53:36.928             1.856           643.250
       134   05 Jun 2027 07:54:35.002   05 Jun 2027 07:54:36.042             1.040           520.000
       135   05 Jun 2027 09:23:30.472   05 Jun 2027 09:23:43.375            12.903          4543.219
       136   05 Jun 2027 09:27:01.781   05 Jun 2027 09:27:05.611             3.830          1355.656
       137   05 Jun 2027 09:28:01.042   05 Jun 2027 09:28:05.392             4.350          1367.281
       138   05 Jun 2027 09:28:39.064   05 Jun 2027 09:28:39.276             0.212            10.000
       139   05 Jun 2027 09:29:52.038   05 Jun 2027 09:29:55.447             3.409           654.125
       140   05 Jun 2027 11:00:29.288   05 Jun 2027 11:00:50.227            20.939          5328.594
       141   05 Jun 2027 11:03:49.682   05 Jun 2027 11:03:54.394             4.712          1581.281
       142   05 Jun 2027 11:04:22.231   05 Jun 2027 11:04:24.381             2.150           843.969
       143   05 Jun 2027 11:04:49.031   05 Jun 2027 11:04:51.067             2.036           742.156
       144   05 Jun 2027 11:05:39.963   05 Jun 2027 11:05:43.156             3.193          1206.469
       145   05 Jun 2027 11:06:04.258   05 Jun 2027 11:06:06.994             2.736           479.719
       146   06 Jun 2027 03:24:28.307   06 Jun 2027 03:27:55.208           206.901        103450.500
       147   06 Jun 2027 03:28:46.753   06 Jun 2027 03:29:09.665            22.912         11456.000
       148   06 Jun 2027 04:48:07.332   06 Jun 2027 04:48:09.783             2.451          1225.500
       149   06 Jun 2027 04:48:11.278   06 Jun 2027 04:48:23.029            11.751          5875.500
       150   06 Jun 2027 06:24:34.220   06 Jun 2027 06:26:06.258            92.038         45288.813
       151   06 Jun 2027 06:26:28.420   06 Jun 2027 06:26:29.921             1.501           204.250
       152   06 Jun 2027 06:27:02.467   06 Jun 2027 06:27:04.534             2.067           852.531
       153   06 Jun 2027 06:27:18.673   06 Jun 2027 06:27:22.326             3.653           441.844
       154   06 Jun 2027 07:56:43.720   06 Jun 2027 07:56:52.479             8.759          3331.406
       155   06 Jun 2027 07:58:41.175   06 Jun 2027 07:58:46.412             5.237           471.844
       156   06 Jun 2027 08:00:31.700   06 Jun 2027 08:00:34.140             2.440           231.437
       157   06 Jun 2027 08:00:42.871   06 Jun 2027 08:00:43.718             0.847           270.031
       158   06 Jun 2027 08:02:55.359   06 Jun 2027 08:03:02.902             7.543          1728.594
       159   06 Jun 2027 08:03:26.070   06 Jun 2027 08:03:27.675             1.605           516.187
       160   06 Jun 2027 08:04:49.291   06 Jun 2027 08:04:54.072             4.781          2004.656
       161   06 Jun 2027 08:05:09.824   06 Jun 2027 08:05:09.920             0.096            18.000
       162   06 Jun 2027 08:05:57.437   06 Jun 2027 08:05:59.601             2.164           990.219
       163   06 Jun 2027 08:06:26.246   06 Jun 2027 08:06:30.622             4.376           567.594
       164   06 Jun 2027 09:35:39.613   06 Jun 2027 09:35:54.488            14.875          5231.219
       165   06 Jun 2027 09:40:07.049   06 Jun 2027 09:40:10.807             3.758          1788.875
       166   06 Jun 2027 09:40:45.763   06 Jun 2027 09:40:51.111             5.348           953.125
       167   06 Jun 2027 09:41:50.712   06 Jun 2027 09:41:52.398             1.686           317.656
       168   06 Jun 2027 11:12:59.114   06 Jun 2027 11:13:09.974            10.860          5231.594
       169   06 Jun 2027 11:13:39.446   06 Jun 2027 11:13:43.724             4.278           921.000
       170   06 Jun 2027 11:14:26.536   06 Jun 2027 11:14:30.361             3.825          1337.875
       171   06 Jun 2027 11:15:44.610   06 Jun 2027 11:15:45.602             0.992           489.844
       172   06 Jun 2027 11:16:21.855   06 Jun 2027 11:16:29.555             7.700             2.094
       173   06 Jun 2027 11:16:50.921   06 Jun 2027 11:16:53.842             2.921           596.313
       174   06 Jun 2027 11:17:14.491   06 Jun 2027 11:17:16.650             2.159           600.281
       175   06 Jun 2027 11:17:44.993   06 Jun 2027 11:17:45.707             0.714           357.000
       176   07 Jun 2027 03:37:41.784   07 Jun 2027 03:40:44.797           183.013         91506.500
       177   07 Jun 2027 05:00:15.500   07 Jun 2027 05:00:47.298            31.798         15899.000
       178   07 Jun 2027 05:01:15.487   07 Jun 2027 05:01:15.487             0.000             0.000
       179   07 Jun 2027 05:01:18.551   07 Jun 2027 05:01:18.947             0.396           198.000
       180   07 Jun 2027 05:01:55.141   07 Jun 2027 05:02:07.354            12.213          6106.500
       181   07 Jun 2027 06:36:43.775   07 Jun 2027 06:38:00.259            76.484         36444.719
       182   07 Jun 2027 06:38:20.724   07 Jun 2027 06:38:24.803             4.079            58.625
       183   07 Jun 2027 06:38:56.438   07 Jun 2027 06:38:56.438             0.000             0.000
       184   07 Jun 2027 06:39:10.722   07 Jun 2027 06:39:12.802             2.080           985.125
       185   07 Jun 2027 06:39:43.127   07 Jun 2027 06:39:51.084             7.957           913.437
       186   07 Jun 2027 08:11:54.724   07 Jun 2027 08:11:59.102             4.378          2028.844
       187   07 Jun 2027 08:13:04.809   07 Jun 2027 08:13:08.771             3.962          1339.594
       188   07 Jun 2027 08:13:27.836   07 Jun 2027 08:13:30.519             2.683           397.250
       189   07 Jun 2027 08:14:52.707   07 Jun 2027 08:14:54.574             1.867           933.500
       190   07 Jun 2027 08:15:26.769   07 Jun 2027 08:15:31.168             4.399          1411.281
       191   07 Jun 2027 08:17:10.141   07 Jun 2027 08:17:15.040             4.899          2250.875
       192   07 Jun 2027 08:18:29.479   07 Jun 2027 08:18:32.880             3.401          1697.531
       193   07 Jun 2027 09:48:13.540   07 Jun 2027 09:48:24.500            10.960          5190.219
       194   07 Jun 2027 09:51:37.485   07 Jun 2027 09:51:41.360             3.875          1049.156
       195   07 Jun 2027 09:52:30.608   07 Jun 2027 09:52:34.879             4.271          1085.625
       196   07 Jun 2027 09:53:34.053   07 Jun 2027 09:53:37.261             3.208          1352.250
       197   07 Jun 2027 11:25:36.699   07 Jun 2027 11:25:53.829            17.130          5843.281
       198   07 Jun 2027 11:27:42.686   07 Jun 2027 11:27:46.057             3.371          1059.312
       199   07 Jun 2027 11:28:21.846   07 Jun 2027 11:28:22.640             0.794           358.063
       200   07 Jun 2027 11:29:32.822   07 Jun 2027 11:29:39.389             6.567          1347.187
       201   07 Jun 2027 11:29:54.632   07 Jun 2027 11:29:59.479             4.847           476.344
       202   08 Jun 2027 03:48:49.363   08 Jun 2027 03:49:27.079            37.716         18858.000
       203   08 Jun 2027 03:49:55.870   08 Jun 2027 03:52:21.942           146.072         73036.000
       204   08 Jun 2027 05:12:16.613   08 Jun 2027 05:12:20.769             4.156          2078.000
       205   08 Jun 2027 05:12:48.400   08 Jun 2027 05:13:16.932            28.532         14266.000
       206   08 Jun 2027 05:13:21.819   08 Jun 2027 05:13:27.388             5.569          2784.500
       207   08 Jun 2027 06:48:44.105   08 Jun 2027 06:50:11.462            87.357         42113.219
       208   08 Jun 2027 06:50:46.519   08 Jun 2027 06:50:52.401             5.882          1081.562
       209   08 Jun 2027 06:51:12.202   08 Jun 2027 06:51:13.963             1.761           385.250
       210   08 Jun 2027 06:51:54.132   08 Jun 2027 06:51:54.132             0.000             0.000
       211   08 Jun 2027 06:52:12.956   08 Jun 2027 06:52:13.528             0.572           286.000
       212   08 Jun 2027 08:23:56.932   08 Jun 2027 08:24:03.889             6.957          2908.062
       213   08 Jun 2027 08:24:15.025   08 Jun 2027 08:24:17.076             2.051           196.063
       214   08 Jun 2027 08:25:30.537   08 Jun 2027 08:25:30.703             0.166            53.406
       215   08 Jun 2027 08:26:22.580   08 Jun 2027 08:26:24.067             1.487           597.688
       216   08 Jun 2027 08:26:48.916   08 Jun 2027 08:26:50.325             1.409           225.844
       217   08 Jun 2027 08:27:31.042   08 Jun 2027 08:27:34.589             3.547          1272.406
       218   08 Jun 2027 08:29:09.891   08 Jun 2027 08:29:15.031             5.140          2171.094
       219   08 Jun 2027 08:30:09.413   08 Jun 2027 08:30:13.283             3.870          1677.344
       220   08 Jun 2027 09:59:52.310   08 Jun 2027 10:00:04.489            12.179          5236.812
       221   08 Jun 2027 10:02:03.789   08 Jun 2027 10:02:06.627             2.838          1278.500
       222   08 Jun 2027 10:02:36.697   08 Jun 2027 10:02:37.379             0.682            14.375
       223   08 Jun 2027 10:02:57.770   08 Jun 2027 10:03:00.799             3.029            97.469
       224   08 Jun 2027 10:03:04.971   08 Jun 2027 10:03:06.439             1.468            59.656
       225   08 Jun 2027 10:03:34.907   08 Jun 2027 10:03:39.852             4.945           619.469
       226   08 Jun 2027 10:04:14.716   08 Jun 2027 10:04:17.383             2.667           242.281
       227   08 Jun 2027 10:04:41.827   08 Jun 2027 10:04:45.314             3.487           763.875
       228   08 Jun 2027 10:05:54.406   08 Jun 2027 10:06:01.879             7.473          2050.594
       229   08 Jun 2027 11:37:51.315   08 Jun 2027 11:38:01.671            10.356          5121.187
       230   08 Jun 2027 11:39:17.097   08 Jun 2027 11:39:23.674             6.577           322.969
       231   08 Jun 2027 11:40:10.884   08 Jun 2027 11:40:18.084             7.200           152.781
       232   08 Jun 2027 11:40:27.613   08 Jun 2027 11:40:32.514             4.901           166.969
       233   08 Jun 2027 11:41:12.288   08 Jun 2027 11:41:14.126             1.838           774.062
       234   08 Jun 2027 11:41:47.271   08 Jun 2027 11:41:50.309             3.038           932.844
       235   08 Jun 2027 11:42:06.917   08 Jun 2027 11:42:09.095             2.178           519.000
       236   08 Jun 2027 11:42:10.771   08 Jun 2027 11:42:11.897             1.126            52.375
       237   09 Jun 2027 03:49:49.267   09 Jun 2027 03:50:05.810            16.543          8271.500
       238   09 Jun 2027 04:00:46.372   09 Jun 2027 04:03:28.130           161.758         80879.000
       239   09 Jun 2027 05:24:42.897   09 Jun 2027 05:24:54.730            11.833          5916.500
       240   09 Jun 2027 05:25:48.504   09 Jun 2027 05:25:51.335             2.831          1415.500
       241   09 Jun 2027 05:25:57.503   09 Jun 2027 05:26:03.018             5.515          2757.500
       242   09 Jun 2027 05:26:43.723   09 Jun 2027 05:27:12.937            29.214         14607.000
       243   09 Jun 2027 07:00:28.395   09 Jun 2027 07:02:04.328            95.933         45884.843
       244   09 Jun 2027 07:02:16.344   09 Jun 2027 07:02:17.093             0.749           311.250
       245   09 Jun 2027 07:03:13.322   09 Jun 2027 07:03:17.613             4.291          1322.813
       246   09 Jun 2027 07:03:55.925   09 Jun 2027 07:03:58.935             3.010          1197.250
       247   09 Jun 2027 07:04:44.644   09 Jun 2027 07:04:47.697             3.053          1346.094
       248   09 Jun 2027 08:35:12.245   09 Jun 2027 08:35:16.719             4.474          1872.938
       249   09 Jun 2027 08:37:29.365   09 Jun 2027 08:37:38.258             8.893          2357.531
       250   09 Jun 2027 08:38:38.334   09 Jun 2027 08:38:42.980             4.646          1183.156
       251   09 Jun 2027 08:39:02.432   09 Jun 2027 08:39:04.065             1.633           585.281
       252   09 Jun 2027 08:40:05.269   09 Jun 2027 08:40:08.305             3.036          1003.312
       253   09 Jun 2027 08:40:56.503   09 Jun 2027 08:40:59.001             2.498           314.906
       254   09 Jun 2027 08:41:18.808   09 Jun 2027 08:41:20.233             1.425           307.156
       255   09 Jun 2027 08:42:02.636   09 Jun 2027 08:42:04.388             1.752           450.156
       256   09 Jun 2027 08:42:06.049   09 Jun 2027 08:42:06.580             0.531            51.906
       257   09 Jun 2027 10:12:02.012   09 Jun 2027 10:12:15.231            13.219          6167.344
       258   09 Jun 2027 10:15:29.306   09 Jun 2027 10:15:34.155             4.849          1059.250
       259   09 Jun 2027 10:16:21.787   09 Jun 2027 10:16:25.685             3.898          1363.437
       260   09 Jun 2027 10:16:45.953   09 Jun 2027 10:16:56.815            10.862           457.469
       261   09 Jun 2027 10:16:59.579   09 Jun 2027 10:17:00.000             0.421            86.375
       262   09 Jun 2027 10:17:10.802   09 Jun 2027 10:17:16.108             5.306            64.031
       263   09 Jun 2027 10:18:13.288   09 Jun 2027 10:18:16.345             3.057          1468.906
       264   09 Jun 2027 11:50:13.905   09 Jun 2027 11:50:23.865             9.960          4614.625
       265   09 Jun 2027 11:50:46.593   09 Jun 2027 11:50:47.676             1.083           110.375
       266   09 Jun 2027 11:52:42.882   09 Jun 2027 11:52:52.878             9.996          1697.313
       267   09 Jun 2027 11:53:56.177   09 Jun 2027 11:53:58.511             2.334          1051.312
       268   10 Jun 2027 04:01:06.997   10 Jun 2027 04:01:16.667             9.670          4835.000
       269   10 Jun 2027 04:12:46.911   10 Jun 2027 04:14:12.451            85.540         42770.000
       270   10 Jun 2027 05:35:17.922   10 Jun 2027 05:36:19.251            61.329         30664.500
       271   10 Jun 2027 05:37:00.098   10 Jun 2027 05:37:27.948            27.850         13925.000
       272   10 Jun 2027 05:38:26.789   10 Jun 2027 05:39:10.628            43.839         21919.500
       273   10 Jun 2027 07:10:21.304   10 Jun 2027 07:11:40.626            79.322         39661.000
       274   10 Jun 2027 07:12:12.203   10 Jun 2027 07:12:30.908            18.705          8014.219
       275   10 Jun 2027 07:13:53.649   10 Jun 2027 07:13:59.646             5.997          2505.312
       276   10 Jun 2027 07:15:14.037   10 Jun 2027 07:15:14.145             0.108            54.000
       277   10 Jun 2027 07:15:40.866   10 Jun 2027 07:15:47.221             6.355          2982.031
       278   10 Jun 2027 07:16:38.749   10 Jun 2027 07:16:42.920             4.171          1442.281
       279   10 Jun 2027 07:16:47.253   10 Jun 2027 07:16:48.287             1.034            73.750
       280   10 Jun 2027 08:47:20.273   10 Jun 2027 08:47:23.172             2.899          1443.875
       281   10 Jun 2027 08:50:57.341   10 Jun 2027 08:50:59.491             2.150           690.781
       282   10 Jun 2027 08:51:48.581   10 Jun 2027 08:51:53.438             4.857          1020.719
       283   10 Jun 2027 08:52:21.186   10 Jun 2027 08:52:23.152             1.966           262.531
       284   10 Jun 2027 08:53:41.455   10 Jun 2027 08:53:44.258             2.803          1376.656
       285   10 Jun 2027 08:54:38.470   10 Jun 2027 08:54:43.498             5.028          1199.781
       286   10 Jun 2027 10:24:18.310   10 Jun 2027 10:24:32.493            14.183          6136.094
       287   10 Jun 2027 10:28:01.676   10 Jun 2027 10:28:07.330             5.654          2045.969
       288   10 Jun 2027 10:28:39.512   10 Jun 2027 10:28:43.236             3.724          1001.219
       289   10 Jun 2027 10:29:03.568   10 Jun 2027 10:29:10.958             7.390           460.844
       290   11 Jun 2027 04:12:27.982   11 Jun 2027 04:13:13.769            45.787         22893.500
       291   11 Jun 2027 04:24:44.321   11 Jun 2027 04:25:39.702            55.381         27690.500
       292   11 Jun 2027 05:46:42.839   11 Jun 2027 05:48:03.553            80.714         40357.000
       293   11 Jun 2027 05:51:37.866   11 Jun 2027 05:51:38.530             0.664           332.000
       294   11 Jun 2027 07:21:44.521   11 Jun 2027 07:24:04.371           139.850         68568.812
       295   11 Jun 2027 07:25:03.755   11 Jun 2027 07:25:08.654             4.899          1855.750
       296   11 Jun 2027 07:25:37.446   11 Jun 2027 07:25:39.954             2.508           815.656
       297   11 Jun 2027 07:26:28.236   11 Jun 2027 07:26:28.236             0.000             0.000
       298   11 Jun 2027 07:27:09.265   11 Jun 2027 07:27:14.145             4.880          2349.375
       299   11 Jun 2027 07:27:34.974   11 Jun 2027 07:27:36.345             1.371           646.812
       300   11 Jun 2027 07:28:04.486   11 Jun 2027 07:28:08.421             3.935           654.656
       301   11 Jun 2027 07:28:26.516   11 Jun 2027 07:28:27.449             0.933           406.719
       302   11 Jun 2027 07:28:31.708   11 Jun 2027 07:28:33.923             2.215            68.781
       303   11 Jun 2027 07:29:17.312   11 Jun 2027 07:29:19.807             2.495          1144.000
       304   11 Jun 2027 08:59:22.228   11 Jun 2027 08:59:30.495             8.267          3864.063
       305   11 Jun 2027 09:00:19.152   11 Jun 2027 09:00:28.415             9.263          1058.563
       306   11 Jun 2027 09:02:27.247   11 Jun 2027 09:02:31.098             3.851           347.594
       307   11 Jun 2027 09:03:02.917   11 Jun 2027 09:03:06.032             3.115           624.031
       308   11 Jun 2027 09:03:36.468   11 Jun 2027 09:03:41.057             4.589           519.500
       309   11 Jun 2027 09:03:47.805   11 Jun 2027 09:03:52.093             4.288           210.875
       310   11 Jun 2027 09:04:20.232   11 Jun 2027 09:04:22.268             2.036           879.344
       311   11 Jun 2027 09:05:04.596   11 Jun 2027 09:05:07.330             2.734          1297.875
       312   11 Jun 2027 09:05:30.940   11 Jun 2027 09:05:34.033             3.093           202.406
       313   11 Jun 2027 09:06:34.620   11 Jun 2027 09:06:37.593             2.973          1016.969
       314   11 Jun 2027 10:36:08.321   11 Jun 2027 10:36:19.022            10.701          5125.188
       315   11 Jun 2027 10:36:27.646   11 Jun 2027 10:36:29.524             1.878           122.906
       316   11 Jun 2027 10:37:17.613   11 Jun 2027 10:37:20.848             3.235          1502.781
       317   11 Jun 2027 10:38:53.977   11 Jun 2027 10:38:58.930             4.953          2066.094
       318   11 Jun 2027 10:39:45.747   11 Jun 2027 10:39:49.583             3.836          1301.531
       319   11 Jun 2027 10:40:23.235   11 Jun 2027 10:40:25.352             2.117           186.938
       320   11 Jun 2027 10:40:54.150   11 Jun 2027 10:40:56.499             2.349           899.937
       321   11 Jun 2027 10:42:00.343   11 Jun 2027 10:42:05.207             4.864          1995.125
       322   11 Jun 2027 10:42:29.234   11 Jun 2027 10:42:33.563             4.329           583.188
       323   12 Jun 2027 03:00:24.923   12 Jun 2027 03:00:59.189            34.266         17133.000
       324   12 Jun 2027 03:01:46.598   12 Jun 2027 03:01:48.836             2.238          1119.000
       325   12 Jun 2027 03:02:25.094   12 Jun 2027 03:02:28.561             3.467          1733.500
       326   12 Jun 2027 03:02:51.683   12 Jun 2027 03:03:00.694             9.011          4505.500
       327   12 Jun 2027 03:03:34.794   12 Jun 2027 03:03:47.885            13.091          6545.500
       328   12 Jun 2027 03:06:08.433   12 Jun 2027 03:06:12.601             4.168          2084.000
       329   12 Jun 2027 04:24:35.856   12 Jun 2027 04:25:22.293            46.437         23218.500
       330   12 Jun 2027 04:37:08.291   12 Jun 2027 04:37:11.308             3.017          1508.500
       331   12 Jun 2027 05:58:25.300   12 Jun 2027 06:01:10.007           164.707         82353.500
       332   12 Jun 2027 06:02:11.923   12 Jun 2027 06:02:16.133             4.210          2105.000
       333   12 Jun 2027 06:02:26.935   12 Jun 2027 06:03:14.707            47.772         23512.219
       334   12 Jun 2027 07:33:17.304   12 Jun 2027 07:33:30.556            13.252          6536.437
       335   12 Jun 2027 07:34:23.551   12 Jun 2027 07:34:26.990             3.439           978.750
       336   12 Jun 2027 07:35:32.266   12 Jun 2027 07:35:38.664             6.398          2039.875
       337   12 Jun 2027 07:36:59.941   12 Jun 2027 07:37:04.434             4.493          1560.969
       338   12 Jun 2027 07:38:05.278   12 Jun 2027 07:38:07.049             1.771           799.125
       339   12 Jun 2027 07:39:02.487   12 Jun 2027 07:39:05.214             2.727          1035.219
       340   12 Jun 2027 07:39:23.661   12 Jun 2027 07:39:25.967             2.306           576.469
       341   12 Jun 2027 07:40:01.603   12 Jun 2027 07:40:04.830             3.227           736.438
       342   12 Jun 2027 07:40:10.320   12 Jun 2027 07:40:15.675             5.355           170.906
       343   12 Jun 2027 07:40:31.970   12 Jun 2027 07:40:35.014             3.044           296.281
       344   12 Jun 2027 07:41:03.949   12 Jun 2027 07:41:08.483             4.534           385.094
       345   12 Jun 2027 07:41:32.212   12 Jun 2027 07:41:33.405             1.193           480.219
       346   12 Jun 2027 07:42:15.862   12 Jun 2027 07:42:18.934             3.072           800.906
       347   12 Jun 2027 07:42:47.662   12 Jun 2027 07:42:48.033             0.371            33.406
       348   12 Jun 2027 09:11:23.081   12 Jun 2027 09:11:39.944            16.863          6345.437
       349   12 Jun 2027 09:15:37.543   12 Jun 2027 09:15:46.195             8.652          2595.594
       350   12 Jun 2027 09:16:59.237   12 Jun 2027 09:17:00.758             1.521           718.156
       351   12 Jun 2027 09:17:02.150   12 Jun 2027 09:17:03.316             1.166            34.812
       352   12 Jun 2027 09:18:03.567   12 Jun 2027 09:18:10.698             7.131          1106.031
       353   12 Jun 2027 09:18:18.601   12 Jun 2027 09:18:20.568             1.967           130.438
       354   12 Jun 2027 09:18:35.639   12 Jun 2027 09:18:37.056             1.417           453.406
       355   12 Jun 2027 10:48:17.615   12 Jun 2027 10:48:31.852            14.237          6087.844
       356   12 Jun 2027 10:48:49.891   12 Jun 2027 10:48:53.888             3.997           489.500
       357   12 Jun 2027 10:51:39.826   12 Jun 2027 10:51:44.679             4.853          1974.437
       358   12 Jun 2027 10:52:12.922   12 Jun 2027 10:52:14.164             1.242           399.719
       359   12 Jun 2027 10:52:30.157   12 Jun 2027 10:52:32.072             1.915           495.469
       360   12 Jun 2027 10:53:01.572   12 Jun 2027 10:53:06.904             5.332           921.875
       361   12 Jun 2027 10:53:44.565   12 Jun 2027 10:53:52.225             7.660          1176.906
       362   12 Jun 2027 10:54:22.937   12 Jun 2027 10:54:25.374             2.437           933.969
       363   13 Jun 2027 03:12:49.833   13 Jun 2027 03:14:00.799            70.966         35483.000
       364   13 Jun 2027 03:15:43.794   13 Jun 2027 03:16:31.121            47.327         23663.500
       365   13 Jun 2027 04:36:31.870   13 Jun 2027 04:37:10.672            38.802         19401.000
       366   13 Jun 2027 04:38:25.866   13 Jun 2027 04:38:35.552             9.686          4843.000
       367   13 Jun 2027 06:12:44.716   13 Jun 2027 06:15:14.838           150.122         74716.594
       368   13 Jun 2027 06:16:06.177   13 Jun 2027 06:16:09.823             3.646          1568.563
       369   13 Jun 2027 07:46:17.971   13 Jun 2027 07:46:31.131            13.160          2339.719
       370   13 Jun 2027 07:47:46.557   13 Jun 2027 07:47:50.548             3.991           432.000
       371   13 Jun 2027 07:48:41.141   13 Jun 2027 07:48:43.840             2.699           796.219
       372   13 Jun 2027 07:48:54.204   13 Jun 2027 07:48:55.537             1.333           161.531
       373   13 Jun 2027 07:50:32.443   13 Jun 2027 07:50:38.599             6.156          2625.063
       374   13 Jun 2027 07:51:40.962   13 Jun 2027 07:51:42.789             1.827           874.375
       375   13 Jun 2027 07:52:17.752   13 Jun 2027 07:52:20.251             2.499          1092.594
       376   13 Jun 2027 07:53:15.134   13 Jun 2027 07:53:18.703             3.569          1715.094
       377   13 Jun 2027 07:53:29.836   13 Jun 2027 07:53:34.011             4.175           219.531
       378   13 Jun 2027 07:53:51.316   13 Jun 2027 07:53:55.113             3.797           512.531
       379   13 Jun 2027 07:54:50.533   13 Jun 2027 07:54:51.662             1.129           564.500
       380   13 Jun 2027 09:23:49.418   13 Jun 2027 09:24:10.460            21.042          5372.250
       381   13 Jun 2027 09:27:16.669   13 Jun 2027 09:27:20.397             3.728          1334.187
       382   13 Jun 2027 09:28:55.753   13 Jun 2027 09:28:56.763             1.010            49.125
       383   13 Jun 2027 09:29:58.393   13 Jun 2027 09:30:04.743             6.350          1787.844
       384   13 Jun 2027 09:30:31.930   13 Jun 2027 09:30:34.752             2.822           758.031
       385   13 Jun 2027 11:00:45.535   13 Jun 2027 11:01:06.487            20.952          5954.156
       386   13 Jun 2027 11:04:06.355   13 Jun 2027 11:04:10.507             4.152          1542.656
       387   13 Jun 2027 11:04:41.126   13 Jun 2027 11:04:46.268             5.142           956.844
       388   13 Jun 2027 11:06:04.393   13 Jun 2027 11:06:12.335             7.942          2377.094
       389   13 Jun 2027 11:06:34.295   13 Jun 2027 11:06:35.920             1.625           472.812
