uniorb/output/strategy_4/Camera/Camera_KinoSat_111303.txt

KinoSat_111303
-------------------------
    Access    *     Start Time (UTCG)     *     Stop Time (UTCG)  *   Duration (s) *   Data (Mbytes)
         1   01 Jun 2027 03:47:13.558   01 Jun 2027 03:49:36.889           143.331         71665.500
         2   01 Jun 2027 03:49:58.094   01 Jun 2027 03:50:02.441             4.347          2173.500
         3   01 Jun 2027 03:51:11.319   01 Jun 2027 03:51:21.780            10.461          5230.500
         4   01 Jun 2027 05:10:35.330   01 Jun 2027 05:11:34.294            58.964         29482.000
         5   01 Jun 2027 05:11:41.962   01 Jun 2027 05:11:52.678            10.716          5358.000
         6   01 Jun 2027 05:12:04.905   01 Jun 2027 05:12:17.982            13.077          6538.500
         7   01 Jun 2027 06:46:57.533   01 Jun 2027 06:48:35.213            97.680         48840.000
         8   01 Jun 2027 06:49:12.117   01 Jun 2027 06:49:23.722            11.605          5802.500
         9   01 Jun 2027 06:49:56.683   01 Jun 2027 06:50:02.873             6.190          3095.000
        10   01 Jun 2027 06:50:18.089   01 Jun 2027 06:50:30.683            12.594          6297.000
        11   01 Jun 2027 08:19:14.558   01 Jun 2027 08:19:33.816            19.258          9629.000
        12   01 Jun 2027 08:21:01.616   01 Jun 2027 08:21:47.250            45.634         22817.000
        13   01 Jun 2027 08:22:45.857   01 Jun 2027 08:23:27.972            42.115         21057.500
        14   01 Jun 2027 08:23:51.786   01 Jun 2027 08:24:12.397            20.611         10305.500
        15   01 Jun 2027 08:27:06.731   01 Jun 2027 08:27:32.635            25.904         12952.000
        16   01 Jun 2027 08:27:48.854   01 Jun 2027 08:27:56.379             7.525          3762.500
        17   01 Jun 2027 08:27:59.288   01 Jun 2027 08:28:10.312            11.024          5512.000
        18   01 Jun 2027 09:58:05.965   01 Jun 2027 10:00:25.863           139.898         69949.000
        19   01 Jun 2027 10:00:35.448   01 Jun 2027 10:00:37.276             1.828           914.000
        20   01 Jun 2027 10:03:11.936   01 Jun 2027 10:03:19.661             7.725          3862.500
        21   01 Jun 2027 10:04:31.228   01 Jun 2027 10:04:46.380            15.152          7576.000
        22   01 Jun 2027 11:35:02.455   01 Jun 2027 11:37:23.598           141.143         70571.500
        23   02 Jun 2027 03:59:41.877   02 Jun 2027 04:02:21.863           159.986         79993.000
        24   02 Jun 2027 05:22:38.941   02 Jun 2027 05:23:30.558            51.617         25808.500
        25   02 Jun 2027 06:59:08.214   02 Jun 2027 07:02:36.700           208.486        104243.000
        26   02 Jun 2027 08:34:13.070   02 Jun 2027 08:37:28.755           195.685         97842.500
        27   02 Jun 2027 08:38:13.136   02 Jun 2027 08:38:22.262             9.126          4563.000
        28   02 Jun 2027 08:40:52.360   02 Jun 2027 08:41:01.012             8.652          4326.000
        29   02 Jun 2027 10:10:34.634   02 Jun 2027 10:11:41.192            66.558         33258.938
        30   02 Jun 2027 10:12:40.502   02 Jun 2027 10:12:42.172             1.670           773.281
        31   02 Jun 2027 10:12:50.766   02 Jun 2027 10:12:51.089             0.323           100.406
        32   02 Jun 2027 10:13:06.471   02 Jun 2027 10:13:07.719             1.248           480.688
        33   02 Jun 2027 10:13:42.137   02 Jun 2027 10:13:50.769             8.632           684.625
        34   02 Jun 2027 10:14:33.438   02 Jun 2027 10:14:38.931             5.493          1333.406
        35   02 Jun 2027 10:15:56.101   02 Jun 2027 10:16:03.487             7.386          1912.719
        36   02 Jun 2027 10:16:12.489   02 Jun 2027 10:16:13.470             0.981           281.312
        37   02 Jun 2027 10:16:15.162   02 Jun 2027 10:16:18.311             3.149            16.250
        38   02 Jun 2027 10:16:35.702   02 Jun 2027 10:16:36.438             0.736           323.000
        39   02 Jun 2027 10:16:40.964   02 Jun 2027 10:16:42.658             1.694           141.438
        40   02 Jun 2027 11:48:05.442   02 Jun 2027 11:48:16.466            11.024          5270.781
        41   02 Jun 2027 11:48:20.540   02 Jun 2027 11:48:22.776             2.236           127.313
        42   02 Jun 2027 11:50:07.234   02 Jun 2027 11:50:17.791            10.557          1214.281
        43   02 Jun 2027 11:50:33.928   02 Jun 2027 11:50:36.417             2.489           124.312
        44   02 Jun 2027 11:50:39.614   02 Jun 2027 11:50:40.206             0.592            99.906
        45   02 Jun 2027 11:51:21.919   02 Jun 2027 11:51:25.567             3.648          1026.750
        46   02 Jun 2027 11:51:44.597   02 Jun 2027 11:51:45.825             1.228           518.094
        47   03 Jun 2027 04:11:16.272   03 Jun 2027 04:11:52.604            36.332         18166.000
        48   03 Jun 2027 04:12:05.366   03 Jun 2027 04:13:50.698           105.332         52666.000
        49   03 Jun 2027 04:14:31.306   03 Jun 2027 04:14:38.041             6.735          3367.500
        50   03 Jun 2027 04:14:54.668   03 Jun 2027 04:14:55.660             0.992           496.000
        51   03 Jun 2027 05:34:35.410   03 Jun 2027 05:35:30.113            54.703         27351.500
        52   03 Jun 2027 05:36:11.643   03 Jun 2027 05:36:11.643             0.000             0.000
        53   03 Jun 2027 07:11:13.241   03 Jun 2027 07:13:17.002           123.761         60721.406
        54   03 Jun 2027 08:46:23.288   03 Jun 2027 08:46:31.206             7.918          3719.500
        55   03 Jun 2027 08:46:37.096   03 Jun 2027 08:46:38.106             1.010            12.656
        56   03 Jun 2027 08:47:59.423   03 Jun 2027 08:48:03.351             3.928           395.187
        57   03 Jun 2027 08:48:48.116   03 Jun 2027 08:48:57.783             9.667          1169.094
        58   03 Jun 2027 08:49:27.221   03 Jun 2027 08:49:27.859             0.638           300.375
        59   03 Jun 2027 08:50:23.928   03 Jun 2027 08:50:28.463             4.535          1018.000
        60   03 Jun 2027 08:50:42.470   03 Jun 2027 08:50:45.107             2.637           374.812
        61   03 Jun 2027 08:51:13.265   03 Jun 2027 08:51:16.098             2.833           702.500
        62   03 Jun 2027 08:51:51.971   03 Jun 2027 08:51:54.263             2.292          1085.250
        63   03 Jun 2027 10:22:39.262   03 Jun 2027 10:22:51.682            12.420          5700.656
        64   03 Jun 2027 10:25:06.243   03 Jun 2027 10:25:07.707             1.464           395.344
        65   03 Jun 2027 10:25:22.072   03 Jun 2027 10:25:23.636             1.564           433.125
        66   03 Jun 2027 10:25:30.502   03 Jun 2027 10:25:32.219             1.717           214.563
        67   03 Jun 2027 10:26:44.003   03 Jun 2027 10:26:51.903             7.900          2095.875
        68   03 Jun 2027 10:27:44.877   03 Jun 2027 10:27:54.743             9.866          1617.531
        69   04 Jun 2027 04:12:25.192   04 Jun 2027 04:12:38.244            13.052          6526.000
        70   04 Jun 2027 04:23:12.828   04 Jun 2027 04:23:54.915            42.087         21043.500
        71   04 Jun 2027 04:24:01.009   04 Jun 2027 04:25:38.439            97.430         48715.000
        72   04 Jun 2027 05:47:11.558   04 Jun 2027 05:48:06.561            55.003         27501.500
        73   04 Jun 2027 07:22:56.864   04 Jun 2027 07:25:04.592           127.728         62300.094
        74   04 Jun 2027 07:25:45.257   04 Jun 2027 07:25:48.446             3.189          1241.375
        75   04 Jun 2027 07:26:24.724   04 Jun 2027 07:26:28.795             4.071          1133.687
        76   04 Jun 2027 08:57:48.140   04 Jun 2027 08:57:53.910             5.770          1982.875
        77   04 Jun 2027 08:58:35.196   04 Jun 2027 08:58:36.648             1.452           466.562
        78   04 Jun 2027 08:59:44.366   04 Jun 2027 08:59:46.657             2.291           430.625
        79   04 Jun 2027 09:01:09.189   04 Jun 2027 09:01:15.038             5.849          2237.687
        80   04 Jun 2027 09:02:14.596   04 Jun 2027 09:02:21.186             6.590          1539.344
        81   04 Jun 2027 09:02:44.506   04 Jun 2027 09:02:45.569             1.063           512.906
        82   04 Jun 2027 09:03:17.106   04 Jun 2027 09:03:18.968             1.862           108.844
        83   04 Jun 2027 09:03:24.672   04 Jun 2027 09:03:31.629             6.957           126.500
        84   04 Jun 2027 09:04:23.431   04 Jun 2027 09:04:26.465             3.034          1438.094
        85   04 Jun 2027 10:34:23.750   04 Jun 2027 10:34:40.002            16.252          7018.719
        86   04 Jun 2027 10:37:26.483   04 Jun 2027 10:37:33.430             6.947           673.250
        87   04 Jun 2027 10:38:09.759   04 Jun 2027 10:38:18.340             8.581          1069.875
        88   04 Jun 2027 10:38:50.269   04 Jun 2027 10:38:55.975             5.706            53.187
        89   04 Jun 2027 10:39:04.099   04 Jun 2027 10:39:07.113             3.014           165.625
        90   04 Jun 2027 10:39:36.344   04 Jun 2027 10:39:43.196             6.852           349.187
        91   04 Jun 2027 10:40:17.003   04 Jun 2027 10:40:21.357             4.354          1056.469
        92   04 Jun 2027 10:40:44.628   04 Jun 2027 10:40:45.679             1.051           334.781
        93   05 Jun 2027 03:00:00.000   05 Jun 2027 03:00:09.191             9.191          4595.500
        94   05 Jun 2027 03:00:18.746   05 Jun 2027 03:00:45.896            27.150         13575.000
        95   05 Jun 2027 03:03:09.991   05 Jun 2027 03:03:18.591             8.600          4300.000
        96   05 Jun 2027 03:03:58.024   05 Jun 2027 03:04:35.379            37.355         18677.500
        97   05 Jun 2027 03:05:16.008   05 Jun 2027 03:05:51.282            35.274         17637.000
        98   05 Jun 2027 04:23:41.796   05 Jun 2027 04:24:06.485            24.689         12344.500
        99   05 Jun 2027 04:24:44.525   05 Jun 2027 04:24:57.557            13.032          6516.000
       100   05 Jun 2027 04:35:10.813   05 Jun 2027 04:36:12.671            61.858         30929.000
       101   05 Jun 2027 04:36:17.117   05 Jun 2027 04:36:44.386            27.269         13634.500
       102   05 Jun 2027 05:57:50.136   05 Jun 2027 05:58:20.813            30.677         15338.500
       103   05 Jun 2027 05:58:27.588   05 Jun 2027 05:58:49.132            21.544         10772.000
       104   05 Jun 2027 05:59:25.877   05 Jun 2027 05:59:32.388             6.511          3255.500
       105   05 Jun 2027 06:00:51.168   05 Jun 2027 06:01:27.861            36.693         18346.500
       106   05 Jun 2027 07:33:10.116   05 Jun 2027 07:34:05.463            55.347         27609.280
       107   05 Jun 2027 07:35:01.452   05 Jun 2027 07:35:01.955             0.503           251.500
       108   05 Jun 2027 07:36:20.406   05 Jun 2027 07:36:29.651             9.245          3869.531
       109   05 Jun 2027 07:36:34.128   05 Jun 2027 07:36:38.719             4.591            64.469
       110   05 Jun 2027 07:37:41.726   05 Jun 2027 07:37:45.419             3.693          1204.281
       111   05 Jun 2027 07:38:00.295   05 Jun 2027 07:38:01.483             1.188           266.594
       112   05 Jun 2027 07:38:18.282   05 Jun 2027 07:38:18.282             0.000             0.000
       113   05 Jun 2027 07:39:09.649   05 Jun 2027 07:39:13.750             4.101          2016.500
       114   05 Jun 2027 09:09:40.282   05 Jun 2027 09:09:44.608             4.326          1991.094
       115   05 Jun 2027 09:09:58.978   05 Jun 2027 09:10:00.806             1.828            77.500
       116   05 Jun 2027 09:11:56.282   05 Jun 2027 09:12:01.369             5.087          2517.375
       117   05 Jun 2027 09:13:21.813   05 Jun 2027 09:13:24.218             2.405           488.375
       118   05 Jun 2027 09:14:16.661   05 Jun 2027 09:14:19.372             2.711           658.125
       119   05 Jun 2027 09:15:16.656   05 Jun 2027 09:15:19.609             2.953           637.156
       120   05 Jun 2027 09:16:19.729   05 Jun 2027 09:16:23.057             3.328          1369.312
       121   05 Jun 2027 09:17:09.867   05 Jun 2027 09:17:09.916             0.049            24.500
       122   05 Jun 2027 10:46:44.951   05 Jun 2027 10:47:01.391            16.440          7883.656
       123   05 Jun 2027 10:50:32.570   05 Jun 2027 10:50:37.537             4.967          1422.281
       124   05 Jun 2027 10:50:52.643   05 Jun 2027 10:50:53.721             1.078           203.000
       125   05 Jun 2027 10:51:30.395   05 Jun 2027 10:51:33.809             3.414           692.062
       126   05 Jun 2027 10:52:13.265   05 Jun 2027 10:52:18.295             5.030           885.094
       127   05 Jun 2027 10:52:44.983   05 Jun 2027 10:52:53.223             8.240           750.094
       128   06 Jun 2027 03:10:40.682   06 Jun 2027 03:12:18.435            97.753         48876.500
       129   06 Jun 2027 03:12:55.573   06 Jun 2027 03:13:00.793             5.220          2610.000
       130   06 Jun 2027 03:14:35.593   06 Jun 2027 03:15:15.848            40.255         20127.500
       131   06 Jun 2027 03:15:48.883   06 Jun 2027 03:16:12.384            23.501         11750.500
       132   06 Jun 2027 03:16:46.351   06 Jun 2027 03:17:03.365            17.014          8507.000
       133   06 Jun 2027 03:17:30.173   06 Jun 2027 03:17:32.466             2.293          1146.500
       134   06 Jun 2027 04:34:57.758   06 Jun 2027 04:35:22.636            24.878         12439.000
       135   06 Jun 2027 04:35:53.633   06 Jun 2027 04:35:53.633             0.000             0.000
       136   06 Jun 2027 04:36:30.768   06 Jun 2027 04:36:31.400             0.632           316.000
       137   06 Jun 2027 04:47:10.105   06 Jun 2027 04:48:09.329            59.224         29612.000
       138   06 Jun 2027 06:09:26.087   06 Jun 2027 06:10:32.716            66.629         33314.500
       139   06 Jun 2027 06:11:24.643   06 Jun 2027 06:11:27.483             2.840          1420.000
       140   06 Jun 2027 06:11:45.378   06 Jun 2027 06:11:50.767             5.389          1000.687
       141   06 Jun 2027 06:12:11.422   06 Jun 2027 06:12:11.422             0.000             0.000
       142   06 Jun 2027 06:12:20.303   06 Jun 2027 06:12:22.213             1.910           923.000
       143   06 Jun 2027 06:13:44.445   06 Jun 2027 06:13:45.487             1.042           521.000
       144   06 Jun 2027 06:13:46.867   06 Jun 2027 06:13:50.781             3.914          1946.188
       145   06 Jun 2027 06:14:19.811   06 Jun 2027 06:14:19.811             0.000             0.000
       146   06 Jun 2027 07:44:19.692   06 Jun 2027 07:44:24.583             4.891          2122.844
       147   06 Jun 2027 07:44:54.889   06 Jun 2027 07:45:03.009             8.120           810.375
       148   06 Jun 2027 07:45:56.955   06 Jun 2027 07:45:59.505             2.550           942.750
       149   06 Jun 2027 07:46:29.223   06 Jun 2027 07:46:31.584             2.361           571.281
       150   06 Jun 2027 07:47:28.124   06 Jun 2027 07:47:31.688             3.564          1533.062
       151   06 Jun 2027 07:48:03.710   06 Jun 2027 07:48:06.402             2.692           825.938
       152   06 Jun 2027 07:48:31.274   06 Jun 2027 07:48:40.062             8.788           651.438
       153   06 Jun 2027 07:49:55.013   06 Jun 2027 07:49:56.370             1.357           402.875
       154   06 Jun 2027 07:50:19.950   06 Jun 2027 07:50:25.258             5.308           199.688
       155   06 Jun 2027 07:51:22.123   06 Jun 2027 07:51:25.960             3.837          1696.938
       156   06 Jun 2027 07:52:22.397   06 Jun 2027 07:52:27.261             4.864           908.531
       157   06 Jun 2027 09:21:53.524   06 Jun 2027 09:22:01.427             7.903          3951.500
       158   06 Jun 2027 09:22:38.764   06 Jun 2027 09:22:42.709             3.945          1203.156
       159   06 Jun 2027 09:23:50.735   06 Jun 2027 09:23:53.381             2.646           946.719
       160   06 Jun 2027 09:24:57.348   06 Jun 2027 09:25:05.137             7.789          1921.969
       161   06 Jun 2027 09:25:17.818   06 Jun 2027 09:25:17.946             0.128            40.531
       162   06 Jun 2027 09:26:08.574   06 Jun 2027 09:26:18.119             9.545          1469.500
       163   06 Jun 2027 09:27:06.325   06 Jun 2027 09:27:11.534             5.209          1427.281
       164   06 Jun 2027 09:28:21.423   06 Jun 2027 09:28:28.403             6.980          2011.625
       165   06 Jun 2027 09:28:51.061   06 Jun 2027 09:28:53.237             2.176            10.500
       166   06 Jun 2027 09:29:09.370   06 Jun 2027 09:29:10.488             1.118            30.625
       167   06 Jun 2027 10:58:36.083   06 Jun 2027 10:58:45.578             9.495          4636.281
       168   06 Jun 2027 11:01:16.726   06 Jun 2027 11:01:22.155             5.429           636.281
       169   06 Jun 2027 11:02:21.882   06 Jun 2027 11:02:28.734             6.852          1267.719
       170   06 Jun 2027 11:02:59.686   06 Jun 2027 11:03:03.802             4.116           644.875
       171   06 Jun 2027 11:03:42.258   06 Jun 2027 11:03:48.296             6.038           461.563
       172   06 Jun 2027 11:04:54.309   06 Jun 2027 11:05:01.194             6.885          1550.687
       173   06 Jun 2027 11:05:11.678   06 Jun 2027 11:05:13.829             2.151            93.562
       174   07 Jun 2027 03:22:44.912   07 Jun 2027 03:24:56.889           131.977         65988.500
       175   07 Jun 2027 03:25:08.349   07 Jun 2027 03:26:15.940            67.591         33795.500
       176   07 Jun 2027 03:26:46.567   07 Jun 2027 03:26:56.058             9.491          4745.500
       177   07 Jun 2027 03:27:21.547   07 Jun 2027 03:27:21.909             0.362           181.000
       178   07 Jun 2027 03:28:03.716   07 Jun 2027 03:28:29.821            26.105         13052.500
       179   07 Jun 2027 03:29:24.871   07 Jun 2027 03:29:39.009            14.138          7069.000
       180   07 Jun 2027 04:47:16.543   07 Jun 2027 04:47:44.608            28.065         14032.500
       181   07 Jun 2027 04:59:24.668   07 Jun 2027 04:59:43.831            19.163          9581.500
       182   07 Jun 2027 06:20:55.270   07 Jun 2027 06:21:38.944            43.674         21837.000
       183   07 Jun 2027 06:22:55.514   07 Jun 2027 06:22:59.564             4.050          1507.094
       184   07 Jun 2027 06:23:30.728   07 Jun 2027 06:23:37.259             6.531           381.562
       185   07 Jun 2027 06:23:40.609   07 Jun 2027 06:23:46.866             6.257            59.750
       186   07 Jun 2027 06:23:48.440   07 Jun 2027 06:23:55.087             6.647            49.188
       187   07 Jun 2027 06:24:29.223   07 Jun 2027 06:24:32.232             3.009          1066.750
       188   07 Jun 2027 06:26:06.258   07 Jun 2027 06:26:11.917             5.659          2160.844
       189   07 Jun 2027 07:55:50.395   07 Jun 2027 07:55:57.797             7.402          2453.125
       190   07 Jun 2027 07:56:15.955   07 Jun 2027 07:56:17.119             1.164           161.719
       191   07 Jun 2027 07:57:58.887   07 Jun 2027 07:58:03.516             4.629          2123.250
       192   07 Jun 2027 07:58:26.407   07 Jun 2027 07:58:28.423             2.016           285.500
       193   07 Jun 2027 07:59:24.337   07 Jun 2027 07:59:26.814             2.477          1043.375
       194   07 Jun 2027 08:00:32.937   07 Jun 2027 08:00:35.566             2.629           839.281
       195   07 Jun 2027 08:01:58.164   07 Jun 2027 08:02:00.580             2.416           505.844
       196   07 Jun 2027 08:02:53.555   07 Jun 2027 08:02:56.303             2.748          1002.969
       197   07 Jun 2027 08:03:12.668   07 Jun 2027 08:03:13.045             0.377           159.156
       198   07 Jun 2027 08:04:18.715   07 Jun 2027 08:04:21.066             2.351           748.781
       199   07 Jun 2027 08:04:45.220   07 Jun 2027 08:04:46.182             0.962           481.000
       200   07 Jun 2027 08:04:46.710   07 Jun 2027 08:04:47.461             0.751           118.312
       201   07 Jun 2027 09:33:47.565   07 Jun 2027 09:33:59.320            11.755          4808.781
       202   07 Jun 2027 09:36:45.399   07 Jun 2027 09:36:50.097             4.698          1584.781
       203   07 Jun 2027 09:37:56.021   07 Jun 2027 09:37:58.522             2.501           923.062
       204   07 Jun 2027 09:38:09.414   07 Jun 2027 09:38:10.172             0.758           340.375
       205   07 Jun 2027 09:39:15.033   07 Jun 2027 09:39:22.463             7.430          1030.750
       206   07 Jun 2027 09:40:34.656   07 Jun 2027 09:40:38.819             4.163           843.313
       207   07 Jun 2027 09:40:40.003   07 Jun 2027 09:40:44.075             4.072            37.000
       208   07 Jun 2027 11:10:42.021   07 Jun 2027 11:10:53.661            11.640          5258.406
       209   07 Jun 2027 11:12:16.666   07 Jun 2027 11:12:24.529             7.863           917.625
       210   07 Jun 2027 11:13:20.020   07 Jun 2027 11:13:26.577             6.557          1385.094
       211   07 Jun 2027 11:14:41.436   07 Jun 2027 11:14:44.756             3.320          1520.906
       212   07 Jun 2027 11:15:34.901   07 Jun 2027 11:15:38.897             3.996           844.344
       213   07 Jun 2027 11:16:42.304   07 Jun 2027 11:16:46.610             4.306          1860.656
       214   07 Jun 2027 11:17:06.919   07 Jun 2027 11:17:09.759             2.840           634.656
       215   08 Jun 2027 03:35:10.934   08 Jun 2027 03:38:48.156           217.222        108611.000
       216   08 Jun 2027 03:40:04.185   08 Jun 2027 03:40:11.334             7.149          3574.500
       217   08 Jun 2027 04:58:59.392   08 Jun 2027 04:59:08.447             9.055          4527.500
       218   08 Jun 2027 04:59:47.405   08 Jun 2027 04:59:47.405             0.000             0.000
       219   08 Jun 2027 06:34:59.214   08 Jun 2027 06:36:24.348            85.134         41479.125
       220   08 Jun 2027 06:37:08.601   08 Jun 2027 06:37:12.096             3.495          1299.062
       221   08 Jun 2027 06:37:38.132   08 Jun 2027 06:37:38.980             0.848           364.094
       222   08 Jun 2027 06:37:52.069   08 Jun 2027 06:37:53.095             1.026            52.750
       223   08 Jun 2027 06:38:16.874   08 Jun 2027 06:38:19.824             2.950           743.094
       224   08 Jun 2027 08:08:43.820   08 Jun 2027 08:09:04.616            20.796          3426.906
       225   08 Jun 2027 08:10:29.255   08 Jun 2027 08:10:35.273             6.018           872.594
       226   08 Jun 2027 08:11:13.536   08 Jun 2027 08:11:16.672             3.136           241.000
       227   08 Jun 2027 08:12:20.783   08 Jun 2027 08:12:26.345             5.562          1970.500
       228   08 Jun 2027 08:13:41.193   08 Jun 2027 08:13:50.797             9.604          2001.937
       229   08 Jun 2027 08:14:43.325   08 Jun 2027 08:14:49.673             6.348          1316.656
       230   08 Jun 2027 08:15:49.819   08 Jun 2027 08:15:53.760             3.941           452.156
       231   08 Jun 2027 08:16:37.906   08 Jun 2027 08:16:41.519             3.613          1379.562
       232   08 Jun 2027 08:17:17.628   08 Jun 2027 08:17:18.379             0.751             4.250
       233   08 Jun 2027 09:46:08.654   08 Jun 2027 09:46:17.892             9.238          4314.219
       234   08 Jun 2027 09:48:28.883   08 Jun 2027 09:48:33.957             5.074          1131.937
       235   08 Jun 2027 09:50:27.164   08 Jun 2027 09:50:29.801             2.637           471.656
       236   08 Jun 2027 09:51:17.731   08 Jun 2027 09:51:19.530             1.799            90.750
       237   08 Jun 2027 09:52:12.658   08 Jun 2027 09:52:22.133             9.475          1563.437
       238   08 Jun 2027 09:52:41.710   08 Jun 2027 09:52:44.158             2.448           499.219
       239   08 Jun 2027 11:23:12.364   08 Jun 2027 11:23:25.607            13.243          4736.625
       240   08 Jun 2027 11:25:36.241   08 Jun 2027 11:25:37.880             1.639           362.156
       241   08 Jun 2027 11:26:22.805   08 Jun 2027 11:26:23.827             1.022           419.281
       242   08 Jun 2027 11:26:29.519   08 Jun 2027 11:26:32.692             3.173           177.875
       243   08 Jun 2027 11:27:35.876   08 Jun 2027 11:27:41.745             5.869          1974.500
       244   08 Jun 2027 11:28:10.553   08 Jun 2027 11:28:16.852             6.299           630.750
       245   08 Jun 2027 11:28:42.899   08 Jun 2027 11:28:47.819             4.920           615.562
       246   09 Jun 2027 03:47:29.486   09 Jun 2027 03:49:56.738           147.252         73626.000
       247   09 Jun 2027 03:50:17.718   09 Jun 2027 03:50:50.383            32.665         16332.500
       248   09 Jun 2027 05:10:50.980   09 Jun 2027 05:11:50.112            59.132         29566.000
       249   09 Jun 2027 06:47:13.673   09 Jun 2027 06:48:34.566            80.893         40081.375
       250   09 Jun 2027 06:48:51.126   09 Jun 2027 06:48:54.603             3.477           290.750
       251   09 Jun 2027 06:49:27.711   09 Jun 2027 06:49:30.036             2.325           411.844
       252   09 Jun 2027 06:49:52.510   09 Jun 2027 06:49:54.226             1.716           607.125
       253   09 Jun 2027 08:21:17.866   09 Jun 2027 08:21:26.693             8.827          3414.969
       254   09 Jun 2027 08:23:02.974   09 Jun 2027 08:23:09.046             6.072          1796.781
       255   09 Jun 2027 08:23:23.879   09 Jun 2027 08:23:26.633             2.754           344.656
       256   09 Jun 2027 08:24:43.954   09 Jun 2027 08:24:50.559             6.605          1060.031
       257   09 Jun 2027 08:25:39.651   09 Jun 2027 08:25:43.884             4.233          1216.000
       258   09 Jun 2027 08:26:23.782   09 Jun 2027 08:26:27.967             4.185           673.438
       259   09 Jun 2027 08:26:40.341   09 Jun 2027 08:26:41.188             0.847           290.062
       260   09 Jun 2027 08:28:01.900   09 Jun 2027 08:28:03.412             1.512           226.063
       261   09 Jun 2027 08:28:47.809   09 Jun 2027 08:28:50.152             2.343           294.312
       262   09 Jun 2027 08:29:05.052   09 Jun 2027 08:29:05.052             0.000             0.000
       263   09 Jun 2027 08:29:05.114   09 Jun 2027 08:29:05.114             0.000             0.000
       264   09 Jun 2027 08:29:13.571   09 Jun 2027 08:29:16.273             2.702           698.219
       265   09 Jun 2027 09:58:22.263   09 Jun 2027 09:58:37.465            15.202          5552.625
       266   09 Jun 2027 10:00:05.138   09 Jun 2027 10:00:07.917             2.779            59.281
       267   09 Jun 2027 10:01:26.389   09 Jun 2027 10:01:28.700             2.311           463.813
       268   09 Jun 2027 10:02:49.933   09 Jun 2027 10:02:56.652             6.719          2538.531
       269   09 Jun 2027 10:03:54.231   09 Jun 2027 10:04:00.063             5.832          1358.875
       270   09 Jun 2027 10:04:05.154   09 Jun 2027 10:04:11.429             6.275           159.094
       271   09 Jun 2027 10:04:29.199   09 Jun 2027 10:04:30.024             0.825           238.406
       272   09 Jun 2027 10:04:42.518   09 Jun 2027 10:04:46.361             3.843           258.719
       273   09 Jun 2027 11:35:18.133   09 Jun 2027 11:35:33.802            15.669          6213.156
       274   09 Jun 2027 11:36:56.313   09 Jun 2027 11:37:01.706             5.393          1400.719
       275   09 Jun 2027 11:39:35.900   09 Jun 2027 11:39:42.161             6.261          2150.937
       276   10 Jun 2027 03:59:58.668   10 Jun 2027 04:01:00.836            62.168         31084.000
       277   10 Jun 2027 04:01:35.704   10 Jun 2027 04:02:52.272            76.568         38284.000
       278   10 Jun 2027 04:03:14.265   10 Jun 2027 04:03:27.850            13.585          6792.500
       279   10 Jun 2027 05:22:55.306   10 Jun 2027 05:23:44.916            49.610         24805.000
       280   10 Jun 2027 05:25:49.921   10 Jun 2027 05:25:55.886             5.965          2982.500
       281   10 Jun 2027 06:59:24.303   10 Jun 2027 07:01:10.945           106.642         52630.468
       282   10 Jun 2027 07:01:54.385   10 Jun 2027 07:01:57.056             2.671           877.000
       283   10 Jun 2027 07:02:23.770   10 Jun 2027 07:02:23.770             0.000             0.000
       284   10 Jun 2027 08:34:29.646   10 Jun 2027 08:34:38.747             9.101          3534.281
       285   10 Jun 2027 08:35:03.887   10 Jun 2027 08:35:04.830             0.943           166.188
       286   10 Jun 2027 08:35:45.360   10 Jun 2027 08:35:46.635             1.275            97.969
       287   10 Jun 2027 08:36:53.505   10 Jun 2027 08:36:58.825             5.320          1311.750
       288   10 Jun 2027 08:38:06.767   10 Jun 2027 08:38:08.916             2.149           924.062
       289   10 Jun 2027 08:38:39.743   10 Jun 2027 08:38:43.169             3.426           888.125
       290   10 Jun 2027 08:39:15.070   10 Jun 2027 08:39:16.572             1.502           106.219
       291   10 Jun 2027 08:39:34.346   10 Jun 2027 08:39:37.263             2.917           152.844
       292   10 Jun 2027 08:40:32.766   10 Jun 2027 08:40:37.477             4.711          1177.156
       293   10 Jun 2027 08:40:53.223   10 Jun 2027 08:40:54.066             0.843             6.312
       294   10 Jun 2027 08:41:07.636   10 Jun 2027 08:41:09.957             2.321           402.094
       295   10 Jun 2027 10:10:51.825   10 Jun 2027 10:11:02.522            10.697          4889.437
       296   10 Jun 2027 10:12:43.299   10 Jun 2027 10:12:45.766             2.467           888.156
       297   10 Jun 2027 10:12:59.483   10 Jun 2027 10:13:01.005             1.522            36.469
       298   10 Jun 2027 10:13:06.365   10 Jun 2027 10:13:06.822             0.457            93.125
       299   10 Jun 2027 10:13:12.443   10 Jun 2027 10:13:13.962             1.519            50.250
       300   10 Jun 2027 10:13:39.082   10 Jun 2027 10:13:40.737             1.655           563.500
       301   10 Jun 2027 10:14:07.027   10 Jun 2027 10:14:16.221             9.194           324.313
       302   10 Jun 2027 10:14:55.510   10 Jun 2027 10:14:58.280             2.770           907.625
       303   10 Jun 2027 10:15:34.998   10 Jun 2027 10:15:39.070             4.072           857.406
       304   10 Jun 2027 10:16:42.836   10 Jun 2027 10:16:47.458             4.622           979.156
       305   10 Jun 2027 10:16:51.304   10 Jun 2027 10:16:51.458             0.154            39.219
       306   10 Jun 2027 10:17:03.180   10 Jun 2027 10:17:04.246             1.066           209.844
       307   10 Jun 2027 11:48:21.035   10 Jun 2027 11:48:34.070            13.035          5270.156
       308   10 Jun 2027 11:50:18.109   10 Jun 2027 11:50:24.589             6.480           751.937
       309   10 Jun 2027 11:51:34.876   10 Jun 2027 11:51:39.871             4.995          2196.469
       310   10 Jun 2027 11:52:31.784   10 Jun 2027 11:52:34.046             2.262           964.937
       311   11 Jun 2027 04:11:31.450   11 Jun 2027 04:12:08.814            37.364         18682.000
       312   11 Jun 2027 04:12:21.331   11 Jun 2027 04:14:17.028           115.697         57848.500
       313   11 Jun 2027 05:34:51.217   11 Jun 2027 05:35:45.568            54.351         27175.500
       314   11 Jun 2027 05:36:04.994   11 Jun 2027 05:36:09.106             4.112          2056.000
       315   11 Jun 2027 07:11:28.865   11 Jun 2027 07:13:29.110           120.245         60067.937
       316   11 Jun 2027 07:14:32.487   11 Jun 2027 07:14:35.820             3.333          1452.219
       317   11 Jun 2027 08:46:39.268   11 Jun 2027 08:46:44.253             4.985          2345.937
       318   11 Jun 2027 08:46:54.519   11 Jun 2027 08:46:55.441             0.922            84.719
       319   11 Jun 2027 08:48:12.633   11 Jun 2027 08:48:14.750             2.117            64.187
       320   11 Jun 2027 08:49:18.314   11 Jun 2027 08:49:23.842             5.528          1986.375
       321   11 Jun 2027 08:49:41.367   11 Jun 2027 08:49:42.372             1.005           241.438
       322   11 Jun 2027 08:50:41.613   11 Jun 2027 08:50:43.997             2.384          1011.188
       323   11 Jun 2027 08:50:57.722   11 Jun 2027 08:51:00.573             2.851           290.031
       324   11 Jun 2027 08:51:32.487   11 Jun 2027 08:51:34.111             1.624           115.563
       325   11 Jun 2027 08:52:46.697   11 Jun 2027 08:52:50.470             3.773          1616.375
       326   11 Jun 2027 10:22:52.627   11 Jun 2027 10:23:04.447            11.820          4990.656
       327   11 Jun 2027 10:25:38.423   11 Jun 2027 10:25:41.368             2.945           479.188
       328   11 Jun 2027 10:27:00.550   11 Jun 2027 10:27:07.312             6.762          2155.688
       329   11 Jun 2027 10:28:00.402   11 Jun 2027 10:28:09.521             9.119          1635.750
       330   12 Jun 2027 04:12:39.170   12 Jun 2027 04:12:56.405            17.235          8617.500
       331   12 Jun 2027 04:23:28.686   12 Jun 2027 04:25:37.720           129.034         64517.000
       332   12 Jun 2027 04:25:57.854   12 Jun 2027 04:26:22.635            24.781         12390.500
       333   12 Jun 2027 04:26:45.210   12 Jun 2027 04:27:00.662            15.452          7726.000
       334   12 Jun 2027 05:47:26.847   12 Jun 2027 05:47:57.354            30.507         15253.500
       335   12 Jun 2027 07:23:13.065   12 Jun 2027 07:25:22.223           129.158         63588.282
       336   12 Jun 2027 07:25:47.777   12 Jun 2027 07:25:49.770             1.993           760.969
       337   12 Jun 2027 07:26:39.755   12 Jun 2027 07:26:43.003             3.248          1562.031
       338   12 Jun 2027 08:58:03.325   12 Jun 2027 08:58:08.896             5.571          1941.594
       339   12 Jun 2027 08:58:52.833   12 Jun 2027 08:58:55.839             3.006           552.375
       340   12 Jun 2027 09:00:39.946   12 Jun 2027 09:00:43.417             3.471           833.000
       341   12 Jun 2027 09:01:21.382   12 Jun 2027 09:01:24.022             2.640          1186.406
       342   12 Jun 2027 09:02:11.491   12 Jun 2027 09:02:17.623             6.132          1483.406
       343   12 Jun 2027 09:03:02.283   12 Jun 2027 09:03:08.540             6.257           587.375
       344   12 Jun 2027 09:03:35.196   12 Jun 2027 09:03:35.511             0.315           135.500
       345   12 Jun 2027 09:03:58.061   12 Jun 2027 09:03:59.439             1.378           384.406
       346   12 Jun 2027 09:05:21.495   12 Jun 2027 09:05:25.889             4.394          2112.000
       347   12 Jun 2027 10:34:39.689   12 Jun 2027 10:34:50.219            10.530          5234.531
       348   12 Jun 2027 10:37:23.331   12 Jun 2027 10:37:26.389             3.058            51.812
       349   12 Jun 2027 10:37:55.729   12 Jun 2027 10:37:57.694             1.965           427.156
       350   12 Jun 2027 10:38:45.878   12 Jun 2027 10:38:50.870             4.992          1328.375
       351   12 Jun 2027 10:39:15.132   12 Jun 2027 10:39:17.953             2.821           695.594
       352   12 Jun 2027 10:40:08.953   12 Jun 2027 10:40:13.462             4.509          1474.562
       353   13 Jun 2027 03:00:00.000   13 Jun 2027 03:00:08.137             8.137          4068.500
       354   13 Jun 2027 03:01:02.275   13 Jun 2027 03:01:09.843             7.568          3784.000
       355   13 Jun 2027 03:01:49.982   13 Jun 2027 03:02:10.847            20.865         10432.500
       356   13 Jun 2027 03:03:24.838   13 Jun 2027 03:03:35.803            10.965          5482.500
       357   13 Jun 2027 03:04:49.908   13 Jun 2027 03:05:14.036            24.128         12064.000
       358   13 Jun 2027 04:23:55.426   13 Jun 2027 04:24:45.442            50.016         25008.000
       359   13 Jun 2027 04:35:26.950   13 Jun 2027 04:36:37.031            70.081         35040.500
       360   13 Jun 2027 05:58:05.960   13 Jun 2027 05:58:45.599            39.639         19819.500
       361   13 Jun 2027 05:59:41.527   13 Jun 2027 06:00:11.236            29.709         14854.500
       362   13 Jun 2027 06:00:14.366   13 Jun 2027 06:00:14.366             0.000             0.000
       363   13 Jun 2027 06:00:31.019   13 Jun 2027 06:00:42.917            11.898          5949.000
       364   13 Jun 2027 06:01:08.229   13 Jun 2027 06:01:42.596            34.367         17183.500
       365   13 Jun 2027 06:02:39.559   13 Jun 2027 06:02:40.485             0.926           463.000
       366   13 Jun 2027 07:33:14.253   13 Jun 2027 07:34:07.981            53.728         26333.031
       367   13 Jun 2027 07:34:56.963   13 Jun 2027 07:35:02.168             5.205           993.562
       368   13 Jun 2027 07:36:37.610   13 Jun 2027 07:36:44.241             6.631          2518.594
       369   13 Jun 2027 07:36:48.809   13 Jun 2027 07:36:52.521             3.712             4.406
       370   13 Jun 2027 07:37:58.027   13 Jun 2027 07:38:00.180             2.153          1068.156
       371   13 Jun 2027 07:38:16.674   13 Jun 2027 07:38:18.081             1.407           216.125
       372   13 Jun 2027 07:38:36.115   13 Jun 2027 07:38:37.194             1.079           395.719
       373   13 Jun 2027 07:39:28.021   13 Jun 2027 07:39:32.733             4.712          1435.594
       374   13 Jun 2027 09:09:57.891   13 Jun 2027 09:10:08.007            10.116          3654.781
       375   13 Jun 2027 09:10:17.133   13 Jun 2027 09:10:18.166             1.033           192.000
       376   13 Jun 2027 09:12:13.422   13 Jun 2027 09:12:19.437             6.015          2495.156
       377   13 Jun 2027 09:13:40.067   13 Jun 2027 09:13:42.991             2.924           563.906
       378   13 Jun 2027 09:14:53.087   13 Jun 2027 09:14:56.348             3.261           544.187
       379   13 Jun 2027 09:15:13.905   13 Jun 2027 09:15:15.526             1.621           321.750
       380   13 Jun 2027 09:16:18.303   13 Jun 2027 09:16:21.945             3.642          1443.344
       381   13 Jun 2027 09:16:29.083   13 Jun 2027 09:16:34.933             5.850           157.844
       382   13 Jun 2027 09:17:26.046   13 Jun 2027 09:17:26.523             0.477           238.500
       383   13 Jun 2027 10:47:00.953   13 Jun 2027 10:47:16.864            15.911          7649.188
       384   13 Jun 2027 10:48:48.463   13 Jun 2027 10:48:50.784             2.321           759.250
       385   13 Jun 2027 10:49:10.754   13 Jun 2027 10:49:11.798             1.044           131.938
       386   13 Jun 2027 10:50:27.648   13 Jun 2027 10:50:31.057             3.409          1508.719
       387   13 Jun 2027 10:51:24.337   13 Jun 2027 10:51:28.862             4.525          1318.156
       388   13 Jun 2027 10:51:46.312   13 Jun 2027 10:51:47.478             1.166           316.938
       389   13 Jun 2027 10:52:15.132   13 Jun 2027 10:52:25.389            10.257           864.188
       390   13 Jun 2027 10:52:36.748   13 Jun 2027 10:52:37.780             1.032           205.688
       391   13 Jun 2027 10:53:03.568   13 Jun 2027 10:53:07.173             3.605           130.250
