uniorb/output/strategy_4/Camera/Camera_KinoSat_110806.txt

KinoSat_110806
-------------------------
    Access    *     Start Time (UTCG)     *     Stop Time (UTCG)  *   Duration (s) *   Data (Mbytes)
         1   01 Jun 2027 03:26:00.902   01 Jun 2027 03:27:38.878            97.976         48988.000
         2   01 Jun 2027 05:01:55.788   01 Jun 2027 05:03:54.219           118.431         59215.500
         3   01 Jun 2027 05:05:34.107   01 Jun 2027 05:05:42.725             8.618          4309.000
         4   01 Jun 2027 05:05:51.139   01 Jun 2027 05:05:54.380             3.241          1620.500
         5   01 Jun 2027 06:36:51.888   01 Jun 2027 06:38:28.452            96.564         48282.000
         6   01 Jun 2027 06:39:33.506   01 Jun 2027 06:39:35.042             1.536           768.000
         7   01 Jun 2027 06:42:21.336   01 Jun 2027 06:42:42.281            20.945         10472.500
         8   01 Jun 2027 08:13:10.823   01 Jun 2027 08:15:30.382           139.559         69779.500
         9   01 Jun 2027 08:16:30.502   01 Jun 2027 08:16:41.528            11.026          5513.000
        10   01 Jun 2027 09:51:26.092   01 Jun 2027 09:54:20.872           174.780         87390.000
        11   01 Jun 2027 09:54:36.941   01 Jun 2027 09:54:37.725             0.784           392.000
        12   01 Jun 2027 11:26:46.320   01 Jun 2027 11:28:08.630            82.310         41155.000
        13   01 Jun 2027 11:28:35.465   01 Jun 2027 11:29:23.005            47.540         23770.000
        14   01 Jun 2027 11:30:47.510   01 Jun 2027 11:30:57.699            10.189          5094.500
        15   01 Jun 2027 11:31:18.716   01 Jun 2027 11:31:37.617            18.901          9450.500
        16   02 Jun 2027 03:36:38.683   02 Jun 2027 03:36:47.256             8.573          4286.500
        17   02 Jun 2027 03:37:13.803   02 Jun 2027 03:37:13.803             0.000             0.000
        18   02 Jun 2027 03:38:11.643   02 Jun 2027 03:38:26.312            14.669          7334.500
        19   02 Jun 2027 05:12:14.467   02 Jun 2027 05:12:52.899            38.432         19216.000
        20   02 Jun 2027 05:13:39.754   02 Jun 2027 05:16:03.212           143.458         71729.000
        21   02 Jun 2027 05:17:53.396   02 Jun 2027 05:17:57.314             3.918          1959.000
        22   02 Jun 2027 05:18:04.126   02 Jun 2027 05:18:13.344             9.218          4609.000
        23   02 Jun 2027 06:48:25.265   02 Jun 2027 06:51:32.984           187.719         93859.500
        24   02 Jun 2027 06:51:42.515   02 Jun 2027 06:51:55.662            13.147          6573.500
        25   02 Jun 2027 06:52:32.654   02 Jun 2027 06:52:34.336             1.682           841.000
        26   02 Jun 2027 06:52:47.644   02 Jun 2027 06:53:01.708            14.064          7032.000
        27   02 Jun 2027 06:53:47.332   02 Jun 2027 06:54:04.954            17.622          8811.000
        28   02 Jun 2027 06:55:16.678   02 Jun 2027 06:55:50.582            33.904         16952.000
        29   02 Jun 2027 08:25:30.181   02 Jun 2027 08:27:54.430           144.249         72124.500
        30   02 Jun 2027 08:28:21.394   02 Jun 2027 08:29:32.835            71.441         35647.500
        31   02 Jun 2027 08:29:54.980   02 Jun 2027 08:30:00.344             5.364           684.313
        32   02 Jun 2027 08:30:22.762   02 Jun 2027 08:30:23.772             1.010           505.000
        33   02 Jun 2027 08:30:27.471   02 Jun 2027 08:30:31.461             3.990           271.219
        34   02 Jun 2027 08:31:51.798   02 Jun 2027 08:31:52.614             0.816           408.000
        35   02 Jun 2027 10:03:29.164   02 Jun 2027 10:04:00.572            31.408         13894.688
        36   02 Jun 2027 10:04:33.407   02 Jun 2027 10:04:36.287             2.880          1002.531
        37   02 Jun 2027 10:05:21.405   02 Jun 2027 10:05:25.976             4.571          1360.781
        38   02 Jun 2027 10:06:20.328   02 Jun 2027 10:06:20.852             0.524           227.656
        39   02 Jun 2027 10:06:32.530   02 Jun 2027 10:06:35.215             2.685           127.812
        40   02 Jun 2027 10:06:56.665   02 Jun 2027 10:06:58.470             1.805           387.312
        41   02 Jun 2027 10:07:16.739   02 Jun 2027 10:07:17.794             1.055           372.688
        42   02 Jun 2027 11:36:37.943   02 Jun 2027 11:36:51.981            14.038          5408.594
        43   03 Jun 2027 03:48:16.964   03 Jun 2027 03:48:37.292            20.328         10164.000
        44   03 Jun 2027 03:49:26.240   03 Jun 2027 03:49:26.240             0.000             0.000
        45   03 Jun 2027 05:23:20.924   03 Jun 2027 05:25:04.289           103.365         51682.500
        46   03 Jun 2027 05:25:24.131   03 Jun 2027 05:26:02.965            38.834         19417.000
        47   03 Jun 2027 05:26:40.187   03 Jun 2027 05:26:40.681             0.494           247.000
        48   03 Jun 2027 05:27:00.055   03 Jun 2027 05:27:05.370             5.315          2657.500
        49   03 Jun 2027 05:28:16.050   03 Jun 2027 05:28:26.599            10.549          5274.500
        50   03 Jun 2027 05:28:44.224   03 Jun 2027 05:29:07.280            23.056         11528.000
        51   03 Jun 2027 05:31:15.796   03 Jun 2027 05:31:37.334            21.538         10769.000
        52   03 Jun 2027 07:00:43.285   03 Jun 2027 07:02:27.963           104.678         52084.781
        53   03 Jun 2027 07:03:20.500   03 Jun 2027 07:03:20.500             0.000             0.000
        54   03 Jun 2027 07:03:32.278   03 Jun 2027 07:03:33.750             1.472           677.656
        55   03 Jun 2027 07:04:03.998   03 Jun 2027 07:04:07.114             3.116           893.656
        56   03 Jun 2027 07:04:34.375   03 Jun 2027 07:04:37.569             3.194           818.313
        57   03 Jun 2027 07:06:07.733   03 Jun 2027 07:06:07.733             0.000             0.000
        58   03 Jun 2027 07:06:10.413   03 Jun 2027 07:06:15.782             5.369           838.094
        59   03 Jun 2027 07:07:00.067   03 Jun 2027 07:07:04.253             4.186           630.906
        60   03 Jun 2027 08:37:31.663   03 Jun 2027 08:37:39.475             7.812          3615.344
        61   03 Jun 2027 08:41:11.635   03 Jun 2027 08:41:21.726            10.091           902.219
        62   03 Jun 2027 08:41:25.817   03 Jun 2027 08:41:27.328             1.511           127.844
        63   03 Jun 2027 08:41:36.577   03 Jun 2027 08:41:36.800             0.223             8.500
        64   03 Jun 2027 08:42:54.111   03 Jun 2027 08:42:58.381             4.270          1231.719
        65   03 Jun 2027 08:43:23.616   03 Jun 2027 08:43:25.407             1.791           745.125
        66   03 Jun 2027 08:43:36.078   03 Jun 2027 08:43:38.517             2.439           333.469
        67   03 Jun 2027 10:15:28.794   03 Jun 2027 10:15:42.406            13.612          5524.219
        68   03 Jun 2027 10:18:19.180   03 Jun 2027 10:18:23.127             3.947          1845.750
        69   03 Jun 2027 10:18:56.092   03 Jun 2027 10:18:56.529             0.437           105.219
        70   03 Jun 2027 10:19:06.887   03 Jun 2027 10:19:10.602             3.715           323.687
        71   03 Jun 2027 11:49:05.357   03 Jun 2027 11:49:10.133             4.776           344.312
        72   04 Jun 2027 04:00:00.840   04 Jun 2027 04:00:14.788            13.948          6974.000
        73   04 Jun 2027 04:01:15.388   04 Jun 2027 04:01:20.758             5.370          2685.000
        74   04 Jun 2027 04:04:30.263   04 Jun 2027 04:04:36.417             6.154          3077.000
        75   04 Jun 2027 05:34:49.132   04 Jun 2027 05:37:03.357           134.225         67112.500
        76   04 Jun 2027 05:37:19.281   04 Jun 2027 05:38:13.909            54.628         27314.000
        77   04 Jun 2027 05:38:36.207   04 Jun 2027 05:38:38.628             2.421          1210.500
        78   04 Jun 2027 05:41:54.425   04 Jun 2027 05:41:57.267             2.842          1421.000
        79   04 Jun 2027 05:42:03.513   04 Jun 2027 05:42:03.513             0.000             0.000
        80   04 Jun 2027 07:12:38.162   04 Jun 2027 07:14:30.453           112.291         55799.344
        81   04 Jun 2027 07:15:05.082   04 Jun 2027 07:15:05.082             0.000             0.000
        82   04 Jun 2027 07:15:25.921   04 Jun 2027 07:15:29.569             3.648          1121.125
        83   04 Jun 2027 07:16:05.532   04 Jun 2027 07:16:05.532             0.000             0.000
        84   04 Jun 2027 07:16:11.562   04 Jun 2027 07:16:13.693             2.131           969.375
        85   04 Jun 2027 07:17:41.339   04 Jun 2027 07:17:46.060             4.721          1849.250
        86   04 Jun 2027 07:18:10.342   04 Jun 2027 07:18:14.636             4.294           488.500
        87   04 Jun 2027 07:19:30.321   04 Jun 2027 07:19:35.184             4.863          1121.219
        88   04 Jun 2027 07:19:57.485   04 Jun 2027 07:19:58.740             1.255           301.156
        89   04 Jun 2027 08:49:22.556   04 Jun 2027 08:49:34.311            11.755          5091.125
        90   04 Jun 2027 08:54:14.472   04 Jun 2027 08:54:16.231             1.759           843.875
        91   04 Jun 2027 08:55:26.657   04 Jun 2027 08:55:37.988            11.331          2128.719
        92   04 Jun 2027 08:55:42.876   04 Jun 2027 08:55:44.677             1.801           152.750
        93   04 Jun 2027 10:27:30.510   04 Jun 2027 10:27:41.790            11.280          5554.781
        94   04 Jun 2027 10:30:28.657   04 Jun 2027 10:30:30.802             2.145            45.500
        95   04 Jun 2027 10:31:08.401   04 Jun 2027 10:31:10.310             1.909           254.344
        96   05 Jun 2027 04:13:46.821   05 Jun 2027 04:14:03.789            16.968          8484.000
        97   05 Jun 2027 04:14:58.093   05 Jun 2027 04:15:16.780            18.687          9343.500
        98   05 Jun 2027 04:15:53.103   05 Jun 2027 04:15:53.103             0.000             0.000
        99   05 Jun 2027 04:15:59.001   05 Jun 2027 04:16:17.702            18.701          9350.500
       100   05 Jun 2027 05:47:37.709   05 Jun 2027 05:50:07.572           149.863         74931.500
       101   05 Jun 2027 05:52:06.185   05 Jun 2027 05:52:07.823             1.638           819.000
       102   05 Jun 2027 05:52:12.492   05 Jun 2027 05:52:12.492             0.000             0.000
       103   05 Jun 2027 05:52:55.956   05 Jun 2027 05:53:02.150             6.194          3097.000
       104   05 Jun 2027 05:53:34.216   05 Jun 2027 05:53:58.807            24.591         12295.500
       105   05 Jun 2027 05:55:54.374   05 Jun 2027 05:55:54.374             0.000             0.000
       106   05 Jun 2027 07:24:44.585   05 Jun 2027 07:26:35.709           111.124         55444.031
       107   05 Jun 2027 07:27:13.168   05 Jun 2027 07:27:13.168             0.000             0.000
       108   05 Jun 2027 07:28:04.182   05 Jun 2027 07:28:09.626             5.444          2003.375
       109   05 Jun 2027 07:28:52.714   05 Jun 2027 07:28:56.791             4.077          1181.313
       110   05 Jun 2027 07:29:38.061   05 Jun 2027 07:29:41.072             3.011          1208.813
       111   05 Jun 2027 07:29:56.920   05 Jun 2027 07:30:00.176             3.256           495.250
       112   05 Jun 2027 09:01:47.343   05 Jun 2027 09:01:58.320            10.977          5286.062
       113   05 Jun 2027 09:03:27.306   05 Jun 2027 09:03:32.281             4.975          2005.187
       114   05 Jun 2027 09:05:59.075   05 Jun 2027 09:06:02.605             3.530           557.281
       115   05 Jun 2027 09:06:25.757   05 Jun 2027 09:06:28.167             2.410           367.906
       116   05 Jun 2027 09:07:35.675   05 Jun 2027 09:07:36.118             0.443           118.625
       117   05 Jun 2027 10:38:44.832   05 Jun 2027 10:38:57.891            13.059          6034.594
       118   05 Jun 2027 10:41:24.674   05 Jun 2027 10:41:27.093             2.419           704.469
       119   05 Jun 2027 10:42:00.527   05 Jun 2027 10:42:04.012             3.485           714.094
       120   05 Jun 2027 10:42:26.349   05 Jun 2027 10:42:29.008             2.659           698.031
       121   05 Jun 2027 10:43:09.290   05 Jun 2027 10:43:10.389             1.099            70.250
       122   06 Jun 2027 04:26:08.559   06 Jun 2027 04:28:01.763           113.204         56602.000
       123   06 Jun 2027 04:28:21.621   06 Jun 2027 04:28:21.621             0.000             0.000
       124   06 Jun 2027 04:29:07.526   06 Jun 2027 04:29:34.473            26.947         13473.500
       125   06 Jun 2027 05:59:49.706   06 Jun 2027 06:01:44.705           114.999         57499.500
       126   06 Jun 2027 06:02:37.003   06 Jun 2027 06:02:52.662            15.659          7829.500
       127   06 Jun 2027 06:03:17.460   06 Jun 2027 06:03:23.867             6.407          3203.500
       128   06 Jun 2027 06:03:26.424   06 Jun 2027 06:03:43.378            16.954          8477.000
       129   06 Jun 2027 06:03:56.376   06 Jun 2027 06:04:00.228             3.852          1926.000
       130   06 Jun 2027 06:06:10.092   06 Jun 2027 06:06:22.059            11.967          5983.500
       131   06 Jun 2027 06:07:49.890   06 Jun 2027 06:07:56.781             6.891          3445.500
       132   06 Jun 2027 06:08:04.448   06 Jun 2027 06:08:06.925             2.477          1238.500
       133   06 Jun 2027 07:37:10.699   06 Jun 2027 07:37:22.157            11.458          5213.407
       134   06 Jun 2027 07:41:47.017   06 Jun 2027 07:41:49.260             2.243           629.875
       135   06 Jun 2027 07:42:49.646   06 Jun 2027 07:42:50.613             0.967            66.406
       136   06 Jun 2027 07:43:19.167   06 Jun 2027 07:43:20.951             1.784           670.938
       137   06 Jun 2027 09:14:07.670   06 Jun 2027 09:14:19.891            12.221          5479.656
       138   06 Jun 2027 09:17:16.473   06 Jun 2027 09:17:19.602             3.129           562.125
       139   06 Jun 2027 09:18:31.207   06 Jun 2027 09:18:35.930             4.723          1481.281
       140   06 Jun 2027 09:18:46.114   06 Jun 2027 09:18:47.672             1.558           300.062
       141   06 Jun 2027 10:50:58.121   06 Jun 2027 10:51:13.125            15.004          6514.875
       142   06 Jun 2027 10:53:19.052   06 Jun 2027 10:53:21.303             2.251           244.000
       143   06 Jun 2027 10:53:55.283   06 Jun 2027 10:53:56.455             1.172           411.625
       144   06 Jun 2027 10:55:14.520   06 Jun 2027 10:55:18.639             4.119            41.969
       145   07 Jun 2027 03:01:31.489   07 Jun 2027 03:01:35.617             4.128          2064.000
       146   07 Jun 2027 03:02:02.298   07 Jun 2027 03:02:14.481            12.183          6091.500
       147   07 Jun 2027 03:04:08.097   07 Jun 2027 03:04:18.327            10.230          5115.000
       148   07 Jun 2027 04:38:10.990   07 Jun 2027 04:41:01.227           170.237         85118.500
       149   07 Jun 2027 04:41:41.387   07 Jun 2027 04:41:41.387             0.000             0.000
       150   07 Jun 2027 06:13:05.835   07 Jun 2027 06:14:59.336           113.501         55674.031
       151   07 Jun 2027 06:16:09.491   07 Jun 2027 06:16:13.258             3.767          1883.500
       152   07 Jun 2027 06:16:18.820   07 Jun 2027 06:16:20.334             1.514           433.625
       153   07 Jun 2027 06:17:05.505   07 Jun 2027 06:17:11.213             5.708           650.938
       154   07 Jun 2027 06:18:13.027   07 Jun 2027 06:18:16.124             3.097          1434.250
       155   07 Jun 2027 06:19:08.915   07 Jun 2027 06:19:09.271             0.356           149.812
       156   07 Jun 2027 06:19:48.093   07 Jun 2027 06:19:51.000             2.907           678.844
       157   07 Jun 2027 07:49:18.134   07 Jun 2027 07:49:22.687             4.553          1815.469
       158   07 Jun 2027 07:54:45.997   07 Jun 2027 07:54:46.869             0.872           134.656
       159   07 Jun 2027 07:55:16.373   07 Jun 2027 07:55:20.083             3.710           442.219
       160   07 Jun 2027 07:55:43.596   07 Jun 2027 07:55:43.754             0.158            31.438
       161   07 Jun 2027 09:27:02.035   07 Jun 2027 09:27:12.726            10.691          5227.187
       162   07 Jun 2027 09:31:13.335   07 Jun 2027 09:31:18.576             5.241           693.531
       163   07 Jun 2027 11:03:08.162   07 Jun 2027 11:03:21.893            13.731          6179.250
       164   08 Jun 2027 03:13:45.924   08 Jun 2027 03:14:03.591            17.667          8833.500
       165   08 Jun 2027 04:50:17.724   08 Jun 2027 04:53:49.286           211.562        105781.000
       166   08 Jun 2027 06:25:27.888   08 Jun 2027 06:26:41.293            73.405         34235.031
       167   08 Jun 2027 06:27:48.018   08 Jun 2027 06:27:52.072             4.054          1651.375
       168   08 Jun 2027 06:28:06.676   08 Jun 2027 06:28:06.676             0.000             0.000
       169   08 Jun 2027 06:28:14.156   08 Jun 2027 06:28:16.334             2.178           344.094
       170   08 Jun 2027 06:28:38.277   08 Jun 2027 06:28:42.496             4.219           685.719
       171   08 Jun 2027 06:30:01.238   08 Jun 2027 06:30:07.887             6.649          2460.688
       172   08 Jun 2027 06:31:15.526   08 Jun 2027 06:31:19.550             4.024          1856.281
       173   08 Jun 2027 06:31:24.911   08 Jun 2027 06:31:31.434             6.523           167.531
       174   08 Jun 2027 06:31:52.507   08 Jun 2027 06:31:53.257             0.750           316.750
       175   08 Jun 2027 08:01:52.196   08 Jun 2027 08:01:55.240             3.044           206.187
       176   08 Jun 2027 08:07:12.868   08 Jun 2027 08:07:17.393             4.525           829.719
       177   08 Jun 2027 09:39:08.149   08 Jun 2027 09:39:21.162            13.013          5197.594
       178   08 Jun 2027 09:40:19.324   08 Jun 2027 09:40:24.503             5.179           499.531
       179   08 Jun 2027 09:42:41.175   08 Jun 2027 09:42:43.262             2.087            24.250
       180   08 Jun 2027 09:43:14.656   08 Jun 2027 09:43:16.061             1.405           345.469
       181   08 Jun 2027 09:43:25.698   08 Jun 2027 09:43:28.295             2.597           106.688
       182   08 Jun 2027 11:15:22.370   08 Jun 2027 11:15:33.558            11.188          5545.531
       183   08 Jun 2027 11:17:25.530   08 Jun 2027 11:17:27.003             1.473           597.969
       184   09 Jun 2027 03:26:15.654   09 Jun 2027 03:26:22.526             6.872          3436.000
       185   09 Jun 2027 03:27:13.441   09 Jun 2027 03:27:19.013             5.572          2786.000
       186   09 Jun 2027 03:28:45.327   09 Jun 2027 03:28:45.327             0.000             0.000
       187   09 Jun 2027 03:28:48.773   09 Jun 2027 03:28:58.517             9.744          4872.000
       188   09 Jun 2027 05:02:10.434   09 Jun 2027 05:05:01.031           170.597         85298.500
       189   09 Jun 2027 05:05:07.394   09 Jun 2027 05:05:25.837            18.443          9221.500
       190   09 Jun 2027 05:05:49.109   09 Jun 2027 05:05:57.726             8.617          4308.500
       191   09 Jun 2027 06:37:06.493   09 Jun 2027 06:38:34.900            88.407         43575.500
       192   09 Jun 2027 06:39:49.522   09 Jun 2027 06:39:54.890             5.368          2045.875
       193   09 Jun 2027 06:40:12.612   09 Jun 2027 06:40:16.466             3.854           308.906
       194   09 Jun 2027 06:40:19.547   09 Jun 2027 06:40:19.547             0.000             0.000
       195   09 Jun 2027 06:40:42.715   09 Jun 2027 06:40:45.215             2.500           820.281
       196   09 Jun 2027 06:42:01.120   09 Jun 2027 06:42:06.705             5.585          2372.031
       197   09 Jun 2027 06:43:03.534   09 Jun 2027 06:43:03.534             0.000             0.000
       198   09 Jun 2027 06:43:06.858   09 Jun 2027 06:43:10.722             3.864          1491.313
       199   09 Jun 2027 06:43:43.423   09 Jun 2027 06:43:45.081             1.658           163.156
       200   09 Jun 2027 08:13:25.859   09 Jun 2027 08:13:30.950             5.091           770.937
       201   09 Jun 2027 08:14:44.913   09 Jun 2027 08:14:46.349             1.436           323.156
       202   09 Jun 2027 09:51:40.964   09 Jun 2027 09:51:56.404            15.440          5932.094
       203   09 Jun 2027 09:52:11.614   09 Jun 2027 09:52:17.828             6.214            55.406
       204   09 Jun 2027 09:53:07.294   09 Jun 2027 09:53:10.714             3.420          1357.969
       205   09 Jun 2027 09:53:36.375   09 Jun 2027 09:53:39.887             3.512           801.906
       206   09 Jun 2027 09:54:52.262   09 Jun 2027 09:55:01.492             9.230          1518.625
       207   09 Jun 2027 09:55:17.744   09 Jun 2027 09:55:20.634             2.890           437.969
       208   09 Jun 2027 11:27:01.421   09 Jun 2027 11:27:17.006            15.585          5781.375
       209   09 Jun 2027 11:29:09.768   09 Jun 2027 11:29:11.484             1.716           382.969
       210   09 Jun 2027 11:31:33.604   09 Jun 2027 11:31:35.567             1.963           644.438
       211   10 Jun 2027 03:36:52.939   10 Jun 2027 03:37:03.871            10.932          5466.000
       212   10 Jun 2027 03:38:05.560   10 Jun 2027 03:38:09.404             3.844          1922.000
       213   10 Jun 2027 03:38:47.806   10 Jun 2027 03:39:11.844            24.038         12019.000
       214   10 Jun 2027 05:12:28.931   10 Jun 2027 05:12:56.104            27.173         13586.500
       215   10 Jun 2027 05:13:54.630   10 Jun 2027 05:15:19.623            84.993         42496.500
       216   10 Jun 2027 05:16:25.452   10 Jun 2027 05:18:02.998            97.546         48773.000
       217   10 Jun 2027 06:48:39.871   10 Jun 2027 06:50:00.506            80.635         40274.438
       218   10 Jun 2027 06:50:33.081   10 Jun 2027 06:50:37.118             4.037           583.219
       219   10 Jun 2027 06:51:57.364   10 Jun 2027 06:52:01.986             4.622           273.531
       220   10 Jun 2027 06:52:22.852   10 Jun 2027 06:52:24.196             1.344           134.594
       221   10 Jun 2027 06:54:00.259   10 Jun 2027 06:54:06.633             6.374          2339.031
       222   10 Jun 2027 06:55:00.420   10 Jun 2027 06:55:03.361             2.941          1199.500
       223   10 Jun 2027 06:56:05.231   10 Jun 2027 06:56:08.657             3.426          1082.406
       224   10 Jun 2027 08:25:45.443   10 Jun 2027 08:25:49.940             4.497          1500.344
       225   10 Jun 2027 08:31:52.886   10 Jun 2027 08:31:58.177             5.291           715.969
       226   10 Jun 2027 10:03:43.880   10 Jun 2027 10:03:55.149            11.269          5177.438
       227   10 Jun 2027 10:04:49.915   10 Jun 2027 10:04:52.675             2.760          1197.969
       228   10 Jun 2027 10:05:22.248   10 Jun 2027 10:05:24.308             2.060           171.719
       229   10 Jun 2027 10:06:44.715   10 Jun 2027 10:06:51.260             6.545          2143.156
       230   10 Jun 2027 10:07:28.411   10 Jun 2027 10:07:31.153             2.742          1040.625
       231   10 Jun 2027 11:36:52.589   10 Jun 2027 11:37:03.831            11.242          5208.281
       232   11 Jun 2027 03:48:31.947   11 Jun 2027 03:48:52.524            20.577         10288.500
       233   11 Jun 2027 03:49:42.040   11 Jun 2027 03:49:42.040             0.000             0.000
       234   11 Jun 2027 05:23:35.265   11 Jun 2027 05:24:32.310            57.045         28522.500
       235   11 Jun 2027 05:25:38.931   11 Jun 2027 05:26:30.515            51.584         25792.000
       236   11 Jun 2027 05:26:46.130   11 Jun 2027 05:27:20.034            33.904         16952.000
       237   11 Jun 2027 05:28:31.349   11 Jun 2027 05:29:23.714            52.365         26182.500
       238   11 Jun 2027 05:30:04.753   11 Jun 2027 05:30:09.065             4.312          2156.000
       239   11 Jun 2027 05:30:38.148   11 Jun 2027 05:30:40.693             2.545          1272.500
       240   11 Jun 2027 07:00:58.624   11 Jun 2027 07:02:41.137           102.513         51052.563
       241   11 Jun 2027 07:03:36.536   11 Jun 2027 07:03:39.430             2.894           317.344
       242   11 Jun 2027 07:04:20.365   11 Jun 2027 07:04:24.987             4.622           942.563
       243   11 Jun 2027 07:05:58.961   11 Jun 2027 07:06:04.819             5.858          2134.562
       244   11 Jun 2027 07:06:26.484   11 Jun 2027 07:06:26.718             0.234            52.562
       245   11 Jun 2027 07:07:14.529   11 Jun 2027 07:07:16.581             2.052           570.656
       246   11 Jun 2027 08:37:46.761   11 Jun 2027 08:37:55.161             8.400          3068.750
       247   11 Jun 2027 08:41:24.039   11 Jun 2027 08:41:26.859             2.820           721.781
       248   11 Jun 2027 08:41:40.997   11 Jun 2027 08:41:41.262             0.265           129.187
       249   11 Jun 2027 08:41:52.118   11 Jun 2027 08:41:52.296             0.178            45.625
       250   11 Jun 2027 08:43:08.107   11 Jun 2027 08:43:14.256             6.149          1192.187
       251   11 Jun 2027 10:15:43.881   11 Jun 2027 10:15:58.529            14.648          6373.500
       252   11 Jun 2027 10:16:44.666   11 Jun 2027 10:16:48.072             3.406          1258.250
       253   11 Jun 2027 10:17:35.073   11 Jun 2027 10:17:37.924             2.851           401.781
       254   11 Jun 2027 10:18:56.867   11 Jun 2027 10:18:58.460             1.593           405.844
       255   11 Jun 2027 10:19:22.976   11 Jun 2027 10:19:27.741             4.765           704.125
       256   11 Jun 2027 10:19:38.943   11 Jun 2027 10:19:42.572             3.629           350.062
       257   11 Jun 2027 11:49:19.725   11 Jun 2027 11:49:25.060             5.335           580.031
       258   12 Jun 2027 04:00:15.371   12 Jun 2027 04:00:53.746            38.375         19187.500
       259   12 Jun 2027 05:35:03.596   12 Jun 2027 05:38:06.349           182.753         91376.500
       260   12 Jun 2027 05:39:07.272   12 Jun 2027 05:39:23.683            16.411          8205.500
       261   12 Jun 2027 05:39:50.723   12 Jun 2027 05:40:19.732            29.009         14504.500
       262   12 Jun 2027 07:12:52.991   12 Jun 2027 07:14:05.924            72.933         36399.062
       263   12 Jun 2027 07:14:39.187   12 Jun 2027 07:14:40.778             1.591           780.188
       264   12 Jun 2027 07:15:40.657   12 Jun 2027 07:15:44.423             3.766          1082.906
       265   12 Jun 2027 07:16:21.877   12 Jun 2027 07:16:28.197             6.320           787.125
       266   12 Jun 2027 07:16:58.566   12 Jun 2027 07:17:06.215             7.649           949.031
       267   12 Jun 2027 07:18:10.947   12 Jun 2027 07:18:13.705             2.758           446.187
       268   12 Jun 2027 07:18:50.381   12 Jun 2027 07:18:53.234             2.853           718.344
       269   12 Jun 2027 08:49:37.390   12 Jun 2027 08:49:48.522            11.132          5212.219
       270   12 Jun 2027 08:53:21.260   12 Jun 2027 08:53:23.101             1.841            34.375
       271   12 Jun 2027 08:54:02.729   12 Jun 2027 08:54:08.081             5.352           247.187
       272   12 Jun 2027 08:54:33.886   12 Jun 2027 08:54:34.452             0.566           158.625
       273   12 Jun 2027 08:55:11.036   12 Jun 2027 08:55:12.700             1.664           353.750
       274   12 Jun 2027 10:27:45.888   12 Jun 2027 10:28:04.319            18.431          7182.750
       275   12 Jun 2027 10:30:43.759   12 Jun 2027 10:30:49.692             5.933            74.969
       276   12 Jun 2027 10:31:23.874   12 Jun 2027 10:31:24.774             0.900           194.375
       277   13 Jun 2027 04:14:01.682   13 Jun 2027 04:14:36.280            34.598         17299.000
       278   13 Jun 2027 04:16:07.952   13 Jun 2027 04:16:09.627             1.675           837.500
       279   13 Jun 2027 05:47:52.313   13 Jun 2027 05:50:22.211           149.898         74949.000
       280   13 Jun 2027 05:52:15.462   13 Jun 2027 05:52:22.625             7.163          3581.500
       281   13 Jun 2027 05:54:14.285   13 Jun 2027 05:54:23.211             8.926          4463.000
       282   13 Jun 2027 05:55:37.243   13 Jun 2027 05:55:46.702             9.459          4729.500
       283   13 Jun 2027 07:24:59.498   13 Jun 2027 07:27:02.653           123.155         59192.562
       284   13 Jun 2027 07:27:27.813   13 Jun 2027 07:27:28.942             1.129           347.719
       285   13 Jun 2027 07:28:23.027   13 Jun 2027 07:28:23.690             0.663            80.469
       286   13 Jun 2027 07:29:09.247   13 Jun 2027 07:29:11.593             2.346          1135.438
       287   13 Jun 2027 07:30:53.812   13 Jun 2027 07:30:54.165             0.353             8.813
       288   13 Jun 2027 09:02:02.544   13 Jun 2027 09:02:12.191             9.647          4636.031
       289   13 Jun 2027 09:06:19.713   13 Jun 2027 09:06:22.062             2.349           718.344
       290   13 Jun 2027 09:06:41.195   13 Jun 2027 09:06:42.277             1.082           370.719
       291   13 Jun 2027 09:07:50.351   13 Jun 2027 09:07:52.726             2.375            70.812
       292   13 Jun 2027 10:39:00.517   13 Jun 2027 10:39:12.444            11.927          5424.875
       293   13 Jun 2027 10:40:41.552   13 Jun 2027 10:40:52.227            10.675           328.125
       294   13 Jun 2027 10:41:51.379   13 Jun 2027 10:41:58.135             6.756           618.656
       295   13 Jun 2027 10:42:37.325   13 Jun 2027 10:42:39.196             1.871           563.187
       296   13 Jun 2027 10:43:18.794   13 Jun 2027 10:43:22.292             3.498           565.281
       297   13 Jun 2027 10:43:24.739   13 Jun 2027 10:43:26.636             1.897            11.156
