uniorb/output/strategy_4/Camera/Camera_KinoSat_110805.txt

KinoSat_110805
-------------------------
    Access    *     Start Time (UTCG)     *     Stop Time (UTCG)  *   Duration (s) *   Data (Mbytes)
         1   01 Jun 2027 03:34:35.397   01 Jun 2027 03:35:49.668            74.271         37135.500
         2   01 Jun 2027 03:36:31.453   01 Jun 2027 03:36:31.453             0.000             0.000
         3   01 Jun 2027 03:36:34.744   01 Jun 2027 03:36:44.515             9.771          4885.500
         4   01 Jun 2027 03:38:03.974   01 Jun 2027 03:38:03.974             0.000             0.000
         5   01 Jun 2027 05:10:07.597   01 Jun 2027 05:10:13.986             6.389          3194.500
         6   01 Jun 2027 05:11:17.298   01 Jun 2027 05:13:20.536           123.238         61619.000
         7   01 Jun 2027 05:14:31.723   01 Jun 2027 05:14:52.724            21.001         10500.500
         8   01 Jun 2027 06:46:02.851   01 Jun 2027 06:47:32.137            89.286         44643.000
         9   01 Jun 2027 06:48:12.711   01 Jun 2027 06:48:14.768             2.057          1028.500
        10   01 Jun 2027 06:48:23.818   01 Jun 2027 06:48:26.148             2.330          1165.000
        11   01 Jun 2027 06:48:35.213   01 Jun 2027 06:48:35.213             0.000             0.000
        12   01 Jun 2027 06:48:58.403   01 Jun 2027 06:49:12.117            13.714          6857.000
        13   01 Jun 2027 06:49:36.121   01 Jun 2027 06:49:38.368             2.247          1123.500
        14   01 Jun 2027 06:51:38.676   01 Jun 2027 06:51:38.676             0.000             0.000
        15   01 Jun 2027 06:52:19.681   01 Jun 2027 06:52:31.023            11.342          5671.000
        16   01 Jun 2027 06:53:32.272   01 Jun 2027 06:53:36.194             3.922          1961.000
        17   01 Jun 2027 08:23:02.729   01 Jun 2027 08:25:06.438           123.709         61854.500
        18   01 Jun 2027 08:25:42.603   01 Jun 2027 08:25:54.653            12.050          6025.000
        19   01 Jun 2027 08:27:22.248   01 Jun 2027 08:27:48.854            26.606         13303.000
        20   01 Jun 2027 10:01:03.813   01 Jun 2027 10:03:38.247           154.434         77217.000
        21   01 Jun 2027 10:04:27.355   01 Jun 2027 10:04:45.779            18.424          9212.000
        22   01 Jun 2027 11:34:18.514   01 Jun 2027 11:36:17.587           119.073         59536.500
        23   01 Jun 2027 11:36:37.116   01 Jun 2027 11:36:40.669             3.553          1776.500
        24   01 Jun 2027 11:40:21.329   01 Jun 2027 11:40:28.515             7.186          3593.000
        25   01 Jun 2027 11:41:04.035   01 Jun 2027 11:41:23.872            19.837          9918.500
        26   02 Jun 2027 03:45:51.681   02 Jun 2027 03:46:11.512            19.831          9915.500
        27   02 Jun 2027 03:48:01.916   02 Jun 2027 03:48:15.893            13.977          6988.500
        28   02 Jun 2027 03:50:47.185   02 Jun 2027 03:50:47.185             0.000             0.000
        29   02 Jun 2027 05:20:59.735   02 Jun 2027 05:22:32.238            92.503         46251.500
        30   02 Jun 2027 05:23:00.696   02 Jun 2027 05:23:22.226            21.530         10765.000
        31   02 Jun 2027 05:23:48.397   02 Jun 2027 05:24:51.570            63.173         31586.500
        32   02 Jun 2027 05:25:47.898   02 Jun 2027 05:26:00.654            12.756          6378.000
        33   02 Jun 2027 06:58:10.903   02 Jun 2027 07:01:38.016           207.113        103556.500
        34   02 Jun 2027 07:03:48.198   02 Jun 2027 07:04:14.914            26.716         13358.000
        35   02 Jun 2027 07:04:38.404   02 Jun 2027 07:05:25.482            47.078         23539.000
        36   02 Jun 2027 08:35:08.216   02 Jun 2027 08:38:56.505           228.289        114144.500
        37   02 Jun 2027 08:39:48.796   02 Jun 2027 08:39:59.111            10.315          5062.531
        38   02 Jun 2027 08:40:37.885   02 Jun 2027 08:40:39.385             1.500            19.125
        39   02 Jun 2027 08:40:53.653   02 Jun 2027 08:40:56.204             2.551           370.500
        40   02 Jun 2027 10:13:01.234   02 Jun 2027 10:13:36.910            35.676         16949.250
        41   02 Jun 2027 10:13:50.769   02 Jun 2027 10:14:00.830            10.061           269.750
        42   02 Jun 2027 10:14:26.662   02 Jun 2027 10:14:29.373             2.711           800.344
        43   02 Jun 2027 10:14:59.343   02 Jun 2027 10:15:01.200             1.857           781.938
        44   02 Jun 2027 10:15:59.240   02 Jun 2027 10:16:03.487             4.247          1512.844
        45   02 Jun 2027 10:16:14.642   02 Jun 2027 10:16:18.311             3.669           316.594
        46   02 Jun 2027 10:16:36.438   02 Jun 2027 10:16:36.921             0.483            23.000
        47   02 Jun 2027 10:16:47.940   02 Jun 2027 10:16:48.422             0.482           218.000
        48   02 Jun 2027 11:46:29.029   02 Jun 2027 11:46:30.851             1.822           561.344
        49   03 Jun 2027 03:57:36.639   03 Jun 2027 03:57:44.397             7.758          3879.000
        50   03 Jun 2027 03:57:48.716   03 Jun 2027 03:57:50.742             2.026          1013.000
        51   03 Jun 2027 03:58:20.902   03 Jun 2027 03:58:20.902             0.000             0.000
        52   03 Jun 2027 03:58:30.682   03 Jun 2027 03:58:54.466            23.784         11892.000
        53   03 Jun 2027 05:32:29.154   03 Jun 2027 05:35:30.113           180.959         90479.500
        54   03 Jun 2027 05:36:11.643   03 Jun 2027 05:36:22.116            10.473          5236.500
        55   03 Jun 2027 05:41:18.826   03 Jun 2027 05:41:25.704             6.878          3439.000
        56   03 Jun 2027 07:10:12.211   03 Jun 2027 07:12:08.363           116.152         56029.062
        57   03 Jun 2027 07:12:40.716   03 Jun 2027 07:12:43.563             2.847           384.437
        58   03 Jun 2027 07:13:38.154   03 Jun 2027 07:13:38.154             0.000             0.000
        59   03 Jun 2027 07:14:14.751   03 Jun 2027 07:14:19.932             5.181          2255.750
        60   03 Jun 2027 07:15:32.068   03 Jun 2027 07:15:35.872             3.804           491.750
        61   03 Jun 2027 07:16:12.479   03 Jun 2027 07:16:16.291             3.812           885.938
        62   03 Jun 2027 07:17:13.587   03 Jun 2027 07:17:15.015             1.428           591.437
        63   03 Jun 2027 08:47:00.408   03 Jun 2027 08:47:13.993            13.585          5129.344
        64   03 Jun 2027 08:50:00.105   03 Jun 2027 08:50:05.893             5.788          1015.156
        65   03 Jun 2027 08:50:41.663   03 Jun 2027 08:50:45.107             3.444           868.625
        66   03 Jun 2027 08:51:17.243   03 Jun 2027 08:51:18.166             0.923           124.313
        67   03 Jun 2027 08:51:56.582   03 Jun 2027 08:51:59.532             2.950           144.094
        68   03 Jun 2027 08:53:02.924   03 Jun 2027 08:53:05.582             2.658           995.125
        69   03 Jun 2027 08:53:18.029   03 Jun 2027 08:53:18.576             0.547           184.219
        70   03 Jun 2027 10:25:02.469   03 Jun 2027 10:25:16.900            14.431          6414.688
        71   03 Jun 2027 10:25:36.935   03 Jun 2027 10:25:38.837             1.902           201.031
        72   03 Jun 2027 10:28:33.079   03 Jun 2027 10:28:36.218             3.139           762.125
        73   03 Jun 2027 11:58:54.747   03 Jun 2027 11:59:02.860             8.113           943.375
        74   04 Jun 2027 04:11:23.407   04 Jun 2027 04:11:45.624            22.217         11108.500
        75   04 Jun 2027 04:13:33.650   04 Jun 2027 04:13:53.596            19.946          9973.000
        76   04 Jun 2027 05:45:12.839   04 Jun 2027 05:47:46.883           154.044         77022.000
        77   04 Jun 2027 05:48:06.561   04 Jun 2027 05:48:13.160             6.599          3299.500
        78   04 Jun 2027 05:49:39.966   04 Jun 2027 05:49:45.550             5.584          2792.000
        79   04 Jun 2027 05:51:58.252   04 Jun 2027 05:52:10.041            11.789          5894.500
        80   04 Jun 2027 05:53:01.786   04 Jun 2027 05:53:28.295            26.509         13254.500
        81   04 Jun 2027 07:22:15.548   04 Jun 2027 07:23:43.812            88.264         44104.876
        82   04 Jun 2027 07:24:09.377   04 Jun 2027 07:24:14.006             4.629           344.094
        83   04 Jun 2027 07:24:50.576   04 Jun 2027 07:24:51.596             1.020           479.469
        84   04 Jun 2027 07:25:40.868   04 Jun 2027 07:25:43.358             2.490           229.437
        85   04 Jun 2027 07:26:23.665   04 Jun 2027 07:26:24.724             1.059           529.500
        86   04 Jun 2027 07:27:13.275   04 Jun 2027 07:27:17.995             4.720          2088.312
        87   04 Jun 2027 07:27:41.450   04 Jun 2027 07:27:43.979             2.529           732.969
        88   04 Jun 2027 07:29:31.616   04 Jun 2027 07:29:32.693             1.077           274.906
        89   04 Jun 2027 08:59:10.380   04 Jun 2027 08:59:20.743            10.363          4634.562
        90   04 Jun 2027 09:03:20.624   04 Jun 2027 09:03:23.151             2.527           164.219
        91   04 Jun 2027 09:03:42.727   04 Jun 2027 09:03:44.769             2.042           564.219
        92   04 Jun 2027 09:03:45.111   04 Jun 2027 09:03:45.275             0.164            10.687
        93   04 Jun 2027 09:04:04.569   04 Jun 2027 09:04:10.082             5.513           383.531
        94   04 Jun 2027 10:36:16.422   04 Jun 2027 10:36:29.673            13.251          5017.094
        95   04 Jun 2027 10:37:52.754   04 Jun 2027 10:37:54.080             1.326           389.000
        96   04 Jun 2027 10:39:25.170   04 Jun 2027 10:39:27.613             2.443          1090.656
        97   04 Jun 2027 10:39:43.196   04 Jun 2027 10:39:53.069             9.873           214.125
        98   04 Jun 2027 10:40:18.962   04 Jun 2027 10:40:21.357             2.395           766.312
        99   04 Jun 2027 10:40:43.620   04 Jun 2027 10:40:44.628             1.008           112.938
       100   05 Jun 2027 04:23:40.192   05 Jun 2027 04:24:35.774            55.582         27791.000
       101   05 Jun 2027 04:25:02.811   05 Jun 2027 04:25:35.552            32.741         16370.500
       102   05 Jun 2027 05:57:09.674   05 Jun 2027 05:58:45.911            96.237         48118.500
       103   05 Jun 2027 05:59:28.840   05 Jun 2027 06:00:22.703            53.863         26931.500
       104   05 Jun 2027 06:00:37.420   05 Jun 2027 06:00:43.157             5.737          2868.500
       105   05 Jun 2027 06:01:42.793   05 Jun 2027 06:01:42.793             0.000             0.000
       106   05 Jun 2027 06:03:14.538   05 Jun 2027 06:03:34.602            20.064         10032.000
       107   05 Jun 2027 06:04:13.985   05 Jun 2027 06:04:38.326            24.341         12170.500
       108   05 Jun 2027 06:05:22.810   05 Jun 2027 06:05:30.715             7.905          3952.500
       109   05 Jun 2027 06:05:39.823   05 Jun 2027 06:05:41.659             1.836           918.000
       110   05 Jun 2027 07:34:41.354   05 Jun 2027 07:35:09.470            28.116         14047.250
       111   05 Jun 2027 07:39:31.610   05 Jun 2027 07:39:34.194             2.584           993.000
       112   05 Jun 2027 07:40:23.019   05 Jun 2027 07:40:25.376             2.357            57.687
       113   05 Jun 2027 07:40:38.039   05 Jun 2027 07:40:39.906             1.867            97.469
       114   05 Jun 2027 09:11:37.848   05 Jun 2027 09:11:51.982            14.134          6843.906
       115   05 Jun 2027 09:14:48.772   05 Jun 2027 09:14:51.680             2.908           999.250
       116   05 Jun 2027 09:15:58.636   05 Jun 2027 09:16:01.439             2.803          1311.875
       117   05 Jun 2027 09:16:13.645   05 Jun 2027 09:16:14.682             1.037           160.313
       118   05 Jun 2027 10:48:28.450   05 Jun 2027 10:48:40.399            11.949          5785.125
       119   05 Jun 2027 10:50:33.481   05 Jun 2027 10:50:37.537             4.056           766.812
       120   05 Jun 2027 10:52:46.268   05 Jun 2027 10:52:53.223             6.955            71.781
       121   06 Jun 2027 03:00:00.000   06 Jun 2027 03:00:04.485             4.485          2242.500
       122   06 Jun 2027 03:00:26.676   06 Jun 2027 03:00:39.866            13.190          6595.000
       123   06 Jun 2027 03:01:53.191   06 Jun 2027 03:01:53.191             0.000             0.000
       124   06 Jun 2027 04:35:42.266   06 Jun 2027 04:36:34.079            51.813         25906.500
       125   06 Jun 2027 04:37:13.717   06 Jun 2027 04:37:40.815            27.098         13549.000
       126   06 Jun 2027 06:09:49.164   06 Jun 2027 06:13:15.385           206.221        102036.562
       127   06 Jun 2027 06:14:19.811   06 Jun 2027 06:14:23.300             3.489          1105.187
       128   06 Jun 2027 06:15:14.358   06 Jun 2027 06:15:14.358             0.000             0.000
       129   06 Jun 2027 06:15:31.693   06 Jun 2027 06:15:35.165             3.472          1736.000
       130   06 Jun 2027 06:15:46.689   06 Jun 2027 06:15:49.528             2.839           761.406
       131   06 Jun 2027 06:17:03.212   06 Jun 2027 06:17:06.203             2.991           855.031
       132   06 Jun 2027 06:17:32.938   06 Jun 2027 06:17:34.454             1.516           173.031
       133   06 Jun 2027 07:46:47.552   06 Jun 2027 07:46:50.238             2.686           821.125
       134   06 Jun 2027 07:52:22.602   06 Jun 2027 07:52:27.261             4.659           157.844
       135   06 Jun 2027 07:52:57.388   06 Jun 2027 07:52:59.740             2.352           723.875
       136   06 Jun 2027 07:53:19.091   06 Jun 2027 07:53:19.428             0.337            40.344
       137   06 Jun 2027 09:24:27.581   06 Jun 2027 09:24:39.057            11.476          5576.844
       138   06 Jun 2027 09:28:44.750   06 Jun 2027 09:28:47.182             2.432           709.281
       139   06 Jun 2027 11:00:31.245   06 Jun 2027 11:00:43.987            12.742          6260.406
       140   06 Jun 2027 11:04:43.564   06 Jun 2027 11:04:45.654             2.090           792.062
       141   07 Jun 2027 03:11:20.831   07 Jun 2027 03:11:31.631            10.800          5400.000
       142   07 Jun 2027 03:14:19.132   07 Jun 2027 03:14:21.790             2.658          1329.000
       143   07 Jun 2027 04:47:51.535   07 Jun 2027 04:51:26.352           214.817        107408.500
       144   07 Jun 2027 06:23:01.517   07 Jun 2027 06:24:05.699            64.182         31141.844
       145   07 Jun 2027 06:25:40.532   07 Jun 2027 06:25:45.167             4.635           880.063
       146   07 Jun 2027 06:25:49.906   07 Jun 2027 06:25:52.491             2.585            58.687
       147   07 Jun 2027 06:27:35.654   07 Jun 2027 06:27:41.383             5.729          2453.125
       148   07 Jun 2027 06:28:50.654   07 Jun 2027 06:28:54.926             4.272          1901.656
       149   07 Jun 2027 06:29:09.727   07 Jun 2027 06:29:13.817             4.090           183.688
       150   07 Jun 2027 07:59:23.626   07 Jun 2027 07:59:26.265             2.639           521.094
       151   07 Jun 2027 08:04:26.570   07 Jun 2027 08:04:27.499             0.929           413.594
       152   07 Jun 2027 09:36:40.747   07 Jun 2027 09:36:51.524            10.777          5074.094
       153   07 Jun 2027 09:40:07.670   07 Jun 2027 09:40:12.526             4.856          1599.687
       154   07 Jun 2027 09:40:53.270   07 Jun 2027 09:40:54.101             0.831           151.406
       155   07 Jun 2027 11:12:53.672   07 Jun 2027 11:13:04.761            11.089          5195.188
       156   08 Jun 2027 03:24:05.528   08 Jun 2027 03:24:07.589             2.061          1030.500
       157   08 Jun 2027 03:24:48.339   08 Jun 2027 03:24:53.750             5.411          2705.500
       158   08 Jun 2027 03:26:19.570   08 Jun 2027 03:26:23.035             3.465          1732.500
       159   08 Jun 2027 04:59:46.239   08 Jun 2027 05:03:18.119           211.880        105940.000
       160   08 Jun 2027 06:34:43.595   08 Jun 2027 06:36:01.063            77.468         37835.406
       161   08 Jun 2027 06:36:38.006   08 Jun 2027 06:36:40.591             2.585          1077.937
       162   08 Jun 2027 06:37:50.381   08 Jun 2027 06:37:51.217             0.836           382.781
       163   08 Jun 2027 06:37:53.095   08 Jun 2027 06:37:56.846             3.751            32.063
       164   08 Jun 2027 06:38:16.874   08 Jun 2027 06:38:18.175             1.301           303.438
       165   08 Jun 2027 06:39:52.831   08 Jun 2027 06:39:54.368             1.537           536.969
       166   08 Jun 2027 06:41:08.629   08 Jun 2027 06:41:10.841             2.212           829.438
       167   08 Jun 2027 08:10:56.139   08 Jun 2027 08:10:57.248             1.109           419.344
       168   08 Jun 2027 08:12:38.512   08 Jun 2027 08:12:41.400             2.888           890.188
       169   08 Jun 2027 09:48:57.275   08 Jun 2027 09:49:08.044            10.769          5114.250
       170   08 Jun 2027 09:50:12.071   08 Jun 2027 09:50:17.401             5.330           717.844
       171   08 Jun 2027 09:52:25.735   08 Jun 2027 09:52:27.604             1.869            41.187
       172   08 Jun 2027 09:52:51.613   08 Jun 2027 09:52:52.920             1.307           309.469
       173   08 Jun 2027 11:24:37.069   08 Jun 2027 11:24:48.911            11.842          4669.656
       174   09 Jun 2027 03:34:49.723   09 Jun 2027 03:34:59.185             9.462          4731.000
       175   09 Jun 2027 03:36:43.793   09 Jun 2027 03:36:46.875             3.082          1541.000
       176   09 Jun 2027 03:36:51.820   09 Jun 2027 03:36:59.213             7.393          3696.500
       177   09 Jun 2027 05:10:22.275   09 Jun 2027 05:10:29.526             7.251          3625.500
       178   09 Jun 2027 05:11:32.093   09 Jun 2027 05:12:54.459            82.366         41183.000
       179   09 Jun 2027 05:13:35.729   09 Jun 2027 05:14:46.111            70.382         35191.000
       180   09 Jun 2027 05:15:42.226   09 Jun 2027 05:15:59.055            16.829          8414.500
       181   09 Jun 2027 06:46:17.276   09 Jun 2027 06:48:06.708           109.432         54716.000
       182   09 Jun 2027 06:48:41.822   09 Jun 2027 06:48:47.492             5.670          1260.563
       183   09 Jun 2027 06:49:33.082   09 Jun 2027 06:49:34.197             1.115           167.844
       184   09 Jun 2027 06:49:56.385   09 Jun 2027 06:49:58.588             2.203           121.094
       185   09 Jun 2027 06:51:35.055   09 Jun 2027 06:51:40.433             5.378          2374.969
       186   09 Jun 2027 06:52:22.192   09 Jun 2027 06:52:22.192             0.000             0.000
       187   09 Jun 2027 06:52:35.904   09 Jun 2027 06:52:42.206             6.302          1254.437
       188   09 Jun 2027 08:23:17.741   09 Jun 2027 08:23:26.633             8.892          3526.656
       189   09 Jun 2027 08:28:38.391   09 Jun 2027 08:28:39.671             1.280           150.875
       190   09 Jun 2027 08:29:16.849   09 Jun 2027 08:29:18.670             1.821           907.500
       191   09 Jun 2027 10:01:18.761   09 Jun 2027 10:01:30.639            11.878          5852.469
       192   09 Jun 2027 10:02:39.928   09 Jun 2027 10:02:41.225             1.297           435.063
       193   09 Jun 2027 10:02:50.398   09 Jun 2027 10:02:56.652             6.254           286.656
       194   09 Jun 2027 10:03:10.747   09 Jun 2027 10:03:11.924             1.177           186.062
       195   09 Jun 2027 10:03:32.639   09 Jun 2027 10:03:35.313             2.674           467.688
       196   09 Jun 2027 10:04:25.275   09 Jun 2027 10:04:27.459             2.184           970.125
       197   09 Jun 2027 10:05:02.886   09 Jun 2027 10:05:05.788             2.902          1052.719
       198   09 Jun 2027 11:34:32.761   09 Jun 2027 11:34:44.605            11.844          5244.062
       199   10 Jun 2027 03:46:05.981   10 Jun 2027 03:46:26.746            20.765         10382.500
       200   10 Jun 2027 05:21:13.871   10 Jun 2027 05:22:53.452            99.581         49790.500
       201   10 Jun 2027 05:23:15.329   10 Jun 2027 05:24:03.258            47.929         23964.500
       202   10 Jun 2027 05:24:54.231   10 Jun 2027 05:25:49.921            55.690         27845.000
       203   10 Jun 2027 05:25:57.200   10 Jun 2027 05:25:57.200             0.000             0.000
       204   10 Jun 2027 05:26:56.140   10 Jun 2027 05:26:56.140             0.000             0.000
       205   10 Jun 2027 06:58:25.794   10 Jun 2027 07:00:12.972           107.178         52169.063
       206   10 Jun 2027 07:01:15.210   10 Jun 2027 07:01:18.500             3.290           327.344
       207   10 Jun 2027 07:03:33.776   10 Jun 2027 07:03:38.682             4.906          2187.688
       208   10 Jun 2027 07:04:04.232   10 Jun 2027 07:04:04.232             0.000             0.000
       209   10 Jun 2027 07:04:52.891   10 Jun 2027 07:04:56.674             3.783          1698.000
       210   10 Jun 2027 07:05:40.127   10 Jun 2027 07:05:43.889             3.762          1270.406
       211   10 Jun 2027 08:35:23.182   10 Jun 2027 08:35:30.007             6.825          3068.656
       212   10 Jun 2027 08:38:31.385   10 Jun 2027 08:38:38.938             7.553          1488.969
       213   10 Jun 2027 08:39:11.671   10 Jun 2027 08:39:13.609             1.938             4.062
       214   10 Jun 2027 08:39:29.455   10 Jun 2027 08:39:31.657             2.202           110.094
       215   10 Jun 2027 08:40:53.021   10 Jun 2027 08:40:53.223             0.202            57.250
       216   10 Jun 2027 08:41:09.957   10 Jun 2027 08:41:12.795             2.838           522.938
       217   10 Jun 2027 10:13:16.121   10 Jun 2027 10:13:32.145            16.024          6999.250
       218   10 Jun 2027 10:15:15.533   10 Jun 2027 10:15:19.852             4.319           768.281
       219   10 Jun 2027 10:16:19.084   10 Jun 2027 10:16:19.681             0.597           140.750
       220   10 Jun 2027 10:16:30.929   10 Jun 2027 10:16:35.235             4.306            37.094
       221   10 Jun 2027 10:16:50.049   10 Jun 2027 10:16:51.304             1.255           225.406
       222   10 Jun 2027 10:16:56.465   10 Jun 2027 10:16:57.871             1.406           161.281
       223   10 Jun 2027 11:46:44.553   10 Jun 2027 11:46:48.145             3.592          1015.062
       224   11 Jun 2027 03:57:51.096   11 Jun 2027 03:58:01.127            10.031          5015.500
       225   11 Jun 2027 03:58:35.430   11 Jun 2027 03:58:35.430             0.000             0.000
       226   11 Jun 2027 03:58:48.102   11 Jun 2027 03:59:09.261            21.159         10579.500
       227   11 Jun 2027 05:32:43.527   11 Jun 2027 05:35:45.568           182.041         91020.500
       228   11 Jun 2027 05:35:55.114   11 Jun 2027 05:36:04.994             9.880          4940.000
       229   11 Jun 2027 05:38:56.950   11 Jun 2027 05:39:06.689             9.739          4869.500
       230   11 Jun 2027 05:41:19.223   11 Jun 2027 05:41:41.818            22.595         11297.500
       231   11 Jun 2027 07:10:27.386   11 Jun 2027 07:11:48.782            81.396         40698.000
       232   11 Jun 2027 07:12:12.857   11 Jun 2027 07:12:18.112             5.255          1852.656
       233   11 Jun 2027 07:13:17.319   11 Jun 2027 07:13:18.720             1.401           630.437
       234   11 Jun 2027 07:13:55.968   11 Jun 2027 07:13:55.968             0.000             0.000
       235   11 Jun 2027 07:14:03.097   11 Jun 2027 07:14:07.742             4.645          1135.313
       236   11 Jun 2027 07:15:31.671   11 Jun 2027 07:15:37.440             5.769          1891.938
       237   11 Jun 2027 07:16:28.982   11 Jun 2027 07:16:32.434             3.452          1272.312
       238   11 Jun 2027 08:47:15.431   11 Jun 2027 08:47:23.974             8.543          4219.094
       239   11 Jun 2027 08:50:03.599   11 Jun 2027 08:50:09.255             5.656            94.656
       240   11 Jun 2027 08:50:48.441   11 Jun 2027 08:50:51.787             3.346          1099.781
       241   11 Jun 2027 08:51:05.045   11 Jun 2027 08:51:07.261             2.216           228.844
       242   11 Jun 2027 08:52:07.302   11 Jun 2027 08:52:10.854             3.552          1087.969
       243   11 Jun 2027 08:53:17.401   11 Jun 2027 08:53:26.873             9.472          2040.437
       244   11 Jun 2027 10:25:18.058   11 Jun 2027 10:25:35.212            17.154          5912.375
       245   11 Jun 2027 10:25:50.653   11 Jun 2027 10:25:51.568             0.915           360.438
       246   11 Jun 2027 10:28:50.480   11 Jun 2027 10:28:52.629             2.149           843.906
       247   11 Jun 2027 11:59:09.729   11 Jun 2027 11:59:18.423             8.694           938.344
       248   12 Jun 2027 04:11:37.912   12 Jun 2027 04:12:10.756            32.844         16422.000
       249   12 Jun 2027 04:14:08.649   12 Jun 2027 04:14:10.548             1.899           949.500
       250   12 Jun 2027 04:14:52.581   12 Jun 2027 04:14:56.899             4.318          2159.000
       251   12 Jun 2027 05:45:27.621   12 Jun 2027 05:48:02.151           154.530         77265.000
       252   12 Jun 2027 05:48:08.065   12 Jun 2027 05:48:18.879            10.814          5407.000
       253   12 Jun 2027 05:50:25.617   12 Jun 2027 05:50:34.127             8.510          4255.000
       254   12 Jun 2027 05:53:16.210   12 Jun 2027 05:53:41.296            25.086         12543.000
       255   12 Jun 2027 05:53:50.602   12 Jun 2027 05:53:53.331             2.729          1364.500
       256   12 Jun 2027 07:22:30.576   12 Jun 2027 07:24:03.107            92.531         45365.843
       257   12 Jun 2027 07:24:25.469   12 Jun 2027 07:24:25.469             0.000             0.000
       258   12 Jun 2027 07:24:51.813   12 Jun 2027 07:24:54.550             2.737          1126.875
       259   12 Jun 2027 07:26:06.446   12 Jun 2027 07:26:11.253             4.807          1912.563
       260   12 Jun 2027 07:27:28.574   12 Jun 2027 07:27:32.846             4.272          1525.594
       261   12 Jun 2027 07:27:55.420   12 Jun 2027 07:27:59.094             3.674           657.906
       262   12 Jun 2027 08:59:25.278   12 Jun 2027 08:59:37.168            11.890          5762.937
       263   12 Jun 2027 09:02:28.634   12 Jun 2027 09:02:35.863             7.229          1511.563
       264   12 Jun 2027 09:03:45.760   12 Jun 2027 09:03:48.964             3.204           330.125
       265   12 Jun 2027 09:04:13.911   12 Jun 2027 09:04:16.520             2.609           495.313
       266   12 Jun 2027 10:36:31.370   12 Jun 2027 10:36:45.097            13.727          6452.813
       267   12 Jun 2027 10:39:05.082   12 Jun 2027 10:39:10.209             5.127          1654.781
       268   12 Jun 2027 10:39:51.993   12 Jun 2027 10:39:58.448             6.455           405.125
       269   12 Jun 2027 10:40:27.184   12 Jun 2027 10:40:30.889             3.705           898.000
       270   12 Jun 2027 10:40:39.306   12 Jun 2027 10:40:39.595             0.289           143.000
       271   12 Jun 2027 10:41:01.813   12 Jun 2027 10:41:03.602             1.789           389.813
       272   13 Jun 2027 04:23:55.299   13 Jun 2027 04:25:17.573            82.274         41137.000
       273   13 Jun 2027 05:57:25.180   13 Jun 2027 05:59:19.095           113.915         56957.500
       274   13 Jun 2027 05:59:59.371   13 Jun 2027 06:00:14.366            14.995          7497.500
       275   13 Jun 2027 06:00:31.019   13 Jun 2027 06:00:31.019             0.000             0.000
       276   13 Jun 2027 06:00:58.010   13 Jun 2027 06:01:02.452             4.442          2221.000
       277   13 Jun 2027 06:03:50.247   13 Jun 2027 06:04:41.804            51.557         25778.500
       278   13 Jun 2027 06:04:50.329   13 Jun 2027 06:04:53.014             2.685          1342.500
       279   13 Jun 2027 06:05:37.802   13 Jun 2027 06:05:46.355             8.553          4276.500
       280   13 Jun 2027 07:34:56.280   13 Jun 2027 07:35:34.473            38.193         17996.876
       281   13 Jun 2027 07:40:37.597   13 Jun 2027 07:40:41.655             4.058          1638.375
       282   13 Jun 2027 07:40:59.865   13 Jun 2027 07:41:01.322             1.457           316.062
       283   13 Jun 2027 09:11:52.702   13 Jun 2027 09:12:05.450            12.748          5941.531
       284   13 Jun 2027 09:14:32.330   13 Jun 2027 09:14:37.150             4.820          1741.281
       285   13 Jun 2027 09:16:56.191   13 Jun 2027 09:17:00.802             4.611          1415.562
       286   13 Jun 2027 10:48:43.248   13 Jun 2027 10:48:53.352            10.104          4341.719
       287   13 Jun 2027 10:50:49.080   13 Jun 2027 10:50:51.976             2.896           660.563
       288   13 Jun 2027 10:53:09.719   13 Jun 2027 10:53:11.272             1.553           235.156
