uniorb/output/strategy_4/Camera/Camera_KinoSat_111204.txt

KinoSat_111204
-------------------------
    Access    *     Start Time (UTCG)     *     Stop Time (UTCG)  *   Duration (s) *   Data (Mbytes)
         1   01 Jun 2027 03:41:27.673   01 Jun 2027 03:41:58.024            30.351         15175.500
         2   01 Jun 2027 03:42:16.597   01 Jun 2027 03:44:03.912           107.315         53657.500
         3   01 Jun 2027 03:44:46.906   01 Jun 2027 03:45:07.387            20.481         10240.500
         4   01 Jun 2027 05:04:50.078   01 Jun 2027 05:06:09.064            78.986         39493.000
         5   01 Jun 2027 06:41:21.954   01 Jun 2027 06:43:13.593           111.639         55819.500
         6   01 Jun 2027 08:16:31.941   01 Jun 2027 08:18:28.059           116.118         58059.000
         7   01 Jun 2027 08:20:23.483   01 Jun 2027 08:20:32.879             9.396          4698.000
         8   01 Jun 2027 08:22:47.912   01 Jun 2027 08:22:47.912             0.000             0.000
         9   01 Jun 2027 08:22:57.478   01 Jun 2027 08:23:07.982            10.504          5252.000
        10   01 Jun 2027 09:52:57.453   01 Jun 2027 09:55:39.814           162.361         81180.500
        11   01 Jun 2027 09:55:49.012   01 Jun 2027 09:55:59.739            10.727          5363.500
        12   01 Jun 2027 09:58:27.776   01 Jun 2027 09:58:42.604            14.828          7414.000
        13   01 Jun 2027 11:30:11.903   01 Jun 2027 11:30:51.051            39.148         19574.000
        14   01 Jun 2027 11:31:22.737   01 Jun 2027 11:31:44.147            21.410         10705.000
        15   01 Jun 2027 11:32:17.024   01 Jun 2027 11:33:49.189            92.165         46082.500
        16   02 Jun 2027 03:53:24.388   02 Jun 2027 03:54:03.187            38.799         19399.500
        17   02 Jun 2027 03:54:28.325   02 Jun 2027 03:55:00.533            32.208         16104.000
        18   02 Jun 2027 03:55:38.087   02 Jun 2027 03:56:48.655            70.568         35284.000
        19   02 Jun 2027 05:16:52.861   02 Jun 2027 05:17:53.396            60.535         30267.500
        20   02 Jun 2027 05:18:04.126   02 Jun 2027 05:18:04.126             0.000             0.000
        21   02 Jun 2027 05:18:29.369   02 Jun 2027 05:18:43.599            14.230          7115.000
        22   02 Jun 2027 05:19:39.423   02 Jun 2027 05:19:39.423             0.000             0.000
        23   02 Jun 2027 06:53:15.031   02 Jun 2027 06:55:58.635           163.604         81802.000
        24   02 Jun 2027 06:56:39.265   02 Jun 2027 06:56:58.855            19.590          9795.000
        25   02 Jun 2027 08:28:11.122   02 Jun 2027 08:31:04.473           173.351         86675.500
        26   02 Jun 2027 08:31:22.439   02 Jun 2027 08:32:05.828            43.389         21694.500
        27   02 Jun 2027 08:34:48.619   02 Jun 2027 08:35:16.487            27.868         13934.000
        28   02 Jun 2027 10:04:29.907   02 Jun 2027 10:05:21.156            51.249         25369.251
        29   02 Jun 2027 10:06:44.271   02 Jun 2027 10:06:48.536             4.265           366.906
        30   02 Jun 2027 10:07:04.813   02 Jun 2027 10:07:07.200             2.387           254.625
        31   02 Jun 2027 10:07:57.285   02 Jun 2027 10:07:59.943             2.658           751.531
        32   02 Jun 2027 10:08:42.291   02 Jun 2027 10:08:46.007             3.716           938.031
        33   02 Jun 2027 10:09:05.976   02 Jun 2027 10:09:11.469             5.493           453.531
        34   02 Jun 2027 10:09:34.622   02 Jun 2027 10:09:38.460             3.838           560.031
        35   02 Jun 2027 10:10:03.875   02 Jun 2027 10:10:14.154            10.279           612.969
        36   02 Jun 2027 11:42:45.309   02 Jun 2027 11:42:57.421            12.112          5803.281
        37   02 Jun 2027 11:43:33.771   02 Jun 2027 11:43:36.429             2.658           581.656
        38   02 Jun 2027 11:44:57.548   02 Jun 2027 11:45:01.925             4.377          2098.812
        39   02 Jun 2027 11:45:46.571   02 Jun 2027 11:45:49.957             3.386          1340.406
        40   02 Jun 2027 11:46:19.735   02 Jun 2027 11:46:23.618             3.883           665.719
        41   02 Jun 2027 11:46:36.222   02 Jun 2027 11:46:37.537             1.315           283.031
        42   03 Jun 2027 03:54:09.195   03 Jun 2027 03:54:16.981             7.786          3893.000
        43   03 Jun 2027 04:05:20.721   03 Jun 2027 04:07:01.938           101.217         50608.500
        44   03 Jun 2027 04:07:26.107   03 Jun 2027 04:08:00.793            34.686         17343.000
        45   03 Jun 2027 04:08:18.816   03 Jun 2027 04:08:18.816             0.000             0.000
        46   03 Jun 2027 05:28:16.986   03 Jun 2027 05:28:44.224            27.238         13619.000
        47   03 Jun 2027 05:29:07.280   03 Jun 2027 05:29:16.090             8.810          4405.000
        48   03 Jun 2027 05:30:31.088   03 Jun 2027 05:30:36.155             5.067          2533.500
        49   03 Jun 2027 05:30:39.008   03 Jun 2027 05:30:56.728            17.720          8860.000
        50   03 Jun 2027 07:03:33.750   03 Jun 2027 07:04:07.496            33.746         16873.000
        51   03 Jun 2027 07:04:58.989   03 Jun 2027 07:06:27.683            88.694         44347.000
        52   03 Jun 2027 07:07:04.253   03 Jun 2027 07:07:04.253             0.000             0.000
        53   03 Jun 2027 07:07:30.433   03 Jun 2027 07:07:38.210             7.777          3330.719
        54   03 Jun 2027 07:08:10.295   03 Jun 2027 07:08:11.826             1.531           670.156
        55   03 Jun 2027 07:09:15.220   03 Jun 2027 07:09:18.084             2.864          1395.594
        56   03 Jun 2027 07:09:26.307   03 Jun 2027 07:09:27.313             1.006           187.250
        57   03 Jun 2027 08:39:44.524   03 Jun 2027 08:39:50.108             5.584          2614.000
        58   03 Jun 2027 08:42:03.935   03 Jun 2027 08:42:11.161             7.226          2368.344
        59   03 Jun 2027 08:43:19.368   03 Jun 2027 08:43:20.600             1.232            85.875
        60   03 Jun 2027 08:44:30.352   03 Jun 2027 08:44:39.997             9.645          1319.781
        61   03 Jun 2027 08:45:43.222   03 Jun 2027 08:45:48.296             5.074          1919.844
        62   03 Jun 2027 08:46:14.956   03 Jun 2027 08:46:23.288             8.332           833.125
        63   03 Jun 2027 08:46:51.968   03 Jun 2027 08:46:53.661             1.693           738.937
        64   03 Jun 2027 10:16:49.387   03 Jun 2027 10:17:03.183            13.796          6171.969
        65   03 Jun 2027 10:20:58.469   03 Jun 2027 10:21:05.910             7.441          1281.375
        66   03 Jun 2027 10:21:18.975   03 Jun 2027 10:21:20.611             1.636           371.188
        67   03 Jun 2027 10:21:35.539   03 Jun 2027 10:21:37.512             1.973           334.094
        68   03 Jun 2027 10:21:41.965   03 Jun 2027 10:21:45.895             3.930           139.156
        69   03 Jun 2027 10:22:53.534   03 Jun 2027 10:22:59.820             6.286          1554.313
        70   03 Jun 2027 11:54:48.391   03 Jun 2027 11:54:59.216            10.825          5317.813
        71   03 Jun 2027 11:55:50.196   03 Jun 2027 11:55:53.957             3.761          1207.750
        72   03 Jun 2027 11:57:26.149   03 Jun 2027 11:57:28.237             2.088           555.813
        73   03 Jun 2027 11:58:16.088   03 Jun 2027 11:58:16.570             0.482           226.406
        74   03 Jun 2027 11:58:24.974   03 Jun 2027 11:58:25.189             0.215            48.500
        75   04 Jun 2027 04:05:40.358   04 Jun 2027 04:06:11.488            31.130         15565.000
        76   04 Jun 2027 04:17:23.561   04 Jun 2027 04:18:36.900            73.339         36669.500
        77   04 Jun 2027 05:39:36.302   04 Jun 2027 05:40:46.994            70.692         35346.000
        78   04 Jun 2027 05:41:37.043   04 Jun 2027 05:42:03.513            26.470         13235.000
        79   04 Jun 2027 05:43:51.846   04 Jun 2027 05:43:59.073             7.227          3613.500
        80   04 Jun 2027 07:14:40.242   04 Jun 2027 07:16:23.693           103.451         51725.500
        81   04 Jun 2027 07:16:43.521   04 Jun 2027 07:17:00.405            16.884          7377.718
        82   04 Jun 2027 07:17:18.770   04 Jun 2027 07:17:23.460             4.690           511.969
        83   04 Jun 2027 07:17:54.710   04 Jun 2027 07:17:55.981             1.271           417.844
        84   04 Jun 2027 07:18:36.103   04 Jun 2027 07:18:37.928             1.825           805.031
        85   04 Jun 2027 07:20:06.917   04 Jun 2027 07:20:16.357             9.440          2780.906
        86   04 Jun 2027 07:21:26.723   04 Jun 2027 07:21:31.839             5.116          1978.562
        87   04 Jun 2027 08:52:02.661   04 Jun 2027 08:52:09.894             7.233          2830.781
        88   04 Jun 2027 08:54:03.729   04 Jun 2027 08:54:12.564             8.835          2293.500
        89   04 Jun 2027 08:54:57.439   04 Jun 2027 08:54:58.201             0.762           135.844
        90   04 Jun 2027 08:55:39.570   04 Jun 2027 08:55:39.570             0.000             0.000
        91   04 Jun 2027 08:56:09.576   04 Jun 2027 08:56:17.890             8.314          1410.719
        92   04 Jun 2027 08:56:20.888   04 Jun 2027 08:56:25.777             4.889            22.469
        93   04 Jun 2027 08:56:33.388   04 Jun 2027 08:56:35.678             2.290           237.844
        94   04 Jun 2027 08:57:08.582   04 Jun 2027 08:57:11.116             2.534           894.344
        95   04 Jun 2027 08:58:23.458   04 Jun 2027 08:58:29.384             5.926          1565.938
        96   04 Jun 2027 08:58:37.050   04 Jun 2027 08:58:38.674             1.624           239.562
        97   04 Jun 2027 08:59:20.866   04 Jun 2027 08:59:22.010             1.144           572.000
        98   04 Jun 2027 10:28:51.040   04 Jun 2027 10:29:03.543            12.503          5602.313
        99   04 Jun 2027 10:32:32.404   04 Jun 2027 10:32:40.737             8.333          1856.500
       100   04 Jun 2027 10:32:59.843   04 Jun 2027 10:33:01.062             1.219           597.062
       101   04 Jun 2027 10:33:06.787   04 Jun 2027 10:33:08.432             1.645           142.781
       102   04 Jun 2027 10:33:38.507   04 Jun 2027 10:33:42.519             4.012           933.969
       103   04 Jun 2027 10:34:12.283   04 Jun 2027 10:34:18.100             5.817           166.000
       104   04 Jun 2027 10:34:53.073   04 Jun 2027 10:34:56.082             3.009           573.312
       105   04 Jun 2027 10:35:00.005   04 Jun 2027 10:35:00.498             0.493           122.594
       106   05 Jun 2027 04:17:10.983   05 Jun 2027 04:17:56.206            45.223         22611.500
       107   05 Jun 2027 04:29:24.318   05 Jun 2027 04:29:56.144            31.826         15913.000
       108   05 Jun 2027 05:51:20.296   05 Jun 2027 05:52:34.440            74.144         37072.000
       109   05 Jun 2027 05:53:23.066   05 Jun 2027 05:53:58.807            35.741         17870.500
       110   05 Jun 2027 05:54:06.688   05 Jun 2027 05:54:07.852             1.164           582.000
       111   05 Jun 2027 05:55:22.860   05 Jun 2027 05:55:30.755             7.895          3947.500
       112   05 Jun 2027 05:55:51.887   05 Jun 2027 05:55:54.374             2.487          1243.500
       113   05 Jun 2027 07:26:08.466   05 Jun 2027 07:28:00.618           112.152         55694.594
       114   05 Jun 2027 07:28:14.912   05 Jun 2027 07:28:18.888             3.976           335.312
       115   05 Jun 2027 07:29:27.165   05 Jun 2027 07:29:32.801             5.636          1565.344
       116   05 Jun 2027 07:29:56.920   05 Jun 2027 07:30:00.176             3.256           495.250
       117   05 Jun 2027 07:30:38.390   05 Jun 2027 07:30:38.390             0.000             0.000
       118   05 Jun 2027 07:31:49.456   05 Jun 2027 07:32:00.869            11.413          3021.938
       119   05 Jun 2027 07:32:49.067   05 Jun 2027 07:32:53.732             4.665          1219.375
       120   05 Jun 2027 07:33:13.549   05 Jun 2027 07:33:15.249             1.700           387.812
       121   05 Jun 2027 07:33:52.076   05 Jun 2027 07:33:54.592             2.516          1150.844
       122   05 Jun 2027 07:34:30.026   05 Jun 2027 07:34:33.236             3.210           993.156
       123   05 Jun 2027 07:35:01.955   05 Jun 2027 07:35:02.924             0.969            15.719
       124   05 Jun 2027 09:03:57.630   05 Jun 2027 09:04:09.619            11.989          4643.375
       125   05 Jun 2027 09:04:55.077   05 Jun 2027 09:04:58.511             3.434          1101.687
       126   05 Jun 2027 09:06:48.254   05 Jun 2027 09:06:51.464             3.210          1418.656
       127   05 Jun 2027 09:08:10.926   05 Jun 2027 09:08:13.716             2.790           111.625
       128   05 Jun 2027 09:08:14.499   05 Jun 2027 09:08:15.700             1.201            24.469
       129   05 Jun 2027 09:10:00.806   05 Jun 2027 09:10:03.149             2.343           870.281
       130   05 Jun 2027 09:10:42.500   05 Jun 2027 09:10:47.031             4.531           130.688
       131   05 Jun 2027 09:11:03.954   05 Jun 2027 09:11:05.047             1.093           159.313
       132   05 Jun 2027 10:40:42.034   05 Jun 2027 10:40:54.486            12.452          5353.812
       133   05 Jun 2027 10:41:12.051   05 Jun 2027 10:41:14.685             2.634           281.281
       134   05 Jun 2027 10:42:22.584   05 Jun 2027 10:42:25.687             3.103           911.344
       135   05 Jun 2027 10:43:28.467   05 Jun 2027 10:43:33.704             5.237          1450.844
       136   05 Jun 2027 10:44:13.922   05 Jun 2027 10:44:23.186             9.264          1043.063
       137   05 Jun 2027 10:44:55.519   05 Jun 2027 10:44:55.577             0.058             5.625
       138   05 Jun 2027 10:45:13.651   05 Jun 2027 10:45:15.315             1.664           523.219
       139   05 Jun 2027 10:46:36.765   05 Jun 2027 10:46:37.961             1.196           598.000
       140   05 Jun 2027 10:46:43.538   05 Jun 2027 10:46:50.287             6.749          1947.313
       141   05 Jun 2027 10:47:17.689   05 Jun 2027 10:47:25.646             7.957           744.781
       142   06 Jun 2027 03:05:08.033   06 Jun 2027 03:05:49.625            41.592         20796.000
       143   06 Jun 2027 03:06:25.124   06 Jun 2027 03:06:41.628            16.504          8252.000
       144   06 Jun 2027 03:07:59.868   06 Jun 2027 03:08:16.814            16.946          8473.000
       145   06 Jun 2027 03:08:38.326   06 Jun 2027 03:08:43.780             5.454          2727.000
       146   06 Jun 2027 03:08:48.477   06 Jun 2027 03:08:48.477             0.000             0.000
       147   06 Jun 2027 03:08:51.894   06 Jun 2027 03:08:56.656             4.762          2381.000
       148   06 Jun 2027 03:09:08.632   06 Jun 2027 03:09:42.947            34.315         17157.500
       149   06 Jun 2027 04:29:09.712   06 Jun 2027 04:29:54.456            44.744         22372.000
       150   06 Jun 2027 04:29:58.979   06 Jun 2027 04:30:04.130             5.151          2575.500
       151   06 Jun 2027 06:05:06.404   06 Jun 2027 06:07:49.556           163.152         79416.906
       152   06 Jun 2027 07:38:57.190   06 Jun 2027 07:39:11.820            14.630          5423.937
       153   06 Jun 2027 07:41:37.795   06 Jun 2027 07:41:41.979             4.184          1122.062
       154   06 Jun 2027 07:42:14.929   06 Jun 2027 07:42:17.036             2.107           573.625
       155   06 Jun 2027 07:43:03.815   06 Jun 2027 07:43:06.210             2.395          1104.219
       156   06 Jun 2027 07:44:13.070   06 Jun 2027 07:44:18.853             5.783           754.937
       157   06 Jun 2027 07:44:54.889   06 Jun 2027 07:45:03.009             8.120           810.375
       158   06 Jun 2027 07:45:35.303   06 Jun 2027 07:45:45.971            10.668           984.312
       159   06 Jun 2027 07:45:55.954   06 Jun 2027 07:45:55.954             0.000             0.000
       160   06 Jun 2027 07:45:59.677   06 Jun 2027 07:46:04.484             4.807           130.625
       161   06 Jun 2027 07:46:43.702   06 Jun 2027 07:46:47.552             3.850          1170.375
       162   06 Jun 2027 09:16:04.169   06 Jun 2027 09:16:20.071            15.902          6354.500
       163   06 Jun 2027 09:18:45.044   06 Jun 2027 09:18:46.114             1.070            32.906
       164   06 Jun 2027 09:21:17.550   06 Jun 2027 09:21:17.849             0.299            57.750
       165   06 Jun 2027 09:21:45.641   06 Jun 2027 09:21:53.524             7.883           441.438
       166   06 Jun 2027 09:22:58.305   06 Jun 2027 09:23:00.794             2.489          1004.688
       167   06 Jun 2027 09:23:07.236   06 Jun 2027 09:23:09.328             2.092           201.313
       168   06 Jun 2027 09:23:20.440   06 Jun 2027 09:23:23.047             2.607           300.938
       169   06 Jun 2027 10:53:07.054   06 Jun 2027 10:53:21.303            14.249          6438.625
       170   06 Jun 2027 10:53:32.029   06 Jun 2027 10:53:40.909             8.880           335.187
       171   06 Jun 2027 10:55:48.050   06 Jun 2027 10:55:52.362             4.312            28.625
       172   06 Jun 2027 10:57:03.739   06 Jun 2027 10:57:07.078             3.339           569.281
       173   06 Jun 2027 10:57:34.050   06 Jun 2027 10:57:37.903             3.853           827.812
       174   06 Jun 2027 10:57:49.872   06 Jun 2027 10:57:50.878             1.006           374.031
       175   06 Jun 2027 10:58:38.795   06 Jun 2027 10:58:41.989             3.194          1049.875
       176   07 Jun 2027 03:17:42.697   07 Jun 2027 03:20:33.272           170.575         85287.500
       177   07 Jun 2027 03:20:39.228   07 Jun 2027 03:21:09.505            30.277         15138.500
       178   07 Jun 2027 04:41:04.027   07 Jun 2027 04:41:11.017             6.990          3495.000
       179   07 Jun 2027 04:41:15.671   07 Jun 2027 04:41:41.387            25.716         12858.000
       180   07 Jun 2027 06:17:28.261   07 Jun 2027 06:19:09.886           101.625         50552.438
       181   07 Jun 2027 06:19:46.539   07 Jun 2027 06:19:48.093             1.554           777.000
       182   07 Jun 2027 06:19:58.961   07 Jun 2027 06:19:59.337             0.376           188.000
       183   07 Jun 2027 06:20:08.260   07 Jun 2027 06:20:09.994             1.734           478.219
       184   07 Jun 2027 07:51:09.912   07 Jun 2027 07:51:19.037             9.125          2662.562
       185   07 Jun 2027 07:53:20.209   07 Jun 2027 07:53:21.970             1.761           510.344
       186   07 Jun 2027 07:53:27.364   07 Jun 2027 07:53:29.792             2.428           144.406
       187   07 Jun 2027 07:55:07.560   07 Jun 2027 07:55:11.529             3.969          1727.500
       188   07 Jun 2027 07:55:47.668   07 Jun 2027 07:55:50.395             2.727          1129.344
       189   07 Jun 2027 07:56:15.955   07 Jun 2027 07:56:17.119             1.164           161.719
       190   07 Jun 2027 07:57:45.873   07 Jun 2027 07:57:53.806             7.933          2179.219
       191   07 Jun 2027 07:58:25.532   07 Jun 2027 07:58:28.423             2.891           970.344
       192   07 Jun 2027 07:58:50.949   07 Jun 2027 07:58:54.374             3.425           215.719
       193   07 Jun 2027 07:59:24.518   07 Jun 2027 07:59:26.265             1.747             5.656
       194   07 Jun 2027 09:28:30.508   07 Jun 2027 09:28:45.658            15.150          5812.344
       195   07 Jun 2027 09:32:05.457   07 Jun 2027 09:32:07.361             1.904           197.781
       196   07 Jun 2027 09:33:28.874   07 Jun 2027 09:33:31.414             2.540           883.844
       197   07 Jun 2027 09:34:06.404   07 Jun 2027 09:34:15.905             9.501          1049.281
       198   07 Jun 2027 09:34:40.801   07 Jun 2027 09:34:41.554             0.753           131.906
       199   07 Jun 2027 11:05:27.371   07 Jun 2027 11:05:46.877            19.506          6878.562
       200   07 Jun 2027 11:08:38.631   07 Jun 2027 11:08:40.391             1.760           102.000
       201   07 Jun 2027 11:09:03.091   07 Jun 2027 11:09:04.469             1.378            69.938
       202   07 Jun 2027 11:09:34.915   07 Jun 2027 11:09:41.096             6.181           764.438
       203   07 Jun 2027 11:10:09.076   07 Jun 2027 11:10:11.001             1.925           835.156
       204   07 Jun 2027 11:10:46.051   07 Jun 2027 11:10:47.750             1.699           272.094
       205   08 Jun 2027 03:29:20.467   08 Jun 2027 03:33:15.736           235.269        117634.500
       206   08 Jun 2027 04:53:03.756   08 Jun 2027 04:53:17.090            13.334          6667.000
       207   08 Jun 2027 04:53:23.267   08 Jun 2027 04:54:04.232            40.965         20482.500
       208   08 Jun 2027 06:29:30.856   08 Jun 2027 06:30:14.087            43.231         21167.251
       209   08 Jun 2027 06:30:26.447   08 Jun 2027 06:30:29.790             3.343           171.406
       210   08 Jun 2027 06:31:31.434   08 Jun 2027 06:31:35.193             3.759          1575.219
       211   08 Jun 2027 06:32:13.253   08 Jun 2027 06:32:16.340             3.087          1103.719
       212   08 Jun 2027 08:04:30.425   08 Jun 2027 08:04:42.234            11.809          2480.562
       213   08 Jun 2027 08:05:41.173   08 Jun 2027 08:05:42.607             1.434           688.031
       214   08 Jun 2027 08:06:18.439   08 Jun 2027 08:06:24.592             6.153          1119.750
       215   08 Jun 2027 08:07:45.589   08 Jun 2027 08:07:49.789             4.200          1578.813
       216   08 Jun 2027 08:08:18.665   08 Jun 2027 08:08:21.409             2.744           751.781
       217   08 Jun 2027 08:09:32.139   08 Jun 2027 08:09:38.977             6.838          1986.344
       218   08 Jun 2027 08:09:47.300   08 Jun 2027 08:09:47.747             0.447           183.906
       219   08 Jun 2027 08:10:04.502   08 Jun 2027 08:10:08.137             3.635           448.875
       220   08 Jun 2027 08:11:16.672   08 Jun 2027 08:11:22.954             6.282          1619.625
       221   08 Jun 2027 09:40:38.083   08 Jun 2027 09:40:52.148            14.065          5881.750
       222   08 Jun 2027 09:44:50.574   08 Jun 2027 09:44:57.057             6.483          1672.000
       223   08 Jun 2027 09:45:36.245   08 Jun 2027 09:45:38.889             2.644          1115.844
       224   08 Jun 2027 09:46:29.324   08 Jun 2027 09:46:32.610             3.286          1575.250
       225   08 Jun 2027 09:47:11.823   08 Jun 2027 09:47:14.097             2.274           818.937
       226   08 Jun 2027 09:47:17.108   08 Jun 2027 09:47:17.802             0.694            50.031
       227   08 Jun 2027 11:18:22.192   08 Jun 2027 11:18:34.989            12.797          5723.562
       228   08 Jun 2027 11:19:14.964   08 Jun 2027 11:19:23.755             8.791          1119.031
       229   08 Jun 2027 11:20:19.175   08 Jun 2027 11:20:20.839             1.664            66.031
       230   08 Jun 2027 11:21:03.091   08 Jun 2027 11:21:05.109             2.018           853.531
       231   08 Jun 2027 11:21:12.119   08 Jun 2027 11:21:13.346             1.227           112.906
       232   08 Jun 2027 11:21:41.873   08 Jun 2027 11:21:43.899             2.026           462.844
       233   08 Jun 2027 11:22:23.745   08 Jun 2027 11:22:26.119             2.374          1058.594
       234   09 Jun 2027 03:41:43.314   09 Jun 2027 03:42:14.221            30.907         15453.500
       235   09 Jun 2027 03:42:32.773   09 Jun 2027 03:43:11.045            38.272         19136.000
       236   09 Jun 2027 03:43:44.423   09 Jun 2027 03:45:35.296           110.873         55436.500
       237   09 Jun 2027 05:05:05.817   09 Jun 2027 05:05:38.211            32.394         16197.000
       238   09 Jun 2027 06:41:37.632   09 Jun 2027 06:43:29.804           112.172         52691.906
       239   09 Jun 2027 06:44:44.549   09 Jun 2027 06:44:51.063             6.514          2301.219
       240   09 Jun 2027 08:16:47.891   09 Jun 2027 08:16:56.200             8.309          3389.500
       241   09 Jun 2027 08:17:08.256   09 Jun 2027 08:17:08.297             0.041             3.469
       242   09 Jun 2027 08:18:19.669   09 Jun 2027 08:18:21.939             2.270           425.531
       243   09 Jun 2027 08:19:06.065   09 Jun 2027 08:19:20.929            14.864          1288.469
       244   09 Jun 2027 08:19:42.500   09 Jun 2027 08:19:43.536             1.036            62.469
       245   09 Jun 2027 08:20:21.176   09 Jun 2027 08:20:22.677             1.501           493.563
       246   09 Jun 2027 08:20:47.597   09 Jun 2027 08:20:50.195             2.598            77.750
       247   09 Jun 2027 08:22:01.428   09 Jun 2027 08:22:08.837             7.409          2226.031
       248   09 Jun 2027 08:22:27.708   09 Jun 2027 08:22:29.380             1.672           589.719
       249   09 Jun 2027 08:23:23.156   09 Jun 2027 08:23:24.343             1.187           593.500
       250   09 Jun 2027 09:53:11.656   09 Jun 2027 09:53:23.300            11.644          5368.500
       251   09 Jun 2027 09:55:55.034   09 Jun 2027 09:55:57.822             2.788             6.813
       252   09 Jun 2027 09:56:14.228   09 Jun 2027 09:56:17.789             3.561           313.531
       253   09 Jun 2027 09:57:13.252   09 Jun 2027 09:57:19.103             5.851          1645.687
       254   09 Jun 2027 09:57:44.168   09 Jun 2027 09:57:47.403             3.235           783.281
       255   09 Jun 2027 09:58:23.142   09 Jun 2027 09:58:24.856             1.714            26.937
       256   09 Jun 2027 09:58:50.645   09 Jun 2027 09:58:51.303             0.658           249.719
       257   09 Jun 2027 09:59:13.936   09 Jun 2027 09:59:17.303             3.367           635.563
       258   09 Jun 2027 11:30:28.237   09 Jun 2027 11:30:46.442            18.205          5565.344
       259   09 Jun 2027 11:32:11.271   09 Jun 2027 11:32:14.693             3.422           634.406
       260   09 Jun 2027 11:33:34.975   09 Jun 2027 11:33:39.247             4.272          1897.438
       261   09 Jun 2027 11:34:16.375   09 Jun 2027 11:34:32.761            16.386          1130.844
       262   09 Jun 2027 11:34:42.938   09 Jun 2027 11:34:44.605             1.667           224.312
       263   09 Jun 2027 11:34:59.397   09 Jun 2027 11:35:04.518             5.121           462.250
       264   10 Jun 2027 03:53:40.060   10 Jun 2027 03:54:19.065            39.005         19502.500
       265   10 Jun 2027 03:54:42.344   10 Jun 2027 03:57:15.536           153.192         76596.000
       266   10 Jun 2027 05:17:35.668   10 Jun 2027 05:17:44.669             9.001          4500.500
       267   10 Jun 2027 05:18:44.585   10 Jun 2027 05:18:58.153            13.568          6784.000
       268   10 Jun 2027 05:19:54.178   10 Jun 2027 05:20:02.470             8.292          4146.000
       269   10 Jun 2027 06:53:30.358   10 Jun 2027 06:54:52.470            82.112         40902.500
       270   10 Jun 2027 06:55:31.244   10 Jun 2027 06:55:31.244             0.000             0.000
       271   10 Jun 2027 06:56:03.902   10 Jun 2027 06:56:08.657             4.755          1983.813
       272   10 Jun 2027 06:56:46.374   10 Jun 2027 06:56:54.095             7.721          1126.750
       273   10 Jun 2027 08:28:26.454   10 Jun 2027 08:28:33.496             7.042          2862.281
       274   10 Jun 2027 08:29:05.762   10 Jun 2027 08:29:08.468             2.706           394.531
       275   10 Jun 2027 08:30:33.445   10 Jun 2027 08:30:36.274             2.829           405.062
       276   10 Jun 2027 08:31:20.008   10 Jun 2027 08:31:20.508             0.500            95.594
       277   10 Jun 2027 08:31:38.164   10 Jun 2027 08:31:41.476             3.312           301.719
       278   10 Jun 2027 08:32:48.490   10 Jun 2027 08:32:53.549             5.059          1309.781
       279   10 Jun 2027 08:34:00.914   10 Jun 2027 08:34:08.626             7.712          2105.156
       280   10 Jun 2027 08:34:58.569   10 Jun 2027 08:35:03.887             5.318          1560.719
       281   10 Jun 2027 08:35:30.007   10 Jun 2027 08:35:32.459             2.452           166.813
       282   10 Jun 2027 10:04:45.622   10 Jun 2027 10:04:58.210            12.588          5079.469
       283   10 Jun 2027 10:07:20.327   10 Jun 2027 10:07:23.578             3.251           265.000
       284   10 Jun 2027 10:07:33.649   10 Jun 2027 10:07:37.751             4.102            60.562
       285   10 Jun 2027 10:07:57.273   10 Jun 2027 10:08:00.871             3.598           505.094
       286   10 Jun 2027 10:08:30.539   10 Jun 2027 10:08:34.459             3.920           927.125
       287   10 Jun 2027 10:09:10.439   10 Jun 2027 10:09:17.420             6.981           622.094
       288   10 Jun 2027 10:09:39.073   10 Jun 2027 10:09:48.015             8.942           534.312
       289   10 Jun 2027 10:10:04.252   10 Jun 2027 10:10:06.525             2.273           507.406
       290   10 Jun 2027 10:11:00.747   10 Jun 2027 10:11:09.320             8.573          1388.656
       291   10 Jun 2027 11:43:01.118   10 Jun 2027 11:43:14.615            13.497          6296.875
       292   10 Jun 2027 11:43:49.522   10 Jun 2027 11:43:55.376             5.854           538.094
       293   10 Jun 2027 11:45:21.623   10 Jun 2027 11:45:24.097             2.474           253.063
       294   10 Jun 2027 11:45:52.798   10 Jun 2027 11:45:54.159             1.361           340.875
       295   10 Jun 2027 11:46:46.322   10 Jun 2027 11:46:49.428             3.106          1518.219
       296   11 Jun 2027 03:54:23.096   11 Jun 2027 03:54:31.562             8.466          4233.000
       297   11 Jun 2027 04:05:36.418   11 Jun 2027 04:07:17.331           100.913         50456.500
       298   11 Jun 2027 04:07:44.582   11 Jun 2027 04:08:35.054            50.472         25236.000
       299   11 Jun 2027 05:28:12.862   11 Jun 2027 05:29:23.714            70.852         35426.000
       300   11 Jun 2027 07:03:48.457   11 Jun 2027 07:04:28.868            40.411         20205.500
       301   11 Jun 2027 07:05:14.766   11 Jun 2027 07:06:22.663            67.897         33742.001
       302   11 Jun 2027 07:06:56.268   11 Jun 2027 07:07:00.291             4.023           983.312
       303   11 Jun 2027 07:08:04.861   11 Jun 2027 07:08:07.532             2.671          1335.500
       304   11 Jun 2027 07:08:48.135   11 Jun 2027 07:08:52.093             3.958          1506.219
       305   11 Jun 2027 07:09:36.598   11 Jun 2027 07:09:39.085             2.487          1210.406
       306   11 Jun 2027 08:39:59.746   11 Jun 2027 08:40:07.190             7.444          1745.875
       307   11 Jun 2027 08:41:05.670   11 Jun 2027 08:41:09.065             3.395          1018.625
       308   11 Jun 2027 08:43:29.893   11 Jun 2027 08:43:31.814             1.921           680.813
       309   11 Jun 2027 08:44:22.123   11 Jun 2027 08:44:25.452             3.329          1558.125
       310   11 Jun 2027 08:44:59.494   11 Jun 2027 08:45:08.576             9.082          1063.813
       311   11 Jun 2027 08:45:24.444   11 Jun 2027 08:45:25.315             0.871           289.531
       312   11 Jun 2027 08:46:01.267   11 Jun 2027 08:46:03.793             2.526           452.063
       313   11 Jun 2027 08:46:32.011   11 Jun 2027 08:46:39.268             7.257           877.531
       314   11 Jun 2027 08:47:07.204   11 Jun 2027 08:47:08.795             1.591           738.531
       315   11 Jun 2027 10:17:05.556   11 Jun 2027 10:17:22.216            16.660          7542.344
       316   11 Jun 2027 10:19:10.998   11 Jun 2027 10:19:12.580             1.582             4.563
       317   11 Jun 2027 10:19:46.643   11 Jun 2027 10:19:48.980             2.337           127.219
       318   11 Jun 2027 10:20:36.210   11 Jun 2027 10:20:41.017             4.807          1053.938
       319   11 Jun 2027 10:21:00.966   11 Jun 2027 10:21:07.984             7.018           523.594
       320   11 Jun 2027 10:21:08.393   11 Jun 2027 10:21:14.521             6.128            12.781
       321   11 Jun 2027 10:21:27.257   11 Jun 2027 10:21:29.202             1.945           394.188
       322   11 Jun 2027 10:22:42.927   11 Jun 2027 10:22:48.215             5.288          2076.500
       323   11 Jun 2027 10:23:15.477   11 Jun 2027 10:23:17.031             1.554           259.062
       324   11 Jun 2027 11:55:03.845   11 Jun 2027 11:55:21.194            17.349          7398.563
       325   11 Jun 2027 11:57:13.115   11 Jun 2027 11:57:17.811             4.696          2137.656
       326   11 Jun 2027 11:57:41.904   11 Jun 2027 11:57:45.593             3.689           542.156
       327   11 Jun 2027 11:58:32.552   11 Jun 2027 11:58:33.242             0.690           277.062
       328   11 Jun 2027 11:58:41.300   11 Jun 2027 11:58:42.379             1.079            49.000
       329   12 Jun 2027 04:05:55.754   12 Jun 2027 04:06:26.048            30.294         15147.000
       330   12 Jun 2027 04:17:39.367   12 Jun 2027 04:18:49.179            69.812         34906.000
       331   12 Jun 2027 05:39:52.410   12 Jun 2027 05:41:02.119            69.709         34854.500
       332   12 Jun 2027 05:41:52.503   12 Jun 2027 05:42:24.491            31.988         15994.000
       333   12 Jun 2027 05:43:55.922   12 Jun 2027 05:44:07.957            12.035          6017.500
       334   12 Jun 2027 07:14:54.888   12 Jun 2027 07:16:38.930           104.042         52021.000
       335   12 Jun 2027 07:16:59.077   12 Jun 2027 07:17:09.864            10.787          5227.438
       336   12 Jun 2027 07:18:45.246   12 Jun 2027 07:18:50.381             5.135          2138.500
       337   12 Jun 2027 07:18:54.462   12 Jun 2027 07:18:55.663             1.201           127.531
       338   12 Jun 2027 07:20:41.377   12 Jun 2027 07:20:47.393             6.016          2541.594
       339   12 Jun 2027 07:21:44.849   12 Jun 2027 07:21:49.942             5.093          1720.875
       340   12 Jun 2027 07:22:51.107   12 Jun 2027 07:22:53.679             2.572          1040.906
       341   12 Jun 2027 08:52:19.276   12 Jun 2027 08:52:24.610             5.334          2333.469
       342   12 Jun 2027 08:53:08.067   12 Jun 2027 08:53:10.734             2.667          1017.281
       343   12 Jun 2027 08:56:27.136   12 Jun 2027 08:56:34.317             7.181           926.563
       344   12 Jun 2027 08:56:36.279   12 Jun 2027 08:56:37.495             1.216            14.906
       345   12 Jun 2027 08:56:49.789   12 Jun 2027 08:56:52.190             2.401           286.125
       346   12 Jun 2027 08:57:18.169   12 Jun 2027 08:57:23.741             5.572           767.500
       347   12 Jun 2027 08:57:48.543   12 Jun 2027 08:57:50.384             1.841           711.156
       348   12 Jun 2027 08:57:58.251   12 Jun 2027 08:58:00.336             2.085            20.219
       349   12 Jun 2027 08:58:35.157   12 Jun 2027 08:58:38.955             3.798           646.094
       350   12 Jun 2027 08:58:56.938   12 Jun 2027 08:59:00.408             3.470           457.625
       351   12 Jun 2027 08:59:37.605   12 Jun 2027 08:59:38.022             0.417            70.281
       352   12 Jun 2027 10:29:07.105   12 Jun 2027 10:29:19.332            12.227          5854.844
       353   12 Jun 2027 10:32:47.155   12 Jun 2027 10:32:57.237            10.082          1751.313
       354   12 Jun 2027 10:33:16.261   12 Jun 2027 10:33:17.592             1.331           502.438
       355   12 Jun 2027 10:33:31.856   12 Jun 2027 10:33:34.433             2.577           323.844
       356   12 Jun 2027 10:34:57.346   12 Jun 2027 10:35:05.093             7.747          1998.938
       357   12 Jun 2027 10:35:13.012   12 Jun 2027 10:35:13.669             0.657           247.469
       358   13 Jun 2027 03:00:00.000   13 Jun 2027 03:00:10.902            10.902          5451.000
       359   13 Jun 2027 04:17:27.213   13 Jun 2027 04:17:57.403            30.190         15095.000
       360   13 Jun 2027 04:19:14.894   13 Jun 2027 04:19:28.885            13.991          6995.500
       361   13 Jun 2027 04:29:40.132   13 Jun 2027 04:30:11.847            31.715         15857.500
       362   13 Jun 2027 05:51:35.213   13 Jun 2027 05:52:49.114            73.901         36950.500
       363   13 Jun 2027 05:53:38.201   13 Jun 2027 05:54:14.285            36.084         18042.000
       364   13 Jun 2027 05:56:09.974   13 Jun 2027 05:56:09.974             0.000             0.000
       365   13 Jun 2027 05:56:47.444   13 Jun 2027 05:56:54.674             7.230          3615.000
       366   13 Jun 2027 07:26:23.490   13 Jun 2027 07:28:23.027           119.537         58965.688
       367   13 Jun 2027 07:28:32.913   13 Jun 2027 07:28:33.620             0.707           308.937
       368   13 Jun 2027 07:29:45.388   13 Jun 2027 07:29:49.118             3.730          1688.937
       369   13 Jun 2027 07:29:57.478   13 Jun 2027 07:29:59.246             1.768           129.000
       370   13 Jun 2027 07:30:29.788   13 Jun 2027 07:30:31.688             1.900           595.062
       371   13 Jun 2027 07:31:57.941   13 Jun 2027 07:32:04.092             6.151          2263.375
       372   13 Jun 2027 07:32:27.751   13 Jun 2027 07:32:30.915             3.164           698.031
       373   13 Jun 2027 07:33:05.788   13 Jun 2027 07:33:08.316             2.528           453.250
       374   13 Jun 2027 07:33:30.555   13 Jun 2027 07:33:31.462             0.907           400.094
       375   13 Jun 2027 07:34:10.328   13 Jun 2027 07:34:14.918             4.590          1214.563
       376   13 Jun 2027 07:34:46.712   13 Jun 2027 07:34:49.311             2.599           993.562
       377   13 Jun 2027 09:04:13.314   13 Jun 2027 09:04:22.062             8.748          4045.313
       378   13 Jun 2027 09:06:19.629   13 Jun 2027 09:06:24.168             4.539          2081.563
       379   13 Jun 2027 09:07:48.085   13 Jun 2027 09:07:52.726             4.641          2090.313
       380   13 Jun 2027 09:08:28.451   13 Jun 2027 09:08:28.806             0.355            92.500
       381   13 Jun 2027 09:08:30.009   13 Jun 2027 09:08:30.996             0.987            37.594
       382   13 Jun 2027 09:10:17.349   13 Jun 2027 09:10:21.202             3.853           913.156
       383   13 Jun 2027 09:11:00.963   13 Jun 2027 09:11:01.924             0.961           310.969
       384   13 Jun 2027 09:11:18.364   13 Jun 2027 09:11:19.288             0.924           127.781
       385   13 Jun 2027 09:11:33.332   13 Jun 2027 09:11:34.936             1.604           438.875
       386   13 Jun 2027 10:40:57.792   13 Jun 2027 10:41:09.107            11.315          5198.344
       387   13 Jun 2027 10:41:28.649   13 Jun 2027 10:41:29.950             1.301           324.625
       388   13 Jun 2027 10:42:39.196   13 Jun 2027 10:42:41.352             2.156           895.250
       389   13 Jun 2027 10:43:58.573   13 Jun 2027 10:44:00.308             1.735           445.187
       390   13 Jun 2027 10:44:22.366   13 Jun 2027 10:44:25.076             2.710           371.812
       391   13 Jun 2027 10:45:11.821   13 Jun 2027 10:45:17.224             5.403          1353.313
       392   13 Jun 2027 10:45:50.617   13 Jun 2027 10:45:55.045             4.428           834.000
       393   13 Jun 2027 10:46:30.220   13 Jun 2027 10:46:32.275             2.055          1027.000
       394   13 Jun 2027 10:47:10.799   13 Jun 2027 10:47:13.979             3.180           579.500
       395   13 Jun 2027 10:47:18.290   13 Jun 2027 10:47:19.299             1.009           132.344
