uniorb/output/strategy_4/Camera/Camera_KinoSat_111606.txt

KinoSat_111606
-------------------------
    Access    *     Start Time (UTCG)     *     Stop Time (UTCG)  *   Duration (s) *   Data (Mbytes)
         1   01 Jun 2027 03:04:16.053   01 Jun 2027 03:04:39.945            23.892         11946.000
         2   01 Jun 2027 03:04:43.060   01 Jun 2027 03:05:17.472            34.412         17206.000
         3   01 Jun 2027 03:05:27.290   01 Jun 2027 03:05:38.131            10.841          5420.500
         4   01 Jun 2027 03:05:50.583   01 Jun 2027 03:05:58.373             7.790          3895.000
         5   01 Jun 2027 03:07:33.994   01 Jun 2027 03:07:46.605            12.611          6305.500
         6   01 Jun 2027 03:09:22.119   01 Jun 2027 03:09:22.474             0.355           177.500
         7   01 Jun 2027 03:09:35.336   01 Jun 2027 03:09:35.336             0.000             0.000
         8   01 Jun 2027 04:42:38.855   01 Jun 2027 04:44:20.593           101.738         50869.000
         9   01 Jun 2027 04:46:27.377   01 Jun 2027 04:46:53.942            26.565         13282.500
        10   01 Jun 2027 06:06:41.830   01 Jun 2027 06:07:51.896            70.066         35033.000
        11   01 Jun 2027 07:42:39.200   01 Jun 2027 07:45:06.277           147.077         73538.500
        12   01 Jun 2027 09:16:28.778   01 Jun 2027 09:18:25.550           116.772         58386.000
        13   01 Jun 2027 09:24:19.271   01 Jun 2027 09:24:58.844            39.573         19786.500
        14   01 Jun 2027 10:53:32.818   01 Jun 2027 10:54:20.651            47.833         23916.500
        15   01 Jun 2027 10:56:18.785   01 Jun 2027 10:56:18.785             0.000             0.000
        16   01 Jun 2027 10:57:45.829   01 Jun 2027 10:58:26.824            40.995         20497.500
        17   01 Jun 2027 10:58:56.372   01 Jun 2027 10:59:42.900            46.528         23264.000
        18   01 Jun 2027 11:00:22.254   01 Jun 2027 11:00:52.954            30.700         15350.000
        19   02 Jun 2027 03:16:51.041   02 Jun 2027 03:17:38.544            47.503         23751.500
        20   02 Jun 2027 03:17:47.678   02 Jun 2027 03:17:56.508             8.830          4415.000
        21   02 Jun 2027 03:18:05.229   02 Jun 2027 03:18:30.989            25.760         12880.000
        22   02 Jun 2027 03:18:32.197   02 Jun 2027 03:19:25.735            53.538         26769.000
        23   02 Jun 2027 03:19:50.196   02 Jun 2027 03:19:51.679             1.483           741.500
        24   02 Jun 2027 04:55:13.550   02 Jun 2027 04:59:26.630           253.080        126540.000
        25   02 Jun 2027 06:18:36.023   02 Jun 2027 06:19:07.565            31.542         15771.000
        26   02 Jun 2027 06:20:45.299   02 Jun 2027 06:20:53.411             8.112          4056.000
        27   02 Jun 2027 07:54:58.143   02 Jun 2027 07:58:25.172           207.029        103514.500
        28   02 Jun 2027 09:28:27.062   02 Jun 2027 09:29:52.808            85.746         38608.938
        29   02 Jun 2027 09:30:54.204   02 Jun 2027 09:30:55.565             1.361           680.500
        30   02 Jun 2027 09:31:12.177   02 Jun 2027 09:31:15.076             2.899           862.406
        31   02 Jun 2027 09:32:08.098   02 Jun 2027 09:32:08.098             0.000             0.000
        32   02 Jun 2027 09:33:20.753   02 Jun 2027 09:33:25.364             4.611          2305.500
        33   02 Jun 2027 09:34:59.791   02 Jun 2027 09:35:08.799             9.008          4158.312
        34   02 Jun 2027 09:35:28.733   02 Jun 2027 09:35:30.740             2.007           159.500
        35   02 Jun 2027 09:35:48.170   02 Jun 2027 09:35:51.775             3.605           544.688
        36   02 Jun 2027 09:36:56.802   02 Jun 2027 09:36:58.384             1.582           791.000
        37   02 Jun 2027 11:05:59.556   02 Jun 2027 11:06:15.766            16.210          6068.312
        38   02 Jun 2027 11:07:25.257   02 Jun 2027 11:07:29.910             4.653           524.281
        39   02 Jun 2027 11:08:59.356   02 Jun 2027 11:09:02.159             2.803          1385.938
        40   02 Jun 2027 11:09:50.353   02 Jun 2027 11:09:55.135             4.782          1426.500
        41   02 Jun 2027 11:10:53.503   02 Jun 2027 11:10:57.381             3.878           207.344
        42   02 Jun 2027 11:11:55.518   02 Jun 2027 11:12:00.076             4.558          1192.813
        43   02 Jun 2027 11:12:13.640   02 Jun 2027 11:12:21.628             7.988           373.219
        44   03 Jun 2027 03:28:47.468   03 Jun 2027 03:28:53.368             5.900          2950.000
        45   03 Jun 2027 03:29:04.866   03 Jun 2027 03:30:56.425           111.559         55779.500
        46   03 Jun 2027 03:31:47.626   03 Jun 2027 03:32:35.971            48.345         24172.500
        47   03 Jun 2027 03:33:40.046   03 Jun 2027 03:33:51.942            11.896          5948.000
        48   03 Jun 2027 03:34:33.839   03 Jun 2027 03:34:41.050             7.211          3605.500
        49   03 Jun 2027 03:34:52.557   03 Jun 2027 03:35:03.988            11.431          5715.500
        50   03 Jun 2027 05:06:51.591   03 Jun 2027 05:07:41.881            50.290         25145.000
        51   03 Jun 2027 05:08:24.916   03 Jun 2027 05:09:25.486            60.570         27296.999
        52   03 Jun 2027 05:10:13.216   03 Jun 2027 05:10:20.943             7.727          1221.719
        53   03 Jun 2027 05:11:02.494   03 Jun 2027 05:11:05.258             2.764           760.719
        54   03 Jun 2027 06:30:26.830   03 Jun 2027 06:30:35.388             8.558          4256.125
        55   03 Jun 2027 06:30:58.451   03 Jun 2027 06:30:58.451             0.000             0.000
        56   03 Jun 2027 06:31:50.467   03 Jun 2027 06:31:56.302             5.835          2320.531
        57   03 Jun 2027 06:32:32.816   03 Jun 2027 06:32:32.816             0.000             0.000
        58   03 Jun 2027 06:32:40.431   03 Jun 2027 06:32:43.694             3.263          1379.031
        59   03 Jun 2027 08:07:00.366   03 Jun 2027 08:07:06.497             6.131          1990.031
        60   03 Jun 2027 08:07:27.288   03 Jun 2027 08:07:29.378             2.090            20.906
        61   03 Jun 2027 08:07:52.997   03 Jun 2027 08:07:55.464             2.467           467.125
        62   03 Jun 2027 08:08:51.246   03 Jun 2027 08:08:54.667             3.421          1671.094
        63   03 Jun 2027 08:09:33.403   03 Jun 2027 08:09:38.086             4.683          1177.906
        64   03 Jun 2027 09:41:30.725   03 Jun 2027 09:41:37.813             7.088          3180.094
        65   03 Jun 2027 09:42:57.630   03 Jun 2027 09:43:01.590             3.960           296.563
        66   03 Jun 2027 09:43:30.307   03 Jun 2027 09:43:38.040             7.733           506.969
        67   03 Jun 2027 09:44:32.825   03 Jun 2027 09:44:33.983             1.158           534.313
        68   03 Jun 2027 09:45:59.496   03 Jun 2027 09:46:03.418             3.922          1266.812
        69   03 Jun 2027 09:46:43.611   03 Jun 2027 09:46:51.063             7.452           690.969
        70   03 Jun 2027 09:47:05.426   03 Jun 2027 09:47:10.061             4.635           295.531
        71   03 Jun 2027 09:47:57.565   03 Jun 2027 09:48:03.022             5.457          1030.781
        72   03 Jun 2027 09:48:29.413   03 Jun 2027 09:48:32.921             3.508           117.500
        73   03 Jun 2027 09:48:52.216   03 Jun 2027 09:48:52.889             0.673           336.500
        74   03 Jun 2027 11:18:06.830   03 Jun 2027 11:18:17.719            10.889          4222.156
        75   03 Jun 2027 11:21:15.329   03 Jun 2027 11:21:28.211            12.882          1037.719
        76   03 Jun 2027 11:22:43.710   03 Jun 2027 11:22:53.203             9.493          1832.125
        77   03 Jun 2027 11:22:56.879   03 Jun 2027 11:22:58.554             1.675            12.812
        78   03 Jun 2027 11:23:00.093   03 Jun 2027 11:23:04.403             4.310            48.094
        79   03 Jun 2027 11:23:52.206   03 Jun 2027 11:23:52.956             0.750           302.781
        80   03 Jun 2027 11:24:05.274   03 Jun 2027 11:24:06.345             1.071           208.281
        81   03 Jun 2027 11:24:22.754   03 Jun 2027 11:24:24.796             2.042           454.719
        82   03 Jun 2027 11:24:43.771   03 Jun 2027 11:24:45.815             2.044           505.656
        83   04 Jun 2027 03:40:56.230   04 Jun 2027 03:41:55.959            59.729         29864.500
        84   04 Jun 2027 03:42:05.369   04 Jun 2027 03:43:42.981            97.612         48806.000
        85   04 Jun 2027 03:44:18.955   04 Jun 2027 03:44:25.362             6.407          3203.500
        86   04 Jun 2027 03:46:25.145   04 Jun 2027 03:47:15.295            50.150         25075.000
        87   04 Jun 2027 05:19:14.635   04 Jun 2027 05:19:45.386            30.751         15375.500
        88   04 Jun 2027 05:20:06.191   04 Jun 2027 05:21:05.857            59.666         28929.343
        89   04 Jun 2027 05:22:00.018   04 Jun 2027 05:22:01.614             1.596           643.781
        90   04 Jun 2027 05:22:02.615   04 Jun 2027 05:22:06.232             3.617            31.281
        91   04 Jun 2027 06:42:37.623   04 Jun 2027 06:42:45.358             7.735          3719.594
        92   04 Jun 2027 06:43:15.690   04 Jun 2027 06:43:15.694             0.004             2.000
        93   04 Jun 2027 06:43:21.532   04 Jun 2027 06:43:29.806             8.274          1120.062
        94   04 Jun 2027 06:43:33.636   04 Jun 2027 06:43:33.636             0.000             0.000
        95   04 Jun 2027 06:44:02.908   04 Jun 2027 06:44:07.204             4.296           970.250
        96   04 Jun 2027 06:45:15.205   04 Jun 2027 06:45:16.978             1.773           886.500
        97   04 Jun 2027 06:45:28.603   04 Jun 2027 06:45:31.366             2.763          1358.594
        98   04 Jun 2027 08:19:09.315   04 Jun 2027 08:19:16.247             6.932          2209.500
        99   04 Jun 2027 08:19:54.681   04 Jun 2027 08:19:57.379             2.698          1035.656
       100   04 Jun 2027 08:21:04.419   04 Jun 2027 08:21:09.255             4.836          1510.000
       101   04 Jun 2027 08:22:07.940   04 Jun 2027 08:22:07.940             0.000             0.000
       102   04 Jun 2027 09:54:18.560   04 Jun 2027 09:54:25.413             6.853          2844.094
       103   04 Jun 2027 09:55:31.937   04 Jun 2027 09:55:37.554             5.617          1681.500
       104   04 Jun 2027 09:55:39.866   04 Jun 2027 09:55:40.108             0.242            72.250
       105   04 Jun 2027 09:57:16.163   04 Jun 2027 09:57:21.693             5.530          1563.531
       106   04 Jun 2027 09:59:25.035   04 Jun 2027 09:59:33.080             8.045          3356.219
       107   04 Jun 2027 10:00:39.421   04 Jun 2027 10:00:42.964             3.543           908.063
       108   04 Jun 2027 11:30:42.639   04 Jun 2027 11:30:51.170             8.531          4202.187
       109   04 Jun 2027 11:33:17.716   04 Jun 2027 11:33:24.284             6.568           906.375
       110   04 Jun 2027 11:34:18.993   04 Jun 2027 11:34:21.359             2.366           862.563
       111   04 Jun 2027 11:34:29.070   04 Jun 2027 11:34:29.778             0.708            49.812
       112   04 Jun 2027 11:35:05.810   04 Jun 2027 11:35:07.974             2.164           837.563
       113   04 Jun 2027 11:36:05.716   04 Jun 2027 11:36:10.148             4.432          1082.562
       114   04 Jun 2027 11:36:22.139   04 Jun 2027 11:36:24.477             2.338           374.719
       115   04 Jun 2027 11:36:29.760   04 Jun 2027 11:36:39.598             9.838           165.094
       116   05 Jun 2027 03:53:01.521   05 Jun 2027 03:53:10.086             8.565          4282.500
       117   05 Jun 2027 03:54:02.896   05 Jun 2027 03:56:49.812           166.916         83458.000
       118   05 Jun 2027 04:00:49.416   05 Jun 2027 04:00:53.457             4.041          2020.500
       119   05 Jun 2027 05:31:11.532   05 Jun 2027 05:31:50.516            38.984         19492.000
       120   05 Jun 2027 05:32:14.468   05 Jun 2027 05:33:40.767            86.299         41279.532
       121   05 Jun 2027 05:34:45.348   05 Jun 2027 05:34:47.840             2.492          1246.000
       122   05 Jun 2027 06:55:14.312   05 Jun 2027 06:55:33.361            19.049          8771.531
       123   05 Jun 2027 06:55:47.709   05 Jun 2027 06:55:51.909             4.200           416.625
       124   05 Jun 2027 06:57:12.670   05 Jun 2027 06:57:15.602             2.932          1466.000
       125   05 Jun 2027 06:57:34.764   05 Jun 2027 06:57:34.764             0.000             0.000
       126   05 Jun 2027 08:31:02.510   05 Jun 2027 08:31:12.836            10.326          3389.656
       127   05 Jun 2027 08:31:56.200   05 Jun 2027 08:31:59.290             3.090          1307.844
       128   05 Jun 2027 08:32:32.722   05 Jun 2027 08:32:37.052             4.330           230.313
       129   05 Jun 2027 08:33:22.537   05 Jun 2027 08:33:26.463             3.926          1053.312
       130   05 Jun 2027 08:34:16.822   05 Jun 2027 08:34:22.008             5.186          1247.594
       131   05 Jun 2027 10:05:59.741   05 Jun 2027 10:06:07.355             7.614          2682.031
       132   05 Jun 2027 10:07:33.173   05 Jun 2027 10:07:38.551             5.378          2146.719
       133   05 Jun 2027 10:08:29.925   05 Jun 2027 10:08:32.032             2.107           780.094
       134   05 Jun 2027 10:09:03.016   05 Jun 2027 10:09:08.756             5.740           736.187
       135   05 Jun 2027 10:11:24.911   05 Jun 2027 10:11:33.273             8.362          4149.250
       136   05 Jun 2027 10:12:08.363   05 Jun 2027 10:12:11.897             3.534           720.812
       137   05 Jun 2027 10:12:42.153   05 Jun 2027 10:12:47.775             5.622           791.000
       138   05 Jun 2027 11:42:14.968   05 Jun 2027 11:42:28.933            13.965          6395.312
       139   05 Jun 2027 11:44:17.093   05 Jun 2027 11:44:20.689             3.596          1615.031
       140   05 Jun 2027 11:44:45.853   05 Jun 2027 11:44:47.638             1.785           760.063
       141   05 Jun 2027 11:45:03.953   05 Jun 2027 11:45:04.826             0.873           305.438
       142   05 Jun 2027 11:46:21.659   05 Jun 2027 11:46:26.594             4.935          2158.469
       143   05 Jun 2027 11:46:42.753   05 Jun 2027 11:46:45.670             2.917           504.969
       144   05 Jun 2027 11:47:15.244   05 Jun 2027 11:47:19.695             4.451           634.031
       145   05 Jun 2027 11:47:36.620   05 Jun 2027 11:47:38.483             1.863           438.625
       146   05 Jun 2027 11:48:06.871   05 Jun 2027 11:48:12.208             5.337           814.344
       147   05 Jun 2027 11:48:21.934   05 Jun 2027 11:48:23.308             1.374           303.937
       148   06 Jun 2027 04:06:06.711   06 Jun 2027 04:09:21.495           194.784         97392.000
       149   06 Jun 2027 04:12:15.776   06 Jun 2027 04:12:15.776             0.000             0.000
       150   06 Jun 2027 04:12:57.649   06 Jun 2027 04:13:44.398            46.749         23374.500
       151   06 Jun 2027 05:32:00.677   06 Jun 2027 05:32:09.574             8.897          4448.500
       152   06 Jun 2027 05:43:08.039   06 Jun 2027 05:44:49.096           101.057         50528.500
       153   06 Jun 2027 05:45:45.015   06 Jun 2027 05:45:57.015            12.000          4439.218
       154   06 Jun 2027 07:06:05.065   06 Jun 2027 07:06:13.246             8.181          4090.500
       155   06 Jun 2027 07:06:56.361   06 Jun 2027 07:07:05.208             8.847          3530.031
       156   06 Jun 2027 07:07:09.245   06 Jun 2027 07:07:10.828             1.583           126.156
       157   06 Jun 2027 07:07:21.994   06 Jun 2027 07:07:21.994             0.000             0.000
       158   06 Jun 2027 07:07:27.933   06 Jun 2027 07:07:28.638             0.705           347.375
       159   06 Jun 2027 07:08:02.061   06 Jun 2027 07:08:04.004             1.943           792.500
       160   06 Jun 2027 07:09:06.699   06 Jun 2027 07:09:11.270             4.571           942.000
       161   06 Jun 2027 07:09:37.816   06 Jun 2027 07:09:41.042             3.226           698.062
       162   06 Jun 2027 08:41:21.746   06 Jun 2027 08:41:27.244             5.498          2376.938
       163   06 Jun 2027 08:41:50.514   06 Jun 2027 08:41:51.700             1.186           548.156
       164   06 Jun 2027 08:43:04.276   06 Jun 2027 08:43:10.461             6.185          1936.250
       165   06 Jun 2027 08:43:36.125   06 Jun 2027 08:43:40.702             4.577           312.813
       166   06 Jun 2027 08:44:49.939   06 Jun 2027 08:44:56.722             6.783          1638.906
       167   06 Jun 2027 08:45:38.105   06 Jun 2027 08:45:38.251             0.146            73.000
       168   06 Jun 2027 08:45:41.789   06 Jun 2027 08:45:43.677             1.888           271.750
       169   06 Jun 2027 08:46:28.545   06 Jun 2027 08:46:31.505             2.960          1394.094
       170   06 Jun 2027 08:47:00.212   06 Jun 2027 08:47:02.047             1.835           599.875
       171   06 Jun 2027 10:17:32.805   06 Jun 2027 10:17:39.274             6.469          3127.594
       172   06 Jun 2027 10:18:25.795   06 Jun 2027 10:18:30.355             4.560           641.813
       173   06 Jun 2027 10:20:36.793   06 Jun 2027 10:20:42.320             5.527          1963.563
       174   06 Jun 2027 10:21:06.562   06 Jun 2027 10:21:08.460             1.898           333.937
       175   06 Jun 2027 10:23:24.105   06 Jun 2027 10:23:31.191             7.086          3519.344
       176   06 Jun 2027 10:23:58.236   06 Jun 2027 10:24:06.630             8.394           594.594
       177   06 Jun 2027 10:25:04.692   06 Jun 2027 10:25:08.670             3.978          1093.219
       178   06 Jun 2027 11:54:36.134   06 Jun 2027 11:54:51.451            15.317          7231.563
       179   06 Jun 2027 11:55:11.700   06 Jun 2027 11:55:14.237             2.537           366.125
       180   06 Jun 2027 11:55:59.250   06 Jun 2027 11:55:59.616             0.366           138.375
       181   06 Jun 2027 11:57:05.620   06 Jun 2027 11:57:10.553             4.933            66.750
       182   06 Jun 2027 11:57:35.386   06 Jun 2027 11:57:39.778             4.392           483.187
       183   06 Jun 2027 11:58:24.804   06 Jun 2027 11:58:27.274             2.470           436.719
       184   06 Jun 2027 11:58:56.220   06 Jun 2027 11:58:58.725             2.505           821.906
       185   06 Jun 2027 11:59:22.336   06 Jun 2027 11:59:27.277             4.941           737.844
       186   07 Jun 2027 04:18:36.474   07 Jun 2027 04:19:37.540            61.066         30533.000
       187   07 Jun 2027 04:19:57.477   07 Jun 2027 04:20:51.254            53.777         26888.500
       188   07 Jun 2027 04:23:31.559   07 Jun 2027 04:23:33.289             1.730           865.000
       189   07 Jun 2027 04:24:06.727   07 Jun 2027 04:24:21.883            15.156          7578.000
       190   07 Jun 2027 04:24:35.520   07 Jun 2027 04:24:41.765             6.245          3122.500
       191   07 Jun 2027 04:24:44.918   07 Jun 2027 04:24:45.904             0.986           493.000
       192   07 Jun 2027 05:43:28.197   07 Jun 2027 05:43:34.057             5.860          2930.000
       193   07 Jun 2027 05:44:35.053   07 Jun 2027 05:44:58.615            23.562         11781.000
       194   07 Jun 2027 05:55:10.918   07 Jun 2027 05:56:23.874            72.956         36478.000
       195   07 Jun 2027 07:17:23.868   07 Jun 2027 07:18:35.568            71.700         35850.000
       196   07 Jun 2027 07:19:24.994   07 Jun 2027 07:19:38.781            13.787          5824.500
       197   07 Jun 2027 07:20:05.345   07 Jun 2027 07:20:08.941             3.596           830.125
       198   07 Jun 2027 07:21:14.735   07 Jun 2027 07:21:14.735             0.000             0.000
       199   07 Jun 2027 07:21:55.452   07 Jun 2027 07:22:02.180             6.728          2873.031
       200   07 Jun 2027 08:52:28.963   07 Jun 2027 08:52:37.071             8.108          3253.031
       201   07 Jun 2027 08:53:18.399   07 Jun 2027 08:53:20.038             1.639           583.156
       202   07 Jun 2027 08:54:49.759   07 Jun 2027 08:54:57.831             8.072          2803.781
       203   07 Jun 2027 08:55:24.248   07 Jun 2027 08:55:27.285             3.037           812.062
       204   07 Jun 2027 08:56:05.994   07 Jun 2027 08:56:08.725             2.731           842.875
       205   07 Jun 2027 08:57:38.883   07 Jun 2027 08:57:45.122             6.239          2514.406
       206   07 Jun 2027 08:58:47.952   07 Jun 2027 08:58:51.936             3.984          1695.719
       207   07 Jun 2027 09:00:33.359   07 Jun 2027 09:00:34.624             1.265           632.500
       208   07 Jun 2027 10:29:47.316   07 Jun 2027 10:29:53.209             5.893          2405.437
       209   07 Jun 2027 10:32:58.990   07 Jun 2027 10:33:08.204             9.214          2649.281
       210   07 Jun 2027 10:33:15.533   07 Jun 2027 10:33:16.438             0.905           229.031
       211   07 Jun 2027 10:34:25.975   07 Jun 2027 10:34:27.775             1.800           535.781
       212   07 Jun 2027 10:34:44.124   07 Jun 2027 10:34:46.064             1.940            38.844
       213   07 Jun 2027 10:35:05.467   07 Jun 2027 10:35:07.905             2.438           606.344
       214   07 Jun 2027 10:35:49.826   07 Jun 2027 10:35:56.014             6.188          1188.625
       215   07 Jun 2027 10:36:18.646   07 Jun 2027 10:36:19.291             0.645           197.000
       216   07 Jun 2027 10:37:09.038   07 Jun 2027 10:37:09.591             0.553           276.500
       217   08 Jun 2027 04:30:36.795   08 Jun 2027 04:32:52.825           136.030         68015.000
       218   08 Jun 2027 04:33:11.501   08 Jun 2027 04:33:16.012             4.511          2255.500
       219   08 Jun 2027 04:33:55.586   08 Jun 2027 04:33:55.913             0.327           163.500
       220   08 Jun 2027 04:34:24.618   08 Jun 2027 04:34:39.947            15.329          7664.500
       221   08 Jun 2027 04:35:32.888   08 Jun 2027 04:35:50.199            17.311          8655.500
       222   08 Jun 2027 04:37:34.845   08 Jun 2027 04:37:40.921             6.076          3038.000
       223   08 Jun 2027 05:54:57.540   08 Jun 2027 05:55:30.189            32.649         16324.500
       224   08 Jun 2027 06:07:12.104   08 Jun 2027 06:07:43.790            31.686         15843.000
       225   08 Jun 2027 07:29:08.796   08 Jun 2027 07:30:29.111            80.315         39940.688
       226   08 Jun 2027 07:31:11.417   08 Jun 2027 07:31:15.544             4.127           300.563
       227   08 Jun 2027 07:31:50.880   08 Jun 2027 07:31:55.926             5.046           935.750
       228   08 Jun 2027 07:34:03.135   08 Jun 2027 07:34:11.216             8.081          3677.719
       229   08 Jun 2027 07:34:19.706   08 Jun 2027 07:34:23.078             3.372           140.937
       230   08 Jun 2027 09:03:57.237   08 Jun 2027 09:04:06.201             8.964          3052.438
       231   08 Jun 2027 09:05:41.425   08 Jun 2027 09:05:46.138             4.713          1830.906
       232   08 Jun 2027 09:06:42.231   08 Jun 2027 09:06:50.106             7.875          1516.531
       233   08 Jun 2027 09:07:41.724   08 Jun 2027 09:07:43.174             1.450           635.219
       234   08 Jun 2027 09:08:18.544   08 Jun 2027 09:08:21.893             3.349          1082.094
       235   08 Jun 2027 09:10:31.912   08 Jun 2027 09:10:41.273             9.361          1648.656
       236   08 Jun 2027 09:11:01.132   08 Jun 2027 09:11:01.132             0.000             0.000
       237   08 Jun 2027 09:11:38.369   08 Jun 2027 09:11:44.133             5.764          1511.281
       238   08 Jun 2027 09:12:16.730   08 Jun 2027 09:12:19.955             3.225          1015.094
       239   08 Jun 2027 10:41:45.551   08 Jun 2027 10:41:59.952            14.401          4141.875
       240   08 Jun 2027 10:43:22.985   08 Jun 2027 10:43:24.683             1.698            27.281
       241   08 Jun 2027 10:43:54.592   08 Jun 2027 10:43:56.521             1.929           934.656
       242   08 Jun 2027 10:44:45.946   08 Jun 2027 10:44:48.737             2.791           952.469
       243   08 Jun 2027 10:45:38.884   08 Jun 2027 10:45:45.403             6.519          1567.094
       244   08 Jun 2027 10:47:19.862   08 Jun 2027 10:47:26.578             6.716          2591.781
       245   08 Jun 2027 10:47:49.650   08 Jun 2027 10:47:52.975             3.325           229.063
       246   08 Jun 2027 10:48:29.041   08 Jun 2027 10:48:34.465             5.424           779.406
       247   08 Jun 2027 10:49:02.061   08 Jun 2027 10:49:07.168             5.107           862.375
       248   09 Jun 2027 03:04:33.356   09 Jun 2027 03:04:56.381            23.025         11512.500
       249   09 Jun 2027 03:04:59.918   09 Jun 2027 03:05:32.308            32.390         16195.000
       250   09 Jun 2027 03:07:45.365   09 Jun 2027 03:08:03.824            18.459          9229.500
       251   09 Jun 2027 04:42:56.237   09 Jun 2027 04:44:35.461            99.224         49612.000
       252   09 Jun 2027 04:45:06.420   09 Jun 2027 04:46:15.748            69.328         34664.000
       253   09 Jun 2027 04:46:52.954   09 Jun 2027 04:47:25.178            32.224         16112.000
       254   09 Jun 2027 04:48:00.373   09 Jun 2027 04:48:09.328             8.955          4477.500
       255   09 Jun 2027 06:06:57.920   09 Jun 2027 06:07:40.166            42.246         21123.000
       256   09 Jun 2027 06:08:37.416   09 Jun 2027 06:09:02.353            24.937         11221.468
       257   09 Jun 2027 07:42:55.532   09 Jun 2027 07:43:10.608            15.076          4178.344
       258   09 Jun 2027 07:43:29.826   09 Jun 2027 07:43:32.822             2.996           513.219
       259   09 Jun 2027 07:43:49.244   09 Jun 2027 07:43:55.203             5.959           386.781
       260   09 Jun 2027 07:44:50.192   09 Jun 2027 07:44:53.681             3.489          1337.781
       261   09 Jun 2027 07:45:22.686   09 Jun 2027 07:45:26.728             4.042           367.156
       262   09 Jun 2027 07:45:57.733   09 Jun 2027 07:46:03.767             6.034           361.844
       263   09 Jun 2027 09:16:45.461   09 Jun 2027 09:16:52.746             7.285          2439.750
       264   09 Jun 2027 09:19:59.430   09 Jun 2027 09:20:05.752             6.322          2276.219
       265   09 Jun 2027 09:21:38.827   09 Jun 2027 09:21:44.234             5.407          2426.969
       266   09 Jun 2027 09:23:10.199   09 Jun 2027 09:23:12.929             2.730           893.000
       267   09 Jun 2027 09:23:40.081   09 Jun 2027 09:23:41.977             1.896           551.687
       268   09 Jun 2027 09:24:34.624   09 Jun 2027 09:24:37.656             3.032          1456.406
       269   09 Jun 2027 10:53:52.079   09 Jun 2027 10:54:03.986            11.907          5475.062
       270   09 Jun 2027 10:55:09.473   09 Jun 2027 10:55:09.473             0.000             0.000
       271   09 Jun 2027 10:55:32.738   09 Jun 2027 10:55:37.516             4.778          1536.719
       272   09 Jun 2027 10:56:39.277   09 Jun 2027 10:56:47.433             8.156           474.375
       273   09 Jun 2027 10:57:35.559   09 Jun 2027 10:57:41.192             5.633           308.594
       274   09 Jun 2027 10:59:04.386   09 Jun 2027 10:59:09.280             4.894          2037.375
       275   09 Jun 2027 11:00:03.015   09 Jun 2027 11:00:07.451             4.436          1295.250
       276   09 Jun 2027 11:00:21.401   09 Jun 2027 11:00:22.664             1.263           163.937
       277   09 Jun 2027 11:00:27.440   09 Jun 2027 11:00:32.438             4.998           149.250
       278   09 Jun 2027 11:00:46.938   09 Jun 2027 11:00:58.359            11.421           274.781
       279   10 Jun 2027 03:17:10.884   10 Jun 2027 03:17:54.533            43.649         21824.500
       280   10 Jun 2027 03:18:00.543   10 Jun 2027 03:18:46.916            46.373         23186.500
       281   10 Jun 2027 03:18:48.826   10 Jun 2027 03:20:12.735            83.909         41954.500
       282   10 Jun 2027 03:20:42.573   10 Jun 2027 03:20:42.573             0.000             0.000
       283   10 Jun 2027 03:22:15.013   10 Jun 2027 03:22:32.152            17.139          8569.500
       284   10 Jun 2027 04:55:30.675   10 Jun 2027 04:57:16.643           105.968         52058.625
       285   10 Jun 2027 04:58:14.866   10 Jun 2027 04:58:22.876             8.010          1698.250
       286   10 Jun 2027 04:59:23.349   10 Jun 2027 04:59:25.582             2.233           591.906
       287   10 Jun 2027 04:59:56.966   10 Jun 2027 04:59:58.946             1.980           481.031
       288   10 Jun 2027 06:18:52.710   10 Jun 2027 06:19:07.510            14.800          6523.000
       289   10 Jun 2027 06:20:05.975   10 Jun 2027 06:20:11.225             5.250          1357.750
       290   10 Jun 2027 06:20:21.954   10 Jun 2027 06:20:21.954             0.000             0.000
       291   10 Jun 2027 06:20:48.995   10 Jun 2027 06:20:52.097             3.102          1128.156
       292   10 Jun 2027 06:21:10.489   10 Jun 2027 06:21:13.269             2.780           250.062
       293   10 Jun 2027 07:55:16.275   10 Jun 2027 07:55:25.092             8.817          3656.688
       294   10 Jun 2027 07:55:43.196   10 Jun 2027 07:55:46.695             3.499            52.719
       295   10 Jun 2027 07:55:49.897   10 Jun 2027 07:55:52.312             2.415           100.062
       296   10 Jun 2027 07:56:02.845   10 Jun 2027 07:56:02.845             0.000             0.000
       297   10 Jun 2027 07:56:09.272   10 Jun 2027 07:56:10.147             0.875           433.969
       298   10 Jun 2027 07:56:31.119   10 Jun 2027 07:56:33.189             2.070           461.625
       299   10 Jun 2027 07:58:04.000   10 Jun 2027 07:58:11.408             7.408          2032.188
       300   10 Jun 2027 09:28:44.145   10 Jun 2027 09:28:51.138             6.993          3041.406
       301   10 Jun 2027 09:31:11.724   10 Jun 2027 09:31:14.304             2.580           989.156
       302   10 Jun 2027 09:31:46.442   10 Jun 2027 09:31:53.834             7.392           473.031
       303   10 Jun 2027 09:33:37.799   10 Jun 2027 09:33:37.799             0.000             0.000
       304   10 Jun 2027 09:34:30.306   10 Jun 2027 09:34:43.680            13.374          3873.594
       305   10 Jun 2027 09:35:47.443   10 Jun 2027 09:35:47.907             0.464           188.406
       306   10 Jun 2027 09:36:37.684   10 Jun 2027 09:36:40.382             2.698          1331.187
       307   10 Jun 2027 11:06:18.102   10 Jun 2027 11:06:32.137            14.035          5461.250
       308   10 Jun 2027 11:08:30.283   10 Jun 2027 11:08:35.488             5.205           411.688
       309   10 Jun 2027 11:10:39.286   10 Jun 2027 11:10:43.612             4.326          2041.156
       310   10 Jun 2027 11:11:39.134   10 Jun 2027 11:11:51.728            12.594           853.313
       311   10 Jun 2027 11:12:16.503   10 Jun 2027 11:12:17.919             1.416            72.781
       312   10 Jun 2027 11:12:45.587   10 Jun 2027 11:12:46.859             1.272           606.625
       313   10 Jun 2027 11:12:50.085   10 Jun 2027 11:12:59.406             9.321            30.219
       314   11 Jun 2027 03:29:04.329   11 Jun 2027 03:29:09.578             5.249          2624.500
       315   11 Jun 2027 03:29:34.251   11 Jun 2027 03:31:10.169            95.918         47959.000
       316   11 Jun 2027 03:32:01.726   11 Jun 2027 03:33:19.144            77.418         38709.000
       317   11 Jun 2027 05:07:45.482   11 Jun 2027 05:07:56.411            10.929          5464.500
       318   11 Jun 2027 05:08:41.905   11 Jun 2027 05:10:27.481           105.576         52788.000
       319   11 Jun 2027 05:10:51.600   11 Jun 2027 05:10:55.621             4.021          1632.906
       320   11 Jun 2027 06:30:40.364   11 Jun 2027 06:30:53.651            13.287          5590.750
       321   11 Jun 2027 06:32:07.094   11 Jun 2027 06:32:11.833             4.739          2295.094
       322   11 Jun 2027 06:32:49.665   11 Jun 2027 06:32:49.665             0.000             0.000
       323   11 Jun 2027 06:32:57.770   11 Jun 2027 06:32:58.832             1.062           531.000
       324   11 Jun 2027 08:07:17.777   11 Jun 2027 08:07:21.405             3.628          1802.500
       325   11 Jun 2027 08:07:56.819   11 Jun 2027 08:07:58.377             1.558           433.000
       326   11 Jun 2027 08:08:05.848   11 Jun 2027 08:08:06.665             0.817           233.469
       327   11 Jun 2027 08:08:48.144   11 Jun 2027 08:08:50.520             2.376          1158.719
       328   11 Jun 2027 08:09:12.601   11 Jun 2027 08:09:14.803             2.202           448.844
       329   11 Jun 2027 08:10:18.971   11 Jun 2027 08:10:23.079             4.108           882.625
       330   11 Jun 2027 09:42:13.072   11 Jun 2027 09:42:22.401             9.329          3512.719
       331   11 Jun 2027 09:43:32.889   11 Jun 2027 09:43:37.605             4.716           509.281
       332   11 Jun 2027 09:44:34.221   11 Jun 2027 09:44:39.864             5.643          1432.469
       333   11 Jun 2027 09:45:35.935   11 Jun 2027 09:45:41.091             5.156          1324.656
       334   11 Jun 2027 09:46:03.547   11 Jun 2027 09:46:03.937             0.390            19.187
       335   11 Jun 2027 09:47:42.322   11 Jun 2027 09:47:51.600             9.278          2736.344
       336   11 Jun 2027 09:48:38.648   11 Jun 2027 09:48:41.434             2.786           689.969
       337   11 Jun 2027 09:48:52.656   11 Jun 2027 09:48:54.289             1.633           118.688
       338   11 Jun 2027 09:49:04.146   11 Jun 2027 09:49:07.272             3.126           211.063
       339   11 Jun 2027 11:18:25.767   11 Jun 2027 11:18:36.385            10.618          4453.406
       340   11 Jun 2027 11:20:34.163   11 Jun 2027 11:20:35.532             1.369           496.219
       341   11 Jun 2027 11:21:03.859   11 Jun 2027 11:21:08.594             4.735           740.031
       342   11 Jun 2027 11:22:20.510   11 Jun 2027 11:22:25.022             4.512          2154.031
       343   11 Jun 2027 11:22:44.154   11 Jun 2027 11:22:44.583             0.429            21.719
       344   11 Jun 2027 11:23:12.307   11 Jun 2027 11:23:14.366             2.059           866.375
       345   11 Jun 2027 11:24:16.911   11 Jun 2027 11:24:21.158             4.247          1830.563
       346   11 Jun 2027 11:24:43.998   11 Jun 2027 11:24:45.976             1.978           631.312
       347   12 Jun 2027 03:41:13.112   12 Jun 2027 03:42:15.258            62.146         31073.000
       348   12 Jun 2027 03:42:22.044   12 Jun 2027 03:43:59.794            97.750         48875.000
       349   12 Jun 2027 03:44:35.806   12 Jun 2027 03:44:41.123             5.317          2658.500
       350   12 Jun 2027 03:45:07.575   12 Jun 2027 03:45:40.776            33.201         16600.500
       351   12 Jun 2027 05:19:31.696   12 Jun 2027 05:20:03.040            31.344         15672.000
       352   12 Jun 2027 05:20:21.301   12 Jun 2027 05:21:33.301            72.000         35571.281
       353   12 Jun 2027 05:22:17.302   12 Jun 2027 05:22:22.926             5.624          1209.281
       354   12 Jun 2027 05:22:55.931   12 Jun 2027 05:22:58.220             2.289          1031.406
       355   12 Jun 2027 06:42:54.179   12 Jun 2027 06:43:06.716            12.537          5171.656
       356   12 Jun 2027 06:43:48.603   12 Jun 2027 06:43:49.576             0.973           276.125
       357   12 Jun 2027 06:44:19.036   12 Jun 2027 06:44:24.865             5.829           920.625
       358   12 Jun 2027 06:45:30.922   12 Jun 2027 06:45:32.504             1.582           791.000
       359   12 Jun 2027 06:45:45.959   12 Jun 2027 06:45:49.041             3.082          1525.344
       360   12 Jun 2027 08:19:26.089   12 Jun 2027 08:19:31.398             5.309          1610.719
       361   12 Jun 2027 08:20:12.732   12 Jun 2027 08:20:15.686             2.954          1094.719
       362   12 Jun 2027 08:21:23.393   12 Jun 2027 08:21:27.314             3.921          1507.500
       363   12 Jun 2027 08:22:25.578   12 Jun 2027 08:22:34.342             8.764          1030.281
       364   12 Jun 2027 09:54:36.043   12 Jun 2027 09:54:41.346             5.303          2207.937
       365   12 Jun 2027 09:55:56.643   12 Jun 2027 09:55:58.089             1.446           208.344
       366   12 Jun 2027 09:56:44.875   12 Jun 2027 09:56:49.709             4.834          1426.000
       367   12 Jun 2027 09:58:17.661   12 Jun 2027 09:58:24.067             6.406          2036.000
       368   12 Jun 2027 09:58:42.619   12 Jun 2027 09:58:46.745             4.126           333.250
       369   12 Jun 2027 09:59:44.515   12 Jun 2027 09:59:49.375             4.860           891.656
       370   12 Jun 2027 10:00:54.739   12 Jun 2027 10:00:57.632             2.893           949.031
       371   12 Jun 2027 11:31:01.478   12 Jun 2027 11:31:12.053            10.575          5189.438
       372   12 Jun 2027 11:32:55.544   12 Jun 2027 11:32:57.923             2.379           340.750
       373   12 Jun 2027 11:33:07.870   12 Jun 2027 11:33:13.032             5.162           265.281
       374   12 Jun 2027 11:34:08.821   12 Jun 2027 11:34:12.864             4.043          1056.062
       375   12 Jun 2027 11:34:44.999   12 Jun 2027 11:34:53.463             8.464            35.594
       376   12 Jun 2027 11:35:54.262   12 Jun 2027 11:36:02.395             8.133          1841.219
       377   12 Jun 2027 11:36:07.177   12 Jun 2027 11:36:10.766             3.589           149.437
       378   13 Jun 2027 03:53:19.340   13 Jun 2027 03:53:21.606             2.266          1133.000
       379   13 Jun 2027 03:54:19.833   13 Jun 2027 03:56:59.972           160.139         80069.500
       380   13 Jun 2027 03:58:00.930   13 Jun 2027 03:58:06.622             5.692          2846.000
       381   13 Jun 2027 03:59:21.872   13 Jun 2027 03:59:21.872             0.000             0.000
       382   13 Jun 2027 04:00:52.646   13 Jun 2027 04:01:16.042            23.396         11698.000
       383   13 Jun 2027 05:31:28.582   13 Jun 2027 05:32:07.603            39.021         19510.500
       384   13 Jun 2027 05:32:29.735   13 Jun 2027 05:33:46.546            76.811         38207.125
       385   13 Jun 2027 05:34:46.357   13 Jun 2027 05:34:48.270             1.913           850.000
       386   13 Jun 2027 06:55:29.592   13 Jun 2027 06:55:39.581             9.989          4729.781
       387   13 Jun 2027 06:55:51.105   13 Jun 2027 06:55:51.105             0.000             0.000
       388   13 Jun 2027 06:56:03.118   13 Jun 2027 06:56:05.532             2.414           631.625
       389   13 Jun 2027 06:57:28.138   13 Jun 2027 06:57:31.296             3.158          1579.000
       390   13 Jun 2027 06:57:52.177   13 Jun 2027 06:57:56.032             3.855          1562.500
       391   13 Jun 2027 08:31:19.264   13 Jun 2027 08:31:24.348             5.084          2361.469
       392   13 Jun 2027 08:33:08.175   13 Jun 2027 08:33:16.800             8.625          3056.781
       393   13 Jun 2027 08:33:23.766   13 Jun 2027 08:33:24.334             0.568           217.688
       394   13 Jun 2027 08:34:01.250   13 Jun 2027 08:34:03.021             1.771           687.875
       395   13 Jun 2027 08:35:20.211   13 Jun 2027 08:35:20.678             0.467           233.500
       396   13 Jun 2027 10:06:15.286   13 Jun 2027 10:06:22.270             6.984          3285.250
       397   13 Jun 2027 10:07:51.168   13 Jun 2027 10:07:59.083             7.915          2223.156
       398   13 Jun 2027 10:08:49.870   13 Jun 2027 10:08:52.078             2.208           797.094
       399   13 Jun 2027 10:09:16.721   13 Jun 2027 10:09:19.722             3.001           570.437
       400   13 Jun 2027 10:11:42.543   13 Jun 2027 10:11:55.015            12.472          4175.969
       401   13 Jun 2027 10:12:37.070   13 Jun 2027 10:12:40.328             3.258           671.656
       402   13 Jun 2027 10:12:50.667   13 Jun 2027 10:12:52.093             1.426           258.344
       403   13 Jun 2027 11:42:34.276   13 Jun 2027 11:42:45.477            11.201          5467.312
       404   13 Jun 2027 11:44:33.961   13 Jun 2027 11:44:37.600             3.639          1684.438
       405   13 Jun 2027 11:44:43.671   13 Jun 2027 11:44:44.916             1.245           187.250
       406   13 Jun 2027 11:45:21.752   13 Jun 2027 11:45:25.918             4.166           570.656
       407   13 Jun 2027 11:46:37.266   13 Jun 2027 11:46:42.280             5.014          2133.375
       408   13 Jun 2027 11:46:46.114   13 Jun 2027 11:46:48.293             2.179           119.812
       409   13 Jun 2027 11:47:31.149   13 Jun 2027 11:47:34.487             3.338           593.281
       410   13 Jun 2027 11:47:52.935   13 Jun 2027 11:47:54.497             1.562           494.188
       411   13 Jun 2027 11:48:22.073   13 Jun 2027 11:48:23.848             1.775           777.813
       412   13 Jun 2027 11:48:28.904   13 Jun 2027 11:48:29.982             1.078           158.000
       413   13 Jun 2027 11:48:39.867   13 Jun 2027 11:48:42.334             2.467           305.375
