uniorb/output/strategy_4/Camera/Camera_KinoSat_111005.txt

KinoSat_111005
-------------------------
    Access    *     Start Time (UTCG)     *     Stop Time (UTCG)  *   Duration (s) *   Data (Mbytes)
         1   01 Jun 2027 03:27:16.157   01 Jun 2027 03:28:29.002            72.845         36422.500
         2   01 Jun 2027 03:39:32.066   01 Jun 2027 03:39:59.617            27.551         13775.500
         3   01 Jun 2027 05:01:12.965   01 Jun 2027 05:02:32.554            79.589         39794.500
         4   01 Jun 2027 05:03:20.746   01 Jun 2027 05:03:29.125             8.379          4189.500
         5   01 Jun 2027 05:04:18.701   01 Jun 2027 05:04:23.419             4.718          2359.000
         6   01 Jun 2027 05:04:43.307   01 Jun 2027 05:04:52.072             8.765          4382.500
         7   01 Jun 2027 05:06:09.064   01 Jun 2027 05:06:09.064             0.000             0.000
         8   01 Jun 2027 06:36:06.414   01 Jun 2027 06:37:58.030           111.616         55808.000
         9   01 Jun 2027 06:38:28.452   01 Jun 2027 06:38:29.649             1.197           598.500
        10   01 Jun 2027 06:39:18.686   01 Jun 2027 06:39:33.506            14.820          7410.000
        11   01 Jun 2027 06:42:47.786   01 Jun 2027 06:42:50.744             2.958          1479.000
        12   01 Jun 2027 06:43:22.453   01 Jun 2027 06:43:28.787             6.334          3167.000
        13   01 Jun 2027 06:43:46.511   01 Jun 2027 06:43:46.511             0.000             0.000
        14   01 Jun 2027 06:44:05.726   01 Jun 2027 06:44:11.000             5.274          2637.000
        15   01 Jun 2027 06:44:43.313   01 Jun 2027 06:44:45.557             2.244          1122.000
        16   01 Jun 2027 08:14:01.597   01 Jun 2027 08:15:53.806           112.209         56104.500
        17   01 Jun 2027 08:17:28.826   01 Jun 2027 08:17:48.910            20.084         10042.000
        18   01 Jun 2027 08:19:23.830   01 Jun 2027 08:19:26.705             2.875          1437.500
        19   01 Jun 2027 08:19:51.125   01 Jun 2027 08:19:57.644             6.519          3259.500
        20   01 Jun 2027 09:50:46.857   01 Jun 2027 09:53:21.378           154.521         77260.500
        21   01 Jun 2027 09:54:39.193   01 Jun 2027 09:54:48.542             9.349          4674.500
        22   01 Jun 2027 09:55:02.208   01 Jun 2027 09:55:16.842            14.634          7317.000
        23   01 Jun 2027 09:57:04.090   01 Jun 2027 09:57:15.720            11.630          5815.000
        24   01 Jun 2027 11:28:39.096   01 Jun 2027 11:30:47.510           128.414         64207.000
        25   01 Jun 2027 11:31:37.617   01 Jun 2027 11:31:55.397            17.780          8890.000
        26   02 Jun 2027 03:39:11.695   02 Jun 2027 03:39:39.730            28.035         14017.500
        27   02 Jun 2027 05:15:11.490   02 Jun 2027 05:18:09.867           178.377         89188.500
        28   02 Jun 2027 06:48:59.663   02 Jun 2027 06:51:42.187           162.524         81262.000
        29   02 Jun 2027 06:52:34.336   02 Jun 2027 06:53:29.615            55.279         27639.500
        30   02 Jun 2027 06:54:26.702   02 Jun 2027 06:54:26.702             0.000             0.000
        31   02 Jun 2027 06:56:39.895   02 Jun 2027 06:56:51.394            11.499          5749.500
        32   02 Jun 2027 06:57:30.329   02 Jun 2027 06:57:30.739             0.410           205.000
        33   02 Jun 2027 08:26:11.691   02 Jun 2027 08:28:48.438           156.747         78373.500
        34   02 Jun 2027 08:31:04.473   02 Jun 2027 08:31:51.798            47.325         23662.500
        35   02 Jun 2027 10:03:25.248   02 Jun 2027 10:04:29.907            64.659         30926.406
        36   02 Jun 2027 10:04:50.598   02 Jun 2027 10:04:54.439             3.841           537.219
        37   02 Jun 2027 10:05:26.620   02 Jun 2027 10:05:30.574             3.954           846.531
        38   02 Jun 2027 10:06:32.041   02 Jun 2027 10:06:35.215             3.174           366.031
        39   02 Jun 2027 10:07:00.288   02 Jun 2027 10:07:01.997             1.709           783.531
        40   02 Jun 2027 10:07:16.064   02 Jun 2027 10:07:16.739             0.675           148.938
        41   02 Jun 2027 10:07:26.406   02 Jun 2027 10:07:28.611             2.205           302.094
        42   02 Jun 2027 10:07:44.845   02 Jun 2027 10:07:47.278             2.433           456.219
        43   02 Jun 2027 10:08:54.239   02 Jun 2027 10:09:01.172             6.933          1696.750
        44   02 Jun 2027 11:40:05.769   02 Jun 2027 11:40:17.033            11.264          5254.281
        45   02 Jun 2027 11:41:46.452   02 Jun 2027 11:41:51.319             4.867           614.312
        46   02 Jun 2027 11:42:39.461   02 Jun 2027 11:42:45.309             5.848          1481.656
        47   02 Jun 2027 11:43:22.935   02 Jun 2027 11:43:24.512             1.577           438.594
        48   02 Jun 2027 11:43:50.386   02 Jun 2027 11:44:01.367            10.981           519.219
        49   03 Jun 2027 03:51:03.706   03 Jun 2027 03:51:07.518             3.812          1906.000
        50   03 Jun 2027 03:51:54.174   03 Jun 2027 03:52:05.423            11.249          5624.500
        51   03 Jun 2027 03:53:18.027   03 Jun 2027 03:53:18.027             0.000             0.000
        52   03 Jun 2027 05:27:25.012   03 Jun 2027 05:29:55.151           150.139         75069.500
        53   03 Jun 2027 05:30:23.497   03 Jun 2027 05:30:56.728            33.231         16615.500
        54   03 Jun 2027 07:01:28.174   03 Jun 2027 07:03:25.711           117.537         58545.813
        55   03 Jun 2027 07:03:35.401   03 Jun 2027 07:03:37.619             2.218            97.594
        56   03 Jun 2027 07:04:08.189   03 Jun 2027 07:04:11.045             2.856           130.969
        57   03 Jun 2027 07:05:43.594   03 Jun 2027 07:05:48.315             4.721          2163.094
        58   03 Jun 2027 07:06:39.878   03 Jun 2027 07:06:45.653             5.775          1004.531
        59   03 Jun 2027 07:07:48.850   03 Jun 2027 07:07:51.733             2.883          1441.500
        60   03 Jun 2027 07:08:02.117   03 Jun 2027 07:08:02.960             0.843           407.469
        61   03 Jun 2027 07:08:41.651   03 Jun 2027 07:08:44.724             3.073          1186.219
        62   03 Jun 2027 07:09:18.084   03 Jun 2027 07:09:20.315             2.231           384.063
        63   03 Jun 2027 07:09:26.307   03 Jun 2027 07:09:27.313             1.006           187.250
        64   03 Jun 2027 08:38:34.766   03 Jun 2027 08:38:45.817            11.051          3650.531
        65   03 Jun 2027 08:42:14.696   03 Jun 2027 08:42:18.466             3.770          1191.219
        66   03 Jun 2027 08:43:14.519   03 Jun 2027 08:43:16.620             2.101           637.750
        67   03 Jun 2027 08:43:48.119   03 Jun 2027 08:43:50.881             2.762           859.969
        68   03 Jun 2027 08:44:57.869   03 Jun 2027 08:45:01.526             3.657           859.906
        69   03 Jun 2027 10:15:32.353   03 Jun 2027 10:15:46.300            13.947          5713.187
        70   03 Jun 2027 10:18:56.529   03 Jun 2027 10:18:56.720             0.191            13.656
        71   03 Jun 2027 10:19:18.080   03 Jun 2027 10:19:21.537             3.457           349.781
        72   03 Jun 2027 10:19:30.670   03 Jun 2027 10:19:31.566             0.896           197.375
        73   03 Jun 2027 10:20:17.465   03 Jun 2027 10:20:19.941             2.476           948.781
        74   03 Jun 2027 11:52:19.675   03 Jun 2027 11:52:38.019            18.344          7594.250
        75   03 Jun 2027 11:53:14.918   03 Jun 2027 11:53:17.250             2.332           237.969
        76   03 Jun 2027 11:55:48.177   03 Jun 2027 11:55:50.196             2.019           920.312
        77   04 Jun 2027 04:03:05.927   04 Jun 2027 04:03:56.445            50.518         25259.000
        78   04 Jun 2027 05:39:31.505   04 Jun 2027 05:41:36.016           124.511         62255.500
        79   04 Jun 2027 05:42:23.993   04 Jun 2027 05:42:56.445            32.452         16226.000
        80   04 Jun 2027 07:14:39.691   04 Jun 2027 07:16:35.646           115.955         57107.844
        81   04 Jun 2027 07:17:41.339   04 Jun 2027 07:17:46.060             4.721          1849.250
        82   04 Jun 2027 07:18:10.342   04 Jun 2027 07:18:14.636             4.294           488.500
        83   04 Jun 2027 07:18:37.928   04 Jun 2027 07:18:38.548             0.620            57.031
        84   04 Jun 2027 07:19:47.848   04 Jun 2027 07:19:49.404             1.556           547.719
        85   04 Jun 2027 07:20:56.293   04 Jun 2027 07:21:01.188             4.895          2090.281
        86   04 Jun 2027 07:21:11.949   04 Jun 2027 07:21:13.238             1.289           336.281
        87   04 Jun 2027 08:51:00.425   04 Jun 2027 08:51:10.446            10.021          4453.219
        88   04 Jun 2027 08:54:18.538   04 Jun 2027 08:54:19.096             0.558           127.062
        89   04 Jun 2027 08:55:19.646   04 Jun 2027 08:55:23.106             3.460           978.000
        90   04 Jun 2027 08:55:42.856   04 Jun 2027 08:55:44.677             1.821           506.219
        91   04 Jun 2027 08:56:25.777   04 Jun 2027 08:56:28.551             2.774           189.469
        92   04 Jun 2027 08:56:41.603   04 Jun 2027 08:56:46.279             4.676           256.719
        93   04 Jun 2027 08:56:57.754   04 Jun 2027 08:57:00.007             2.253            80.750
        94   04 Jun 2027 10:28:34.308   04 Jun 2027 10:28:50.312            16.004          5671.156
        95   04 Jun 2027 10:31:00.262   04 Jun 2027 10:31:03.472             3.210           987.656
        96   04 Jun 2027 10:31:43.846   04 Jun 2027 10:31:46.346             2.500          1107.656
        97   04 Jun 2027 10:32:31.161   04 Jun 2027 10:32:40.737             9.576          1119.656
        98   05 Jun 2027 04:15:04.999   05 Jun 2027 04:15:53.103            48.104         24052.000
        99   05 Jun 2027 04:17:56.206   05 Jun 2027 04:17:56.206             0.000             0.000
       100   05 Jun 2027 05:51:41.642   05 Jun 2027 05:54:06.688           145.046         72523.000
       101   05 Jun 2027 07:26:51.784   05 Jun 2027 07:28:52.714           120.930         60465.000
       102   05 Jun 2027 07:28:59.379   05 Jun 2027 07:29:05.146             5.767           606.813
       103   05 Jun 2027 07:29:41.072   05 Jun 2027 07:29:42.594             1.522            94.094
       104   05 Jun 2027 07:30:12.754   05 Jun 2027 07:30:15.879             3.125           494.812
       105   05 Jun 2027 07:31:49.456   05 Jun 2027 07:32:00.869            11.413          2220.813
       106   05 Jun 2027 07:32:49.067   05 Jun 2027 07:32:53.732             4.665          1219.375
       107   05 Jun 2027 07:33:05.207   05 Jun 2027 07:33:05.207             0.000             0.000
       108   05 Jun 2027 07:33:05.340   05 Jun 2027 07:33:07.277             1.937           362.750
       109   05 Jun 2027 09:03:09.072   05 Jun 2027 09:03:19.065             9.993          4653.094
       110   05 Jun 2027 09:07:02.489   05 Jun 2027 09:07:04.991             2.502          1156.031
       111   05 Jun 2027 09:08:13.716   05 Jun 2027 09:08:16.410             2.694          1188.781
       112   05 Jun 2027 09:08:34.120   05 Jun 2027 09:08:36.397             2.277           553.437
       113   05 Jun 2027 09:09:03.746   05 Jun 2027 09:09:05.802             2.056           456.781
       114   05 Jun 2027 10:40:39.071   05 Jun 2027 10:40:54.486            15.415          6508.875
       115   05 Jun 2027 10:41:37.676   05 Jun 2027 10:41:43.360             5.684           706.281
       116   05 Jun 2027 10:43:07.042   05 Jun 2027 10:43:10.389             3.347          1271.656
       117   05 Jun 2027 10:43:40.544   05 Jun 2027 10:43:41.753             1.209           377.406
       118   05 Jun 2027 10:44:06.813   05 Jun 2027 10:44:08.366             1.553           315.125
       119   05 Jun 2027 10:44:42.521   05 Jun 2027 10:44:46.380             3.859           873.438
       120   05 Jun 2027 10:44:56.908   05 Jun 2027 10:44:58.129             1.221           329.000
       121   05 Jun 2027 10:44:59.118   05 Jun 2027 10:45:01.911             2.793            30.906
       122   06 Jun 2027 03:03:42.414   06 Jun 2027 03:04:13.181            30.767         15383.500
       123   06 Jun 2027 03:05:18.374   06 Jun 2027 03:05:35.626            17.252          8626.000
       124   06 Jun 2027 03:06:23.640   06 Jun 2027 03:06:23.640             0.000             0.000
       125   06 Jun 2027 03:06:25.067   06 Jun 2027 03:06:25.124             0.057            28.500
       126   06 Jun 2027 03:06:56.465   06 Jun 2027 03:07:14.407            17.942          8971.000
       127   06 Jun 2027 04:27:41.081   06 Jun 2027 04:29:07.526            86.445         43222.500
       128   06 Jun 2027 04:29:47.942   06 Jun 2027 04:29:47.942             0.000             0.000
       129   06 Jun 2027 04:29:54.456   06 Jun 2027 04:29:58.979             4.523          2261.500
       130   06 Jun 2027 04:30:04.130   06 Jun 2027 04:30:22.496            18.366          9183.000
       131   06 Jun 2027 06:03:25.828   06 Jun 2027 06:05:34.154           128.326         64163.000
       132   06 Jun 2027 06:06:09.869   06 Jun 2027 06:06:09.869             0.000             0.000
       133   06 Jun 2027 07:38:20.496   06 Jun 2027 07:38:55.553            35.057         17307.281
       134   06 Jun 2027 07:40:07.475   06 Jun 2027 07:40:13.076             5.601          2190.062
       135   06 Jun 2027 07:41:56.573   06 Jun 2027 07:41:58.236             1.663           720.750
       136   06 Jun 2027 07:43:48.912   06 Jun 2027 07:43:53.664             4.752          2111.469
       137   06 Jun 2027 07:45:16.844   06 Jun 2027 07:45:22.762             5.918          2100.969
       138   06 Jun 2027 09:14:51.524   06 Jun 2027 09:15:04.152            12.628          5008.062
       139   06 Jun 2027 09:17:24.159   06 Jun 2027 09:17:27.978             3.819           494.125
       140   06 Jun 2027 09:19:07.026   06 Jun 2027 09:19:10.867             3.841          1275.094
       141   06 Jun 2027 09:19:36.311   06 Jun 2027 09:19:39.025             2.714           319.812
       142   06 Jun 2027 09:20:11.204   06 Jun 2027 09:20:14.275             3.071           635.906
       143   06 Jun 2027 09:20:51.081   06 Jun 2027 09:20:52.905             1.824            83.750
       144   06 Jun 2027 10:53:09.680   06 Jun 2027 10:53:18.884             9.204          4375.156
       145   06 Jun 2027 10:54:07.883   06 Jun 2027 10:54:13.765             5.882          1278.687
       146   06 Jun 2027 10:55:13.177   06 Jun 2027 10:55:14.520             1.343           115.000
       147   06 Jun 2027 10:55:38.817   06 Jun 2027 10:55:41.408             2.591           122.219
       148   06 Jun 2027 10:56:14.901   06 Jun 2027 10:56:21.742             6.841           627.125
       149   06 Jun 2027 10:56:42.462   06 Jun 2027 10:56:45.522             3.060           647.500
       150   07 Jun 2027 03:04:13.890   07 Jun 2027 03:04:44.657            30.767         15383.500
       151   07 Jun 2027 03:15:38.767   07 Jun 2027 03:18:09.808           151.041         75520.500
       152   07 Jun 2027 04:38:15.512   07 Jun 2027 04:38:40.439            24.927         12463.500
       153   07 Jun 2027 04:39:38.916   07 Jun 2027 04:39:43.269             4.353          2176.500
       154   07 Jun 2027 04:41:01.210   07 Jun 2027 04:41:01.227             0.017             8.500
       155   07 Jun 2027 04:41:11.017   07 Jun 2027 04:41:15.671             4.654          2327.000
       156   07 Jun 2027 04:41:41.387   07 Jun 2027 04:42:01.664            20.277         10138.500
       157   07 Jun 2027 06:13:41.279   07 Jun 2027 06:14:35.824            54.545         27272.500
       158   07 Jun 2027 06:15:11.795   07 Jun 2027 06:15:57.184            45.389         21441.437
       159   07 Jun 2027 06:16:18.820   07 Jun 2027 06:16:18.820             0.000             0.000
       160   07 Jun 2027 06:16:44.675   07 Jun 2027 06:16:47.356             2.681          1099.500
       161   07 Jun 2027 06:17:24.813   07 Jun 2027 06:17:24.813             0.000             0.000
       162   07 Jun 2027 06:17:46.431   07 Jun 2027 06:17:50.475             4.044          1781.719
       163   07 Jun 2027 06:18:13.027   07 Jun 2027 06:18:16.124             3.097           380.687
       164   07 Jun 2027 06:19:20.147   07 Jun 2027 06:19:24.138             3.991          1270.906
       165   07 Jun 2027 06:19:48.093   07 Jun 2027 06:19:51.000             2.907           678.844
       166   07 Jun 2027 07:50:05.830   07 Jun 2027 07:50:10.047             4.217          1744.250
       167   07 Jun 2027 07:50:57.102   07 Jun 2027 07:51:03.700             6.598           854.562
       168   07 Jun 2027 07:53:22.743   07 Jun 2027 07:53:25.918             3.175            79.187
       169   07 Jun 2027 07:54:16.842   07 Jun 2027 07:54:21.296             4.454          1546.187
       170   07 Jun 2027 07:55:02.222   07 Jun 2027 07:55:04.638             2.416           507.031
       171   07 Jun 2027 07:56:02.625   07 Jun 2027 07:56:08.341             5.716          1445.375
       172   07 Jun 2027 07:57:30.097   07 Jun 2027 07:57:36.203             6.106          2492.219
       173   07 Jun 2027 09:27:11.860   07 Jun 2027 09:27:24.514            12.654          4949.844
       174   07 Jun 2027 09:28:40.966   07 Jun 2027 09:28:45.658             4.692           253.031
       175   07 Jun 2027 09:30:51.142   07 Jun 2027 09:30:52.004             0.862             3.187
       176   07 Jun 2027 09:31:20.178   07 Jun 2027 09:31:21.140             0.962           213.844
       177   07 Jun 2027 09:31:31.250   07 Jun 2027 09:31:32.942             1.692           194.687
       178   07 Jun 2027 09:32:11.057   07 Jun 2027 09:32:14.838             3.781           971.125
       179   07 Jun 2027 11:05:07.259   07 Jun 2027 11:05:22.150            14.891          5077.625
       180   07 Jun 2027 11:06:24.747   07 Jun 2027 11:06:28.792             4.045           998.063
       181   07 Jun 2027 11:07:18.729   07 Jun 2027 11:07:21.146             2.417           306.375
       182   07 Jun 2027 11:07:37.116   07 Jun 2027 11:07:39.905             2.789           101.125
       183   07 Jun 2027 11:08:08.897   07 Jun 2027 11:08:11.759             2.862           684.594
       184   07 Jun 2027 11:08:40.391   07 Jun 2027 11:08:40.729             0.338           155.187
       185   07 Jun 2027 11:08:50.180   07 Jun 2027 11:08:50.468             0.288             6.406
       186   08 Jun 2027 03:15:58.566   08 Jun 2027 03:16:06.686             8.120          4060.000
       187   08 Jun 2027 03:27:42.176   08 Jun 2027 03:28:40.658            58.482         29241.000
       188   08 Jun 2027 04:49:55.711   08 Jun 2027 04:51:01.912            66.201         33100.500
       189   08 Jun 2027 04:51:49.605   08 Jun 2027 04:53:23.267            93.662         46831.000
       190   08 Jun 2027 04:54:04.232   08 Jun 2027 04:54:08.744             4.512          2256.000
       191   08 Jun 2027 06:24:51.000   08 Jun 2027 06:26:06.518            75.518         35756.624
       192   08 Jun 2027 06:26:18.614   08 Jun 2027 06:26:20.267             1.653           184.875
       193   08 Jun 2027 06:26:57.686   08 Jun 2027 06:27:01.334             3.648          1095.063
       194   08 Jun 2027 06:28:31.976   08 Jun 2027 06:28:36.330             4.354          2004.469
       195   08 Jun 2027 06:28:42.496   08 Jun 2027 06:28:42.496             0.000             0.000
       196   08 Jun 2027 06:30:01.238   08 Jun 2027 06:30:07.887             6.649          2592.531
       197   08 Jun 2027 06:31:15.526   08 Jun 2027 06:31:19.550             4.024          1856.281
       198   08 Jun 2027 06:31:24.911   08 Jun 2027 06:31:31.434             6.523           167.531
       199   08 Jun 2027 06:31:37.934   08 Jun 2027 06:31:37.934             0.000             0.000
       200   08 Jun 2027 06:33:11.453   08 Jun 2027 06:33:16.972             5.519          2205.719
       201   08 Jun 2027 08:02:21.945   08 Jun 2027 08:02:28.514             6.569           917.281
       202   08 Jun 2027 08:02:59.284   08 Jun 2027 08:03:02.600             3.316           844.594
       203   08 Jun 2027 08:08:10.152   08 Jun 2027 08:08:15.927             5.775          1790.125
       204   08 Jun 2027 08:08:32.407   08 Jun 2027 08:08:36.592             4.185           429.438
       205   08 Jun 2027 08:09:41.415   08 Jun 2027 08:09:41.424             0.009             4.500
       206   08 Jun 2027 09:39:07.521   08 Jun 2027 09:39:18.040            10.519          4810.031
       207   08 Jun 2027 09:40:28.361   08 Jun 2027 09:40:31.654             3.293           353.969
       208   08 Jun 2027 09:42:22.315   08 Jun 2027 09:42:29.682             7.367          1247.969
       209   08 Jun 2027 09:43:07.731   08 Jun 2027 09:43:09.640             1.909           358.500
       210   08 Jun 2027 09:43:14.816   08 Jun 2027 09:43:16.061             1.245           161.750
       211   08 Jun 2027 09:44:12.712   08 Jun 2027 09:44:21.114             8.402           932.281
       212   08 Jun 2027 09:45:05.276   08 Jun 2027 09:45:08.056             2.780          1380.062
       213   08 Jun 2027 11:17:06.743   08 Jun 2027 11:17:22.032            15.289          7558.406
       214   08 Jun 2027 11:18:01.537   08 Jun 2027 11:18:02.592             1.055           261.156
       215   08 Jun 2027 11:20:17.062   08 Jun 2027 11:20:20.839             3.777          1665.844
       216   08 Jun 2027 11:20:51.951   08 Jun 2027 11:21:00.894             8.943           847.438
       217   08 Jun 2027 11:21:13.346   08 Jun 2027 11:21:15.369             2.023           389.125
       218   09 Jun 2027 03:27:31.415   09 Jun 2027 03:27:53.823            22.408         11204.000
       219   09 Jun 2027 03:39:47.163   09 Jun 2027 03:40:14.807            27.644         13822.000
       220   09 Jun 2027 05:01:27.610   09 Jun 2027 05:02:47.522            79.912         39956.000
       221   09 Jun 2027 05:03:35.755   09 Jun 2027 05:04:39.780            64.025         32012.500
       222   09 Jun 2027 05:05:01.031   09 Jun 2027 05:05:25.837            24.806         12403.000
       223   09 Jun 2027 05:05:49.109   09 Jun 2027 05:05:49.109             0.000             0.000
       224   09 Jun 2027 05:05:57.726   09 Jun 2027 05:05:59.880             2.154          1077.000
       225   09 Jun 2027 05:06:06.661   09 Jun 2027 05:06:11.496             4.835          2417.500
       226   09 Jun 2027 06:36:21.126   09 Jun 2027 06:37:55.224            94.098         46491.406
       227   09 Jun 2027 06:38:29.899   09 Jun 2027 06:38:32.264             2.365           504.344
       228   09 Jun 2027 06:38:57.049   09 Jun 2027 06:38:57.049             0.000             0.000
       229   09 Jun 2027 06:39:36.199   09 Jun 2027 06:39:41.041             4.842          1770.875
       230   09 Jun 2027 06:40:16.466   09 Jun 2027 06:40:19.547             3.081           429.344
       231   09 Jun 2027 06:40:42.715   09 Jun 2027 06:40:42.715             0.000             0.000
       232   09 Jun 2027 06:40:45.215   09 Jun 2027 06:40:46.936             1.721           802.125
       233   09 Jun 2027 06:41:52.773   09 Jun 2027 06:42:01.008             8.235          1868.937
       234   09 Jun 2027 06:43:03.534   09 Jun 2027 06:43:06.858             3.324          1662.000
       235   09 Jun 2027 06:43:38.202   09 Jun 2027 06:43:42.021             3.819          1267.937
       236   09 Jun 2027 06:44:14.840   09 Jun 2027 06:44:17.300             2.460           981.781
       237   09 Jun 2027 08:14:16.701   09 Jun 2027 08:14:21.935             5.234          2617.000
       238   09 Jun 2027 08:14:34.321   09 Jun 2027 08:14:38.680             4.359           488.750
       239   09 Jun 2027 08:16:06.568   09 Jun 2027 08:16:12.842             6.274          1954.937
       240   09 Jun 2027 08:18:06.052   09 Jun 2027 08:18:09.706             3.654          1806.125
       241   09 Jun 2027 08:18:24.834   09 Jun 2027 08:18:30.233             5.399           161.406
       242   09 Jun 2027 08:19:40.501   09 Jun 2027 08:19:43.536             3.035          1076.125
       243   09 Jun 2027 08:20:45.109   09 Jun 2027 08:20:47.597             2.488          1130.250
       244   09 Jun 2027 08:21:13.524   09 Jun 2027 08:21:16.511             2.987           810.219
       245   09 Jun 2027 09:51:04.029   09 Jun 2027 09:51:18.079            14.050          6559.313
       246   09 Jun 2027 09:52:09.661   09 Jun 2027 09:52:11.614             1.953           395.000
       247   09 Jun 2027 09:53:33.993   09 Jun 2027 09:53:39.887             5.894          2094.000
       248   09 Jun 2027 09:54:32.697   09 Jun 2027 09:54:35.387             2.690          1341.688
       249   09 Jun 2027 09:55:03.729   09 Jun 2027 09:55:05.218             1.489           294.375
       250   09 Jun 2027 09:55:32.729   09 Jun 2027 09:55:33.778             1.049           357.312
       251   09 Jun 2027 09:55:44.984   09 Jun 2027 09:55:45.974             0.990            24.625
       252   09 Jun 2027 09:56:20.590   09 Jun 2027 09:56:24.329             3.739          1074.313
       253   09 Jun 2027 09:57:34.397   09 Jun 2027 09:57:41.423             7.026           895.437
       254   09 Jun 2027 11:28:54.442   09 Jun 2027 11:29:07.654            13.212          5754.031
       255   09 Jun 2027 11:31:05.000   09 Jun 2027 11:31:10.292             5.292          2141.531
       256   09 Jun 2027 11:31:50.970   09 Jun 2027 11:32:01.903            10.933           709.344
       257   09 Jun 2027 11:32:11.592   09 Jun 2027 11:32:14.693             3.101            10.031
       258   09 Jun 2027 11:32:54.022   09 Jun 2027 11:32:57.837             3.815           353.531
       259   09 Jun 2027 11:33:13.486   09 Jun 2027 11:33:15.362             1.876           370.219
       260   10 Jun 2027 03:39:27.064   10 Jun 2027 03:39:54.292            27.228         13614.000
       261   10 Jun 2027 05:15:26.682   10 Jun 2027 05:18:47.886           201.204        100602.000
       262   10 Jun 2027 06:49:14.529   10 Jun 2027 06:50:43.923            89.394         44097.625
       263   10 Jun 2027 06:52:31.945   10 Jun 2027 06:52:36.244             4.299          1666.500
       264   10 Jun 2027 06:54:00.259   10 Jun 2027 06:54:06.633             6.374          2339.031
       265   10 Jun 2027 06:55:00.420   10 Jun 2027 06:55:03.361             2.941          1199.500
       266   10 Jun 2027 06:56:10.318   10 Jun 2027 06:56:13.649             3.331          1653.125
       267   10 Jun 2027 06:56:46.085   10 Jun 2027 06:56:46.374             0.289           144.500
       268   10 Jun 2027 06:56:54.334   10 Jun 2027 06:56:57.223             2.889           977.406
       269   10 Jun 2027 06:57:45.424   10 Jun 2027 06:57:46.009             0.585           292.500
       270   10 Jun 2027 08:26:28.243   10 Jun 2027 08:26:32.292             4.049           904.562
       271   10 Jun 2027 08:28:30.422   10 Jun 2027 08:28:32.129             1.707           799.062
       272   10 Jun 2027 08:30:20.483   10 Jun 2027 08:30:27.536             7.053          2335.031
       273   10 Jun 2027 08:32:06.577   10 Jun 2027 08:32:07.629             1.052           427.844
       274   10 Jun 2027 08:32:58.033   10 Jun 2027 08:33:02.289             4.256           298.219
       275   10 Jun 2027 08:33:39.734   10 Jun 2027 08:33:41.522             1.788           894.000
       276   10 Jun 2027 10:03:40.840   10 Jun 2027 10:03:52.799            11.959          4951.531
       277   10 Jun 2027 10:05:16.753   10 Jun 2027 10:05:22.248             5.495          2623.562
       278   10 Jun 2027 10:06:28.349   10 Jun 2027 10:06:35.378             7.029           964.406
       279   10 Jun 2027 10:06:55.111   10 Jun 2027 10:06:56.891             1.780           265.125
       280   10 Jun 2027 10:07:11.847   10 Jun 2027 10:07:12.811             0.964           314.062
       281   10 Jun 2027 10:07:31.711   10 Jun 2027 10:07:32.075             0.364           103.125
       282   10 Jun 2027 10:07:46.265   10 Jun 2027 10:07:47.379             1.114           422.812
       283   10 Jun 2027 10:08:19.375   10 Jun 2027 10:08:27.202             7.827           804.469
       284   10 Jun 2027 10:08:58.628   10 Jun 2027 10:09:02.323             3.695           977.062
       285   10 Jun 2027 10:09:21.975   10 Jun 2027 10:09:23.092             1.117           483.750
       286   10 Jun 2027 11:40:23.510   10 Jun 2027 11:40:34.772            11.262          4806.937
       287   10 Jun 2027 11:43:01.303   10 Jun 2027 11:43:06.988             5.685          1828.437
       288   10 Jun 2027 11:43:32.303   10 Jun 2027 11:43:33.816             1.513           710.000
       289   11 Jun 2027 03:51:18.893   11 Jun 2027 03:51:22.112             3.219          1609.500
       290   11 Jun 2027 03:52:10.615   11 Jun 2027 03:52:20.170             9.555          4777.500
       291   11 Jun 2027 05:27:40.463   11 Jun 2027 05:30:49.590           189.127         94563.500
       292   11 Jun 2027 07:01:45.735   11 Jun 2027 07:03:34.583           108.848         53812.062
       293   11 Jun 2027 07:03:50.203   11 Jun 2027 07:03:53.607             3.404            66.125
       294   11 Jun 2027 07:04:50.655   11 Jun 2027 07:04:52.285             1.630           764.188
       295   11 Jun 2027 07:05:30.402   11 Jun 2027 07:05:33.440             3.038          1066.031
       296   11 Jun 2027 07:06:44.599   11 Jun 2027 07:06:44.599             0.000             0.000
       297   11 Jun 2027 07:07:21.894   11 Jun 2027 07:07:29.594             7.700          3389.188
       298   11 Jun 2027 07:08:07.532   11 Jun 2027 07:08:14.821             7.289           613.375
       299   11 Jun 2027 07:08:57.865   11 Jun 2027 07:09:06.597             8.732          1138.906
       300   11 Jun 2027 08:38:49.958   11 Jun 2027 08:39:03.048            13.090          3703.437
       301   11 Jun 2027 08:42:29.957   11 Jun 2027 08:42:33.251             3.294          1182.469
       302   11 Jun 2027 08:43:14.256   11 Jun 2027 08:43:14.951             0.695           211.125
       303   11 Jun 2027 08:43:36.894   11 Jun 2027 08:43:37.606             0.712           218.781
       304   11 Jun 2027 08:43:50.818   11 Jun 2027 08:43:52.137             1.319           318.563
       305   11 Jun 2027 08:44:45.624   11 Jun 2027 08:44:54.783             9.159          1336.156
       306   11 Jun 2027 08:45:15.136   11 Jun 2027 08:45:16.229             1.093           205.000
       307   11 Jun 2027 10:15:47.613   11 Jun 2027 10:16:00.227            12.614          5489.313
       308   11 Jun 2027 10:19:10.852   11 Jun 2027 10:19:10.998             0.146            21.156
       309   11 Jun 2027 10:19:22.382   11 Jun 2027 10:19:23.462             1.080           355.750
       310   11 Jun 2027 10:20:02.484   11 Jun 2027 10:20:07.141             4.657           911.094
       311   11 Jun 2027 11:52:33.649   11 Jun 2027 11:52:50.216            16.567          7977.500
       312   11 Jun 2027 11:53:31.246   11 Jun 2027 11:53:31.846             0.600           189.344
       313   11 Jun 2027 11:55:30.481   11 Jun 2027 11:55:35.838             5.357          1073.125
       314   11 Jun 2027 11:56:04.710   11 Jun 2027 11:56:07.814             3.104           902.250
       315   12 Jun 2027 04:03:22.041   12 Jun 2027 04:04:12.897            50.856         25428.000
       316   12 Jun 2027 05:39:47.206   12 Jun 2027 05:42:20.633           153.427         76713.500
       317   12 Jun 2027 07:14:55.117   12 Jun 2027 07:16:54.454           119.337         58988.219
       318   12 Jun 2027 07:17:56.669   12 Jun 2027 07:18:00.687             4.018          1815.719
       319   12 Jun 2027 07:18:27.394   12 Jun 2027 07:18:30.297             2.903           513.969
       320   12 Jun 2027 07:20:05.391   12 Jun 2027 07:20:11.079             5.688          2344.062
       321   12 Jun 2027 07:21:12.625   12 Jun 2027 07:21:15.967             3.342          1499.813
       322   12 Jun 2027 07:21:26.803   12 Jun 2027 07:21:26.803             0.000             0.000
       323   12 Jun 2027 07:21:35.859   12 Jun 2027 07:21:37.025             1.166           305.656
       324   12 Jun 2027 08:51:16.124   12 Jun 2027 08:51:26.277            10.153          4893.844
       325   12 Jun 2027 08:55:13.066   12 Jun 2027 08:55:13.676             0.610            63.437
       326   12 Jun 2027 08:55:57.573   12 Jun 2027 08:55:58.571             0.998           458.312
       327   12 Jun 2027 08:56:40.633   12 Jun 2027 08:56:42.369             1.736           197.375
       328   12 Jun 2027 10:28:49.347   12 Jun 2027 10:29:02.114            12.767          5898.562
       329   12 Jun 2027 10:31:17.654   12 Jun 2027 10:31:23.874             6.220          1059.219
       330   12 Jun 2027 10:31:59.182   12 Jun 2027 10:32:02.412             3.230          1103.375
       331   12 Jun 2027 10:32:49.659   12 Jun 2027 10:32:57.237             7.578          1214.469
       332   13 Jun 2027 04:15:19.750   13 Jun 2027 04:16:07.952            48.202         24101.000
       333   13 Jun 2027 05:51:56.829   13 Jun 2027 05:54:14.285           137.456         68728.000
       334   13 Jun 2027 07:27:06.822   13 Jun 2027 07:29:11.593           124.771         62369.844
       335   13 Jun 2027 07:29:53.350   13 Jun 2027 07:29:57.384             4.034          1182.469
       336   13 Jun 2027 07:30:10.746   13 Jun 2027 07:30:14.733             3.987           414.625
       337   13 Jun 2027 07:30:55.072   13 Jun 2027 07:31:00.851             5.779           790.125
       338   13 Jun 2027 07:32:27.751   13 Jun 2027 07:32:30.915             3.164           698.031
       339   13 Jun 2027 07:32:56.911   13 Jun 2027 07:33:00.937             4.026           662.125
       340   13 Jun 2027 07:33:17.752   13 Jun 2027 07:33:19.860             2.108           398.594
       341   13 Jun 2027 07:33:32.682   13 Jun 2027 07:33:32.682             0.000             0.000
       342   13 Jun 2027 09:03:24.087   13 Jun 2027 09:03:34.146            10.059          4530.062
       343   13 Jun 2027 09:06:29.332   13 Jun 2027 09:06:30.528             1.196           300.594
       344   13 Jun 2027 09:07:18.093   13 Jun 2027 09:07:20.788             2.695          1195.375
       345   13 Jun 2027 09:08:28.806   13 Jun 2027 09:08:31.228             2.422          1201.719
       346   13 Jun 2027 09:08:57.666   13 Jun 2027 09:09:00.275             2.609           276.969
       347   13 Jun 2027 10:40:55.695   13 Jun 2027 10:41:09.107            13.412          6493.906
       348   13 Jun 2027 10:42:16.204   13 Jun 2027 10:42:19.303             3.099           775.781
       349   13 Jun 2027 10:44:10.468   13 Jun 2027 10:44:15.250             4.782          1429.031
       350   13 Jun 2027 10:44:30.001   13 Jun 2027 10:44:38.980             8.979           238.594
       351   13 Jun 2027 10:45:13.674   13 Jun 2027 10:45:14.516             0.842           400.563
