uniorb/output/strategy_4/Camera/Camera_KinoSat_110108.txt

KinoSat_110108
-------------------------
    Access    *     Start Time (UTCG)     *     Stop Time (UTCG)  *   Duration (s) *   Data (Mbytes)
         1   01 Jun 2027 03:38:12.223   01 Jun 2027 03:39:57.736           105.513         52756.500
         2   01 Jun 2027 03:41:25.341   01 Jun 2027 03:42:23.669            58.328         29164.000
         3   01 Jun 2027 03:42:56.816   01 Jun 2027 03:42:59.399             2.583          1291.500
         4   01 Jun 2027 03:43:28.368   01 Jun 2027 03:43:49.619            21.251         10625.500
         5   01 Jun 2027 05:15:37.649   01 Jun 2027 05:18:02.939           145.290         72645.000
         6   01 Jun 2027 05:18:19.524   01 Jun 2027 05:18:28.314             8.790          4395.000
         7   01 Jun 2027 05:19:33.625   01 Jun 2027 05:20:00.592            26.967         13483.500
         8   01 Jun 2027 06:51:48.553   01 Jun 2027 06:54:27.682           159.129         79564.500
         9   01 Jun 2027 06:55:10.553   01 Jun 2027 06:55:19.550             8.997          4498.500
        10   02 Jun 2027 03:49:53.114   02 Jun 2027 03:55:40.643           347.529        173764.500
        11   02 Jun 2027 03:55:42.532   02 Jun 2027 03:56:09.180            26.648         13324.000
        12   02 Jun 2027 05:27:45.291   02 Jun 2027 05:32:15.212           269.921        134960.500
        13   02 Jun 2027 07:03:43.010   02 Jun 2027 07:07:56.637           253.627        126813.500
        14   02 Jun 2027 07:08:38.241   02 Jun 2027 07:08:49.982            11.741          5870.500
        15   03 Jun 2027 04:01:58.978   03 Jun 2027 04:08:20.850           381.872        190936.000
        16   03 Jun 2027 05:40:14.607   03 Jun 2027 05:44:09.686           235.079        117539.500
        17   03 Jun 2027 07:13:33.333   03 Jun 2027 07:15:03.389            90.056         45028.000
        18   03 Jun 2027 07:15:32.487   03 Jun 2027 07:19:48.175           255.688        127844.000
        19   03 Jun 2027 07:20:31.801   03 Jun 2027 07:21:13.483            41.682         20841.000
        20   04 Jun 2027 04:14:19.380   04 Jun 2027 04:20:09.923           350.543        175271.500
        21   04 Jun 2027 04:20:19.207   04 Jun 2027 04:20:26.881             7.674          3837.000
        22   04 Jun 2027 05:52:12.823   04 Jun 2027 05:56:11.802           238.979        119489.500
        23   04 Jun 2027 07:25:30.096   04 Jun 2027 07:31:48.442           378.346        189173.000
        24   04 Jun 2027 07:32:18.664   04 Jun 2027 07:33:19.494            60.830         30415.000
        25   05 Jun 2027 04:26:08.373   05 Jun 2027 04:32:48.266           399.893        199946.500
        26   05 Jun 2027 06:04:12.055   05 Jun 2027 06:08:21.719           249.664        124832.000
        27   05 Jun 2027 07:37:56.021   05 Jun 2027 07:44:48.409           412.388        206194.000
        28   06 Jun 2027 03:01:20.878   06 Jun 2027 03:08:49.448           448.570        224285.000
        29   06 Jun 2027 04:38:15.413   06 Jun 2027 04:43:33.979           318.566        159283.000
        30   06 Jun 2027 04:44:01.927   06 Jun 2027 04:44:45.072            43.145         21572.500
        31   06 Jun 2027 06:16:00.168   06 Jun 2027 06:20:20.240           260.072        130036.000
        32   06 Jun 2027 07:50:15.802   06 Jun 2027 07:51:24.421            68.619         34309.500
        33   06 Jun 2027 07:52:59.740   06 Jun 2027 07:55:30.712           150.972         75486.000
        34   07 Jun 2027 03:13:42.932   07 Jun 2027 03:20:34.000           411.068        205534.000
        35   07 Jun 2027 04:50:44.798   07 Jun 2027 04:55:14.003           269.205        134602.500
        36   07 Jun 2027 04:55:32.261   07 Jun 2027 04:56:35.562            63.301         31650.500
        37   07 Jun 2027 06:27:37.073   07 Jun 2027 06:32:18.079           281.006        140503.000
        38   07 Jun 2027 08:05:06.023   07 Jun 2027 08:07:17.188           131.165         65582.500
        39   08 Jun 2027 03:25:53.642   08 Jun 2027 03:32:38.256           404.614        202307.000
        40   08 Jun 2027 05:03:02.384   08 Jun 2027 05:07:17.991           255.607        127803.500
        41   08 Jun 2027 05:07:28.356   08 Jun 2027 05:07:55.773            27.417         13708.500
        42   08 Jun 2027 06:39:36.907   08 Jun 2027 06:44:45.686           308.779        154389.500
        43   08 Jun 2027 08:18:42.712   08 Jun 2027 08:18:45.822             3.110          1555.000
        44   09 Jun 2027 03:38:27.598   09 Jun 2027 03:44:44.659           377.061        188530.500
        45   09 Jun 2027 05:15:52.388   09 Jun 2027 05:20:22.612           270.224        135112.000
        46   09 Jun 2027 06:52:14.892   09 Jun 2027 06:56:14.799           239.907        119953.500
        47   10 Jun 2027 03:50:07.734   10 Jun 2027 03:56:24.678           376.944        188472.000
        48   10 Jun 2027 05:28:00.982   10 Jun 2027 05:32:30.312           269.330        134665.000
        49   10 Jun 2027 07:04:13.684   10 Jun 2027 07:08:11.358           237.674        118837.000
        50   10 Jun 2027 07:08:56.080   10 Jun 2027 07:09:05.608             9.528          4764.000
        51   11 Jun 2027 04:02:14.090   11 Jun 2027 04:08:35.699           381.609        190804.500
        52   11 Jun 2027 05:40:29.541   11 Jun 2027 05:44:24.633           235.092        117546.000
        53   11 Jun 2027 07:13:47.955   11 Jun 2027 07:15:18.909            90.954         45477.000
        54   11 Jun 2027 07:15:46.639   11 Jun 2027 07:20:03.509           256.870        128435.000
        55   11 Jun 2027 07:20:44.454   11 Jun 2027 07:21:28.748            44.294         22147.000
        56   12 Jun 2027 04:14:34.336   12 Jun 2027 04:20:25.161           350.825        175412.500
        57   12 Jun 2027 04:20:30.576   12 Jun 2027 04:20:41.573            10.997          5498.500
        58   12 Jun 2027 05:52:28.107   12 Jun 2027 05:56:26.834           238.727        119363.500
        59   12 Jun 2027 07:25:45.275   12 Jun 2027 07:32:17.803           392.528        196264.000
        60   12 Jun 2027 07:32:33.176   12 Jun 2027 07:33:34.535            61.359         30679.500
        61   13 Jun 2027 04:26:22.971   13 Jun 2027 04:33:03.425           400.454        200227.000
        62   13 Jun 2027 06:04:27.065   13 Jun 2027 06:08:36.646           249.581        124790.500
        63   13 Jun 2027 07:38:11.381   13 Jun 2027 07:45:03.217           411.836        205918.000
