uniorb/output/strategy_4/Camera/Camera_KinoSat_110101.txt

KinoSat_110101
-------------------------
    Access    *     Start Time (UTCG)     *     Stop Time (UTCG)  *   Duration (s) *   Data (Mbytes)
         1   01 Jun 2027 03:08:30.346   01 Jun 2027 03:09:34.469            64.123         32061.500
         2   01 Jun 2027 03:10:44.954   01 Jun 2027 03:11:07.687            22.733         11366.500
         3   01 Jun 2027 03:12:25.598   01 Jun 2027 03:12:47.740            22.142         11071.000
         4   01 Jun 2027 03:13:34.003   01 Jun 2027 03:14:07.679            33.676         16838.000
         5   01 Jun 2027 03:14:39.544   01 Jun 2027 03:14:53.540            13.996          6998.000
         6   01 Jun 2027 03:15:07.808   01 Jun 2027 03:15:20.513            12.705          6352.500
         7   01 Jun 2027 04:45:33.998   01 Jun 2027 04:48:06.159           152.161         76080.500
         8   01 Jun 2027 04:48:18.692   01 Jun 2027 04:48:27.453             8.761          4380.500
         9   01 Jun 2027 04:48:58.277   01 Jun 2027 04:49:13.247            14.970          7485.000
        10   01 Jun 2027 04:51:15.365   01 Jun 2027 04:51:38.555            23.190         11595.000
        11   01 Jun 2027 06:22:27.659   01 Jun 2027 06:24:53.446           145.787         72893.500
        12   01 Jun 2027 06:25:09.069   01 Jun 2027 06:25:17.280             8.211          4105.500
        13   01 Jun 2027 06:25:39.225   01 Jun 2027 06:25:51.298            12.073          6036.500
        14   01 Jun 2027 06:26:02.298   01 Jun 2027 06:26:05.599             3.301          1650.500
        15   01 Jun 2027 06:27:05.600   01 Jun 2027 06:27:22.645            17.045          8522.500
        16   01 Jun 2027 07:57:37.871   01 Jun 2027 07:57:57.480            19.609          9804.500
        17   01 Jun 2027 07:59:12.904   01 Jun 2027 08:01:20.359           127.455         63727.500
        18   01 Jun 2027 08:02:00.917   01 Jun 2027 08:02:09.963             9.046          4523.000
        19   02 Jun 2027 03:20:56.823   02 Jun 2027 03:27:36.971           400.148        200074.000
        20   02 Jun 2027 04:57:58.741   02 Jun 2027 05:02:15.064           256.323        128161.500
        21   02 Jun 2027 05:02:33.350   02 Jun 2027 05:02:34.690             1.340           670.000
        22   02 Jun 2027 05:03:09.885   02 Jun 2027 05:03:22.182            12.297          6148.500
        23   02 Jun 2027 06:35:03.665   02 Jun 2027 06:39:12.391           248.726        124363.000
        24   02 Jun 2027 08:12:57.968   02 Jun 2027 08:14:00.347            62.379         31189.500
        25   03 Jun 2027 03:33:20.380   03 Jun 2027 03:39:43.804           383.424        191712.000
        26   03 Jun 2027 05:10:50.595   03 Jun 2027 05:15:14.621           264.026        132013.000
        27   03 Jun 2027 06:46:55.220   03 Jun 2027 06:51:11.967           256.747        128373.500
        28   04 Jun 2027 03:45:34.725   04 Jun 2027 03:51:44.972           370.247        185123.500
        29   04 Jun 2027 05:22:52.683   04 Jun 2027 05:27:31.225           278.542        139271.000
        30   04 Jun 2027 06:59:14.063   04 Jun 2027 07:03:53.254           279.191        139595.500
        31   05 Jun 2027 03:57:11.359   05 Jun 2027 04:03:36.645           385.286        192643.000
        32   05 Jun 2027 05:35:27.849   05 Jun 2027 05:39:19.188           231.339        115669.500
        33   05 Jun 2027 07:11:11.334   05 Jun 2027 07:14:56.838           225.504        112752.000
        34   05 Jun 2027 07:15:30.820   05 Jun 2027 07:16:17.303            46.483         23241.500
        35   06 Jun 2027 04:09:30.827   06 Jun 2027 04:15:52.836           382.009        191004.500
        36   06 Jun 2027 05:47:28.695   06 Jun 2027 05:51:26.135           237.440        118720.000
        37   06 Jun 2027 07:20:34.790   06 Jun 2027 07:26:53.247           378.457        189228.500
        38   06 Jun 2027 07:27:47.091   06 Jun 2027 07:28:34.732            47.641         23820.500
        39   07 Jun 2027 04:21:31.020   07 Jun 2027 04:28:01.765           390.745        195372.500
        40   07 Jun 2027 05:59:29.200   07 Jun 2027 06:03:39.099           249.899        124949.500
        41   07 Jun 2027 07:33:06.727   07 Jun 2027 07:40:30.060           443.333        221666.500
        42   08 Jun 2027 03:00:00.000   08 Jun 2027 03:04:03.048           243.048        121524.000
        43   08 Jun 2027 04:33:22.755   08 Jun 2027 04:39:14.460           351.705        175852.500
        44   08 Jun 2027 04:39:41.972   08 Jun 2027 04:40:06.555            24.583         12291.500
        45   08 Jun 2027 06:11:32.665   08 Jun 2027 06:15:37.194           244.529        122264.500
        46   08 Jun 2027 07:47:10.763   08 Jun 2027 07:51:38.101           267.338        133669.000
        47   09 Jun 2027 03:08:45.423   09 Jun 2027 03:16:04.199           438.776        219388.000
        48   09 Jun 2027 04:45:49.889   09 Jun 2027 04:50:32.567           282.678        141339.000
        49   09 Jun 2027 04:51:34.554   09 Jun 2027 04:51:53.389            18.835          9417.500
        50   09 Jun 2027 06:22:42.468   09 Jun 2027 06:27:37.618           295.150        147575.000
        51   09 Jun 2027 07:58:10.368   09 Jun 2027 07:58:11.604             1.236           618.000
        52   09 Jun 2027 07:59:27.708   09 Jun 2027 08:02:38.562           190.854         95427.000
        53   10 Jun 2027 03:21:11.509   10 Jun 2027 03:27:51.762           400.253        200126.500
        54   10 Jun 2027 04:58:13.420   10 Jun 2027 05:02:30.217           256.797        128398.500
        55   10 Jun 2027 05:02:49.131   10 Jun 2027 05:03:36.803            47.672         23836.000
        56   10 Jun 2027 06:35:18.087   10 Jun 2027 06:39:27.601           249.514        124757.000
        57   10 Jun 2027 08:13:18.924   10 Jun 2027 08:14:15.108            56.184         28092.000
        58   11 Jun 2027 03:33:35.740   11 Jun 2027 03:39:58.902           383.162        191581.000
        59   11 Jun 2027 05:11:06.420   11 Jun 2027 05:15:30.188           263.768        131884.000
        60   11 Jun 2027 06:47:13.690   11 Jun 2027 06:51:26.509           252.819        126409.500
        61   12 Jun 2027 03:45:49.630   12 Jun 2027 03:51:59.823           370.193        185096.500
        62   12 Jun 2027 05:23:07.257   12 Jun 2027 05:27:46.444           279.187        139593.500
        63   12 Jun 2027 06:59:31.839   12 Jun 2027 07:04:08.793           276.954        138477.000
        64   13 Jun 2027 03:57:26.391   13 Jun 2027 04:03:51.843           385.452        192726.000
        65   13 Jun 2027 05:35:43.503   13 Jun 2027 05:39:35.389           231.886        115943.000
        66   13 Jun 2027 07:11:09.882   13 Jun 2027 07:15:12.128           242.246        121123.000
        67   13 Jun 2027 07:15:47.050   13 Jun 2027 07:16:32.584            45.534         22767.000
