uniorb/output/strategy_4/Camera/Camera_KinoSat_110701.txt

KinoSat_110701
-------------------------
    Access    *     Start Time (UTCG)     *     Stop Time (UTCG)  *   Duration (s) *   Data (Mbytes)
         1   01 Jun 2027 04:18:17.478   01 Jun 2027 04:20:03.572           106.094         53047.000
         2   01 Jun 2027 04:20:18.386   01 Jun 2027 04:20:18.386             0.000             0.000
         3   01 Jun 2027 05:53:27.386   01 Jun 2027 05:55:34.015           126.629         63314.500
         4   01 Jun 2027 05:56:03.864   01 Jun 2027 05:56:19.525            15.661          7830.500
         5   01 Jun 2027 05:57:38.171   01 Jun 2027 05:57:44.242             6.071          3035.500
         6   01 Jun 2027 05:58:55.576   01 Jun 2027 05:59:07.032            11.456          5728.000
         7   01 Jun 2027 05:59:57.335   01 Jun 2027 05:59:57.933             0.598           299.000
         8   01 Jun 2027 07:29:52.621   01 Jun 2027 07:32:35.499           162.878         81439.000
         9   01 Jun 2027 07:33:39.679   01 Jun 2027 07:33:45.466             5.787          2893.500
        10   01 Jun 2027 09:07:07.156   01 Jun 2027 09:09:41.228           154.072         77036.000
        11   01 Jun 2027 09:10:09.623   01 Jun 2027 09:10:32.004            22.381         11190.500
        12   01 Jun 2027 09:10:51.149   01 Jun 2027 09:11:11.042            19.893          9946.500
        13   01 Jun 2027 10:43:21.900   01 Jun 2027 10:45:09.583           107.683         53841.500
        14   01 Jun 2027 10:45:28.566   01 Jun 2027 10:45:59.269            30.703         15351.500
        15   01 Jun 2027 10:47:58.794   01 Jun 2027 10:48:04.015             5.221          2610.500
        16   02 Jun 2027 04:30:10.377   02 Jun 2027 04:30:17.692             7.315          3657.500
        17   02 Jun 2027 04:30:44.360   02 Jun 2027 04:31:46.801            62.441         31220.500
        18   02 Jun 2027 04:32:42.025   02 Jun 2027 04:33:35.476            53.451         26725.500
        19   02 Jun 2027 06:05:06.950   02 Jun 2027 06:08:41.405           214.455        107227.500
        20   02 Jun 2027 06:10:26.260   02 Jun 2027 06:10:31.277             5.017          2508.500
        21   02 Jun 2027 06:10:41.055   02 Jun 2027 06:10:55.081            14.026          7013.000
        22   02 Jun 2027 06:11:46.404   02 Jun 2027 06:12:10.036            23.632         11816.000
        23   02 Jun 2027 07:41:24.998   02 Jun 2027 07:43:40.059           135.061         67530.500
        24   02 Jun 2027 07:44:11.741   02 Jun 2027 07:44:46.102            34.361         17180.500
        25   02 Jun 2027 07:45:06.340   02 Jun 2027 07:45:09.401             3.061          1530.500
        26   02 Jun 2027 07:46:21.258   02 Jun 2027 07:47:17.294            56.036         28018.000
        27   02 Jun 2027 07:47:30.211   02 Jun 2027 07:47:49.882            19.671          9835.500
        28   02 Jun 2027 09:19:40.866   02 Jun 2027 09:20:59.638            78.772         38846.468
        29   02 Jun 2027 09:22:03.044   02 Jun 2027 09:22:05.929             2.885          1036.094
        30   02 Jun 2027 09:22:50.823   02 Jun 2027 09:22:53.321             2.498          1041.625
        31   02 Jun 2027 09:22:59.590   02 Jun 2027 09:23:04.015             4.425           195.906
        32   02 Jun 2027 10:55:00.873   02 Jun 2027 10:55:13.552            12.679          5292.500
        33   02 Jun 2027 10:57:11.139   02 Jun 2027 10:57:14.020             2.881           303.281
        34   02 Jun 2027 11:00:27.691   02 Jun 2027 11:00:28.552             0.861            42.562
        35   03 Jun 2027 03:04:55.630   03 Jun 2027 03:05:22.851            27.221         13610.500
        36   03 Jun 2027 04:40:29.083   03 Jun 2027 04:41:02.367            33.284         16642.000
        37   03 Jun 2027 04:41:54.246   03 Jun 2027 04:44:20.710           146.464         73232.000
        38   03 Jun 2027 04:45:23.515   03 Jun 2027 04:45:45.125            21.610         10805.000
        39   03 Jun 2027 06:16:40.100   03 Jun 2027 06:18:04.470            84.370         40795.375
        40   03 Jun 2027 06:18:56.333   03 Jun 2027 06:18:59.989             3.656          1620.719
        41   03 Jun 2027 06:19:50.920   03 Jun 2027 06:19:51.976             1.056           329.562
        42   03 Jun 2027 06:21:42.302   03 Jun 2027 06:21:52.587            10.285          3447.688
        43   03 Jun 2027 06:22:31.694   03 Jun 2027 06:22:34.947             3.253          1222.094
        44   03 Jun 2027 06:23:31.448   03 Jun 2027 06:23:36.455             5.007          1691.844
        45   03 Jun 2027 07:53:44.292   03 Jun 2027 07:53:48.209             3.917          1470.469
        46   03 Jun 2027 07:54:38.531   03 Jun 2027 07:54:45.781             7.250           128.719
        47   03 Jun 2027 07:57:22.627   03 Jun 2027 07:57:28.421             5.794          2490.687
        48   03 Jun 2027 07:57:49.240   03 Jun 2027 07:57:51.846             2.606           634.969
        49   03 Jun 2027 07:58:33.963   03 Jun 2027 07:58:37.431             3.468           997.531
        50   03 Jun 2027 08:00:01.235   03 Jun 2027 08:00:06.271             5.036          1876.125
        51   03 Jun 2027 09:31:43.493   03 Jun 2027 09:31:58.183            14.690          5361.688
        52   03 Jun 2027 09:32:46.631   03 Jun 2027 09:32:53.133             6.502          1514.000
        53   03 Jun 2027 09:33:11.922   03 Jun 2027 09:33:14.941             3.019           453.187
        54   03 Jun 2027 09:34:27.974   03 Jun 2027 09:34:33.230             5.256          1819.062
        55   03 Jun 2027 09:35:10.677   03 Jun 2027 09:35:12.106             1.429           260.031
        56   03 Jun 2027 11:04:52.817   03 Jun 2027 11:05:05.463            12.646          5119.875
        57   04 Jun 2027 03:16:31.437   04 Jun 2027 03:16:40.037             8.600          4300.000
        58   04 Jun 2027 03:17:34.939   04 Jun 2027 03:17:34.939             0.000             0.000
        59   04 Jun 2027 03:17:39.689   04 Jun 2027 03:17:41.430             1.741           870.500
        60   04 Jun 2027 03:18:50.400   04 Jun 2027 03:18:55.605             5.205          2602.500
        61   04 Jun 2027 03:20:44.098   04 Jun 2027 03:20:45.980             1.882           941.000
        62   04 Jun 2027 03:21:04.990   04 Jun 2027 03:21:08.655             3.665          1832.500
        63   04 Jun 2027 04:51:35.961   04 Jun 2027 04:53:19.039           103.078         51539.000
        64   04 Jun 2027 04:53:38.846   04 Jun 2027 04:55:48.558           129.712         64856.000
        65   04 Jun 2027 06:28:56.862   04 Jun 2027 06:29:58.418            61.556         30622.187
        66   04 Jun 2027 06:31:07.535   04 Jun 2027 06:31:11.721             4.186          1873.812
        67   04 Jun 2027 06:31:17.113   04 Jun 2027 06:31:20.927             3.814           168.500
        68   04 Jun 2027 06:31:45.165   04 Jun 2027 06:31:48.462             3.297           329.156
        69   04 Jun 2027 06:32:02.667   04 Jun 2027 06:32:04.192             1.525           306.281
        70   04 Jun 2027 06:33:23.181   04 Jun 2027 06:33:28.860             5.679          1899.469
        71   04 Jun 2027 06:34:12.869   04 Jun 2027 06:34:15.656             2.787           943.187
        72   04 Jun 2027 06:35:03.365   04 Jun 2027 06:35:05.401             2.036           995.500
        73   04 Jun 2027 08:05:46.038   04 Jun 2027 08:05:50.846             4.808          1983.156
        74   04 Jun 2027 08:06:38.978   04 Jun 2027 08:06:44.150             5.172           285.469
        75   04 Jun 2027 08:07:32.295   04 Jun 2027 08:07:35.345             3.050           868.438
        76   04 Jun 2027 08:08:30.467   04 Jun 2027 08:08:36.816             6.349          1123.938
        77   04 Jun 2027 08:09:26.855   04 Jun 2027 08:09:29.956             3.101          1472.625
        78   04 Jun 2027 08:09:45.828   04 Jun 2027 08:09:47.380             1.552           409.906
        79   04 Jun 2027 08:10:17.330   04 Jun 2027 08:10:19.152             1.822           624.688
        80   04 Jun 2027 08:11:11.580   04 Jun 2027 08:11:11.818             0.238            90.656
        81   04 Jun 2027 08:12:10.805   04 Jun 2027 08:12:13.668             2.863          1193.000
        82   04 Jun 2027 09:43:42.941   04 Jun 2027 09:43:58.960            16.019          6332.688
        83   04 Jun 2027 09:44:52.411   04 Jun 2027 09:44:53.705             1.294           280.156
        84   04 Jun 2027 09:47:04.470   04 Jun 2027 09:47:06.286             1.816           856.812
        85   04 Jun 2027 09:47:18.596   04 Jun 2027 09:47:19.850             1.254           280.625
        86   04 Jun 2027 11:17:19.408   04 Jun 2027 11:17:21.187             1.779           513.781
        87   05 Jun 2027 03:28:15.694   05 Jun 2027 03:28:37.163            21.469         10734.500
        88   05 Jun 2027 05:03:04.160   05 Jun 2027 05:06:27.316           203.156        101578.000
        89   05 Jun 2027 05:06:45.706   05 Jun 2027 05:06:56.483            10.777          5388.500
        90   05 Jun 2027 05:07:51.514   05 Jun 2027 05:08:01.132             9.618          4809.000
        91   05 Jun 2027 05:11:42.206   05 Jun 2027 05:11:43.760             1.554           777.000
        92   05 Jun 2027 05:11:46.108   05 Jun 2027 05:12:00.262            14.154          7077.000
        93   05 Jun 2027 06:40:52.673   05 Jun 2027 06:41:53.413            60.740         27864.156
        94   05 Jun 2027 06:42:10.590   05 Jun 2027 06:42:13.905             3.315           536.781
        95   05 Jun 2027 06:43:30.329   05 Jun 2027 06:43:32.638             2.309           985.281
        96   05 Jun 2027 06:43:54.540   05 Jun 2027 06:43:56.819             2.279           576.063
        97   05 Jun 2027 06:44:13.525   05 Jun 2027 06:44:13.525             0.000             0.000
        98   05 Jun 2027 06:44:29.143   05 Jun 2027 06:44:31.087             1.944           724.094
        99   05 Jun 2027 06:45:33.133   05 Jun 2027 06:45:36.987             3.854          1423.938
       100   05 Jun 2027 06:45:56.015   05 Jun 2027 06:45:58.054             2.039           251.469
       101   05 Jun 2027 06:46:28.008   05 Jun 2027 06:46:31.726             3.718           936.062
       102   05 Jun 2027 06:46:51.208   05 Jun 2027 06:46:58.734             7.526           508.313
       103   05 Jun 2027 08:17:37.181   05 Jun 2027 08:17:41.089             3.908          1602.906
       104   05 Jun 2027 08:20:09.927   05 Jun 2027 08:20:14.626             4.699          1368.906
       105   05 Jun 2027 08:20:58.130   05 Jun 2027 08:21:02.597             4.467           614.469
       106   05 Jun 2027 08:21:28.223   05 Jun 2027 08:21:31.275             3.052           694.250
       107   05 Jun 2027 08:22:31.443   05 Jun 2027 08:22:36.422             4.979          1731.969
       108   05 Jun 2027 08:23:15.200   05 Jun 2027 08:23:19.068             3.868           668.531
       109   05 Jun 2027 09:55:44.492   05 Jun 2027 09:55:54.707            10.215          4657.438
       110   05 Jun 2027 09:56:57.630   05 Jun 2027 09:57:01.314             3.684          1582.750
       111   05 Jun 2027 09:58:06.127   05 Jun 2027 09:58:08.618             2.491          1222.625
       112   05 Jun 2027 11:29:35.569   05 Jun 2027 11:29:42.496             6.927          1541.531
       113   06 Jun 2027 03:42:01.487   06 Jun 2027 03:42:09.637             8.150          4075.000
       114   06 Jun 2027 03:43:24.924   06 Jun 2027 03:43:24.924             0.000             0.000
       115   06 Jun 2027 03:44:14.868   06 Jun 2027 03:44:22.515             7.647          3823.500
       116   06 Jun 2027 05:15:52.450   06 Jun 2027 05:19:14.307           201.857        100928.500
       117   06 Jun 2027 05:22:59.220   06 Jun 2027 05:23:11.387            12.167          6083.500
       118   06 Jun 2027 05:23:22.268   06 Jun 2027 05:23:29.558             7.290          3645.000
       119   06 Jun 2027 05:23:55.828   06 Jun 2027 05:24:22.366            26.538         13269.000
       120   06 Jun 2027 06:52:59.076   06 Jun 2027 06:53:50.602            51.526         24841.219
       121   06 Jun 2027 06:54:13.496   06 Jun 2027 06:54:15.444             1.948           664.719
       122   06 Jun 2027 06:54:52.294   06 Jun 2027 06:54:53.565             1.271           506.656
       123   06 Jun 2027 06:55:52.397   06 Jun 2027 06:55:55.456             3.059           888.563
       124   06 Jun 2027 06:56:38.035   06 Jun 2027 06:56:41.044             3.009          1317.125
       125   06 Jun 2027 06:57:10.774   06 Jun 2027 06:57:12.863             2.089           726.500
       126   06 Jun 2027 06:57:46.439   06 Jun 2027 06:57:48.406             1.967           913.156
       127   06 Jun 2027 06:58:00.532   06 Jun 2027 06:58:03.334             2.802           293.656
       128   06 Jun 2027 06:58:32.372   06 Jun 2027 06:58:34.976             2.604           852.906
       129   06 Jun 2027 08:30:01.260   06 Jun 2027 08:30:07.386             6.126          1869.594
       130   06 Jun 2027 08:33:04.217   06 Jun 2027 08:33:08.650             4.433          1056.312
       131   06 Jun 2027 08:33:38.850   06 Jun 2027 08:33:40.712             1.862           841.094
       132   06 Jun 2027 08:34:26.311   06 Jun 2027 08:34:29.113             2.802          1113.375
       133   06 Jun 2027 08:35:50.320   06 Jun 2027 08:36:00.994            10.674           922.156
       134   06 Jun 2027 10:06:58.473   06 Jun 2027 10:07:12.569            14.096          6228.094
       135   06 Jun 2027 10:07:33.757   06 Jun 2027 10:07:36.500             2.743           306.562
       136   06 Jun 2027 10:08:09.538   06 Jun 2027 10:08:12.003             2.465           622.344
       137   06 Jun 2027 10:10:52.240   06 Jun 2027 10:10:55.291             3.051          1357.969
       138   06 Jun 2027 10:11:08.526   06 Jun 2027 10:11:12.397             3.871           239.031
       139   06 Jun 2027 11:42:02.310   06 Jun 2027 11:42:03.865             1.555            40.750
       140   07 Jun 2027 03:54:23.136   07 Jun 2027 03:54:48.767            25.631         12815.500
       141   07 Jun 2027 05:27:50.891   07 Jun 2027 05:30:58.635           187.744         93872.000
       142   07 Jun 2027 05:34:49.766   07 Jun 2027 05:35:01.736            11.970          5985.000
       143   07 Jun 2027 05:36:04.199   07 Jun 2027 05:36:21.406            17.207          8603.500
       144   07 Jun 2027 07:05:24.810   07 Jun 2027 07:06:57.072            92.262         44803.844
       145   07 Jun 2027 07:08:29.298   07 Jun 2027 07:08:32.072             2.774           968.906
       146   07 Jun 2027 07:09:45.708   07 Jun 2027 07:09:51.681             5.973          2220.438
       147   07 Jun 2027 08:42:18.704   07 Jun 2027 08:42:29.076            10.372          4571.438
       148   07 Jun 2027 08:44:47.391   07 Jun 2027 08:44:49.473             2.082           461.375
       149   07 Jun 2027 08:47:40.776   07 Jun 2027 08:47:45.093             4.317           473.063
       150   07 Jun 2027 10:19:12.438   07 Jun 2027 10:19:29.488            17.050          8109.844
       151   07 Jun 2027 10:21:06.557   07 Jun 2027 10:21:13.671             7.114          1241.062
       152   07 Jun 2027 10:21:27.729   07 Jun 2027 10:21:28.862             1.133           393.687
       153   07 Jun 2027 11:56:51.968   07 Jun 2027 11:56:54.209             2.241           624.906
       154   08 Jun 2027 04:06:24.554   08 Jun 2027 04:06:45.327            20.773         10386.500
       155   08 Jun 2027 04:07:14.922   08 Jun 2027 04:07:22.181             7.259          3629.500
       156   08 Jun 2027 04:09:25.331   08 Jun 2027 04:09:25.624             0.293           146.500
       157   08 Jun 2027 04:09:34.776   08 Jun 2027 04:09:54.491            19.715          9857.500
       158   08 Jun 2027 05:41:19.568   08 Jun 2027 05:43:50.203           150.635         75317.500
       159   08 Jun 2027 05:47:35.615   08 Jun 2027 05:48:17.676            42.061         21030.500
       160   08 Jun 2027 07:17:32.180   08 Jun 2027 07:19:05.891            93.711         45003.937
       161   08 Jun 2027 07:20:13.169   08 Jun 2027 07:20:13.773             0.604           210.344
       162   08 Jun 2027 07:21:45.825   08 Jun 2027 07:21:50.592             4.767          2126.375
       163   08 Jun 2027 08:55:15.348   08 Jun 2027 08:55:25.161             9.813          4696.344
       164   08 Jun 2027 08:56:47.401   08 Jun 2027 08:56:49.693             2.292           588.031
       165   08 Jun 2027 08:58:32.885   08 Jun 2027 08:58:36.707             3.822          1623.000
       166   08 Jun 2027 10:31:21.654   08 Jun 2027 10:31:35.049            13.395          5860.063
       167   08 Jun 2027 10:33:10.293   08 Jun 2027 10:33:14.142             3.849           933.719
       168   09 Jun 2027 04:18:32.165   09 Jun 2027 04:19:07.267            35.102         17551.000
       169   09 Jun 2027 04:19:42.727   09 Jun 2027 04:19:55.806            13.079          6539.500
       170   09 Jun 2027 04:20:20.812   09 Jun 2027 04:20:26.922             6.110          3055.000
       171   09 Jun 2027 04:20:57.298   09 Jun 2027 04:21:24.507            27.209         13604.500
       172   09 Jun 2027 04:21:28.099   09 Jun 2027 04:21:31.312             3.213          1606.500
       173   09 Jun 2027 04:21:56.663   09 Jun 2027 04:21:57.864             1.201           600.500
       174   09 Jun 2027 04:22:01.607   09 Jun 2027 04:22:04.019             2.412          1206.000
       175   09 Jun 2027 05:53:42.177   09 Jun 2027 05:55:49.027           126.850         63425.000
       176   09 Jun 2027 05:58:53.226   09 Jun 2027 05:59:35.785            42.559         21279.500
       177   09 Jun 2027 06:00:17.770   09 Jun 2027 06:00:18.791             1.021           510.500
       178   09 Jun 2027 07:30:07.673   09 Jun 2027 07:31:18.187            70.514         34735.126
       179   09 Jun 2027 07:33:04.364   09 Jun 2027 07:33:07.879             3.515           748.313
       180   09 Jun 2027 07:33:42.896   09 Jun 2027 07:33:47.188             4.292           946.719
       181   09 Jun 2027 07:34:49.360   09 Jun 2027 07:34:50.746             1.386           640.812
       182   09 Jun 2027 07:35:35.934   09 Jun 2027 07:35:36.883             0.949           179.281
       183   09 Jun 2027 09:07:22.136   09 Jun 2027 09:07:32.629            10.493          4575.781
       184   09 Jun 2027 09:11:25.905   09 Jun 2027 09:11:31.291             5.386           445.813
       185   09 Jun 2027 10:43:36.641   09 Jun 2027 10:43:49.561            12.920          6062.844
       186   09 Jun 2027 10:45:04.680   09 Jun 2027 10:45:06.452             1.772           746.062
       187   09 Jun 2027 10:46:13.474   09 Jun 2027 10:46:17.155             3.681          1519.750
       188   09 Jun 2027 10:48:16.351   09 Jun 2027 10:48:18.623             2.272             9.469
       189   10 Jun 2027 04:30:25.116   10 Jun 2027 04:32:01.477            96.361         48180.500
       190   10 Jun 2027 04:32:57.477   10 Jun 2027 04:33:49.832            52.355         26177.500
       191   10 Jun 2027 06:05:21.283   10 Jun 2027 06:07:11.803           110.520         55260.000
       192   10 Jun 2027 06:07:57.383   10 Jun 2027 06:08:26.413            29.030         14515.000
       193   10 Jun 2027 06:09:27.375   10 Jun 2027 06:09:40.837            13.462          4707.937
       194   10 Jun 2027 06:11:01.143   10 Jun 2027 06:11:05.712             4.569          1968.656
       195   10 Jun 2027 06:11:35.192   10 Jun 2027 06:11:37.624             2.432           851.437
       196   10 Jun 2027 06:11:58.041   10 Jun 2027 06:11:59.577             1.536           149.437
       197   10 Jun 2027 07:41:39.932   10 Jun 2027 07:41:40.942             1.010           169.375
       198   10 Jun 2027 07:42:57.969   10 Jun 2027 07:42:58.493             0.524            98.781
       199   10 Jun 2027 07:43:57.446   10 Jun 2027 07:43:59.389             1.943           875.031
       200   10 Jun 2027 07:44:32.476   10 Jun 2027 07:44:36.553             4.077           203.469
       201   10 Jun 2027 07:45:22.786   10 Jun 2027 07:45:22.786             0.000             0.000
       202   10 Jun 2027 07:45:44.771   10 Jun 2027 07:45:53.385             8.614          1405.781
       203   10 Jun 2027 07:46:56.963   10 Jun 2027 07:46:59.308             2.345          1079.781
       204   10 Jun 2027 09:19:55.390   10 Jun 2027 09:20:11.538            16.148          7984.469
       205   10 Jun 2027 09:20:56.465   10 Jun 2027 09:21:00.431             3.966          1169.406
       206   10 Jun 2027 09:22:18.817   10 Jun 2027 09:22:21.394             2.577          1065.187
       207   10 Jun 2027 09:23:05.786   10 Jun 2027 09:23:08.266             2.480           968.000
       208   10 Jun 2027 09:23:14.879   10 Jun 2027 09:23:18.884             4.005           206.656
       209   10 Jun 2027 09:23:45.834   10 Jun 2027 09:23:48.117             2.283           729.563
       210   10 Jun 2027 10:55:15.528   10 Jun 2027 10:55:30.066            14.538          6720.687
       211   10 Jun 2027 10:57:17.188   10 Jun 2027 10:57:18.315             1.127           500.406
       212   10 Jun 2027 10:59:04.411   10 Jun 2027 10:59:13.755             9.344          2015.250
       213   11 Jun 2027 03:05:45.334   11 Jun 2027 03:05:59.449            14.115          7057.500
       214   11 Jun 2027 03:06:34.522   11 Jun 2027 03:06:44.874            10.352          5176.000
       215   11 Jun 2027 04:40:43.781   11 Jun 2027 04:41:17.418            33.637         16818.500
       216   11 Jun 2027 04:42:08.966   11 Jun 2027 04:44:00.666           111.700         55850.000
       217   11 Jun 2027 04:46:08.785   11 Jun 2027 04:46:42.551            33.766         16883.000
       218   11 Jun 2027 06:16:54.607   11 Jun 2027 06:18:37.726           103.119         51228.687
       219   11 Jun 2027 06:19:16.609   11 Jun 2027 06:19:17.886             1.277           146.937
       220   11 Jun 2027 06:19:58.360   11 Jun 2027 06:20:02.183             3.823          1219.812
       221   11 Jun 2027 06:20:17.127   11 Jun 2027 06:20:19.899             2.772           326.031
       222   11 Jun 2027 06:21:00.600   11 Jun 2027 06:21:02.742             2.142           892.688
       223   11 Jun 2027 06:21:31.174   11 Jun 2027 06:21:33.680             2.506           740.969
       224   11 Jun 2027 06:22:09.353   11 Jun 2027 06:22:09.353             0.000             0.000
       225   11 Jun 2027 06:22:47.364   11 Jun 2027 06:22:52.020             4.656          1511.375
       226   11 Jun 2027 06:23:45.942   11 Jun 2027 06:23:54.739             8.797          1647.594
       227   11 Jun 2027 07:53:59.189   11 Jun 2027 07:54:00.065             0.876           364.125
       228   11 Jun 2027 07:56:11.899   11 Jun 2027 07:56:16.307             4.408          1508.531
       229   11 Jun 2027 07:57:38.099   11 Jun 2027 07:57:43.732             5.633          1686.531
       230   11 Jun 2027 07:58:01.341   11 Jun 2027 07:58:03.549             2.208           500.562
       231   11 Jun 2027 07:58:50.870   11 Jun 2027 07:58:56.848             5.978          1068.062
       232   11 Jun 2027 08:00:14.526   11 Jun 2027 08:00:18.821             4.295          1790.469
       233   11 Jun 2027 09:31:58.318   11 Jun 2027 09:32:12.727            14.409          5312.219
       234   11 Jun 2027 09:33:02.914   11 Jun 2027 09:33:06.578             3.664          1568.344
       235   11 Jun 2027 09:33:27.801   11 Jun 2027 09:33:31.785             3.984           435.406
       236   11 Jun 2027 09:33:44.588   11 Jun 2027 09:33:48.014             3.426           220.469
       237   11 Jun 2027 09:34:48.333   11 Jun 2027 09:34:48.719             0.386            98.500
       238   11 Jun 2027 09:35:51.196   11 Jun 2027 09:35:53.413             2.217           797.594
       239   11 Jun 2027 11:05:07.330   11 Jun 2027 11:05:21.321            13.991          5228.469
       240   12 Jun 2027 03:16:46.147   12 Jun 2027 03:17:06.129            19.982          9991.000
       241   12 Jun 2027 03:17:49.111   12 Jun 2027 03:17:52.066             2.955          1477.500
       242   12 Jun 2027 04:51:50.368   12 Jun 2027 04:53:33.615           103.247         51623.500
       243   12 Jun 2027 04:53:53.421   12 Jun 2027 04:56:04.696           131.275         65637.500
       244   12 Jun 2027 06:29:12.123   12 Jun 2027 06:30:10.418            58.295         28520.937
       245   12 Jun 2027 06:31:59.845   12 Jun 2027 06:32:00.966             1.121           304.375
       246   12 Jun 2027 06:32:20.400   12 Jun 2027 06:32:20.400             0.000             0.000
       247   12 Jun 2027 06:32:38.829   12 Jun 2027 06:32:41.884             3.055           934.344
       248   12 Jun 2027 06:33:26.386   12 Jun 2027 06:33:30.320             3.934           988.562
       249   12 Jun 2027 06:35:18.524   12 Jun 2027 06:35:24.137             5.613          2521.500
       250   12 Jun 2027 08:06:00.806   12 Jun 2027 08:06:05.654             4.848           960.813
       251   12 Jun 2027 08:07:46.867   12 Jun 2027 08:07:51.609             4.742           872.812
       252   12 Jun 2027 08:08:45.117   12 Jun 2027 08:08:51.337             6.220          1054.969
       253   12 Jun 2027 08:09:41.701   12 Jun 2027 08:09:47.611             5.910          1480.281
       254   12 Jun 2027 08:10:00.398   12 Jun 2027 08:10:02.293             1.895           399.594
       255   12 Jun 2027 08:10:32.356   12 Jun 2027 08:10:33.792             1.436           646.750
       256   12 Jun 2027 08:11:25.356   12 Jun 2027 08:11:27.270             1.914            21.625
       257   12 Jun 2027 09:43:57.870   12 Jun 2027 09:44:14.835            16.965          6261.938
       258   12 Jun 2027 09:45:43.648   12 Jun 2027 09:45:47.380             3.732          1093.313
       259   12 Jun 2027 09:47:19.176   12 Jun 2027 09:47:21.892             2.716           781.156
       260   12 Jun 2027 09:47:33.993   12 Jun 2027 09:47:35.658             1.665           293.500
       261   12 Jun 2027 11:17:34.652   12 Jun 2027 11:17:38.009             3.357           515.594
       262   13 Jun 2027 03:28:30.194   13 Jun 2027 03:28:53.493            23.299         11649.500
       263   13 Jun 2027 05:03:18.565   13 Jun 2027 05:06:32.749           194.184         97092.000
       264   13 Jun 2027 05:07:21.668   13 Jun 2027 05:08:07.645            45.977         22988.500
       265   13 Jun 2027 05:11:58.017   13 Jun 2027 05:11:58.024             0.007             3.500
       266   13 Jun 2027 05:12:00.993   13 Jun 2027 05:12:15.440            14.447          7223.500
       267   13 Jun 2027 06:41:07.383   13 Jun 2027 06:41:53.179            45.796         19910.249
       268   13 Jun 2027 06:42:27.678   13 Jun 2027 06:42:31.202             3.524           589.156
       269   13 Jun 2027 06:43:14.915   13 Jun 2027 06:43:18.048             3.133           109.562
       270   13 Jun 2027 06:43:50.736   13 Jun 2027 06:43:52.707             1.971           145.688
       271   13 Jun 2027 06:44:29.112   13 Jun 2027 06:44:30.742             1.630           579.031
       272   13 Jun 2027 06:45:24.966   13 Jun 2027 06:45:28.747             3.781          1353.062
       273   13 Jun 2027 06:45:48.007   13 Jun 2027 06:45:48.705             0.698           329.562
       274   13 Jun 2027 06:46:06.206   13 Jun 2027 06:46:08.380             2.174           322.813
       275   13 Jun 2027 06:46:14.793   13 Jun 2027 06:46:15.336             0.543            87.625
       276   13 Jun 2027 06:47:06.875   13 Jun 2027 06:47:14.164             7.289          1610.594
       277   13 Jun 2027 08:17:51.764   13 Jun 2027 08:17:56.494             4.730          1367.031
       278   13 Jun 2027 08:20:26.589   13 Jun 2027 08:20:29.598             3.009          1434.937
       279   13 Jun 2027 08:21:38.338   13 Jun 2027 08:21:40.037             1.699           849.500
       280   13 Jun 2027 08:22:46.356   13 Jun 2027 08:22:52.978             6.622          2875.750
       281   13 Jun 2027 08:23:29.627   13 Jun 2027 08:23:31.128             1.501           639.281
       282   13 Jun 2027 08:24:12.082   13 Jun 2027 08:24:16.123             4.041          1279.812
       283   13 Jun 2027 09:55:59.427   13 Jun 2027 09:56:10.919            11.492          4293.062
       284   13 Jun 2027 09:57:13.854   13 Jun 2027 09:57:18.817             4.963          1939.594
       285   13 Jun 2027 09:59:17.933   13 Jun 2027 09:59:19.322             1.389           144.469
       286   13 Jun 2027 11:29:50.461   13 Jun 2027 11:29:54.922             4.461          1540.094
