uniorb/output/strategy_4/Camera/Camera_KinoSat_111707.txt

KinoSat_111707
-------------------------
    Access    *     Start Time (UTCG)     *     Stop Time (UTCG)  *   Duration (s) *   Data (Mbytes)
         1   01 Jun 2027 04:28:32.452   01 Jun 2027 04:30:44.718           132.266         66133.000
         2   01 Jun 2027 04:31:48.406   01 Jun 2027 04:32:07.166            18.760          9380.000
         3   01 Jun 2027 04:34:08.218   01 Jun 2027 04:34:10.522             2.304          1152.000
         4   01 Jun 2027 04:35:10.012   01 Jun 2027 04:35:20.959            10.947          5473.500
         5   01 Jun 2027 04:35:29.865   01 Jun 2027 04:36:06.208            36.343         18171.500
         6   01 Jun 2027 05:54:36.955   01 Jun 2027 05:55:08.079            31.124         15562.000
         7   01 Jun 2027 06:05:34.822   01 Jun 2027 06:06:52.389            77.567         38783.500
         8   01 Jun 2027 06:07:42.508   01 Jun 2027 06:07:53.337            10.829          5414.500
         9   01 Jun 2027 07:28:54.170   01 Jun 2027 07:31:17.286           143.116         71558.000
        10   01 Jun 2027 07:31:38.252   01 Jun 2027 07:31:41.469             3.217          1608.500
        11   01 Jun 2027 09:05:16.457   01 Jun 2027 09:05:34.825            18.368          9184.000
        12   01 Jun 2027 09:07:42.508   01 Jun 2027 09:08:07.106            24.598         12299.000
        13   01 Jun 2027 09:08:14.060   01 Jun 2027 09:08:32.210            18.150          9075.000
        14   01 Jun 2027 09:09:07.707   01 Jun 2027 09:09:39.169            31.462         15731.000
        15   01 Jun 2027 10:40:02.184   01 Jun 2027 10:42:34.793           152.609         76304.500
        16   01 Jun 2027 10:46:55.714   01 Jun 2027 10:47:34.833            39.119         19559.500
        17   02 Jun 2027 03:01:54.786   02 Jun 2027 03:02:36.613            41.827         20913.500
        18   02 Jun 2027 03:03:28.688   02 Jun 2027 03:03:29.098             0.410           205.000
        19   02 Jun 2027 03:04:49.105   02 Jun 2027 03:04:54.148             5.043          2521.500
        20   02 Jun 2027 03:05:41.652   02 Jun 2027 03:05:55.703            14.051          7025.500
        21   02 Jun 2027 03:06:32.834   02 Jun 2027 03:06:40.545             7.711          3855.500
        22   02 Jun 2027 03:06:57.881   02 Jun 2027 03:07:06.069             8.188          4094.000
        23   02 Jun 2027 03:07:36.341   02 Jun 2027 03:07:51.752            15.411          7705.500
        24   02 Jun 2027 03:08:07.468   02 Jun 2027 03:08:07.615             0.147            73.500
        25   02 Jun 2027 04:40:56.388   02 Jun 2027 04:42:43.620           107.232         53616.000
        26   02 Jun 2027 04:43:27.059   02 Jun 2027 04:43:32.369             5.310          2655.000
        27   02 Jun 2027 04:44:03.046   02 Jun 2027 04:44:08.866             5.820          2910.000
        28   02 Jun 2027 04:44:45.031   02 Jun 2027 04:45:47.150            62.119         31059.500
        29   02 Jun 2027 04:46:30.603   02 Jun 2027 04:46:40.420             9.817          4908.500
        30   02 Jun 2027 04:46:46.212   02 Jun 2027 04:46:54.814             8.602          4301.000
        31   02 Jun 2027 06:05:56.120   02 Jun 2027 06:06:29.319            33.199         16599.500
        32   02 Jun 2027 06:17:36.719   02 Jun 2027 06:18:56.754            80.035         40017.500
        33   02 Jun 2027 07:39:52.065   02 Jun 2027 07:40:52.823            60.758         30379.000
        34   02 Jun 2027 07:42:20.066   02 Jun 2027 07:43:26.913            66.847         33423.500
        35   02 Jun 2027 09:15:04.267   02 Jun 2027 09:16:29.246            84.979         42489.500
        36   02 Jun 2027 09:17:00.694   02 Jun 2027 09:18:36.183            95.489         47744.500
        37   02 Jun 2027 09:20:21.986   02 Jun 2027 09:20:42.086            20.100          9265.686
        38   02 Jun 2027 09:21:29.889   02 Jun 2027 09:21:37.993             8.104          1378.094
        39   02 Jun 2027 10:52:09.258   02 Jun 2027 10:52:11.109             1.851           925.500
        40   02 Jun 2027 10:52:21.381   02 Jun 2027 10:52:27.734             6.353          2256.156
        41   02 Jun 2027 10:54:16.332   02 Jun 2027 10:54:28.744            12.412           880.437
        42   02 Jun 2027 10:57:05.158   02 Jun 2027 10:57:14.020             8.862          3179.094
        43   02 Jun 2027 10:57:29.996   02 Jun 2027 10:57:32.594             2.598           128.313
        44   02 Jun 2027 10:58:47.381   02 Jun 2027 10:58:57.748            10.367          2302.562
        45   02 Jun 2027 10:59:34.287   02 Jun 2027 10:59:34.665             0.378           189.000
        46   03 Jun 2027 03:14:12.715   03 Jun 2027 03:16:06.497           113.782         56891.000
        47   03 Jun 2027 03:16:15.514   03 Jun 2027 03:16:17.599             2.085          1042.500
        48   03 Jun 2027 03:16:51.231   03 Jun 2027 03:16:56.639             5.408          2704.000
        49   03 Jun 2027 03:18:42.866   03 Jun 2027 03:19:07.351            24.485         12242.500
        50   03 Jun 2027 03:19:50.153   03 Jun 2027 03:20:08.615            18.462          9231.000
        51   03 Jun 2027 04:53:15.076   03 Jun 2027 04:54:55.932           100.856         50428.000
        52   03 Jun 2027 04:55:25.277   03 Jun 2027 04:55:36.819            11.542          5771.000
        53   03 Jun 2027 04:56:54.810   03 Jun 2027 04:57:33.067            38.257         19113.094
        54   03 Jun 2027 04:57:59.743   03 Jun 2027 04:58:00.390             0.647           251.219
        55   03 Jun 2027 04:58:04.172   03 Jun 2027 04:58:06.566             2.394           102.063
        56   03 Jun 2027 04:58:18.698   03 Jun 2027 04:58:18.924             0.226            59.750
        57   03 Jun 2027 04:59:23.096   03 Jun 2027 04:59:25.503             2.407           757.937
        58   03 Jun 2027 04:59:33.633   03 Jun 2027 04:59:35.388             1.755           193.781
        59   03 Jun 2027 06:17:19.887   03 Jun 2027 06:17:34.124            14.237          6481.875
        60   03 Jun 2027 06:17:55.199   03 Jun 2027 06:17:55.199             0.000             0.000
        61   03 Jun 2027 06:18:30.986   03 Jun 2027 06:18:37.541             6.555          1650.188
        62   03 Jun 2027 06:19:01.221   03 Jun 2027 06:19:01.618             0.397           152.750
        63   03 Jun 2027 06:29:33.712   03 Jun 2027 06:29:39.424             5.712          2015.625
        64   03 Jun 2027 07:51:35.185   03 Jun 2027 07:51:47.070            11.885          5413.562
        65   03 Jun 2027 07:52:12.457   03 Jun 2027 07:52:15.626             3.169           400.875
        66   03 Jun 2027 07:53:41.462   03 Jun 2027 07:53:48.209             6.747          2010.156
        67   03 Jun 2027 07:55:03.032   03 Jun 2027 07:55:07.449             4.417          1709.031
        68   03 Jun 2027 07:56:27.386   03 Jun 2027 07:56:32.346             4.960          2220.094
        69   03 Jun 2027 07:56:43.274   03 Jun 2027 07:56:44.947             1.673            25.250
        70   03 Jun 2027 09:26:30.918   03 Jun 2027 09:26:42.462            11.544          2552.438
        71   03 Jun 2027 09:29:50.222   03 Jun 2027 09:29:56.932             6.710          1461.750
        72   03 Jun 2027 09:30:35.252   03 Jun 2027 09:30:37.203             1.951           590.281
        73   03 Jun 2027 09:31:51.591   03 Jun 2027 09:31:58.183             6.592           464.531
        74   03 Jun 2027 09:32:54.124   03 Jun 2027 09:32:57.420             3.296          1579.437
        75   03 Jun 2027 09:33:41.827   03 Jun 2027 09:33:44.879             3.052           730.969
        76   03 Jun 2027 09:33:54.563   03 Jun 2027 09:33:59.369             4.806            80.469
        77   03 Jun 2027 09:34:44.172   03 Jun 2027 09:34:46.584             2.412           980.500
        78   03 Jun 2027 09:35:05.415   03 Jun 2027 09:35:08.432             3.017            85.750
        79   03 Jun 2027 11:04:11.519   03 Jun 2027 11:04:25.233            13.714          4820.344
        80   03 Jun 2027 11:06:21.702   03 Jun 2027 11:06:25.713             4.011           969.437
        81   03 Jun 2027 11:07:13.281   03 Jun 2027 11:07:15.931             2.650           363.312
        82   03 Jun 2027 11:09:38.345   03 Jun 2027 11:09:48.224             9.879          4433.969
        83   03 Jun 2027 11:10:28.788   03 Jun 2027 11:10:32.031             3.243           964.687
        84   03 Jun 2027 11:10:47.713   03 Jun 2027 11:10:52.445             4.732           457.969
        85   03 Jun 2027 11:11:28.891   03 Jun 2027 11:11:38.514             9.623           568.969
        86   04 Jun 2027 03:26:58.686   04 Jun 2027 03:27:23.960            25.274         12637.000
        87   04 Jun 2027 03:27:26.289   04 Jun 2027 03:30:29.823           183.534         91767.000
        88   04 Jun 2027 03:31:05.620   04 Jun 2027 03:31:21.235            15.615          7807.500
        89   04 Jun 2027 03:31:54.988   04 Jun 2027 03:32:08.665            13.677          6838.500
        90   04 Jun 2027 05:05:20.928   04 Jun 2027 05:06:32.870            71.942         34841.718
        91   04 Jun 2027 05:07:33.464   04 Jun 2027 05:07:37.169             3.705           990.813
        92   04 Jun 2027 05:09:30.074   04 Jun 2027 05:09:37.999             7.925          3528.281
        93   04 Jun 2027 06:29:25.927   04 Jun 2027 06:29:32.929             7.002          3445.969
        94   04 Jun 2027 06:30:12.642   04 Jun 2027 06:30:14.880             2.238           676.375
        95   04 Jun 2027 06:30:32.541   04 Jun 2027 06:30:40.034             7.493           456.312
        96   04 Jun 2027 06:31:11.721   04 Jun 2027 06:31:13.762             2.041           130.812
        97   04 Jun 2027 08:03:13.337   04 Jun 2027 08:03:24.854            11.517          3310.531
        98   04 Jun 2027 08:05:04.620   04 Jun 2027 08:05:08.057             3.437          1532.125
        99   04 Jun 2027 08:05:32.797   04 Jun 2027 08:05:34.120             1.323           661.500
       100   04 Jun 2027 08:06:09.953   04 Jun 2027 08:06:12.256             2.303          1120.562
       101   04 Jun 2027 08:07:01.105   04 Jun 2027 08:07:04.084             2.979          1349.344
       102   04 Jun 2027 08:08:28.164   04 Jun 2027 08:08:36.816             8.652          2627.500
       103   04 Jun 2027 09:38:05.209   04 Jun 2027 09:38:10.544             5.335          2561.031
       104   04 Jun 2027 09:40:15.618   04 Jun 2027 09:40:20.439             4.821          2352.344
       105   04 Jun 2027 09:40:48.078   04 Jun 2027 09:40:50.931             2.853           517.625
       106   04 Jun 2027 09:41:51.197   04 Jun 2027 09:41:56.382             5.185          1585.844
       107   04 Jun 2027 09:44:03.480   04 Jun 2027 09:44:13.927            10.447          2709.344
       108   04 Jun 2027 09:45:31.457   04 Jun 2027 09:45:33.417             1.960           608.875
       109   04 Jun 2027 09:45:56.469   04 Jun 2027 09:46:00.341             3.872           378.219
       110   04 Jun 2027 09:46:41.715   04 Jun 2027 09:46:43.436             1.721           598.875
       111   04 Jun 2027 09:47:20.517   04 Jun 2027 09:47:25.530             5.013          1158.781
       112   04 Jun 2027 11:16:14.559   04 Jun 2027 11:16:44.248            29.689          5050.437
       113   04 Jun 2027 11:18:16.807   04 Jun 2027 11:18:26.142             9.335           763.250
       114   04 Jun 2027 11:19:07.147   04 Jun 2027 11:19:15.146             7.999          1143.906
       115   04 Jun 2027 11:20:26.361   04 Jun 2027 11:20:28.128             1.767           740.281
       116   04 Jun 2027 11:20:55.158   04 Jun 2027 11:20:56.945             1.787           844.688
       117   04 Jun 2027 11:21:47.080   04 Jun 2027 11:21:56.452             9.372          1537.312
       118   04 Jun 2027 11:22:41.603   04 Jun 2027 11:22:42.930             1.327           656.969
       119   04 Jun 2027 11:23:04.693   04 Jun 2027 11:23:05.893             1.200           569.187
       120   04 Jun 2027 11:23:17.755   04 Jun 2027 11:23:19.268             1.513           370.688
       121   05 Jun 2027 03:39:31.332   05 Jun 2027 03:40:23.427            52.095         26047.500
       122   05 Jun 2027 03:40:33.402   05 Jun 2027 03:41:15.342            41.940         20970.000
       123   05 Jun 2027 03:41:15.891   05 Jun 2027 03:43:29.788           133.897         66948.500
       124   05 Jun 2027 05:17:55.590   05 Jun 2027 05:19:00.199            64.609         32304.500
       125   05 Jun 2027 05:19:42.722   05 Jun 2027 05:20:23.501            40.779         20116.844
       126   05 Jun 2027 06:41:21.142   05 Jun 2027 06:41:38.389            17.247          6223.094
       127   05 Jun 2027 06:42:33.956   05 Jun 2027 06:42:41.789             7.833          1524.125
       128   05 Jun 2027 06:43:22.250   05 Jun 2027 06:43:26.534             4.284          1264.406
       129   05 Jun 2027 06:43:36.106   05 Jun 2027 06:43:36.343             0.237           118.500
       130   05 Jun 2027 08:17:36.463   05 Jun 2027 08:17:59.451            22.988         10534.531
       131   05 Jun 2027 08:18:16.341   05 Jun 2027 08:18:22.874             6.533           160.719
       132   05 Jun 2027 08:19:11.922   05 Jun 2027 08:19:23.739            11.817          1078.187
       133   05 Jun 2027 08:19:34.606   05 Jun 2027 08:19:35.620             1.014            76.344
       134   05 Jun 2027 08:20:12.355   05 Jun 2027 08:20:14.626             2.271           440.594
       135   05 Jun 2027 09:51:08.979   05 Jun 2027 09:51:14.443             5.464          2416.500
       136   05 Jun 2027 09:53:41.223   05 Jun 2027 09:53:41.223             0.000             0.000
       137   05 Jun 2027 09:53:46.012   05 Jun 2027 09:53:48.126             2.114           425.094
       138   05 Jun 2027 09:56:02.710   05 Jun 2027 09:56:10.184             7.474          2558.094
       139   05 Jun 2027 09:56:49.543   05 Jun 2027 09:56:55.252             5.709          1153.563
       140   05 Jun 2027 09:57:14.184   05 Jun 2027 09:57:23.081             8.897           535.844
       141   05 Jun 2027 09:58:36.649   05 Jun 2027 09:58:40.062             3.413          1706.500
       142   05 Jun 2027 09:58:40.744   05 Jun 2027 09:58:43.590             2.846           265.344
       143   05 Jun 2027 09:58:56.724   05 Jun 2027 09:59:01.072             4.348           204.688
       144   05 Jun 2027 09:59:26.703   05 Jun 2027 09:59:29.355             2.652           800.969
       145   05 Jun 2027 09:59:38.355   05 Jun 2027 09:59:41.154             2.799            34.563
       146   05 Jun 2027 11:28:41.460   05 Jun 2027 11:28:49.566             8.106          3902.094
       147   05 Jun 2027 11:32:32.282   05 Jun 2027 11:32:40.213             7.931          3305.969
       148   05 Jun 2027 11:33:06.393   05 Jun 2027 11:33:06.923             0.530            38.656
       149   05 Jun 2027 11:33:52.513   05 Jun 2027 11:33:56.008             3.495           943.656
       150   05 Jun 2027 11:34:36.866   05 Jun 2027 11:34:43.358             6.492          1056.063
       151   05 Jun 2027 11:35:07.133   05 Jun 2027 11:35:08.185             1.052           507.344
       152   05 Jun 2027 11:35:24.909   05 Jun 2027 11:35:25.809             0.900           450.000
       153   06 Jun 2027 03:51:31.255   06 Jun 2027 03:51:34.202             2.947          1473.500
       154   06 Jun 2027 03:51:46.202   06 Jun 2027 03:55:07.093           200.891        100445.500
       155   06 Jun 2027 03:56:47.753   06 Jun 2027 03:56:54.798             7.045          3522.500
       156   06 Jun 2027 03:57:16.036   06 Jun 2027 03:57:23.003             6.967          3483.500
       157   06 Jun 2027 03:57:29.333   06 Jun 2027 03:57:32.917             3.584          1792.000
       158   06 Jun 2027 05:29:34.456   06 Jun 2027 05:30:00.467            26.011         13005.500
       159   06 Jun 2027 05:30:26.405   06 Jun 2027 05:31:44.935            78.530         39265.000
       160   06 Jun 2027 05:32:08.186   06 Jun 2027 05:32:13.786             5.600          1190.468
       161   06 Jun 2027 05:32:22.322   06 Jun 2027 05:32:23.117             0.795           266.750
       162   06 Jun 2027 06:53:13.131   06 Jun 2027 06:53:24.260            11.129          5282.594
       163   06 Jun 2027 06:55:08.767   06 Jun 2027 06:55:15.360             6.593          2862.594
       164   06 Jun 2027 08:29:40.678   06 Jun 2027 08:29:53.207            12.529          5199.938
       165   06 Jun 2027 08:30:24.777   06 Jun 2027 08:30:26.383             1.606           398.375
       166   06 Jun 2027 08:31:03.468   06 Jun 2027 08:31:08.290             4.822           883.875
       167   06 Jun 2027 08:31:11.115   06 Jun 2027 08:31:12.140             1.025            88.281
       168   06 Jun 2027 08:31:30.301   06 Jun 2027 08:31:31.785             1.484           319.719
       169   06 Jun 2027 08:32:44.795   06 Jun 2027 08:32:44.795             0.000             0.000
       170   06 Jun 2027 10:03:48.687   06 Jun 2027 10:03:58.962            10.275          4885.281
       171   06 Jun 2027 10:05:51.696   06 Jun 2027 10:06:01.058             9.362           549.250
       172   06 Jun 2027 10:07:02.178   06 Jun 2027 10:07:03.672             1.494           456.937
       173   06 Jun 2027 10:08:08.925   06 Jun 2027 10:08:10.467             1.542           502.062
       174   06 Jun 2027 10:09:03.860   06 Jun 2027 10:09:09.926             6.066          1293.688
       175   06 Jun 2027 10:09:30.347   06 Jun 2027 10:09:40.097             9.750           511.500
       176   06 Jun 2027 10:09:52.053   06 Jun 2027 10:09:55.947             3.894           369.969
       177   06 Jun 2027 10:10:38.542   06 Jun 2027 10:10:43.204             4.662          1179.187
       178   06 Jun 2027 10:11:00.877   06 Jun 2027 10:11:02.201             1.324           380.500
       179   06 Jun 2027 10:11:18.465   06 Jun 2027 10:11:21.258             2.793           353.750
       180   06 Jun 2027 10:11:29.261   06 Jun 2027 10:11:30.303             1.042           250.094
       181   06 Jun 2027 10:11:36.468   06 Jun 2027 10:11:36.803             0.335            92.625
       182   06 Jun 2027 11:40:47.312   06 Jun 2027 11:41:02.304            14.992          5484.031
       183   06 Jun 2027 11:42:59.448   06 Jun 2027 11:43:02.296             2.848           368.375
       184   06 Jun 2027 11:45:29.036   06 Jun 2027 11:45:34.119             5.083          1902.187
       185   06 Jun 2027 11:45:49.448   06 Jun 2027 11:45:52.740             3.292           340.875
       186   06 Jun 2027 11:46:06.591   06 Jun 2027 11:46:10.211             3.620           373.312
       187   06 Jun 2027 11:46:36.591   06 Jun 2027 11:46:38.588             1.997           293.281
       188   06 Jun 2027 11:46:42.241   06 Jun 2027 11:46:42.983             0.742           114.156
       189   06 Jun 2027 11:47:12.050   06 Jun 2027 11:47:17.023             4.973           868.000
       190   07 Jun 2027 04:03:39.588   07 Jun 2027 04:04:39.718            60.130         30065.000
       191   07 Jun 2027 04:04:48.664   07 Jun 2027 04:04:50.233             1.569           784.500
       192   07 Jun 2027 04:05:16.498   07 Jun 2027 04:05:35.972            19.474          9737.000
       193   07 Jun 2027 04:06:25.468   07 Jun 2027 04:06:27.742             2.274          1137.000
       194   07 Jun 2027 04:07:11.203   07 Jun 2027 04:07:28.628            17.425          8712.500
       195   07 Jun 2027 04:07:45.140   07 Jun 2027 04:08:08.136            22.996         11498.000
       196   07 Jun 2027 04:09:30.950   07 Jun 2027 04:09:32.254             1.304           652.000
       197   07 Jun 2027 05:43:03.711   07 Jun 2027 05:45:55.118           171.407         85703.500
       198   07 Jun 2027 07:05:21.651   07 Jun 2027 07:05:49.866            28.215         14091.687
       199   07 Jun 2027 07:06:16.269   07 Jun 2027 07:06:18.446             2.177           780.969
       200   07 Jun 2027 07:06:48.073   07 Jun 2027 07:06:48.073             0.000             0.000
       201   07 Jun 2027 07:07:07.300   07 Jun 2027 07:07:07.300             0.000             0.000
       202   07 Jun 2027 07:07:56.857   07 Jun 2027 07:07:59.634             2.777          1388.500
       203   07 Jun 2027 07:08:10.541   07 Jun 2027 07:08:12.558             2.017          1008.500
       204   07 Jun 2027 07:08:18.271   07 Jun 2027 07:08:24.038             5.767          1197.719
       205   07 Jun 2027 08:41:51.552   07 Jun 2027 08:42:01.198             9.646          2951.437
       206   07 Jun 2027 08:42:56.493   07 Jun 2027 08:42:58.628             2.135          1067.500
       207   07 Jun 2027 08:43:34.352   07 Jun 2027 08:43:42.049             7.697          1427.656
       208   07 Jun 2027 08:44:16.657   07 Jun 2027 08:44:20.891             4.234           108.781
       209   07 Jun 2027 10:17:01.988   07 Jun 2027 10:17:16.252            14.264          6374.781
       210   07 Jun 2027 10:18:14.507   07 Jun 2027 10:18:19.300             4.793          1561.937
       211   07 Jun 2027 10:18:56.995   07 Jun 2027 10:19:00.832             3.837          1177.969
       212   07 Jun 2027 10:20:26.838   07 Jun 2027 10:20:32.557             5.719          1505.625
       213   07 Jun 2027 10:21:32.763   07 Jun 2027 10:21:40.200             7.437          1225.875
       214   07 Jun 2027 10:23:25.483   07 Jun 2027 10:23:30.888             5.405          2676.031
       215   07 Jun 2027 11:53:23.302   07 Jun 2027 11:53:35.446            12.144          4446.844
       216   07 Jun 2027 11:55:07.529   07 Jun 2027 11:55:14.028             6.499          1087.594
       217   07 Jun 2027 11:55:59.007   07 Jun 2027 11:56:02.484             3.477          1198.344
       218   07 Jun 2027 11:57:10.843   07 Jun 2027 11:57:15.117             4.274          1150.156
       219   07 Jun 2027 11:57:34.025   07 Jun 2027 11:57:36.915             2.890           548.906
       220   07 Jun 2027 11:58:33.782   07 Jun 2027 11:58:37.518             3.736          1721.656
       221   07 Jun 2027 11:58:54.737   07 Jun 2027 11:58:56.513             1.776           456.500
       222   07 Jun 2027 11:59:14.344   07 Jun 2027 11:59:21.589             7.245           481.125
       223   08 Jun 2027 04:15:44.388   08 Jun 2027 04:15:58.273            13.885          6942.500
       224   08 Jun 2027 04:16:46.767   08 Jun 2027 04:18:20.410            93.643         46821.500
       225   08 Jun 2027 04:19:01.011   08 Jun 2027 04:19:22.679            21.668         10834.000
       226   08 Jun 2027 04:20:56.983   08 Jun 2027 04:20:59.711             2.728          1364.000
       227   08 Jun 2027 04:21:20.266   08 Jun 2027 04:21:42.186            21.920         10960.000
       228   08 Jun 2027 04:23:57.254   08 Jun 2027 04:24:17.779            20.525         10262.500
       229   08 Jun 2027 05:53:55.507   08 Jun 2027 05:54:33.451            37.944         18972.000
       230   08 Jun 2027 05:55:03.029   08 Jun 2027 05:55:37.561            34.532         17266.000
       231   08 Jun 2027 05:56:35.321   08 Jun 2027 05:57:31.260            55.939         27969.500
       232   08 Jun 2027 07:18:04.651   08 Jun 2027 07:18:25.557            20.906          9703.500
       233   08 Jun 2027 07:20:13.391   08 Jun 2027 07:20:24.789            11.398          3018.406
       234   08 Jun 2027 08:53:47.700   08 Jun 2027 08:53:59.934            12.234          4469.062
       235   08 Jun 2027 08:55:02.436   08 Jun 2027 08:55:05.939             3.503          1571.687
       236   08 Jun 2027 08:55:33.339   08 Jun 2027 08:55:34.508             1.169           523.969
       237   08 Jun 2027 08:55:49.130   08 Jun 2027 08:55:50.216             1.086           373.813
       238   08 Jun 2027 08:56:59.181   08 Jun 2027 08:57:02.687             3.506          1275.719
       239   08 Jun 2027 10:28:45.212   08 Jun 2027 10:28:53.658             8.446          3170.813
       240   08 Jun 2027 10:30:41.193   08 Jun 2027 10:30:48.416             7.223          2804.719
       241   08 Jun 2027 10:31:53.605   08 Jun 2027 10:31:57.417             3.812          1414.156
       242   08 Jun 2027 10:33:46.875   08 Jun 2027 10:33:51.123             4.248           944.406
       243   08 Jun 2027 10:35:22.829   08 Jun 2027 10:35:28.088             5.259          2588.875
       244   09 Jun 2027 04:28:49.843   09 Jun 2027 04:30:29.131            99.288         49644.000
       245   09 Jun 2027 04:31:18.374   09 Jun 2027 04:31:55.470            37.096         18548.000
       246   09 Jun 2027 04:33:01.086   09 Jun 2027 04:33:22.110            21.024         10512.000
       247   09 Jun 2027 04:34:25.211   09 Jun 2027 04:34:25.537             0.326           163.000
       248   09 Jun 2027 04:35:25.049   09 Jun 2027 04:35:38.395            13.346          6673.000
       249   09 Jun 2027 04:36:22.068   09 Jun 2027 04:36:33.589            11.521          5760.500
       250   09 Jun 2027 05:54:50.914   09 Jun 2027 05:55:12.724            21.810         10905.000
       251   09 Jun 2027 06:05:51.763   09 Jun 2027 06:07:34.292           102.529         51264.500
       252   09 Jun 2027 06:07:49.548   09 Jun 2027 06:08:21.904            32.356         14713.500
       253   09 Jun 2027 06:08:24.533   09 Jun 2027 06:08:29.180             4.647            72.781
       254   09 Jun 2027 06:08:47.460   09 Jun 2027 06:08:48.742             1.282           453.719
       255   09 Jun 2027 07:28:52.016   09 Jun 2027 07:29:07.180            15.164          7210.812
       256   09 Jun 2027 07:30:37.084   09 Jun 2027 07:30:42.796             5.712          1900.281
       257   09 Jun 2027 07:31:50.123   09 Jun 2027 07:31:52.881             2.758          1220.719
       258   09 Jun 2027 07:32:18.901   09 Jun 2027 07:32:22.980             4.079           670.750
       259   09 Jun 2027 09:04:23.713   09 Jun 2027 09:04:28.759             5.046          2101.156
       260   09 Jun 2027 09:05:33.365   09 Jun 2027 09:05:37.449             4.084          1102.750
       261   09 Jun 2027 09:06:57.003   09 Jun 2027 09:07:01.408             4.405          1429.937
       262   09 Jun 2027 09:08:12.457   09 Jun 2027 09:08:17.754             5.297          2076.875
       263   09 Jun 2027 09:09:10.549   09 Jun 2027 09:09:22.223            11.674          1589.344
       264   09 Jun 2027 10:40:43.023   09 Jun 2027 10:40:49.889             6.866          3278.812
       265   09 Jun 2027 10:41:35.495   09 Jun 2027 10:41:38.167             2.672          1324.781
       266   09 Jun 2027 10:43:12.200   09 Jun 2027 10:43:15.261             3.061           902.094
       267   09 Jun 2027 10:43:49.675   09 Jun 2027 10:43:49.675             0.000             0.000
       268   09 Jun 2027 10:44:08.282   09 Jun 2027 10:44:11.090             2.808          1363.219
       269   09 Jun 2027 10:45:59.470   09 Jun 2027 10:46:12.697            13.227          3334.500
       270   09 Jun 2027 10:47:06.481   09 Jun 2027 10:47:09.843             3.362          1645.437
       271   10 Jun 2027 03:02:12.921   10 Jun 2027 03:02:53.273            40.352         20176.000
       272   10 Jun 2027 03:04:31.788   10 Jun 2027 03:04:38.192             6.404          3202.000
       273   10 Jun 2027 03:06:01.300   10 Jun 2027 03:06:31.019            29.719         14859.500
       274   10 Jun 2027 03:07:41.701   10 Jun 2027 03:07:45.499             3.798          1899.000
       275   10 Jun 2027 04:41:16.064   10 Jun 2027 04:43:37.178           141.114         70557.000
       276   10 Jun 2027 04:43:47.864   10 Jun 2027 04:43:52.227             4.363          2181.500
       277   10 Jun 2027 04:45:01.192   10 Jun 2027 04:45:08.236             7.044          3522.000
       278   10 Jun 2027 04:46:14.531   10 Jun 2027 04:46:33.079            18.548          9274.000
       279   10 Jun 2027 04:46:45.051   10 Jun 2027 04:46:55.797            10.746          5373.000
       280   10 Jun 2027 04:47:01.445   10 Jun 2027 04:47:14.078            12.633          6316.500
       281   10 Jun 2027 06:06:12.332   10 Jun 2027 06:06:59.291            46.959         23479.500
       282   10 Jun 2027 06:07:19.646   10 Jun 2027 06:07:41.423            21.777         10888.500
       283   10 Jun 2027 06:17:54.377   10 Jun 2027 06:18:05.487            11.110          4568.719
       284   10 Jun 2027 07:40:08.147   10 Jun 2027 07:40:18.565            10.418          4793.562
       285   10 Jun 2027 07:40:44.450   10 Jun 2027 07:40:44.450             0.000             0.000
       286   10 Jun 2027 07:40:53.326   10 Jun 2027 07:40:55.730             2.404          1064.000
       287   10 Jun 2027 07:42:07.496   10 Jun 2027 07:42:11.819             4.323          1126.375
       288   10 Jun 2027 07:42:49.762   10 Jun 2027 07:42:52.841             3.079           822.656
       289   10 Jun 2027 07:43:42.440   10 Jun 2027 07:43:45.276             2.836           923.156
       290   10 Jun 2027 07:44:21.915   10 Jun 2027 07:44:21.915             0.000             0.000
       291   10 Jun 2027 07:44:37.013   10 Jun 2027 07:44:42.546             5.533          1254.312
       292   10 Jun 2027 09:15:15.534   10 Jun 2027 09:15:22.244             6.710          2307.750
       293   10 Jun 2027 09:16:00.890   10 Jun 2027 09:16:02.843             1.953           711.813
       294   10 Jun 2027 09:17:17.094   10 Jun 2027 09:17:21.616             4.522          1219.656
       295   10 Jun 2027 09:18:51.573   10 Jun 2027 09:18:55.473             3.900          1313.656
       296   10 Jun 2027 09:21:07.680   10 Jun 2027 09:21:13.531             5.851           852.969
       297   10 Jun 2027 09:22:10.495   10 Jun 2027 09:22:13.427             2.932          1443.219
       298   10 Jun 2027 10:52:27.212   10 Jun 2027 10:52:35.487             8.275          2208.625
       299   10 Jun 2027 10:53:27.294   10 Jun 2027 10:53:29.529             2.235           257.125
       300   10 Jun 2027 10:55:33.448   10 Jun 2027 10:55:38.354             4.906          1884.625
       301   10 Jun 2027 10:57:50.834   10 Jun 2027 10:57:59.923             9.089          4008.000
       302   10 Jun 2027 10:58:46.539   10 Jun 2027 10:58:49.492             2.953          1027.938
       303   10 Jun 2027 10:59:04.637   10 Jun 2027 10:59:13.755             9.118            44.344
       304   10 Jun 2027 10:59:48.858   10 Jun 2027 10:59:52.018             3.160           714.844
       305   11 Jun 2027 03:14:30.465   11 Jun 2027 03:15:03.472            33.007         16503.500
       306   11 Jun 2027 03:15:03.692   11 Jun 2027 03:17:01.620           117.928         58964.000
       307   11 Jun 2027 03:18:02.351   11 Jun 2027 03:18:22.515            20.164         10082.000
       308   11 Jun 2027 03:18:43.980   11 Jun 2027 03:19:01.642            17.662          8831.000
       309   11 Jun 2027 04:53:29.964   11 Jun 2027 04:55:11.005           101.041         50520.500
       310   11 Jun 2027 04:55:43.314   11 Jun 2027 04:55:52.020             8.706          4353.000
       311   11 Jun 2027 04:57:13.188   11 Jun 2027 04:57:29.179            15.991          6529.719
       312   11 Jun 2027 04:58:14.117   11 Jun 2027 04:58:15.628             1.511           166.812
       313   11 Jun 2027 04:58:21.159   11 Jun 2027 04:58:22.853             1.694           172.844
       314   11 Jun 2027 04:58:35.427   11 Jun 2027 04:58:38.415             2.988           106.344
       315   11 Jun 2027 04:59:41.206   11 Jun 2027 04:59:47.022             5.816          1253.375
       316   11 Jun 2027 06:17:38.491   11 Jun 2027 06:17:52.611            14.120          5468.969
       317   11 Jun 2027 06:18:47.967   11 Jun 2027 06:18:54.066             6.099          1665.188
       318   11 Jun 2027 06:19:34.296   11 Jun 2027 06:19:43.230             8.934           552.719
       319   11 Jun 2027 06:29:51.666   11 Jun 2027 06:29:59.560             7.894          2623.750
       320   11 Jun 2027 07:51:53.079   11 Jun 2027 07:52:05.487            12.408          5360.437
       321   11 Jun 2027 07:52:30.438   11 Jun 2027 07:52:37.151             6.713           454.406
       322   11 Jun 2027 07:53:07.861   11 Jun 2027 07:53:09.964             2.103           403.313
       323   11 Jun 2027 07:53:56.536   11 Jun 2027 07:53:58.377             1.841           513.437
       324   11 Jun 2027 07:54:36.130   11 Jun 2027 07:54:36.130             0.000             0.000
       325   11 Jun 2027 07:55:16.739   11 Jun 2027 07:55:23.626             6.887          2396.063
       326   11 Jun 2027 07:56:44.885   11 Jun 2027 07:56:49.918             5.033          2287.375
       327   11 Jun 2027 07:56:59.417   11 Jun 2027 07:57:01.498             2.081            43.219
       328   11 Jun 2027 09:26:45.177   11 Jun 2027 09:26:57.178            12.001          2506.031
       329   11 Jun 2027 09:28:18.991   11 Jun 2027 09:28:23.001             4.010          1573.563
       330   11 Jun 2027 09:28:32.224   11 Jun 2027 09:28:37.253             5.029           267.125
       331   11 Jun 2027 09:29:16.077   11 Jun 2027 09:29:21.835             5.758          1167.594
       332   11 Jun 2027 09:30:06.860   11 Jun 2027 09:30:12.311             5.451          1407.031
       333   11 Jun 2027 09:30:53.199   11 Jun 2027 09:30:56.374             3.175           688.375
       334   11 Jun 2027 09:33:12.815   11 Jun 2027 09:33:17.153             4.338          1618.438
       335   11 Jun 2027 09:34:11.313   11 Jun 2027 09:34:14.985             3.672          1103.531
       336   11 Jun 2027 09:34:25.975   11 Jun 2027 09:34:30.318             4.343            36.250
       337   11 Jun 2027 11:04:29.099   11 Jun 2027 11:04:38.622             9.523          3293.344
       338   11 Jun 2027 11:05:37.959   11 Jun 2027 11:05:42.883             4.924           420.688
       339   11 Jun 2027 11:07:15.453   11 Jun 2027 11:07:18.678             3.225          1148.094
       340   11 Jun 2027 11:08:43.075   11 Jun 2027 11:08:47.014             3.939          1289.906
       341   11 Jun 2027 11:09:27.429   11 Jun 2027 11:09:31.564             4.135          1262.969
       342   11 Jun 2027 11:10:18.830   11 Jun 2027 11:10:27.229             8.399           891.062
       343   11 Jun 2027 11:11:04.687   11 Jun 2027 11:11:06.672             1.985           504.437
       344   11 Jun 2027 11:11:54.050   11 Jun 2027 11:11:55.799             1.749           874.500
       345   12 Jun 2027 03:27:16.430   12 Jun 2027 03:27:40.890            24.460         12230.000
       346   12 Jun 2027 03:27:43.702   12 Jun 2027 03:29:01.181            77.479         38739.500
       347   12 Jun 2027 03:29:04.197   12 Jun 2027 03:30:37.588            93.391         46695.500
       348   12 Jun 2027 05:05:39.408   12 Jun 2027 05:07:39.801           120.393         59855.375
       349   12 Jun 2027 05:09:18.660   12 Jun 2027 05:09:25.410             6.750          2729.719
       350   12 Jun 2027 06:29:42.849   12 Jun 2027 06:29:55.904            13.055          6443.031
       351   12 Jun 2027 06:30:29.281   12 Jun 2027 06:30:29.281             0.000             0.000
       352   12 Jun 2027 06:30:34.953   12 Jun 2027 06:30:38.180             3.227           897.250
       353   12 Jun 2027 06:31:40.100   12 Jun 2027 06:31:40.100             0.000             0.000
       354   12 Jun 2027 08:03:28.712   12 Jun 2027 08:03:45.552            16.840          8006.406
       355   12 Jun 2027 08:05:21.564   12 Jun 2027 08:05:26.265             4.701          1500.031
       356   12 Jun 2027 08:05:49.549   12 Jun 2027 08:05:51.093             1.544           713.937
       357   12 Jun 2027 08:06:26.922   12 Jun 2027 08:06:32.853             5.931          1119.656
       358   12 Jun 2027 08:07:16.160   12 Jun 2027 08:07:18.937             2.777          1297.312
       359   12 Jun 2027 08:08:45.634   12 Jun 2027 08:08:51.337             5.703          2593.656
       360   12 Jun 2027 09:39:29.651   12 Jun 2027 09:39:36.279             6.628          2978.750
       361   12 Jun 2027 09:40:50.338   12 Jun 2027 09:40:52.821             2.483           529.812
       362   12 Jun 2027 09:41:35.028   12 Jun 2027 09:41:38.817             3.789           870.938
       363   12 Jun 2027 09:42:02.999   12 Jun 2027 09:42:05.759             2.760           101.719
       364   12 Jun 2027 09:44:20.869   12 Jun 2027 09:44:28.306             7.437          2684.625
       365   12 Jun 2027 09:45:50.497   12 Jun 2027 09:45:54.715             4.218           704.375
       366   12 Jun 2027 09:46:14.536   12 Jun 2027 09:46:16.866             2.330           353.438
       367   12 Jun 2027 09:47:42.055   12 Jun 2027 09:47:47.016             4.961          1252.469
       368   12 Jun 2027 11:16:32.700   12 Jun 2027 11:16:46.610            13.910          5463.062
       369   12 Jun 2027 11:20:31.095   12 Jun 2027 11:20:43.360            12.265          6114.875
       370   12 Jun 2027 11:21:36.421   12 Jun 2027 11:21:40.331             3.910          1658.156
       371   12 Jun 2027 11:22:02.502   12 Jun 2027 11:22:03.745             1.243           600.219
       372   12 Jun 2027 11:22:36.487   12 Jun 2027 11:22:37.149             0.662            98.406
       373   12 Jun 2027 11:23:03.813   12 Jun 2027 11:23:06.194             2.381           714.531
       374   12 Jun 2027 11:23:30.220   12 Jun 2027 11:23:33.460             3.240           750.812
       375   12 Jun 2027 11:23:54.540   12 Jun 2027 11:23:57.113             2.573           658.750
       376   13 Jun 2027 03:39:50.838   13 Jun 2027 03:40:39.788            48.950         24475.000
       377   13 Jun 2027 03:40:49.627   13 Jun 2027 03:41:32.368            42.741         21370.500
       378   13 Jun 2027 03:41:33.088   13 Jun 2027 03:43:19.444           106.356         53178.000
       379   13 Jun 2027 05:18:13.320   13 Jun 2027 05:18:50.409            37.089         18544.500
       380   13 Jun 2027 05:19:31.535   13 Jun 2027 05:20:44.281            72.746         35631.750
       381   13 Jun 2027 06:41:37.842   13 Jun 2027 06:41:53.179            15.337          6055.344
       382   13 Jun 2027 06:42:50.910   13 Jun 2027 06:42:58.942             8.032          1579.656
       383   13 Jun 2027 06:43:39.572   13 Jun 2027 06:43:43.389             3.817          1269.687
       384   13 Jun 2027 06:43:50.736   13 Jun 2027 06:43:52.707             1.971           145.688
       385   13 Jun 2027 08:17:57.415   13 Jun 2027 08:18:05.334             7.919          3650.781
       386   13 Jun 2027 08:18:28.137   13 Jun 2027 08:18:29.625             1.488           422.250
       387   13 Jun 2027 08:18:33.648   13 Jun 2027 08:18:33.648             0.000             0.000
       388   13 Jun 2027 08:19:30.678   13 Jun 2027 08:19:38.483             7.805          1825.188
       389   13 Jun 2027 08:19:50.393   13 Jun 2027 08:19:51.453             1.060            48.500
       390   13 Jun 2027 08:20:29.992   13 Jun 2027 08:20:43.933            13.941           546.656
       391   13 Jun 2027 09:51:27.944   13 Jun 2027 09:51:36.221             8.277          2376.094
       392   13 Jun 2027 09:53:51.301   13 Jun 2027 09:53:53.903             2.602           936.813
       393   13 Jun 2027 09:54:59.273   13 Jun 2027 09:55:09.422            10.149          1925.719
       394   13 Jun 2027 09:55:55.333   13 Jun 2027 09:55:57.721             2.388            54.781
       395   13 Jun 2027 09:56:11.787   13 Jun 2027 09:56:12.712             0.925           217.156
       396   13 Jun 2027 09:57:17.091   13 Jun 2027 09:57:21.291             4.200          1783.031
       397   13 Jun 2027 09:58:27.767   13 Jun 2027 09:58:29.862             2.095           366.250
       398   13 Jun 2027 09:59:37.983   13 Jun 2027 09:59:43.539             5.556          2088.375
       399   13 Jun 2027 09:59:54.598   13 Jun 2027 09:59:58.016             3.418            72.875
       400   13 Jun 2027 11:28:58.751   13 Jun 2027 11:29:12.061            13.310          6507.844
       401   13 Jun 2027 11:31:22.452   13 Jun 2027 11:31:25.186             2.734           668.000
       402   13 Jun 2027 11:32:19.687   13 Jun 2027 11:32:22.224             2.537            20.250
       403   13 Jun 2027 11:33:44.281   13 Jun 2027 11:33:48.398             4.117          1918.875
       404   13 Jun 2027 11:34:23.818   13 Jun 2027 11:34:39.880            16.062          1106.875
       405   13 Jun 2027 11:35:15.576   13 Jun 2027 11:35:21.514             5.938           785.750
       406   13 Jun 2027 11:35:34.545   13 Jun 2027 11:35:40.465             5.920           407.219
