uniorb/output/strategy_4/Camera/Camera_KinoSat_111802.txt

KinoSat_111802
-------------------------
    Access    *     Start Time (UTCG)     *     Stop Time (UTCG)  *   Duration (s) *   Data (Mbytes)
         1   01 Jun 2027 03:34:07.685   01 Jun 2027 03:36:15.261           127.576         63788.000
         2   01 Jun 2027 03:37:16.565   01 Jun 2027 03:37:37.329            20.764         10382.000
         3   01 Jun 2027 05:13:39.798   01 Jun 2027 05:15:11.946            92.148         46074.000
         4   01 Jun 2027 05:15:33.982   01 Jun 2027 05:15:35.585             1.603           801.500
         5   01 Jun 2027 05:16:00.424   01 Jun 2027 05:16:17.794            17.370          8685.000
         6   01 Jun 2027 05:16:55.298   01 Jun 2027 05:16:55.298             0.000             0.000
         7   01 Jun 2027 05:17:11.727   01 Jun 2027 05:17:15.771             4.044          2022.000
         8   01 Jun 2027 05:18:28.314   01 Jun 2027 05:18:39.007            10.693          5346.500
         9   01 Jun 2027 05:20:00.592   01 Jun 2027 05:20:18.143            17.551          8775.500
        10   01 Jun 2027 06:38:00.939   01 Jun 2027 06:39:18.686            77.747         38873.500
        11   01 Jun 2027 06:49:40.894   01 Jun 2027 06:49:59.933            19.039          9519.500
        12   01 Jun 2027 08:11:58.852   01 Jun 2027 08:13:05.244            66.392         33196.000
        13   01 Jun 2027 08:13:52.795   01 Jun 2027 08:14:46.732            53.937         26968.500
        14   01 Jun 2027 09:46:53.363   01 Jun 2027 09:47:52.967            59.604         29802.000
        15   01 Jun 2027 11:25:59.786   01 Jun 2027 11:27:08.572            68.786         34393.000
        16   01 Jun 2027 11:30:30.509   01 Jun 2027 11:31:44.629            74.120         37060.000
        17   02 Jun 2027 03:46:34.984   02 Jun 2027 03:46:52.919            17.935          8967.500
        18   02 Jun 2027 03:47:00.492   02 Jun 2027 03:47:30.247            29.755         14877.500
        19   02 Jun 2027 03:47:35.163   02 Jun 2027 03:48:29.307            54.144         27072.000
        20   02 Jun 2027 03:48:31.449   02 Jun 2027 03:48:47.641            16.192          8096.000
        21   02 Jun 2027 03:50:22.299   02 Jun 2027 03:50:31.489             9.190          4595.000
        22   02 Jun 2027 03:51:18.780   02 Jun 2027 03:51:26.791             8.011          4005.500
        23   02 Jun 2027 03:51:52.707   02 Jun 2027 03:51:58.620             5.913          2956.500
        24   02 Jun 2027 05:25:16.585   02 Jun 2027 05:29:18.626           242.041        121020.500
        25   02 Jun 2027 05:29:53.227   02 Jun 2027 05:30:02.436             9.209          4604.500
        26   02 Jun 2027 06:49:34.681   02 Jun 2027 06:49:58.774            24.093         12046.500
        27   02 Jun 2027 06:50:19.701   02 Jun 2027 06:50:41.415            21.714         10857.000
        28   02 Jun 2027 07:01:56.460   02 Jun 2027 07:02:14.253            17.793          8896.500
        29   02 Jun 2027 08:23:30.788   02 Jun 2027 08:24:37.900            67.112         33556.000
        30   02 Jun 2027 08:25:52.658   02 Jun 2027 08:28:12.481           139.823         69911.500
        31   02 Jun 2027 09:58:23.894   02 Jun 2027 09:59:28.231            64.337         29512.281
        32   02 Jun 2027 10:00:30.262   02 Jun 2027 10:00:31.822             1.560           474.719
        33   02 Jun 2027 10:01:13.451   02 Jun 2027 10:01:16.063             2.612          1016.000
        34   02 Jun 2027 10:02:09.598   02 Jun 2027 10:02:09.598             0.000             0.000
        35   02 Jun 2027 10:04:07.760   02 Jun 2027 10:04:09.695             1.935           967.500
        36   02 Jun 2027 10:05:09.781   02 Jun 2027 10:05:21.156            11.375          4975.781
        37   02 Jun 2027 10:05:38.896   02 Jun 2027 10:05:42.116             3.220           546.594
        38   02 Jun 2027 10:06:51.575   02 Jun 2027 10:06:56.103             4.528          2170.594
        39   02 Jun 2027 10:07:14.397   02 Jun 2027 10:07:16.064             1.667           440.906
        40   02 Jun 2027 10:07:33.236   02 Jun 2027 10:07:34.347             1.111           536.625
        41   02 Jun 2027 11:36:19.987   02 Jun 2027 11:36:25.965             5.978          2989.000
        42   02 Jun 2027 11:38:42.378   02 Jun 2027 11:38:42.378             0.000             0.000
        43   02 Jun 2027 11:38:57.924   02 Jun 2027 11:39:12.125            14.201          7047.844
        44   02 Jun 2027 11:40:47.056   02 Jun 2027 11:40:47.056             0.000             0.000
        45   02 Jun 2027 11:42:11.366   02 Jun 2027 11:42:22.543            11.177          5509.250
        46   02 Jun 2027 11:42:39.974   02 Jun 2027 11:42:41.744             1.770           384.937
        47   02 Jun 2027 11:42:55.755   02 Jun 2027 11:42:57.421             1.666           304.219
        48   02 Jun 2027 11:43:08.900   02 Jun 2027 11:43:10.561             1.661           339.969
        49   03 Jun 2027 03:59:10.967   03 Jun 2027 03:59:23.555            12.588          6294.000
        50   03 Jun 2027 03:59:33.954   03 Jun 2027 04:00:34.452            60.498         30249.000
        51   03 Jun 2027 04:00:42.723   03 Jun 2027 04:01:10.244            27.521         13760.500
        52   03 Jun 2027 04:01:19.921   03 Jun 2027 04:02:00.468            40.547         20273.500
        53   03 Jun 2027 04:03:45.551   03 Jun 2027 04:03:46.053             0.502           251.000
        54   03 Jun 2027 05:37:42.126   03 Jun 2027 05:38:56.270            74.144         37072.000
        55   03 Jun 2027 05:39:42.261   03 Jun 2027 05:40:48.502            66.241         33120.500
        56   03 Jun 2027 05:40:55.826   03 Jun 2027 05:41:43.006            47.180         23409.469
        57   03 Jun 2027 07:01:30.526   03 Jun 2027 07:01:53.485            22.959          6872.438
        58   03 Jun 2027 07:02:36.922   03 Jun 2027 07:02:36.922             0.000             0.000
        59   03 Jun 2027 07:03:41.895   03 Jun 2027 07:03:47.139             5.244          2622.000
        60   03 Jun 2027 08:37:30.271   03 Jun 2027 08:37:42.778            12.507          5693.656
        61   03 Jun 2027 08:37:50.695   03 Jun 2027 08:37:51.989             1.294           247.406
        62   03 Jun 2027 08:37:59.170   03 Jun 2027 08:38:00.350             1.180            27.344
        63   03 Jun 2027 08:38:09.228   03 Jun 2027 08:38:10.876             1.648           277.438
        64   03 Jun 2027 08:39:03.865   03 Jun 2027 08:39:07.706             3.841          1362.875
        65   03 Jun 2027 08:40:15.154   03 Jun 2027 08:40:17.280             2.126           907.875
        66   03 Jun 2027 08:40:48.148   03 Jun 2027 08:40:51.552             3.404           964.625
        67   03 Jun 2027 10:11:17.776   03 Jun 2027 10:11:26.440             8.664          1997.656
        68   03 Jun 2027 10:12:59.269   03 Jun 2027 10:13:02.128             2.859          1347.438
        69   03 Jun 2027 10:13:27.914   03 Jun 2027 10:13:30.359             2.445            71.969
        70   03 Jun 2027 10:16:07.393   03 Jun 2027 10:16:17.660            10.267          4769.625
        71   03 Jun 2027 10:18:04.775   03 Jun 2027 10:18:08.492             3.717          1509.187
        72   03 Jun 2027 10:18:47.533   03 Jun 2027 10:18:52.725             5.192          1193.969
        73   03 Jun 2027 10:19:23.245   03 Jun 2027 10:19:24.354             1.109           395.094
        74   03 Jun 2027 11:48:32.386   03 Jun 2027 11:48:52.404            20.018          7020.344
        75   03 Jun 2027 11:50:49.943   03 Jun 2027 11:50:55.425             5.482          1832.875
        76   03 Jun 2027 11:51:12.463   03 Jun 2027 11:51:14.734             2.271           493.719
        77   03 Jun 2027 11:53:24.538   03 Jun 2027 11:53:40.636            16.098          3929.125
        78   03 Jun 2027 11:54:25.144   03 Jun 2027 11:54:31.921             6.777          1302.531
        79   03 Jun 2027 11:54:59.687   03 Jun 2027 11:55:01.054             1.367           570.906
        80   03 Jun 2027 11:55:26.670   03 Jun 2027 11:55:31.061             4.391           800.500
        81   04 Jun 2027 04:11:44.176   04 Jun 2027 04:12:11.028            26.852         13426.000
        82   04 Jun 2027 04:12:21.898   04 Jun 2027 04:14:12.216           110.318         55159.000
        83   04 Jun 2027 04:15:43.890   04 Jun 2027 04:15:52.151             8.261          4130.500
        84   04 Jun 2027 04:16:14.730   04 Jun 2027 04:16:30.331            15.601          7800.500
        85   04 Jun 2027 04:17:02.344   04 Jun 2027 04:17:08.133             5.789          2894.500
        86   04 Jun 2027 04:17:12.386   04 Jun 2027 04:17:16.329             3.943          1971.500
        87   04 Jun 2027 05:50:00.765   04 Jun 2027 05:50:22.657            21.892         10946.000
        88   04 Jun 2027 05:51:00.470   04 Jun 2027 05:53:28.295           147.825         73497.531
        89   04 Jun 2027 05:53:59.202   04 Jun 2027 05:54:01.285             2.083           914.031
        90   04 Jun 2027 05:54:25.772   04 Jun 2027 05:54:27.552             1.780           298.250
        91   04 Jun 2027 07:13:22.750   04 Jun 2027 07:13:42.718            19.968          9062.875
        92   04 Jun 2027 07:15:08.298   04 Jun 2027 07:15:15.726             7.428          2537.281
        93   04 Jun 2027 07:15:57.088   04 Jun 2027 07:15:57.088             0.000             0.000
        94   04 Jun 2027 08:49:44.321   04 Jun 2027 08:50:01.614            17.293          7787.438
        95   04 Jun 2027 08:50:53.114   04 Jun 2027 08:50:58.181             5.067          1201.000
        96   04 Jun 2027 08:51:42.359   04 Jun 2027 08:51:44.443             2.084           801.875
        97   04 Jun 2027 08:52:17.615   04 Jun 2027 08:52:21.625             4.010          1029.906
        98   04 Jun 2027 10:22:02.721   04 Jun 2027 10:22:14.033            11.312          2483.219
        99   04 Jun 2027 10:23:49.585   04 Jun 2027 10:23:52.497             2.912           738.844
       100   04 Jun 2027 10:25:32.943   04 Jun 2027 10:25:37.845             4.902          2381.031
       101   04 Jun 2027 10:25:46.829   04 Jun 2027 10:25:48.467             1.638            40.312
       102   04 Jun 2027 10:28:06.296   04 Jun 2027 10:28:11.658             5.362          2610.156
       103   04 Jun 2027 10:30:31.295   04 Jun 2027 10:30:39.102             7.807          2742.250
       104   04 Jun 2027 10:31:03.472   04 Jun 2027 10:31:08.401             4.929           588.406
       105   05 Jun 2027 04:23:50.590   05 Jun 2027 04:24:02.701            12.111          6055.500
       106   05 Jun 2027 04:24:39.876   05 Jun 2027 04:24:52.201            12.325          6162.500
       107   05 Jun 2027 04:24:58.162   05 Jun 2027 04:26:19.067            80.905         40452.500
       108   05 Jun 2027 04:27:07.478   05 Jun 2027 04:27:24.308            16.830          8415.000
       109   05 Jun 2027 04:28:41.383   05 Jun 2027 04:28:41.383             0.000             0.000
       110   05 Jun 2027 04:29:05.745   05 Jun 2027 04:29:05.887             0.142            71.000
       111   05 Jun 2027 06:02:53.687   05 Jun 2027 06:06:12.321           198.634         99317.000
       112   05 Jun 2027 07:25:26.189   05 Jun 2027 07:25:40.104            13.915          6957.500
       113   05 Jun 2027 07:25:57.558   05 Jun 2027 07:26:01.942             4.384          1844.281
       114   05 Jun 2027 07:26:31.419   05 Jun 2027 07:26:31.419             0.000             0.000
       115   05 Jun 2027 07:27:00.074   05 Jun 2027 07:27:04.862             4.788          1106.406
       116   05 Jun 2027 07:28:04.182   05 Jun 2027 07:28:04.255             0.073            36.500
       117   05 Jun 2027 09:02:19.212   05 Jun 2027 09:02:33.411            14.199          5657.344
       118   05 Jun 2027 09:02:54.159   05 Jun 2027 09:02:58.735             4.576           635.937
       119   05 Jun 2027 09:03:37.190   05 Jun 2027 09:03:37.754             0.564           143.812
       120   05 Jun 2027 09:04:19.823   05 Jun 2027 09:04:22.497             2.674          1110.000
       121   05 Jun 2027 10:37:38.347   05 Jun 2027 10:37:53.255            14.908          4744.219
       122   05 Jun 2027 10:38:12.089   05 Jun 2027 10:38:13.306             1.217           173.031
       123   05 Jun 2027 10:40:45.432   05 Jun 2027 10:40:48.254             2.822          1284.656
       124   05 Jun 2027 10:41:02.131   05 Jun 2027 10:41:02.639             0.508           174.312
       125   05 Jun 2027 10:42:39.225   05 Jun 2027 10:42:44.623             5.398          2190.063
       126   05 Jun 2027 10:43:03.361   05 Jun 2027 10:43:04.792             1.431           534.469
       127   05 Jun 2027 10:43:35.214   05 Jun 2027 10:43:40.544             5.330           775.781
       128   05 Jun 2027 10:43:42.472   05 Jun 2027 10:43:42.572             0.100            22.469
       129   06 Jun 2027 03:01:15.466   06 Jun 2027 03:01:52.346            36.880         18440.000
       130   06 Jun 2027 03:02:10.210   06 Jun 2027 03:02:10.210             0.000             0.000
       131   06 Jun 2027 03:03:10.118   06 Jun 2027 03:03:19.875             9.757          4878.500
       132   06 Jun 2027 03:03:35.927   06 Jun 2027 03:03:44.948             9.021          4510.500
       133   06 Jun 2027 04:35:49.396   06 Jun 2027 04:36:34.840            45.444         22722.000
       134   06 Jun 2027 04:36:55.649   06 Jun 2027 04:38:27.252            91.603         45801.500
       135   06 Jun 2027 04:39:10.083   06 Jun 2027 04:39:15.306             5.223          2611.500
       136   06 Jun 2027 04:40:07.435   06 Jun 2027 04:40:31.158            23.723         11861.500
       137   06 Jun 2027 06:14:02.872   06 Jun 2027 06:15:54.563           111.691         55049.281
       138   06 Jun 2027 07:37:24.054   06 Jun 2027 07:37:34.889            10.835          5402.500
       139   06 Jun 2027 07:38:46.273   06 Jun 2027 07:38:51.776             5.503          2230.750
       140   06 Jun 2027 07:38:57.393   06 Jun 2027 07:39:00.631             3.238            57.500
       141   06 Jun 2027 07:40:10.209   06 Jun 2027 07:40:13.076             2.867           816.312
       142   06 Jun 2027 07:40:31.795   06 Jun 2027 07:40:32.726             0.931           424.219
       143   06 Jun 2027 09:14:13.269   06 Jun 2027 09:14:24.647            11.378          5614.531
       144   06 Jun 2027 09:16:31.682   06 Jun 2027 09:16:38.568             6.886          2384.281
       145   06 Jun 2027 09:17:02.478   06 Jun 2027 09:17:06.402             3.924            76.531
       146   06 Jun 2027 10:49:11.204   06 Jun 2027 10:49:19.741             8.537          2723.187
       147   06 Jun 2027 10:50:31.258   06 Jun 2027 10:50:37.343             6.085          2013.469
       148   06 Jun 2027 10:52:01.290   06 Jun 2027 10:52:05.579             4.289          1976.906
       149   06 Jun 2027 10:52:28.430   06 Jun 2027 10:52:29.717             1.287           314.531
       150   06 Jun 2027 10:53:30.617   06 Jun 2027 10:53:40.909            10.292          1142.906
       151   06 Jun 2027 10:54:24.732   06 Jun 2027 10:54:37.201            12.469           876.031
       152   06 Jun 2027 10:54:46.968   06 Jun 2027 10:54:47.897             0.929           305.219
       153   06 Jun 2027 10:55:24.114   06 Jun 2027 10:55:25.548             1.434           415.625
       154   06 Jun 2027 10:55:47.134   06 Jun 2027 10:55:47.377             0.243           121.500
       155   07 Jun 2027 03:09:37.291   07 Jun 2027 03:09:52.858            15.567          7783.500
       156   07 Jun 2027 03:09:59.964   07 Jun 2027 03:10:00.042             0.078            39.000
       157   07 Jun 2027 03:10:01.876   07 Jun 2027 03:10:40.209            38.333         19166.500
       158   07 Jun 2027 03:11:13.182   07 Jun 2027 03:11:16.271             3.089          1544.500
       159   07 Jun 2027 03:11:32.542   07 Jun 2027 03:11:41.894             9.352          4676.000
       160   07 Jun 2027 03:11:57.147   07 Jun 2027 03:12:27.113            29.966         14983.000
       161   07 Jun 2027 03:13:44.467   07 Jun 2027 03:13:53.908             9.441          4720.500
       162   07 Jun 2027 03:14:36.231   07 Jun 2027 03:14:43.650             7.419          3709.500
       163   07 Jun 2027 03:16:04.575   07 Jun 2027 03:16:35.250            30.675         15337.500
       164   07 Jun 2027 04:48:54.768   07 Jun 2027 04:50:22.269            87.501         43750.500
       165   07 Jun 2027 04:51:23.622   07 Jun 2027 04:52:24.071            60.449         30224.500
       166   07 Jun 2027 04:55:10.452   07 Jun 2027 04:55:33.970            23.518         11314.469
       167   07 Jun 2027 04:55:44.427   07 Jun 2027 04:55:48.151             3.724           316.594
       168   07 Jun 2027 06:15:16.003   07 Jun 2027 06:15:23.444             7.441          3720.500
       169   07 Jun 2027 06:26:00.604   07 Jun 2027 06:26:08.450             7.846          3272.188
       170   07 Jun 2027 06:26:11.917   07 Jun 2027 06:26:13.196             1.279            79.437
       171   07 Jun 2027 06:26:58.998   07 Jun 2027 06:27:01.924             2.926          1431.313
       172   07 Jun 2027 07:50:00.430   07 Jun 2027 07:50:10.047             9.617          3457.906
       173   07 Jun 2027 07:50:57.102   07 Jun 2027 07:51:03.700             6.598           854.562
       174   07 Jun 2027 09:25:45.229   07 Jun 2027 09:25:50.875             5.646          2790.844
       175   07 Jun 2027 09:27:43.572   07 Jun 2027 09:27:52.231             8.659          3082.375
       176   07 Jun 2027 09:28:14.401   07 Jun 2027 09:28:16.241             1.840           147.594
       177   07 Jun 2027 09:29:12.639   07 Jun 2027 09:29:15.915             3.276          1541.187
       178   07 Jun 2027 11:00:36.910   07 Jun 2027 11:00:47.232            10.322          2924.281
       179   07 Jun 2027 11:03:00.045   07 Jun 2027 11:03:08.162             8.117          3411.656
       180   07 Jun 2027 11:03:57.753   07 Jun 2027 11:04:01.111             3.358           870.844
       181   07 Jun 2027 11:05:29.430   07 Jun 2027 11:05:30.276             0.846           410.313
       182   07 Jun 2027 11:07:08.559   07 Jun 2027 11:07:11.547             2.988          1198.469
       183   07 Jun 2027 11:07:52.856   07 Jun 2027 11:07:55.195             2.339           990.938
       184   08 Jun 2027 03:22:17.778   08 Jun 2027 03:24:48.996           151.218         75609.000
       185   08 Jun 2027 03:25:07.251   08 Jun 2027 03:25:18.616            11.365          5682.500
       186   08 Jun 2027 03:25:35.886   08 Jun 2027 03:25:39.667             3.781          1890.500
       187   08 Jun 2027 03:26:09.569   08 Jun 2027 03:26:34.713            25.144         12572.000
       188   08 Jun 2027 03:26:55.354   08 Jun 2027 03:27:12.777            17.423          8711.500
       189   08 Jun 2027 03:28:15.042   08 Jun 2027 03:28:20.810             5.768          2884.000
       190   08 Jun 2027 05:01:15.502   08 Jun 2027 05:02:58.367           102.865         49344.625
       191   08 Jun 2027 05:03:32.969   08 Jun 2027 05:03:36.914             3.945          1077.563
       192   08 Jun 2027 05:07:09.326   08 Jun 2027 05:07:23.182            13.856          6637.875
       193   08 Jun 2027 05:08:33.295   08 Jun 2027 05:08:37.446             4.151          2029.344
       194   08 Jun 2027 06:26:33.045   08 Jun 2027 06:26:41.293             8.248          4000.094
       195   08 Jun 2027 06:37:59.288   08 Jun 2027 06:38:04.438             5.150          1651.375
       196   08 Jun 2027 06:38:13.908   08 Jun 2027 06:38:14.954             1.046           295.937
       197   08 Jun 2027 08:00:38.497   08 Jun 2027 08:00:45.923             7.426          3189.750
       198   08 Jun 2027 08:00:52.582   08 Jun 2027 08:00:53.985             1.403           208.094
       199   08 Jun 2027 08:01:20.449   08 Jun 2027 08:01:26.128             5.679            33.469
       200   08 Jun 2027 08:02:46.821   08 Jun 2027 08:02:50.810             3.989          1915.656
       201   08 Jun 2027 08:04:07.495   08 Jun 2027 08:04:19.228            11.733          2131.594
       202   08 Jun 2027 08:05:13.091   08 Jun 2027 08:05:16.178             3.087          1516.000
       203   08 Jun 2027 09:35:59.505   08 Jun 2027 09:36:06.545             7.040          2080.562
       204   08 Jun 2027 09:36:42.504   08 Jun 2027 09:36:53.171            10.667           396.156
       205   08 Jun 2027 09:39:08.067   08 Jun 2027 09:39:12.181             4.114          1500.188
       206   08 Jun 2027 09:40:40.925   08 Jun 2027 09:40:44.634             3.709           513.188
       207   08 Jun 2027 09:41:25.710   08 Jun 2027 09:41:31.002             5.292           877.937
       208   08 Jun 2027 09:41:54.729   08 Jun 2027 09:41:55.007             0.278            62.906
       209   08 Jun 2027 11:12:47.692   08 Jun 2027 11:12:59.015            11.323          3800.812
       210   08 Jun 2027 11:15:33.447   08 Jun 2027 11:15:44.013            10.566          4004.375
       211   08 Jun 2027 11:17:03.683   08 Jun 2027 11:17:09.921             6.238          2273.719
       212   08 Jun 2027 11:17:52.551   08 Jun 2027 11:17:57.546             4.995           538.563
       213   08 Jun 2027 11:18:39.155   08 Jun 2027 11:18:42.886             3.731          1196.594
       214   08 Jun 2027 11:19:12.555   08 Jun 2027 11:19:14.964             2.409           669.688
       215   08 Jun 2027 11:19:57.771   08 Jun 2027 11:19:57.835             0.064            32.000
       216   09 Jun 2027 03:34:25.952   09 Jun 2027 03:36:28.892           122.940         61470.000
       217   09 Jun 2027 03:38:49.031   09 Jun 2027 03:39:44.811            55.780         27890.000
       218   09 Jun 2027 05:13:31.397   09 Jun 2027 05:15:41.139           129.742         64837.188
       219   09 Jun 2027 05:16:09.853   09 Jun 2027 05:16:11.682             1.829           897.313
       220   09 Jun 2027 05:17:53.724   09 Jun 2027 05:17:57.082             3.358          1550.938
       221   09 Jun 2027 05:18:17.179   09 Jun 2027 05:18:19.928             2.749           367.469
       222   09 Jun 2027 05:18:45.482   09 Jun 2027 05:18:46.384             0.902           361.656
       223   09 Jun 2027 05:19:16.368   09 Jun 2027 05:19:17.777             1.409           478.719
       224   09 Jun 2027 06:37:46.807   09 Jun 2027 06:38:03.641            16.834          5725.187
       225   09 Jun 2027 06:38:44.054   09 Jun 2027 06:38:48.051             3.997           946.687
       226   09 Jun 2027 06:39:36.199   09 Jun 2027 06:39:41.041             4.842          1223.437
       227   09 Jun 2027 06:49:58.588   09 Jun 2027 06:50:03.683             5.095          1969.250
       228   09 Jun 2027 08:12:14.793   09 Jun 2027 08:12:27.052            12.259          5885.687
       229   09 Jun 2027 08:12:28.706   09 Jun 2027 08:12:28.885             0.179            51.687
       230   09 Jun 2027 08:14:10.415   09 Jun 2027 08:14:16.701             6.286          1971.344
       231   09 Jun 2027 08:14:34.321   09 Jun 2027 08:14:38.680             4.359           387.063
       232   09 Jun 2027 08:15:46.815   09 Jun 2027 08:15:51.393             4.578          1889.563
       233   09 Jun 2027 08:16:27.576   09 Jun 2027 08:16:30.806             3.230           656.500
       234   09 Jun 2027 09:47:08.570   09 Jun 2027 09:47:16.242             7.672          2753.313
       235   09 Jun 2027 09:48:15.106   09 Jun 2027 09:48:24.262             9.156           982.594
       236   09 Jun 2027 09:48:31.646   09 Jun 2027 09:48:38.205             6.559           230.750
       237   09 Jun 2027 09:50:17.831   09 Jun 2027 09:50:22.673             4.842          1789.750
       238   09 Jun 2027 09:50:50.334   09 Jun 2027 09:50:54.223             3.889           814.312
       239   09 Jun 2027 09:52:49.647   09 Jun 2027 09:52:53.922             4.275           762.938
       240   09 Jun 2027 09:53:41.853   09 Jun 2027 09:53:45.866             4.013           940.656
       241   09 Jun 2027 09:53:55.894   09 Jun 2027 09:53:56.836             0.942           201.719
       242   09 Jun 2027 11:24:42.151   09 Jun 2027 11:24:55.903            13.752          5530.063
       243   09 Jun 2027 11:27:23.271   09 Jun 2027 11:27:27.941             4.670          2109.875
       244   09 Jun 2027 11:30:53.435   09 Jun 2027 11:31:06.571            13.136          6358.594
       245   09 Jun 2027 11:31:41.161   09 Jun 2027 11:31:47.870             6.709          1080.937
       246   09 Jun 2027 11:32:01.903   09 Jun 2027 11:32:02.307             0.404           202.000
       247   10 Jun 2027 03:46:52.790   10 Jun 2027 03:47:09.396            16.606          8303.000
       248   10 Jun 2027 03:47:18.799   10 Jun 2027 03:47:47.668            28.869         14434.500
       249   10 Jun 2027 03:47:52.390   10 Jun 2027 03:48:46.706            54.316         27158.000
       250   10 Jun 2027 03:48:47.908   10 Jun 2027 03:50:36.646           108.738         54369.000
       251   10 Jun 2027 05:25:36.375   10 Jun 2027 05:27:23.261           106.886         52165.718
       252   10 Jun 2027 05:27:41.968   10 Jun 2027 05:27:44.127             2.159           572.906
       253   10 Jun 2027 05:28:50.082   10 Jun 2027 05:28:59.435             9.353          1851.562
       254   10 Jun 2027 05:30:01.715   10 Jun 2027 05:30:05.631             3.916          1853.719
       255   10 Jun 2027 05:30:29.205   10 Jun 2027 05:30:33.517             4.312           624.406
       256   10 Jun 2027 05:31:09.783   10 Jun 2027 05:31:12.815             3.032           673.094
       257   10 Jun 2027 05:31:53.535   10 Jun 2027 05:31:56.037             2.502            59.750
       258   10 Jun 2027 06:49:52.346   10 Jun 2027 06:50:04.763            12.417          6029.187
       259   10 Jun 2027 06:50:37.118   10 Jun 2027 06:50:37.118             0.000             0.000
       260   10 Jun 2027 06:50:58.695   10 Jun 2027 06:51:02.248             3.553          1387.969
       261   10 Jun 2027 06:51:19.704   10 Jun 2027 06:51:21.880             2.176           188.406
       262   10 Jun 2027 06:51:48.611   10 Jun 2027 06:51:50.770             2.159           331.156
       263   10 Jun 2027 07:02:19.865   10 Jun 2027 07:02:25.951             6.086          3043.000
       264   10 Jun 2027 08:23:44.296   10 Jun 2027 08:24:00.069            15.773          6527.188
       265   10 Jun 2027 08:24:31.938   10 Jun 2027 08:24:33.672             1.734           153.469
       266   10 Jun 2027 08:25:43.900   10 Jun 2027 08:25:49.940             6.040          1177.250
       267   10 Jun 2027 08:26:36.089   10 Jun 2027 08:26:41.986             5.897          1326.781
       268   10 Jun 2027 08:27:27.000   10 Jun 2027 08:27:33.454             6.454          1305.594
       269   10 Jun 2027 08:28:49.727   10 Jun 2027 08:28:58.353             8.626          2383.531
       270   10 Jun 2027 09:58:39.263   10 Jun 2027 09:58:47.078             7.815          3255.750
       271   10 Jun 2027 10:00:49.467   10 Jun 2027 10:00:56.535             7.068           511.594
       272   10 Jun 2027 10:01:32.295   10 Jun 2027 10:01:35.118             2.823           993.250
       273   10 Jun 2027 10:02:24.086   10 Jun 2027 10:02:25.632             1.546           299.250
       274   10 Jun 2027 10:05:42.259   10 Jun 2027 10:05:47.540             5.281          2400.938
       275   10 Jun 2027 10:06:01.280   10 Jun 2027 10:06:09.248             7.968           429.375
       276   10 Jun 2027 10:06:46.627   10 Jun 2027 10:06:47.139             0.512           256.000
       277   10 Jun 2027 10:07:07.251   10 Jun 2027 10:07:11.238             3.987            94.813
       278   10 Jun 2027 11:36:36.314   10 Jun 2027 11:36:49.268            12.954          5250.719
       279   10 Jun 2027 11:38:58.197   10 Jun 2027 11:39:06.676             8.479          4029.031
       280   10 Jun 2027 11:42:01.466   10 Jun 2027 11:42:05.947             4.481          2169.688
       281   10 Jun 2027 11:42:55.222   10 Jun 2027 11:43:01.118             5.896          1435.563
       282   10 Jun 2027 11:43:09.583   10 Jun 2027 11:43:12.719             3.136           258.750
       283   10 Jun 2027 11:43:23.496   10 Jun 2027 11:43:25.305             1.809           255.906
       284   11 Jun 2027 03:59:29.539   11 Jun 2027 03:59:40.559            11.020          5510.000
       285   11 Jun 2027 03:59:52.206   11 Jun 2027 04:00:37.750            45.544         22772.000
       286   11 Jun 2027 04:02:14.854   11 Jun 2027 04:03:37.501            82.647         41323.500
       287   11 Jun 2027 04:04:35.465   11 Jun 2027 04:04:35.465             0.000             0.000
       288   11 Jun 2027 05:37:59.182   11 Jun 2027 05:39:11.162            71.980         35990.000
       289   11 Jun 2027 05:40:00.730   11 Jun 2027 05:41:06.355            65.625         32812.500
       290   11 Jun 2027 05:41:12.408   11 Jun 2027 05:42:03.599            51.191         25471.875
       291   11 Jun 2027 07:01:48.956   11 Jun 2027 07:02:09.318            20.362          9230.625
       292   11 Jun 2027 07:02:54.154   11 Jun 2027 07:02:59.183             5.029          1401.125
       293   11 Jun 2027 07:03:59.728   11 Jun 2027 07:04:03.514             3.786          1864.812
       294   11 Jun 2027 08:37:47.974   11 Jun 2027 08:37:59.697            11.723          5858.594
       295   11 Jun 2027 08:38:04.912   11 Jun 2027 08:38:05.220             0.308            83.969
       296   11 Jun 2027 08:38:37.504   11 Jun 2027 08:38:40.360             2.856           653.844
       297   11 Jun 2027 08:39:13.316   11 Jun 2027 08:39:18.039             4.723           939.031
       298   11 Jun 2027 08:40:02.190   11 Jun 2027 08:40:07.190             5.000          1270.906
       299   11 Jun 2027 08:40:33.074   11 Jun 2027 08:40:33.074             0.000             0.000
       300   11 Jun 2027 08:41:05.670   11 Jun 2027 08:41:09.065             3.395          1057.312
       301   11 Jun 2027 10:11:32.947   11 Jun 2027 10:11:44.088            11.141          2505.250
       302   11 Jun 2027 10:13:18.802   11 Jun 2027 10:13:23.176             4.374          1395.969
       303   11 Jun 2027 10:13:47.030   11 Jun 2027 10:13:49.259             2.229           271.688
       304   11 Jun 2027 10:14:09.824   11 Jun 2027 10:14:11.611             1.787           463.188
       305   11 Jun 2027 10:15:46.069   11 Jun 2027 10:15:47.613             1.544           244.156
       306   11 Jun 2027 10:16:41.679   11 Jun 2027 10:16:44.560             2.881          1295.375
       307   11 Jun 2027 10:17:32.016   11 Jun 2027 10:17:35.073             3.057          1159.375
       308   11 Jun 2027 10:17:53.374   11 Jun 2027 10:17:55.057             1.683           390.500
       309   11 Jun 2027 10:18:29.275   11 Jun 2027 10:18:30.467             1.192           157.281
       310   11 Jun 2027 10:18:43.880   11 Jun 2027 10:18:44.119             0.239            20.031
       311   11 Jun 2027 10:18:48.130   11 Jun 2027 10:18:52.644             4.514           125.344
       312   11 Jun 2027 10:19:00.444   11 Jun 2027 10:19:00.884             0.440           111.781
       313   11 Jun 2027 11:48:57.413   11 Jun 2027 11:49:12.192            14.779          6803.000
       314   11 Jun 2027 11:51:04.764   11 Jun 2027 11:51:04.764             0.000             0.000
       315   11 Jun 2027 11:53:35.884   11 Jun 2027 11:53:52.243            16.359          6181.531
       316   11 Jun 2027 11:54:57.172   11 Jun 2027 11:55:01.929             4.757          1784.844
       317   11 Jun 2027 11:55:16.986   11 Jun 2027 11:55:21.194             4.208            43.594
       318   11 Jun 2027 11:55:29.774   11 Jun 2027 11:55:30.481             0.707            21.125
       319   11 Jun 2027 11:55:35.838   11 Jun 2027 11:55:38.372             2.534           167.406
       320   12 Jun 2027 04:12:00.637   12 Jun 2027 04:12:08.553             7.916          3958.000
       321   12 Jun 2027 04:12:49.885   12 Jun 2027 04:14:53.524           123.639         61819.500
       322   12 Jun 2027 04:16:29.577   12 Jun 2027 04:16:44.331            14.754          7377.000
       323   12 Jun 2027 04:17:08.926   12 Jun 2027 04:17:19.472            10.546          5273.000
       324   12 Jun 2027 05:49:59.643   12 Jun 2027 05:50:37.276            37.633         18816.500
       325   12 Jun 2027 05:52:10.832   12 Jun 2027 05:52:40.848            30.016         15008.000
       326   12 Jun 2027 05:53:01.514   12 Jun 2027 05:54:30.876            89.362         44681.000
       327   12 Jun 2027 05:54:40.242   12 Jun 2027 05:54:52.085            11.843          5921.500
       328   12 Jun 2027 07:13:40.506   12 Jun 2027 07:13:59.661            19.155          9377.375
       329   12 Jun 2027 07:15:26.044   12 Jun 2027 07:15:31.477             5.433          2612.250
       330   12 Jun 2027 07:16:15.088   12 Jun 2027 07:16:15.464             0.376           188.000
       331   12 Jun 2027 08:50:02.586   12 Jun 2027 08:50:22.262            19.676          8977.781
       332   12 Jun 2027 08:50:40.283   12 Jun 2027 08:50:41.683             1.400           183.281
       333   12 Jun 2027 08:51:04.394   12 Jun 2027 08:51:09.239             4.845           703.437
       334   12 Jun 2027 08:52:50.536   12 Jun 2027 08:52:57.245             6.709          3040.781
       335   12 Jun 2027 10:24:06.794   12 Jun 2027 10:24:13.866             7.072          3495.937
       336   12 Jun 2027 10:25:52.852   12 Jun 2027 10:26:02.913            10.061          2442.938
       337   12 Jun 2027 10:26:04.942   12 Jun 2027 10:26:06.258             1.316            47.906
       338   12 Jun 2027 10:28:23.830   12 Jun 2027 10:28:29.368             5.538          2487.438
       339   12 Jun 2027 10:30:51.096   12 Jun 2027 10:30:58.745             7.649          2867.625
       340   12 Jun 2027 10:31:19.100   12 Jun 2027 10:31:23.874             4.774           595.750
       341   12 Jun 2027 10:31:51.113   12 Jun 2027 10:31:52.014             0.901           158.562
       342   12 Jun 2027 10:32:03.398   12 Jun 2027 10:32:06.172             2.774            88.625
       343   13 Jun 2027 04:24:06.666   13 Jun 2027 04:25:08.705            62.039         31019.500
       344   13 Jun 2027 04:25:15.213   13 Jun 2027 04:25:40.455            25.242         12621.000
       345   13 Jun 2027 04:26:42.300   13 Jun 2027 04:27:37.515            55.215         27607.500
       346   13 Jun 2027 04:28:40.150   13 Jun 2027 04:28:48.724             8.574          4287.000
       347   13 Jun 2027 04:29:16.309   13 Jun 2027 04:29:20.622             4.313          2156.500
       348   13 Jun 2027 06:03:12.982   13 Jun 2027 06:06:16.233           183.251         89047.438
       349   13 Jun 2027 07:25:44.334   13 Jun 2027 07:25:52.926             8.592          4296.000
       350   13 Jun 2027 07:27:02.653   13 Jun 2027 07:27:11.214             8.561          3940.188
       351   13 Jun 2027 07:27:27.813   13 Jun 2027 07:27:27.813             0.000             0.000
       352   13 Jun 2027 07:28:20.452   13 Jun 2027 07:28:27.258             6.806          1992.688
       353   13 Jun 2027 09:02:35.954   13 Jun 2027 09:02:48.339            12.385          6130.781
       354   13 Jun 2027 09:03:10.651   13 Jun 2027 09:03:12.166             1.515            14.344
       355   13 Jun 2027 09:03:50.664   13 Jun 2027 09:03:53.115             2.451          1203.062
       356   13 Jun 2027 09:04:02.550   13 Jun 2027 09:04:04.304             1.754           294.844
       357   13 Jun 2027 09:05:13.019   13 Jun 2027 09:05:16.573             3.554          1103.969
       358   13 Jun 2027 10:37:18.732   13 Jun 2027 10:37:29.215            10.483          3807.500
       359   13 Jun 2027 10:38:26.268   13 Jun 2027 10:38:29.292             3.024           985.656
       360   13 Jun 2027 10:40:21.768   13 Jun 2027 10:40:21.768             0.000             0.000
       361   13 Jun 2027 10:41:00.758   13 Jun 2027 10:41:11.792            11.034          4634.250
       362   13 Jun 2027 10:41:41.022   13 Jun 2027 10:41:44.121             3.099           694.875
       363   13 Jun 2027 10:42:10.548   13 Jun 2027 10:42:14.733             4.185           205.594
       364   13 Jun 2027 10:43:00.705   13 Jun 2027 10:43:03.109             2.404           871.406
       365   13 Jun 2027 10:43:27.582   13 Jun 2027 10:43:28.771             1.189           274.625
       366   13 Jun 2027 10:43:58.127   13 Jun 2027 10:44:00.308             2.181           741.188
