uniorb/output/strategy_4/Camera/Camera_KinoSat_111109.txt

KinoSat_111109
-------------------------
    Access    *     Start Time (UTCG)     *     Stop Time (UTCG)  *   Duration (s) *   Data (Mbytes)
         1   01 Jun 2027 03:00:00.000   01 Jun 2027 03:00:02.111             2.111          1055.500
         2   01 Jun 2027 03:00:47.489   01 Jun 2027 03:01:08.841            21.352         10676.000
         3   01 Jun 2027 03:01:21.229   01 Jun 2027 03:01:36.061            14.832          7416.000
         4   01 Jun 2027 03:01:51.327   01 Jun 2027 03:01:51.331             0.004             2.000
         5   01 Jun 2027 04:20:39.042   01 Jun 2027 04:22:04.633            85.591         42795.500
         6   01 Jun 2027 04:22:37.746   01 Jun 2027 04:22:43.954             6.208          3104.000
         7   01 Jun 2027 05:57:03.374   01 Jun 2027 05:58:38.593            95.219         47609.500
         8   01 Jun 2027 05:59:21.899   01 Jun 2027 06:00:16.963            55.064         27532.000
         9   01 Jun 2027 07:31:09.125   01 Jun 2027 07:33:39.679           150.554         75277.000
        10   01 Jun 2027 07:34:34.633   01 Jun 2027 07:34:34.810             0.177            88.500
        11   01 Jun 2027 07:37:28.246   01 Jun 2027 07:37:28.334             0.088            44.000
        12   01 Jun 2027 07:38:18.255   01 Jun 2027 07:38:28.861            10.606          5303.000
        13   01 Jun 2027 07:38:51.985   01 Jun 2027 07:38:57.762             5.777          2888.500
        14   01 Jun 2027 07:39:01.379   01 Jun 2027 07:39:03.843             2.464          1232.000
        15   01 Jun 2027 09:08:09.282   01 Jun 2027 09:10:58.705           169.423         84711.500
        16   01 Jun 2027 10:45:10.738   01 Jun 2027 10:47:58.794           168.056         84028.000
        17   01 Jun 2027 10:48:47.110   01 Jun 2027 10:48:49.807             2.697          1348.500
        18   01 Jun 2027 10:50:00.441   01 Jun 2027 10:50:02.591             2.150          1075.000
        19   02 Jun 2027 03:09:02.127   02 Jun 2027 03:09:06.926             4.799          2399.500
        20   02 Jun 2027 03:10:10.605   02 Jun 2027 03:11:29.667            79.062         39531.000
        21   02 Jun 2027 03:12:15.888   02 Jun 2027 03:12:15.888             0.000             0.000
        22   02 Jun 2027 03:12:31.938   02 Jun 2027 03:12:38.920             6.982          3491.000
        23   02 Jun 2027 03:12:57.765   02 Jun 2027 03:13:03.400             5.635          2817.500
        24   02 Jun 2027 04:32:44.298   02 Jun 2027 04:33:19.445            35.147         17573.500
        25   02 Jun 2027 06:09:13.324   02 Jun 2027 06:12:52.107           218.783        109391.500
        26   02 Jun 2027 07:44:20.718   02 Jun 2027 07:47:20.341           179.623         89811.500
        27   02 Jun 2027 07:47:55.029   02 Jun 2027 07:48:03.261             8.232          4116.000
        28   02 Jun 2027 07:50:23.151   02 Jun 2027 07:50:45.107            21.956         10978.000
        29   02 Jun 2027 07:50:55.622   02 Jun 2027 07:51:05.267             9.645          4822.500
        30   02 Jun 2027 09:20:42.086   02 Jun 2027 09:22:40.575           118.489         56659.468
        31   02 Jun 2027 09:22:48.523   02 Jun 2027 09:22:50.771             2.248           167.094
        32   02 Jun 2027 09:23:12.680   02 Jun 2027 09:23:14.898             2.218           439.500
        33   02 Jun 2027 09:23:43.490   02 Jun 2027 09:23:46.148             2.658           743.406
        34   02 Jun 2027 09:26:00.733   02 Jun 2027 09:26:10.524             9.791          3906.375
        35   02 Jun 2027 09:26:57.553   02 Jun 2027 09:27:00.009             2.456          1228.000
        36   02 Jun 2027 10:58:08.461   02 Jun 2027 10:58:27.842            19.381          8198.094
        37   02 Jun 2027 10:59:34.788   02 Jun 2027 10:59:39.492             4.704          1466.656
        38   02 Jun 2027 11:00:07.798   02 Jun 2027 11:00:10.947             3.149           836.250
        39   02 Jun 2027 11:00:27.691   02 Jun 2027 11:00:28.552             0.861            42.562
        40   02 Jun 2027 11:00:48.495   02 Jun 2027 11:00:50.587             2.092            58.344
        41   02 Jun 2027 11:01:33.428   02 Jun 2027 11:01:38.295             4.867           765.875
        42   02 Jun 2027 11:02:33.056   02 Jun 2027 11:02:35.608             2.552           642.750
        43   03 Jun 2027 03:21:19.637   03 Jun 2027 03:21:57.226            37.589         18794.500
        44   03 Jun 2027 03:22:09.661   03 Jun 2027 03:23:59.461           109.800         54900.000
        45   03 Jun 2027 03:24:24.250   03 Jun 2027 03:24:42.547            18.297          9148.500
        46   03 Jun 2027 04:44:47.572   03 Jun 2027 04:45:23.515            35.943         17971.500
        47   03 Jun 2027 04:45:36.513   03 Jun 2027 04:45:45.125             8.612          4306.000
        48   03 Jun 2027 04:47:36.694   03 Jun 2027 04:47:46.340             9.646          4823.000
        49   03 Jun 2027 06:21:16.503   03 Jun 2027 06:22:47.278            90.775         45167.813
        50   03 Jun 2027 06:23:22.173   03 Jun 2027 06:23:24.076             1.903           472.438
        51   03 Jun 2027 06:23:40.691   03 Jun 2027 06:23:40.691             0.000             0.000
        52   03 Jun 2027 06:23:51.558   03 Jun 2027 06:23:57.076             5.518           628.437
        53   03 Jun 2027 07:56:27.683   03 Jun 2027 07:56:32.346             4.663          1959.000
        54   03 Jun 2027 07:56:43.274   03 Jun 2027 07:56:44.947             1.673            25.250
        55   03 Jun 2027 07:57:52.410   03 Jun 2027 07:57:52.410             0.000             0.000
        56   03 Jun 2027 07:58:35.735   03 Jun 2027 07:58:41.086             5.351          1371.531
        57   03 Jun 2027 07:59:16.021   03 Jun 2027 07:59:18.934             2.913          1048.969
        58   03 Jun 2027 07:59:57.409   03 Jun 2027 07:59:59.466             2.057          1014.656
        59   03 Jun 2027 08:01:33.855   03 Jun 2027 08:01:45.874            12.019          2170.312
        60   03 Jun 2027 08:02:40.191   03 Jun 2027 08:02:43.444             3.253          1594.281
        61   03 Jun 2027 09:32:24.323   03 Jun 2027 09:32:37.361            13.038          5353.563
        62   03 Jun 2027 09:35:01.168   03 Jun 2027 09:35:04.437             3.269           950.719
        63   03 Jun 2027 09:36:43.575   03 Jun 2027 09:36:53.545             9.970          1855.813
        64   03 Jun 2027 09:37:18.218   03 Jun 2027 09:37:19.297             1.079           506.594
        65   03 Jun 2027 09:37:48.116   03 Jun 2027 09:37:49.633             1.517           526.594
        66   03 Jun 2027 11:10:15.391   03 Jun 2027 11:10:28.788            13.397          6523.406
        67   03 Jun 2027 11:13:39.508   03 Jun 2027 11:13:43.063             3.555          1446.938
        68   03 Jun 2027 11:14:25.487   03 Jun 2027 11:14:28.548             3.061            63.875
        69   04 Jun 2027 03:22:24.574   04 Jun 2027 03:22:29.840             5.266          2633.000
        70   04 Jun 2027 03:33:16.959   04 Jun 2027 03:36:52.404           215.445        107722.500
        71   04 Jun 2027 04:57:14.279   04 Jun 2027 04:57:31.725            17.446          8723.000
        72   04 Jun 2027 04:58:36.858   04 Jun 2027 04:58:45.116             8.258          4129.000
        73   04 Jun 2027 06:33:00.808   04 Jun 2027 06:34:09.800            68.992         31676.063
        74   04 Jun 2027 06:34:31.509   04 Jun 2027 06:34:31.509             0.000             0.000
        75   04 Jun 2027 06:35:03.365   04 Jun 2027 06:35:04.430             1.065           532.500
        76   04 Jun 2027 06:35:38.992   04 Jun 2027 06:35:38.992             0.000             0.000
        77   04 Jun 2027 06:36:20.007   04 Jun 2027 06:36:28.114             8.107          3407.281
        78   04 Jun 2027 08:07:43.745   04 Jun 2027 08:07:50.457             6.712          2120.344
        79   04 Jun 2027 08:08:40.789   04 Jun 2027 08:08:57.103            16.314           489.844
        80   04 Jun 2027 08:10:20.795   04 Jun 2027 08:10:26.860             6.065           867.500
        81   04 Jun 2027 08:11:34.194   04 Jun 2027 08:11:40.406             6.212           908.469
        82   04 Jun 2027 08:12:28.507   04 Jun 2027 08:12:30.997             2.490           905.094
        83   04 Jun 2027 08:13:52.211   04 Jun 2027 08:13:54.432             2.221           597.500
        84   04 Jun 2027 08:14:37.608   04 Jun 2027 08:14:42.150             4.542            88.344
        85   04 Jun 2027 09:44:29.433   04 Jun 2027 09:44:42.169            12.736          5750.250
        86   04 Jun 2027 09:47:16.886   04 Jun 2027 09:47:18.596             1.710           383.687
        87   04 Jun 2027 09:47:44.245   04 Jun 2027 09:47:45.945             1.700           801.531
        88   04 Jun 2027 09:48:48.022   04 Jun 2027 09:48:51.054             3.032          1451.250
        89   04 Jun 2027 09:49:22.393   04 Jun 2027 09:49:26.739             4.346           933.375
        90   04 Jun 2027 09:49:53.433   04 Jun 2027 09:49:55.540             2.107           827.531
        91   04 Jun 2027 09:50:19.430   04 Jun 2027 09:50:21.546             2.116           410.750
        92   04 Jun 2027 11:22:45.597   04 Jun 2027 11:22:58.809            13.212          6157.687
        93   04 Jun 2027 11:25:08.506   04 Jun 2027 11:25:17.504             8.998          1772.313
        94   04 Jun 2027 11:26:30.127   04 Jun 2027 11:26:34.252             4.125          1607.312
        95   05 Jun 2027 03:33:39.938   05 Jun 2027 03:33:50.810            10.872          5436.000
        96   05 Jun 2027 03:34:48.449   05 Jun 2027 03:34:51.676             3.227          1613.500
        97   05 Jun 2027 03:45:15.220   05 Jun 2027 03:46:43.328            88.108         44054.000
        98   05 Jun 2027 05:07:52.013   05 Jun 2027 05:08:50.616            58.603         29301.500
        99   05 Jun 2027 05:09:29.793   05 Jun 2027 05:10:07.778            37.985         18992.500
       100   05 Jun 2027 06:43:01.389   05 Jun 2027 06:44:15.398            74.009         37004.500
       101   05 Jun 2027 06:44:43.978   05 Jun 2027 06:45:23.158            39.180         19364.438
       102   05 Jun 2027 06:45:56.015   05 Jun 2027 06:45:58.054             2.039           476.937
       103   05 Jun 2027 06:46:28.008   05 Jun 2027 06:46:28.008             0.000             0.000
       104   05 Jun 2027 06:46:34.942   05 Jun 2027 06:46:37.443             2.501          1152.750
       105   05 Jun 2027 06:47:40.894   05 Jun 2027 06:47:40.894             0.000             0.000
       106   05 Jun 2027 06:47:57.996   05 Jun 2027 06:48:05.882             7.886          2087.125
       107   05 Jun 2027 06:48:51.636   05 Jun 2027 06:48:58.332             6.696           863.438
       108   05 Jun 2027 06:49:25.653   05 Jun 2027 06:49:28.304             2.651           599.594
       109   05 Jun 2027 08:19:48.833   05 Jun 2027 08:19:58.250             9.417          1737.563
       110   05 Jun 2027 08:21:53.150   05 Jun 2027 08:22:01.303             8.153          2237.938
       111   05 Jun 2027 08:23:05.164   05 Jun 2027 08:23:05.164             0.000             0.000
       112   05 Jun 2027 08:23:15.216   05 Jun 2027 08:23:19.068             3.852           649.875
       113   05 Jun 2027 08:24:35.240   05 Jun 2027 08:24:41.784             6.544          1057.875
       114   05 Jun 2027 08:25:36.382   05 Jun 2027 08:25:39.836             3.454          1412.188
       115   05 Jun 2027 08:26:23.625   05 Jun 2027 08:26:31.698             8.073           891.344
       116   05 Jun 2027 09:56:49.881   05 Jun 2027 09:57:03.924            14.043          6679.563
       117   05 Jun 2027 09:59:21.191   05 Jun 2027 09:59:26.067             4.876          2064.469
       118   05 Jun 2027 09:59:37.249   05 Jun 2027 09:59:38.056             0.807           329.562
       119   05 Jun 2027 09:59:55.869   05 Jun 2027 09:59:57.538             1.669           547.312
       120   05 Jun 2027 10:00:17.001   05 Jun 2027 10:00:22.461             5.460           607.094
       121   05 Jun 2027 10:00:34.281   05 Jun 2027 10:00:36.611             2.330           112.406
       122   05 Jun 2027 10:00:43.277   05 Jun 2027 10:00:43.705             0.428           104.781
       123   05 Jun 2027 10:01:08.759   05 Jun 2027 10:01:11.466             2.707           594.125
       124   05 Jun 2027 10:01:21.394   05 Jun 2027 10:01:24.387             2.993            80.375
       125   05 Jun 2027 10:01:54.524   05 Jun 2027 10:01:57.062             2.538           897.656
       126   05 Jun 2027 10:02:17.757   05 Jun 2027 10:02:20.899             3.142           101.625
       127   05 Jun 2027 11:34:43.358   05 Jun 2027 11:34:56.425            13.067          5051.531
       128   05 Jun 2027 11:35:29.955   05 Jun 2027 11:35:33.980             4.025           647.750
       129   05 Jun 2027 11:36:04.223   05 Jun 2027 11:36:09.761             5.538           845.844
       130   05 Jun 2027 11:38:02.071   05 Jun 2027 11:38:09.739             7.668          1797.031
       131   05 Jun 2027 11:38:20.899   05 Jun 2027 11:38:22.188             1.289           348.750
       132   05 Jun 2027 11:38:36.226   05 Jun 2027 11:38:39.544             3.318           147.844
       133   06 Jun 2027 03:45:00.566   06 Jun 2027 03:45:20.995            20.429         10214.500
       134   06 Jun 2027 03:45:51.647   06 Jun 2027 03:46:19.130            27.483         13741.500
       135   06 Jun 2027 03:57:14.308   06 Jun 2027 03:58:12.239            57.931         28965.500
       136   06 Jun 2027 05:19:27.912   06 Jun 2027 05:20:36.059            68.147         34073.500
       137   06 Jun 2027 05:21:24.279   06 Jun 2027 05:22:06.753            42.474         21237.000
       138   06 Jun 2027 06:54:21.441   06 Jun 2027 06:56:07.254           105.813         52869.906
       139   06 Jun 2027 06:56:38.035   06 Jun 2027 06:56:39.942             1.907           898.625
       140   06 Jun 2027 06:58:17.636   06 Jun 2027 06:58:24.033             6.397          2828.813
       141   06 Jun 2027 06:59:37.174   06 Jun 2027 06:59:41.190             4.016          2008.000
       142   06 Jun 2027 07:00:01.125   06 Jun 2027 07:00:05.601             4.476           842.750
       143   06 Jun 2027 07:00:20.706   06 Jun 2027 07:00:22.465             1.759           268.687
       144   06 Jun 2027 07:01:22.271   06 Jun 2027 07:01:26.076             3.805          1772.250
       145   06 Jun 2027 07:01:50.722   06 Jun 2027 07:01:53.256             2.534           141.219
       146   06 Jun 2027 07:02:24.934   06 Jun 2027 07:02:26.943             2.009           751.000
       147   06 Jun 2027 08:31:56.122   06 Jun 2027 08:32:05.490             9.368          2698.313
       148   06 Jun 2027 08:32:44.795   06 Jun 2027 08:32:50.456             5.661           942.406
       149   06 Jun 2027 08:33:59.521   06 Jun 2027 08:34:03.982             4.461           214.469
       150   06 Jun 2027 08:35:20.811   06 Jun 2027 08:35:24.612             3.801          1661.156
       151   06 Jun 2027 08:36:02.899   06 Jun 2027 08:36:09.104             6.205           821.750
       152   06 Jun 2027 08:36:19.329   06 Jun 2027 08:36:20.507             1.178           229.344
       153   06 Jun 2027 08:37:29.148   06 Jun 2027 08:37:36.248             7.100          1389.125
       154   06 Jun 2027 08:38:22.266   06 Jun 2027 08:38:31.002             8.736          1438.062
       155   06 Jun 2027 08:39:05.464   06 Jun 2027 08:39:06.064             0.600            42.969
       156   06 Jun 2027 08:39:18.159   06 Jun 2027 08:39:18.668             0.509           254.500
       157   06 Jun 2027 10:08:39.260   06 Jun 2027 10:08:50.461            11.201          5131.187
       158   06 Jun 2027 10:12:23.037   06 Jun 2027 10:12:28.128             5.091          1111.375
       159   06 Jun 2027 10:12:50.245   06 Jun 2027 10:12:52.355             2.110             7.750
       160   06 Jun 2027 10:13:28.429   06 Jun 2027 10:13:31.388             2.959          1084.750
       161   06 Jun 2027 10:14:19.273   06 Jun 2027 10:14:23.860             4.587          1496.406
       162   06 Jun 2027 10:14:59.934   06 Jun 2027 10:15:02.379             2.445           617.750
       163   06 Jun 2027 11:46:42.983   06 Jun 2027 11:46:55.258            12.275          5699.656
       164   06 Jun 2027 11:48:46.797   06 Jun 2027 11:48:52.547             5.750          2125.312
       165   06 Jun 2027 11:48:54.578   06 Jun 2027 11:48:56.435             1.857            63.469
       166   06 Jun 2027 11:49:43.923   06 Jun 2027 11:49:46.088             2.165           586.156
       167   06 Jun 2027 11:50:09.916   06 Jun 2027 11:50:15.909             5.993           744.625
       168   06 Jun 2027 11:50:41.706   06 Jun 2027 11:50:44.557             2.851           106.406
       169   06 Jun 2027 11:50:48.788   06 Jun 2027 11:50:52.578             3.790           132.219
       170   07 Jun 2027 03:57:06.185   07 Jun 2027 03:57:15.239             9.054          4527.000
       171   07 Jun 2027 03:57:58.045   07 Jun 2027 03:58:20.377            22.332         11166.000
       172   07 Jun 2027 04:09:30.038   07 Jun 2027 04:09:46.654            16.616          8308.000
       173   07 Jun 2027 05:30:56.926   07 Jun 2027 05:33:23.382           146.456         73228.000
       174   07 Jun 2027 05:33:29.517   07 Jun 2027 05:33:44.287            14.770          7385.000
       175   07 Jun 2027 07:05:51.354   07 Jun 2027 07:07:56.857           125.503         62674.656
       176   07 Jun 2027 07:08:18.271   07 Jun 2027 07:08:18.271             0.000             0.000
       177   07 Jun 2027 07:08:49.759   07 Jun 2027 07:08:59.522             9.763          1653.188
       178   07 Jun 2027 07:09:42.608   07 Jun 2027 07:09:45.708             3.100           442.250
       179   07 Jun 2027 07:10:02.805   07 Jun 2027 07:10:02.805             0.000             0.000
       180   07 Jun 2027 07:10:28.156   07 Jun 2027 07:10:33.280             5.124          1055.500
       181   07 Jun 2027 07:12:26.949   07 Jun 2027 07:12:32.632             5.683          2633.250
       182   07 Jun 2027 07:13:09.945   07 Jun 2027 07:13:13.391             3.446          1049.125
       183   07 Jun 2027 07:13:46.114   07 Jun 2027 07:13:46.114             0.000             0.000
       184   07 Jun 2027 07:13:54.094   07 Jun 2027 07:13:56.306             2.212          1105.875
       185   07 Jun 2027 07:14:48.069   07 Jun 2027 07:14:57.121             9.052          1617.594
       186   07 Jun 2027 08:43:51.497   07 Jun 2027 08:44:03.813            12.316          5542.719
       187   07 Jun 2027 08:44:50.641   07 Jun 2027 08:45:00.607             9.966          1062.000
       188   07 Jun 2027 08:46:02.538   07 Jun 2027 08:46:03.435             0.897           346.313
       189   07 Jun 2027 08:48:01.718   07 Jun 2027 08:48:06.848             5.130          2372.250
       190   07 Jun 2027 08:49:09.951   07 Jun 2027 08:49:16.274             6.323          1964.500
       191   07 Jun 2027 08:50:06.669   07 Jun 2027 08:50:13.263             6.594           986.531
       192   07 Jun 2027 08:50:49.959   07 Jun 2027 08:50:52.842             2.883           897.781
       193   07 Jun 2027 10:20:46.542   07 Jun 2027 10:21:00.416            13.874          6116.937
       194   07 Jun 2027 10:25:02.982   07 Jun 2027 10:25:04.481             1.499           662.312
       195   07 Jun 2027 10:25:31.379   07 Jun 2027 10:25:34.250             2.871           840.562
       196   07 Jun 2027 10:25:44.249   07 Jun 2027 10:25:47.201             2.952           114.188
       197   07 Jun 2027 10:26:53.863   07 Jun 2027 10:26:55.421             1.558           519.281
       198   07 Jun 2027 11:58:20.499   07 Jun 2027 11:58:30.053             9.554          4680.406
       199   07 Jun 2027 11:59:48.249   07 Jun 2027 11:59:49.069             0.820           184.875
       200   08 Jun 2027 04:09:02.679   08 Jun 2027 04:09:34.776            32.097         16048.500
       201   08 Jun 2027 04:09:54.491   08 Jun 2027 04:09:54.491             0.000             0.000
       202   08 Jun 2027 04:10:39.812   08 Jun 2027 04:10:52.566            12.754          6377.000
       203   08 Jun 2027 05:45:14.870   08 Jun 2027 05:47:49.462           154.592         77296.000
       204   08 Jun 2027 07:18:47.610   08 Jun 2027 07:20:48.378           120.768         60384.000
       205   08 Jun 2027 07:21:04.460   08 Jun 2027 07:21:07.730             3.270          1295.500
       206   08 Jun 2027 07:21:18.923   08 Jun 2027 07:21:20.686             1.763            33.375
       207   08 Jun 2027 07:21:57.797   08 Jun 2027 07:22:04.706             6.909           920.031
       208   08 Jun 2027 07:22:31.959   08 Jun 2027 07:22:31.959             0.000             0.000
       209   08 Jun 2027 07:23:05.201   08 Jun 2027 07:23:05.603             0.402           201.000
       210   08 Jun 2027 07:23:21.949   08 Jun 2027 07:23:27.147             5.198          2196.250
       211   08 Jun 2027 07:24:07.060   08 Jun 2027 07:24:07.060             0.000             0.000
       212   08 Jun 2027 07:24:17.421   08 Jun 2027 07:24:21.458             4.037          1167.125
       213   08 Jun 2027 07:25:14.479   08 Jun 2027 07:25:17.692             3.213          1448.781
       214   08 Jun 2027 07:25:54.149   08 Jun 2027 07:25:57.449             3.300           475.063
       215   08 Jun 2027 07:26:31.709   08 Jun 2027 07:26:31.709             0.000             0.000
       216   08 Jun 2027 07:26:32.978   08 Jun 2027 07:26:36.191             3.213          1110.281
       217   08 Jun 2027 08:56:13.592   08 Jun 2027 08:56:26.524            12.932          4576.031
       218   08 Jun 2027 08:58:32.885   08 Jun 2027 08:58:36.707             3.822          1623.000
       219   08 Jun 2027 09:00:04.698   08 Jun 2027 09:00:11.658             6.960          2521.344
       220   08 Jun 2027 09:01:32.802   08 Jun 2027 09:01:37.959             5.157           469.531
       221   08 Jun 2027 09:02:35.790   08 Jun 2027 09:02:37.078             1.288           442.844
       222   08 Jun 2027 10:33:15.823   08 Jun 2027 10:33:34.502            18.679          6685.594
       223   08 Jun 2027 10:36:45.823   08 Jun 2027 10:36:49.043             3.220           402.500
       224   08 Jun 2027 10:37:00.937   08 Jun 2027 10:37:02.823             1.886           335.156
       225   08 Jun 2027 10:37:09.717   08 Jun 2027 10:37:10.237             0.520            55.812
       226   08 Jun 2027 10:37:15.767   08 Jun 2027 10:37:18.702             2.935            64.937
       227   08 Jun 2027 10:37:43.766   08 Jun 2027 10:37:45.240             1.474           392.094
       228   08 Jun 2027 10:38:02.450   08 Jun 2027 10:38:08.816             6.366           451.031
       229   08 Jun 2027 10:38:45.636   08 Jun 2027 10:38:49.352             3.716           861.937
       230   08 Jun 2027 10:38:57.727   08 Jun 2027 10:39:03.094             5.367            28.187
       231   09 Jun 2027 03:00:00.000   09 Jun 2027 03:00:05.630             5.630          2815.000
       232   09 Jun 2027 03:01:23.640   09 Jun 2027 03:01:40.569            16.929          8464.500
       233   09 Jun 2027 04:20:53.879   09 Jun 2027 04:21:57.864            63.985         31992.500
       234   09 Jun 2027 04:22:01.607   09 Jun 2027 04:22:22.402            20.795         10397.500
       235   09 Jun 2027 05:57:21.104   09 Jun 2027 05:58:53.226            92.122         46061.000
       236   09 Jun 2027 05:59:35.785   09 Jun 2027 06:00:17.770            41.985         20992.500
       237   09 Jun 2027 06:00:53.423   09 Jun 2027 06:00:53.538             0.115            57.500
       238   09 Jun 2027 07:29:30.923   09 Jun 2027 07:29:38.569             7.646          3823.000
       239   09 Jun 2027 07:31:26.404   09 Jun 2027 07:32:44.639            78.235         39073.781
       240   09 Jun 2027 07:33:09.445   09 Jun 2027 07:33:09.445             0.000             0.000
       241   09 Jun 2027 07:33:21.026   09 Jun 2027 07:33:22.326             1.300           650.000
       242   09 Jun 2027 07:33:23.355   09 Jun 2027 07:33:23.699             0.344           132.000
       243   09 Jun 2027 07:34:06.585   09 Jun 2027 07:34:06.585             0.000             0.000
       244   09 Jun 2027 07:34:38.369   09 Jun 2027 07:34:41.274             2.905          1161.406
       245   09 Jun 2027 07:35:09.489   09 Jun 2027 07:35:10.559             1.070           486.344
       246   09 Jun 2027 07:36:29.010   09 Jun 2027 07:36:36.946             7.936          2451.594
       247   09 Jun 2027 07:37:13.390   09 Jun 2027 07:37:15.737             2.347          1029.781
       248   09 Jun 2027 07:38:00.762   09 Jun 2027 07:38:02.112             1.350           340.125
       249   09 Jun 2027 07:38:19.025   09 Jun 2027 07:38:19.833             0.808           329.375
       250   09 Jun 2027 07:39:07.681   09 Jun 2027 07:39:10.613             2.932          1080.500
       251   09 Jun 2027 07:39:16.636   09 Jun 2027 07:39:17.932             1.296            72.875
       252   09 Jun 2027 09:08:24.596   09 Jun 2027 09:08:37.239            12.643          6072.125
       253   09 Jun 2027 09:11:32.975   09 Jun 2027 09:11:44.466            11.491           590.563
       254   09 Jun 2027 09:12:25.633   09 Jun 2027 09:12:30.898             5.265           591.719
       255   09 Jun 2027 09:13:29.167   09 Jun 2027 09:13:30.940             1.773           157.750
       256   09 Jun 2027 09:14:56.190   09 Jun 2027 09:14:59.942             3.752           988.344
       257   09 Jun 2027 10:45:30.855   09 Jun 2027 10:45:42.507            11.652          5257.156
       258   09 Jun 2027 10:46:24.094   09 Jun 2027 10:46:24.972             0.878            69.781
       259   09 Jun 2027 10:48:40.433   09 Jun 2027 10:48:43.206             2.773           752.563
       260   09 Jun 2027 10:48:57.107   09 Jun 2027 10:48:58.778             1.671           427.000
       261   09 Jun 2027 10:49:02.879   09 Jun 2027 10:49:04.083             1.204           128.156
       262   09 Jun 2027 10:49:21.459   09 Jun 2027 10:49:23.513             2.054           381.719
       263   09 Jun 2027 10:49:31.249   09 Jun 2027 10:49:38.658             7.409           241.750
       264   09 Jun 2027 10:50:18.447   09 Jun 2027 10:50:24.049             5.602          1196.000
       265   10 Jun 2027 03:10:03.520   10 Jun 2027 03:12:18.341           134.821         67410.500
       266   10 Jun 2027 04:33:00.153   10 Jun 2027 04:33:46.661            46.508         23254.000
       267   10 Jun 2027 04:34:23.072   10 Jun 2027 04:34:24.862             1.790           895.000
       268   10 Jun 2027 04:34:45.140   10 Jun 2027 04:34:48.906             3.766          1883.000
       269   10 Jun 2027 04:35:29.911   10 Jun 2027 04:35:49.652            19.741          9870.500
       270   10 Jun 2027 04:36:02.290   10 Jun 2027 04:36:02.333             0.043            21.500
       271   10 Jun 2027 06:09:28.737   10 Jun 2027 06:11:19.886           111.149         55048.063
       272   10 Jun 2027 06:12:04.332   10 Jun 2027 06:12:07.148             2.816          1234.156
       273   10 Jun 2027 06:12:28.121   10 Jun 2027 06:12:31.350             3.229           288.437
       274   10 Jun 2027 07:44:36.677   10 Jun 2027 07:44:42.546             5.869          2417.937
       275   10 Jun 2027 07:45:43.602   10 Jun 2027 07:45:53.385             9.783          1011.281
       276   10 Jun 2027 07:46:04.619   10 Jun 2027 07:46:04.669             0.050            14.750
       277   10 Jun 2027 07:46:47.482   10 Jun 2027 07:46:51.075             3.593          1233.781
       278   10 Jun 2027 07:47:45.506   10 Jun 2027 07:47:47.083             1.577           300.031
       279   10 Jun 2027 07:48:17.590   10 Jun 2027 07:48:18.174             0.584           162.562
       280   10 Jun 2027 07:49:50.258   10 Jun 2027 07:49:57.819             7.561          2204.094
       281   10 Jun 2027 07:50:39.682   10 Jun 2027 07:50:42.429             2.747          1114.906
       282   10 Jun 2027 07:51:04.592   10 Jun 2027 07:51:05.572             0.980            84.500
       283   10 Jun 2027 09:20:58.367   10 Jun 2027 09:21:07.680             9.313          4630.656
       284   10 Jun 2027 09:23:22.787   10 Jun 2027 09:23:27.180             4.393           500.875
       285   10 Jun 2027 09:23:57.924   10 Jun 2027 09:24:00.612             2.688           960.750
       286   10 Jun 2027 09:24:54.544   10 Jun 2027 09:24:57.397             2.853           881.469
       287   10 Jun 2027 09:25:25.684   10 Jun 2027 09:25:29.834             4.150            54.219
       288   10 Jun 2027 09:26:16.412   10 Jun 2027 09:26:25.713             9.301          1455.562
       289   10 Jun 2027 09:27:15.092   10 Jun 2027 09:27:15.549             0.457           228.500
       290   10 Jun 2027 10:58:23.505   10 Jun 2027 10:58:39.637            16.132          6691.687
       291   10 Jun 2027 10:59:14.616   10 Jun 2027 10:59:20.073             5.457           318.906
       292   10 Jun 2027 10:59:56.846   10 Jun 2027 10:59:59.327             2.481           142.875
       293   10 Jun 2027 11:01:04.234   10 Jun 2027 11:01:07.612             3.378          1464.844
       294   10 Jun 2027 11:02:20.005   10 Jun 2027 11:02:23.912             3.907          1506.719
       295   10 Jun 2027 11:02:47.901   10 Jun 2027 11:02:51.376             3.475           519.625
       296   11 Jun 2027 03:21:34.893   11 Jun 2027 03:22:12.716            37.823         18911.500
       297   11 Jun 2027 03:22:25.132   11 Jun 2027 03:23:23.788            58.656         29328.000
       298   11 Jun 2027 03:23:53.914   11 Jun 2027 03:25:09.672            75.758         37879.000
       299   11 Jun 2027 04:45:02.820   11 Jun 2027 04:45:38.378            35.558         17779.000
       300   11 Jun 2027 04:46:47.503   11 Jun 2027 04:46:47.503             0.000             0.000
       301   11 Jun 2027 04:47:23.806   11 Jun 2027 04:47:52.519            28.713         14356.500
       302   11 Jun 2027 06:21:31.520   11 Jun 2027 06:22:36.347            64.827         31629.468
       303   11 Jun 2027 06:22:52.906   11 Jun 2027 06:22:59.518             6.612           435.219
       304   11 Jun 2027 06:23:27.126   11 Jun 2027 06:23:29.319             2.193           114.188
       305   11 Jun 2027 06:24:02.888   11 Jun 2027 06:24:04.533             1.645           737.656
       306   11 Jun 2027 06:24:35.643   11 Jun 2027 06:24:37.871             2.228           832.813
       307   11 Jun 2027 07:56:43.661   11 Jun 2027 07:56:46.868             3.207          1437.281
       308   11 Jun 2027 07:56:59.417   11 Jun 2027 07:57:01.498             2.081            43.219
       309   11 Jun 2027 07:58:01.341   11 Jun 2027 07:58:03.549             2.208           500.562
       310   11 Jun 2027 07:58:09.033   11 Jun 2027 07:58:10.054             1.021            13.687
       311   11 Jun 2027 07:59:17.231   11 Jun 2027 07:59:20.022             2.791          1392.219
       312   11 Jun 2027 07:59:32.657   11 Jun 2027 07:59:33.593             0.936            12.000
       313   11 Jun 2027 08:00:14.747   11 Jun 2027 08:00:17.072             2.325          1125.250
       314   11 Jun 2027 08:01:50.096   11 Jun 2027 08:02:00.627            10.531          2144.406
       315   11 Jun 2027 08:02:57.098   11 Jun 2027 08:03:01.278             4.180          1560.875
       316   11 Jun 2027 09:32:38.889   11 Jun 2027 09:32:49.263            10.374          4863.156
       317   11 Jun 2027 09:35:17.628   11 Jun 2027 09:35:19.479             1.851           915.469
       318   11 Jun 2027 09:35:53.587   11 Jun 2027 09:35:54.697             1.110            74.719
       319   11 Jun 2027 09:36:59.471   11 Jun 2027 09:37:05.377             5.906          1861.344
       320   11 Jun 2027 09:37:34.745   11 Jun 2027 09:37:36.397             1.652           560.281
       321   11 Jun 2027 09:38:03.239   11 Jun 2027 09:38:07.409             4.170           541.062
       322   11 Jun 2027 09:38:50.208   11 Jun 2027 09:38:51.055             0.847           423.500
       323   11 Jun 2027 11:10:31.555   11 Jun 2027 11:10:45.901            14.346          5703.406
       324   11 Jun 2027 11:13:10.865   11 Jun 2027 11:13:12.455             1.590           184.969
       325   11 Jun 2027 11:14:01.545   11 Jun 2027 11:14:03.728             2.183           197.188
       326   11 Jun 2027 11:14:42.064   11 Jun 2027 11:14:43.777             1.713            55.719
       327   12 Jun 2027 03:22:38.485   12 Jun 2027 03:22:46.428             7.943          3971.500
       328   12 Jun 2027 03:33:32.438   12 Jun 2027 03:37:04.550           212.112        106056.000
       329   12 Jun 2027 04:57:29.491   12 Jun 2027 04:57:47.990            18.499          9249.500
       330   12 Jun 2027 05:00:18.434   12 Jun 2027 05:00:18.434             0.000             0.000
       331   12 Jun 2027 06:33:15.286   12 Jun 2027 06:34:40.495            85.209         42604.500
       332   12 Jun 2027 06:35:22.771   12 Jun 2027 06:35:29.359             6.588          2964.157
       333   12 Jun 2027 06:35:55.869   12 Jun 2027 06:35:56.238             0.369           184.500
       334   12 Jun 2027 06:36:34.044   12 Jun 2027 06:36:39.622             5.578          1825.375
       335   12 Jun 2027 08:07:58.485   12 Jun 2027 08:08:04.827             6.342          2970.781
       336   12 Jun 2027 08:08:57.921   12 Jun 2027 08:09:12.122            14.201           569.594
       337   12 Jun 2027 08:10:37.715   12 Jun 2027 08:10:43.684             5.969           877.812
       338   12 Jun 2027 08:11:21.950   12 Jun 2027 08:11:24.476             2.526           235.969
       339   12 Jun 2027 08:12:16.854   12 Jun 2027 08:12:26.949            10.095          1549.500
       340   12 Jun 2027 08:13:49.291   12 Jun 2027 08:13:57.658             8.367          1985.500
       341   12 Jun 2027 08:14:51.873   12 Jun 2027 08:14:57.195             5.322          1303.219
       342   12 Jun 2027 09:44:45.109   12 Jun 2027 09:44:57.471            12.362          5760.719
       343   12 Jun 2027 09:47:47.016   12 Jun 2027 09:47:52.904             5.888           495.094
       344   12 Jun 2027 09:48:20.126   12 Jun 2027 09:48:26.026             5.900           519.094
       345   12 Jun 2027 09:48:31.158   12 Jun 2027 09:48:31.553             0.395           136.125
       346   12 Jun 2027 09:49:07.270   12 Jun 2027 09:49:10.971             3.701          1036.250
       347   12 Jun 2027 09:49:42.485   12 Jun 2027 09:49:42.980             0.495           112.813
       348   12 Jun 2027 09:49:56.593   12 Jun 2027 09:50:00.120             3.527            49.188
       349   12 Jun 2027 09:50:09.392   12 Jun 2027 09:50:09.905             0.513            98.250
       350   12 Jun 2027 09:50:34.902   12 Jun 2027 09:50:38.065             3.163           531.219
       351   12 Jun 2027 11:23:00.619   12 Jun 2027 11:23:13.437            12.818          4788.344
       352   12 Jun 2027 11:25:16.775   12 Jun 2027 11:25:22.378             5.603           369.813
       353   12 Jun 2027 11:25:54.931   12 Jun 2027 11:26:01.891             6.960           326.844
       354   12 Jun 2027 11:26:30.167   12 Jun 2027 11:26:31.760             1.593           399.156
       355   12 Jun 2027 11:26:37.512   12 Jun 2027 11:26:41.117             3.605           179.750
       356   12 Jun 2027 11:26:50.937   12 Jun 2027 11:26:51.425             0.488           174.656
       357   13 Jun 2027 03:33:53.656   13 Jun 2027 03:33:55.231             1.575           787.500
       358   13 Jun 2027 03:34:33.008   13 Jun 2027 03:34:46.372            13.364          6682.000
       359   13 Jun 2027 03:45:30.807   13 Jun 2027 03:46:58.752            87.945         43972.500
       360   13 Jun 2027 05:08:06.346   13 Jun 2027 05:09:05.724            59.378         29689.000
       361   13 Jun 2027 05:09:45.460   13 Jun 2027 05:10:22.942            37.482         18741.000
       362   13 Jun 2027 05:10:53.716   13 Jun 2027 05:10:53.716             0.000             0.000
       363   13 Jun 2027 05:12:10.574   13 Jun 2027 05:12:19.494             8.920          4460.000
       364   13 Jun 2027 06:43:10.916   13 Jun 2027 06:44:30.742            79.826         39913.000
       365   13 Jun 2027 06:44:59.047   13 Jun 2027 06:45:22.608            23.561         11780.500
       366   13 Jun 2027 06:46:33.747   13 Jun 2027 06:46:42.174             8.427          2694.374
       367   13 Jun 2027 06:47:20.177   13 Jun 2027 06:47:20.177             0.000             0.000
       368   13 Jun 2027 06:47:53.283   13 Jun 2027 06:47:56.606             3.323          1661.500
       369   13 Jun 2027 06:48:15.416   13 Jun 2027 06:48:20.551             5.135          1148.469
       370   13 Jun 2027 06:49:27.552   13 Jun 2027 06:49:35.512             7.960          1445.813
       371   13 Jun 2027 06:49:40.507   13 Jun 2027 06:49:40.960             0.453           156.094
       372   13 Jun 2027 08:20:04.972   13 Jun 2027 08:20:12.499             7.527          1791.250
       373   13 Jun 2027 08:22:09.703   13 Jun 2027 08:22:14.586             4.883          2213.969
       374   13 Jun 2027 08:23:11.533   13 Jun 2027 08:23:20.532             8.999          1779.594
       375   13 Jun 2027 08:23:32.544   13 Jun 2027 08:23:34.197             1.653           375.375
       376   13 Jun 2027 08:24:52.669   13 Jun 2027 08:24:58.988             6.319          1062.281
       377   13 Jun 2027 08:25:51.385   13 Jun 2027 08:25:56.221             4.836          1353.531
       378   13 Jun 2027 08:26:38.486   13 Jun 2027 08:26:47.699             9.213           795.125
       379   13 Jun 2027 09:57:05.497   13 Jun 2027 09:57:17.091            11.594          5613.562
       380   13 Jun 2027 10:00:46.686   13 Jun 2027 10:00:53.540             6.854          2114.594
       381   13 Jun 2027 10:00:54.587   13 Jun 2027 10:00:55.388             0.801            32.719
       382   13 Jun 2027 10:01:05.676   13 Jun 2027 10:01:06.991             1.315           321.500
       383   13 Jun 2027 10:01:33.955   13 Jun 2027 10:01:36.002             2.047           816.250
       384   13 Jun 2027 10:03:02.326   13 Jun 2027 10:03:10.694             8.368          2569.781
       385   13 Jun 2027 11:34:59.182   13 Jun 2027 11:35:12.546            13.364          5206.219
       386   13 Jun 2027 11:35:53.443   13 Jun 2027 11:36:01.100             7.657           224.437
       387   13 Jun 2027 11:37:04.132   13 Jun 2027 11:37:09.098             4.966          1417.781
       388   13 Jun 2027 11:38:16.708   13 Jun 2027 11:38:25.907             9.199          1705.531
       389   13 Jun 2027 11:38:37.036   13 Jun 2027 11:38:37.750             0.714           347.781
       390   13 Jun 2027 11:38:52.918   13 Jun 2027 11:38:54.403             1.485           194.156
