uniorb/output/strategy_4/Camera/Camera_KinoSat_111201.txt

KinoSat_111201
-------------------------
    Access    *     Start Time (UTCG)     *     Stop Time (UTCG)  *   Duration (s) *   Data (Mbytes)
         1   01 Jun 2027 03:58:34.346   01 Jun 2027 03:59:50.329            75.983         37991.500
         2   01 Jun 2027 04:10:03.584   01 Jun 2027 04:11:08.430            64.846         32423.000
         3   01 Jun 2027 04:11:13.908   01 Jun 2027 04:11:36.993            23.085         11542.500
         4   01 Jun 2027 05:32:42.883   01 Jun 2027 05:33:41.871            58.988         29494.000
         5   01 Jun 2027 05:34:18.598   01 Jun 2027 05:34:39.562            20.964         10482.000
         6   01 Jun 2027 05:34:44.484   01 Jun 2027 05:34:52.929             8.445          4222.500
         7   01 Jun 2027 07:08:02.981   01 Jun 2027 07:09:01.580            58.599         29299.500
         8   01 Jun 2027 07:09:34.813   01 Jun 2027 07:10:51.679            76.866         38433.000
         9   01 Jun 2027 07:13:04.978   01 Jun 2027 07:13:13.970             8.992          4496.000
        10   01 Jun 2027 07:14:02.138   01 Jun 2027 07:14:02.138             0.000             0.000
        11   01 Jun 2027 08:44:32.932   01 Jun 2027 08:46:46.867           133.935         66967.500
        12   01 Jun 2027 08:48:51.312   01 Jun 2027 08:48:51.312             0.000             0.000
        13   01 Jun 2027 08:49:18.662   01 Jun 2027 08:50:06.377            47.715         23857.500
        14   01 Jun 2027 08:50:18.054   01 Jun 2027 08:50:21.069             3.015          1507.500
        15   01 Jun 2027 08:50:30.352   01 Jun 2027 08:50:37.152             6.800          3400.000
        16   01 Jun 2027 08:51:14.257   01 Jun 2027 08:51:16.599             2.342          1171.000
        17   01 Jun 2027 08:51:49.945   01 Jun 2027 08:51:59.762             9.817          4908.500
        18   01 Jun 2027 10:21:37.706   01 Jun 2027 10:23:38.609           120.903         60451.500
        19   01 Jun 2027 10:23:50.913   01 Jun 2027 10:24:09.860            18.947          9473.500
        20   01 Jun 2027 10:24:31.899   01 Jun 2027 10:24:33.391             1.492           746.000
        21   01 Jun 2027 11:59:31.940   01 Jun 2027 12:00:00.000            28.060         14030.000
        22   02 Jun 2027 04:09:50.462   02 Jun 2027 04:10:26.280            35.818         17909.000
        23   02 Jun 2027 04:22:02.841   02 Jun 2027 04:23:02.786            59.945         29972.500
        24   02 Jun 2027 05:44:18.814   02 Jun 2027 05:45:25.435            66.621         33310.500
        25   02 Jun 2027 05:46:14.357   02 Jun 2027 05:47:05.065            50.708         25354.000
        26   02 Jun 2027 07:19:12.512   02 Jun 2027 07:21:15.456           122.944         61472.000
        27   02 Jun 2027 07:21:21.910   02 Jun 2027 07:22:54.213            92.303         46151.500
        28   02 Jun 2027 07:25:45.291   02 Jun 2027 07:25:46.104             0.813           406.500
        29   02 Jun 2027 07:26:01.677   02 Jun 2027 07:26:14.528            12.851          6425.500
        30   02 Jun 2027 08:56:46.260   02 Jun 2027 08:59:34.092           167.832         83916.000
        31   02 Jun 2027 09:01:36.985   02 Jun 2027 09:01:36.985             0.000             0.000
        32   02 Jun 2027 09:02:55.461   02 Jun 2027 09:04:06.231            70.770         35385.000
        33   02 Jun 2027 10:33:28.784   02 Jun 2027 10:34:00.562            31.778         13998.312
        34   02 Jun 2027 10:36:38.891   02 Jun 2027 10:36:42.869             3.978           940.969
        35   02 Jun 2027 10:37:29.117   02 Jun 2027 10:37:36.250             7.133           619.875
        36   02 Jun 2027 10:37:46.159   02 Jun 2027 10:37:47.262             1.103           297.156
        37   02 Jun 2027 10:37:52.180   02 Jun 2027 10:37:53.123             0.943           144.094
        38   02 Jun 2027 10:37:58.929   02 Jun 2027 10:38:00.539             1.610           147.344
        39   02 Jun 2027 10:38:40.955   02 Jun 2027 10:38:43.268             2.313          1156.500
        40   02 Jun 2027 10:38:44.876   02 Jun 2027 10:38:45.763             0.887           106.500
        41   02 Jun 2027 10:39:46.848   02 Jun 2027 10:39:53.782             6.934          1592.406
        42   03 Jun 2027 03:00:00.000   03 Jun 2027 03:00:13.972            13.972          6986.000
        43   03 Jun 2027 03:00:46.375   03 Jun 2027 03:01:05.833            19.458          9729.000
        44   03 Jun 2027 03:03:03.864   03 Jun 2027 03:03:10.109             6.245          3122.500
        45   03 Jun 2027 03:03:40.814   03 Jun 2027 03:03:49.916             9.102          4551.000
        46   03 Jun 2027 03:04:23.617   03 Jun 2027 03:04:31.710             8.093          4046.500
        47   03 Jun 2027 04:21:56.197   03 Jun 2027 04:22:40.660            44.463         22231.500
        48   03 Jun 2027 04:34:16.620   03 Jun 2027 04:34:37.083            20.463         10231.500
        49   03 Jun 2027 05:55:48.028   03 Jun 2027 05:57:11.236            83.208         41604.000
        50   03 Jun 2027 05:57:48.168   03 Jun 2027 05:59:08.262            80.094         40047.000
        51   03 Jun 2027 06:00:31.421   03 Jun 2027 06:00:45.874            14.453          7226.500
        52   03 Jun 2027 06:01:13.134   03 Jun 2027 06:01:20.697             7.563          3781.500
        53   03 Jun 2027 07:30:43.217   03 Jun 2027 07:31:19.806            36.589         17918.656
        54   03 Jun 2027 07:32:50.171   03 Jun 2027 07:32:54.723             4.552          1866.281
        55   03 Jun 2027 07:32:58.842   03 Jun 2027 07:32:59.246             0.404            31.594
        56   03 Jun 2027 07:33:26.011   03 Jun 2027 07:33:28.377             2.366           507.469
        57   03 Jun 2027 07:35:11.589   03 Jun 2027 07:35:16.353             4.764          1810.438
        58   03 Jun 2027 07:36:32.530   03 Jun 2027 07:36:40.891             8.361          2196.406
        59   03 Jun 2027 07:37:23.999   03 Jun 2027 07:37:28.831             4.832           938.594
        60   03 Jun 2027 07:38:29.325   03 Jun 2027 07:38:33.317             3.992          1518.563
        61   03 Jun 2027 07:38:41.862   03 Jun 2027 07:38:44.216             2.354           184.219
        62   03 Jun 2027 07:39:39.067   03 Jun 2027 07:39:44.041             4.974          1518.188
        63   03 Jun 2027 09:08:40.267   03 Jun 2027 09:08:50.379            10.112          5013.062
        64   03 Jun 2027 09:11:29.412   03 Jun 2027 09:11:32.468             3.056          1379.688
        65   03 Jun 2027 09:12:47.624   03 Jun 2027 09:12:49.901             2.277           960.562
        66   03 Jun 2027 09:14:04.022   03 Jun 2027 09:14:09.879             5.857          2121.344
        67   03 Jun 2027 09:15:31.419   03 Jun 2027 09:15:36.283             4.864          2357.938
        68   03 Jun 2027 09:15:43.207   03 Jun 2027 09:15:45.373             2.166           123.406
        69   03 Jun 2027 10:45:34.633   03 Jun 2027 10:45:43.524             8.891          4445.500
        70   03 Jun 2027 10:46:03.789   03 Jun 2027 10:46:08.418             4.629          1248.531
        71   03 Jun 2027 10:48:18.757   03 Jun 2027 10:48:20.499             1.742           749.344
        72   03 Jun 2027 10:48:48.325   03 Jun 2027 10:48:55.677             7.352           460.375
        73   03 Jun 2027 10:49:11.791   03 Jun 2027 10:49:26.695            14.904           503.562
        74   03 Jun 2027 10:49:34.863   03 Jun 2027 10:49:38.739             3.876           180.281
        75   03 Jun 2027 10:49:49.803   03 Jun 2027 10:49:53.121             3.318           337.750
        76   03 Jun 2027 10:50:52.281   03 Jun 2027 10:50:57.389             5.108          1670.781
        77   03 Jun 2027 10:51:16.205   03 Jun 2027 10:51:16.996             0.791            83.375
        78   03 Jun 2027 10:51:37.156   03 Jun 2027 10:51:38.992             1.836           507.062
        79   03 Jun 2027 10:51:46.304   03 Jun 2027 10:51:47.262             0.958           145.062
        80   04 Jun 2027 03:10:03.219   04 Jun 2027 03:11:38.780            95.561         47780.500
        81   04 Jun 2027 03:12:53.863   04 Jun 2027 03:13:02.439             8.576          4288.000
        82   04 Jun 2027 03:13:17.447   04 Jun 2027 03:13:18.665             1.218           609.000
        83   04 Jun 2027 03:13:30.441   04 Jun 2027 03:13:49.585            19.144          9572.000
        84   04 Jun 2027 04:33:52.049   04 Jun 2027 04:34:33.352            41.303         20651.500
        85   04 Jun 2027 04:35:41.328   04 Jun 2027 04:35:45.907             4.579          2289.500
        86   04 Jun 2027 06:09:51.842   04 Jun 2027 06:12:19.433           147.591         73371.530
        87   04 Jun 2027 07:43:36.706   04 Jun 2027 07:43:53.414            16.708          3488.031
        88   04 Jun 2027 07:45:55.412   04 Jun 2027 07:46:01.513             6.101           884.375
        89   04 Jun 2027 07:46:14.699   04 Jun 2027 07:46:18.399             3.700           191.937
        90   04 Jun 2027 07:47:11.218   04 Jun 2027 07:47:15.583             4.365          1439.625
        91   04 Jun 2027 07:48:31.732   04 Jun 2027 07:48:37.952             6.220          2048.875
        92   04 Jun 2027 07:49:04.598   04 Jun 2027 07:49:06.314             1.716           239.469
        93   04 Jun 2027 07:50:09.401   04 Jun 2027 07:50:17.403             8.002          1597.844
        94   04 Jun 2027 07:50:39.379   04 Jun 2027 07:50:43.149             3.770           361.594
        95   04 Jun 2027 07:51:26.401   04 Jun 2027 07:51:29.094             2.693          1346.500
        96   04 Jun 2027 07:51:58.936   04 Jun 2027 07:52:05.914             6.978           937.688
        97   04 Jun 2027 09:21:01.251   04 Jun 2027 09:21:16.540            15.289          6839.469
        98   04 Jun 2027 09:24:26.018   04 Jun 2027 09:24:27.452             1.434           156.063
        99   04 Jun 2027 09:24:46.004   04 Jun 2027 09:24:48.097             2.093           153.719
       100   04 Jun 2027 09:24:54.060   04 Jun 2027 09:24:54.859             0.799           186.344
       101   04 Jun 2027 09:25:35.812   04 Jun 2027 09:25:39.762             3.950           307.594
       102   04 Jun 2027 09:26:14.077   04 Jun 2027 09:26:14.829             0.752            76.156
       103   04 Jun 2027 09:27:28.954   04 Jun 2027 09:27:34.007             5.053           516.344
       104   04 Jun 2027 10:58:05.033   04 Jun 2027 10:58:17.439            12.406          6092.312
       105   04 Jun 2027 11:00:32.144   04 Jun 2027 11:00:33.682             1.538           434.094
       106   04 Jun 2027 11:01:27.632   04 Jun 2027 11:01:28.721             1.089           231.687
       107   04 Jun 2027 11:01:50.985   04 Jun 2027 11:01:51.791             0.806           393.969
       108   04 Jun 2027 11:02:04.386   04 Jun 2027 11:02:07.685             3.299           375.938
       109   04 Jun 2027 11:02:42.189   04 Jun 2027 11:02:44.060             1.871           555.906
       110   04 Jun 2027 11:03:35.472   04 Jun 2027 11:03:38.303             2.831           748.625
       111   05 Jun 2027 03:22:22.170   05 Jun 2027 03:25:55.440           213.270        106635.000
       112   05 Jun 2027 04:45:44.139   05 Jun 2027 04:45:46.488             2.349          1174.500
       113   05 Jun 2027 04:45:56.648   05 Jun 2027 04:46:18.567            21.919         10959.500
       114   05 Jun 2027 06:22:06.248   05 Jun 2027 06:23:38.176            91.928         45862.125
       115   05 Jun 2027 06:24:05.004   05 Jun 2027 06:24:07.215             2.211           367.687
       116   05 Jun 2027 06:24:25.787   05 Jun 2027 06:24:26.973             1.186           580.375
       117   05 Jun 2027 06:24:42.944   05 Jun 2027 06:24:42.944             0.000             0.000
       118   05 Jun 2027 06:24:52.244   05 Jun 2027 06:24:55.110             2.866           369.406
       119   05 Jun 2027 07:56:10.359   05 Jun 2027 07:56:16.291             5.932          2565.906
       120   05 Jun 2027 07:58:00.042   05 Jun 2027 07:58:04.649             4.607          1710.125
       121   05 Jun 2027 07:58:13.215   05 Jun 2027 07:58:18.332             5.117           168.719
       122   05 Jun 2027 07:59:32.706   05 Jun 2027 07:59:37.455             4.749          1008.781
       123   05 Jun 2027 08:00:01.999   05 Jun 2027 08:00:04.603             2.604           309.375
       124   05 Jun 2027 08:00:35.113   05 Jun 2027 08:00:39.410             4.297           153.969
       125   05 Jun 2027 08:01:27.695   05 Jun 2027 08:01:31.416             3.721          1266.656
       126   05 Jun 2027 08:02:42.757   05 Jun 2027 08:02:49.532             6.775          2182.625
       127   05 Jun 2027 08:03:39.411   05 Jun 2027 08:03:45.137             5.726          1410.594
       128   05 Jun 2027 08:03:50.394   05 Jun 2027 08:03:51.660             1.266            45.562
       129   05 Jun 2027 08:04:06.062   05 Jun 2027 08:04:07.747             1.685           103.687
       130   05 Jun 2027 09:33:14.888   05 Jun 2027 09:33:31.756            16.868          5790.906
       131   05 Jun 2027 09:36:26.187   05 Jun 2027 09:36:27.765             1.578            55.969
       132   05 Jun 2027 09:37:40.269   05 Jun 2027 09:37:43.738             3.469          1695.219
       133   05 Jun 2027 09:38:30.997   05 Jun 2027 09:38:32.640             1.643           397.469
       134   05 Jun 2027 09:39:48.810   05 Jun 2027 09:39:53.576             4.766           969.437
       135   05 Jun 2027 11:10:10.703   05 Jun 2027 11:10:24.821            14.118          6363.719
       136   05 Jun 2027 11:10:34.766   05 Jun 2027 11:10:35.241             0.475           204.219
       137   05 Jun 2027 11:13:32.225   05 Jun 2027 11:13:33.837             1.612           618.875
       138   05 Jun 2027 11:13:46.580   05 Jun 2027 11:13:48.573             1.993           353.281
       139   05 Jun 2027 11:13:56.135   05 Jun 2027 11:14:03.811             7.676           236.313
       140   05 Jun 2027 11:15:04.097   05 Jun 2027 11:15:08.944             4.847          1210.031
       141   06 Jun 2027 03:34:50.789   06 Jun 2027 03:37:05.644           134.855         67427.500
       142   06 Jun 2027 03:37:44.871   06 Jun 2027 03:38:47.271            62.400         31200.000
       143   06 Jun 2027 04:57:47.847   06 Jun 2027 04:58:03.766            15.919          7959.500
       144   06 Jun 2027 04:58:16.635   06 Jun 2027 04:58:47.633            30.998         15499.000
       145   06 Jun 2027 06:34:16.859   06 Jun 2027 06:35:33.676            76.817         37229.375
       146   06 Jun 2027 06:35:59.441   06 Jun 2027 06:36:01.939             2.498           139.281
       147   06 Jun 2027 06:36:32.782   06 Jun 2027 06:36:34.234             1.452           714.938
       148   06 Jun 2027 06:36:55.532   06 Jun 2027 06:36:56.128             0.596           298.000
       149   06 Jun 2027 06:37:26.160   06 Jun 2027 06:37:30.597             4.437          1108.063
       150   06 Jun 2027 08:09:22.074   06 Jun 2027 08:09:25.962             3.888          1407.219
       151   06 Jun 2027 08:09:58.623   06 Jun 2027 08:10:00.986             2.363           151.531
       152   06 Jun 2027 08:10:40.737   06 Jun 2027 08:10:41.520             0.783           197.250
       153   06 Jun 2027 08:11:41.955   06 Jun 2027 08:11:44.595             2.640          1251.969
       154   06 Jun 2027 08:12:31.747   06 Jun 2027 08:12:32.944             1.197           125.281
       155   06 Jun 2027 08:13:19.444   06 Jun 2027 08:13:21.616             2.172           815.344
       156   06 Jun 2027 08:14:44.462   06 Jun 2027 08:14:56.929            12.467          2257.188
       157   06 Jun 2027 08:15:44.472   06 Jun 2027 08:15:50.838             6.366          1106.000
       158   06 Jun 2027 08:15:55.483   06 Jun 2027 08:16:00.474             4.991            85.250
       159   06 Jun 2027 09:45:44.215   06 Jun 2027 09:45:58.850            14.635          6777.000
       160   06 Jun 2027 09:47:45.492   06 Jun 2027 09:47:48.394             2.902           438.438
       161   06 Jun 2027 09:48:13.226   06 Jun 2027 09:48:15.948             2.722           435.656
       162   06 Jun 2027 09:48:53.015   06 Jun 2027 09:48:53.590             0.575            85.344
       163   06 Jun 2027 09:49:18.259   06 Jun 2027 09:49:21.001             2.742           585.125
       164   06 Jun 2027 09:50:24.037   06 Jun 2027 09:50:27.239             3.202           556.062
       165   06 Jun 2027 09:51:20.796   06 Jun 2027 09:51:26.211             5.415           346.625
       166   06 Jun 2027 09:51:56.187   06 Jun 2027 09:51:57.188             1.001           400.250
       167   06 Jun 2027 11:23:14.083   06 Jun 2027 11:23:26.552            12.469          5679.406
       168   06 Jun 2027 11:23:55.225   06 Jun 2027 11:23:59.607             4.382           623.406
       169   06 Jun 2027 11:24:44.798   06 Jun 2027 11:24:47.454             2.656            81.812
       170   06 Jun 2027 11:25:53.934   06 Jun 2027 11:25:59.267             5.333          1403.438
       171   06 Jun 2027 11:26:24.398   06 Jun 2027 11:26:27.769             3.371           363.906
       172   06 Jun 2027 11:27:26.859   06 Jun 2027 11:27:33.728             6.869          1826.594
       173   07 Jun 2027 03:46:24.558   07 Jun 2027 03:47:01.250            36.692         18346.000
       174   07 Jun 2027 03:47:13.916   07 Jun 2027 03:50:03.769           169.853         84926.500
       175   07 Jun 2027 05:10:13.606   07 Jun 2027 05:10:29.067            15.461          7730.500
       176   07 Jun 2027 05:11:20.078   07 Jun 2027 05:11:28.137             8.059          4029.500
       177   07 Jun 2027 05:12:43.906   07 Jun 2027 05:12:53.331             9.425          4712.500
       178   07 Jun 2027 06:46:21.432   07 Jun 2027 06:47:38.761            77.329         37137.000
       179   07 Jun 2027 06:47:47.161   07 Jun 2027 06:47:54.607             7.446           262.500
       180   07 Jun 2027 06:48:11.345   07 Jun 2027 06:48:13.007             1.662           357.469
       181   07 Jun 2027 06:48:46.329   07 Jun 2027 06:48:48.291             1.962           741.438
       182   07 Jun 2027 08:21:31.840   07 Jun 2027 08:21:36.873             5.033          2017.344
       183   07 Jun 2027 08:22:59.345   07 Jun 2027 08:23:04.656             5.311          2172.937
       184   07 Jun 2027 08:24:18.419   07 Jun 2027 08:24:24.202             5.783           761.125
       185   07 Jun 2027 08:24:34.023   07 Jun 2027 08:24:34.023             0.000             0.000
       186   07 Jun 2027 08:25:04.823   07 Jun 2027 08:25:07.152             2.329          1164.500
       187   07 Jun 2027 08:25:36.745   07 Jun 2027 08:25:47.881            11.136          1029.687
       188   07 Jun 2027 08:26:03.433   07 Jun 2027 08:26:06.519             3.086           406.313
       189   07 Jun 2027 08:27:02.248   07 Jun 2027 08:27:06.572             4.324          1045.187
       190   07 Jun 2027 09:57:45.531   07 Jun 2027 09:57:58.945            13.414          6418.750
       191   07 Jun 2027 09:59:44.331   07 Jun 2027 09:59:45.514             1.183           120.250
       192   07 Jun 2027 10:00:24.233   07 Jun 2027 10:00:26.558             2.325           689.094
       193   07 Jun 2027 10:00:42.041   07 Jun 2027 10:00:44.130             2.089           414.219
       194   07 Jun 2027 10:00:47.968   07 Jun 2027 10:00:51.518             3.550           116.688
       195   07 Jun 2027 10:01:50.821   07 Jun 2027 10:01:54.912             4.091          1429.063
       196   07 Jun 2027 10:02:26.213   07 Jun 2027 10:02:28.209             1.996           826.156
       197   07 Jun 2027 10:02:56.276   07 Jun 2027 10:03:04.708             8.432           852.875
       198   07 Jun 2027 11:35:19.856   07 Jun 2027 11:35:37.286            17.430          7300.437
       199   07 Jun 2027 11:37:56.595   07 Jun 2027 11:38:06.728            10.133          2004.688
       200   07 Jun 2027 11:38:51.477   07 Jun 2027 11:38:54.151             2.674           913.594
       201   07 Jun 2027 11:39:28.669   07 Jun 2027 11:39:33.628             4.959           515.281
       202   08 Jun 2027 03:47:31.668   08 Jun 2027 03:47:40.132             8.464          4232.000
       203   08 Jun 2027 03:58:21.299   08 Jun 2027 03:59:03.419            42.120         21060.000
       204   08 Jun 2027 03:59:09.323   08 Jun 2027 04:01:57.668           168.345         84172.500
       205   08 Jun 2027 05:22:19.414   08 Jun 2027 05:22:53.106            33.692         16846.000
       206   08 Jun 2027 05:24:24.732   08 Jun 2027 05:24:24.732             0.000             0.000
       207   08 Jun 2027 06:58:05.501   08 Jun 2027 06:59:16.036            70.535         33890.187
       208   08 Jun 2027 06:59:24.318   08 Jun 2027 06:59:26.981             2.663           135.531
       209   08 Jun 2027 07:00:11.973   08 Jun 2027 07:00:15.812             3.839          1406.000
       210   08 Jun 2027 07:01:02.142   08 Jun 2027 07:01:03.694             1.552           456.750
       211   08 Jun 2027 07:02:09.908   08 Jun 2027 07:02:11.126             1.218           609.000
       212   08 Jun 2027 08:32:55.984   08 Jun 2027 08:33:03.931             7.947          2976.906
       213   08 Jun 2027 08:33:48.212   08 Jun 2027 08:33:49.611             1.399           595.812
       214   08 Jun 2027 08:35:23.416   08 Jun 2027 08:35:24.901             1.485           619.000
       215   08 Jun 2027 08:36:07.228   08 Jun 2027 08:36:07.228             0.000             0.000
       216   08 Jun 2027 08:36:09.176   08 Jun 2027 08:36:15.963             6.787          1274.875
       217   08 Jun 2027 08:36:48.838   08 Jun 2027 08:36:53.042             4.204           960.469
       218   08 Jun 2027 08:37:36.141   08 Jun 2027 08:37:38.330             2.189          1074.500
       219   08 Jun 2027 08:38:52.384   08 Jun 2027 08:38:57.104             4.720          2314.188
       220   08 Jun 2027 08:39:30.735   08 Jun 2027 08:39:31.833             1.098           311.063
       221   08 Jun 2027 08:39:42.930   08 Jun 2027 08:39:44.487             1.557           107.875
       222   08 Jun 2027 10:09:32.111   08 Jun 2027 10:09:47.514            15.403          7527.812
       223   08 Jun 2027 10:12:42.391   08 Jun 2027 10:12:49.211             6.820           941.031
       224   08 Jun 2027 10:13:11.359   08 Jun 2027 10:13:13.190             1.831           451.906
       225   08 Jun 2027 10:13:51.065   08 Jun 2027 10:13:55.278             4.213          1011.875
       226   08 Jun 2027 10:14:13.524   08 Jun 2027 10:14:19.994             6.470           568.750
       227   08 Jun 2027 10:14:35.089   08 Jun 2027 10:14:36.526             1.437            60.375
       228   08 Jun 2027 10:14:50.013   08 Jun 2027 10:14:51.096             1.083           169.875
       229   08 Jun 2027 11:47:49.931   08 Jun 2027 11:48:01.793            11.862          5024.938
       230   08 Jun 2027 11:48:48.665   08 Jun 2027 11:48:50.813             2.148           745.031
       231   08 Jun 2027 11:51:00.476   08 Jun 2027 11:51:04.502             4.026          1684.375
       232   08 Jun 2027 11:51:14.178   08 Jun 2027 11:51:16.568             2.390           302.375
       233   08 Jun 2027 11:51:32.096   08 Jun 2027 11:51:34.339             2.243            62.031
       234   09 Jun 2027 03:58:48.052   09 Jun 2027 03:59:13.176            25.124         12562.000
       235   09 Jun 2027 04:10:19.340   09 Jun 2027 04:11:57.590            98.250         49125.000
       236   09 Jun 2027 05:32:58.497   09 Jun 2027 05:33:57.092            58.595         29297.500
       237   09 Jun 2027 05:34:33.995   09 Jun 2027 05:35:08.328            34.333         17166.500
       238   09 Jun 2027 05:36:47.692   09 Jun 2027 05:37:10.380            22.688         11344.000
       239   09 Jun 2027 07:08:15.456   09 Jun 2027 07:09:18.194            62.738         31369.000
       240   09 Jun 2027 07:09:49.621   09 Jun 2027 07:10:07.429            17.808          7040.156
       241   09 Jun 2027 07:10:15.332   09 Jun 2027 07:10:17.079             1.747           128.625
       242   09 Jun 2027 07:11:27.828   09 Jun 2027 07:11:32.069             4.241          1994.719
       243   09 Jun 2027 07:11:49.702   09 Jun 2027 07:11:51.470             1.768           355.469
       244   09 Jun 2027 07:12:33.219   09 Jun 2027 07:12:35.648             2.429           924.812
       245   09 Jun 2027 07:13:31.537   09 Jun 2027 07:13:36.915             5.378          1489.281
       246   09 Jun 2027 07:14:15.225   09 Jun 2027 07:14:17.111             1.886           897.031
       247   09 Jun 2027 08:44:50.018   09 Jun 2027 08:44:56.654             6.636          1662.688
       248   09 Jun 2027 08:45:49.043   09 Jun 2027 08:45:51.824             2.781          1010.438
       249   09 Jun 2027 08:48:12.690   09 Jun 2027 08:48:19.851             7.161           452.062
       250   09 Jun 2027 08:49:08.894   09 Jun 2027 08:49:15.908             7.014          1293.875
       251   09 Jun 2027 08:49:55.733   09 Jun 2027 08:49:57.758             2.025           962.812
       252   09 Jun 2027 08:50:31.772   09 Jun 2027 08:50:35.757             3.985           916.656
       253   09 Jun 2027 08:50:55.341   09 Jun 2027 08:50:57.340             1.999           415.875
       254   09 Jun 2027 08:51:31.879   09 Jun 2027 08:51:34.487             2.608           667.063
       255   09 Jun 2027 08:52:18.520   09 Jun 2027 08:52:19.034             0.514           257.000
       256   09 Jun 2027 10:21:53.358   09 Jun 2027 10:22:07.068            13.710          5467.031
       257   09 Jun 2027 10:23:56.037   09 Jun 2027 10:23:59.718             3.681           369.656
       258   09 Jun 2027 10:24:26.532   09 Jun 2027 10:24:28.675             2.143           628.969
       259   09 Jun 2027 10:25:32.169   09 Jun 2027 10:25:36.574             4.405          1950.875
       260   09 Jun 2027 10:26:17.126   09 Jun 2027 10:26:19.496             2.370          1176.781
       261   09 Jun 2027 10:26:38.830   09 Jun 2027 10:26:44.180             5.350           354.906
       262   09 Jun 2027 10:27:52.502   09 Jun 2027 10:27:58.172             5.670          1677.406
       263   09 Jun 2027 11:59:47.627   09 Jun 2027 12:00:00.000            12.373          5343.906
       264   10 Jun 2027 04:10:05.549   10 Jun 2027 04:10:41.347            35.798         17899.000
       265   10 Jun 2027 04:22:18.565   10 Jun 2027 04:23:17.418            58.853         29426.500
       266   10 Jun 2027 05:44:34.278   10 Jun 2027 05:45:40.567            66.289         33144.500
       267   10 Jun 2027 05:46:29.553   10 Jun 2027 05:47:07.450            37.897         18948.500
       268   10 Jun 2027 05:47:34.936   10 Jun 2027 05:47:36.495             1.559           779.500
       269   10 Jun 2027 05:48:36.605   10 Jun 2027 05:48:52.164            15.559          7779.500
       270   10 Jun 2027 07:19:27.117   10 Jun 2027 07:21:03.421            96.304         48152.000
       271   10 Jun 2027 07:21:27.543   10 Jun 2027 07:21:32.246             4.703          2316.188
       272   10 Jun 2027 07:21:52.006   10 Jun 2027 07:21:53.890             1.884           311.500
       273   10 Jun 2027 07:23:28.340   10 Jun 2027 07:23:33.951             5.611          2056.094
       274   10 Jun 2027 07:24:44.805   10 Jun 2027 07:24:48.512             3.707          1323.344
       275   10 Jun 2027 07:25:08.581   10 Jun 2027 07:25:11.594             3.013           622.125
       276   10 Jun 2027 07:25:33.137   10 Jun 2027 07:25:33.364             0.227           113.500
       277   10 Jun 2027 07:26:32.725   10 Jun 2027 07:26:37.475             4.750          2157.906
       278   10 Jun 2027 08:57:01.544   10 Jun 2027 08:57:08.051             6.507          3118.906
       279   10 Jun 2027 08:59:03.232   10 Jun 2027 08:59:08.105             4.873          2213.750
       280   10 Jun 2027 09:00:38.528   10 Jun 2027 09:00:41.100             2.572           322.625
       281   10 Jun 2027 09:00:49.247   10 Jun 2027 09:00:50.653             1.406           247.313
       282   10 Jun 2027 09:01:54.979   10 Jun 2027 09:01:59.199             4.220          1391.594
       283   10 Jun 2027 09:02:31.941   10 Jun 2027 09:02:33.444             1.503           609.000
       284   10 Jun 2027 09:02:58.115   10 Jun 2027 09:03:01.930             3.815           579.250
       285   10 Jun 2027 09:03:46.769   10 Jun 2027 09:03:48.159             1.390           438.500
       286   10 Jun 2027 09:04:15.852   10 Jun 2027 09:04:17.110             1.258            94.563
       287   10 Jun 2027 10:33:44.376   10 Jun 2027 10:33:56.007            11.631          5309.875
       288   10 Jun 2027 10:37:36.834   10 Jun 2027 10:37:44.872             8.038          1202.031
       289   10 Jun 2027 10:37:53.187   10 Jun 2027 10:37:53.764             0.577           147.875
       290   10 Jun 2027 10:38:18.347   10 Jun 2027 10:38:20.490             2.143           500.906
       291   10 Jun 2027 10:40:02.098   10 Jun 2027 10:40:10.122             8.024          2570.906
       292   11 Jun 2027 03:00:04.236   11 Jun 2027 03:00:28.471            24.235         12117.500
       293   11 Jun 2027 03:01:02.637   11 Jun 2027 03:01:26.444            23.807         11903.500
       294   11 Jun 2027 03:04:18.123   11 Jun 2027 03:04:37.546            19.423          9711.500
       295   11 Jun 2027 04:22:11.428   11 Jun 2027 04:22:56.202            44.774         22387.000
       296   11 Jun 2027 04:34:33.346   11 Jun 2027 04:34:52.008            18.662          9331.000
       297   11 Jun 2027 05:56:02.846   11 Jun 2027 05:57:26.006            83.160         41580.000
       298   11 Jun 2027 05:58:04.496   11 Jun 2027 05:59:23.530            79.034         39517.000
       299   11 Jun 2027 05:59:44.456   11 Jun 2027 06:00:06.632            22.176         11088.000
       300   11 Jun 2027 07:30:57.488   11 Jun 2027 07:31:25.951            28.463         13496.906
       301   11 Jun 2027 07:31:58.393   11 Jun 2027 07:32:03.939             5.546          1013.812
       302   11 Jun 2027 07:33:06.485   11 Jun 2027 07:33:14.150             7.665          1919.781
       303   11 Jun 2027 07:33:16.838   11 Jun 2027 07:33:17.754             0.916            83.875
       304   11 Jun 2027 07:33:43.856   11 Jun 2027 07:33:45.264             1.408           506.875
       305   11 Jun 2027 07:35:28.437   11 Jun 2027 07:35:32.595             4.158          1765.094
       306   11 Jun 2027 07:36:48.478   11 Jun 2027 07:36:55.839             7.361          2171.594
       307   11 Jun 2027 07:37:39.997   11 Jun 2027 07:37:43.555             3.558           885.375
       308   11 Jun 2027 07:38:08.434   11 Jun 2027 07:38:14.857             6.423           324.719
       309   11 Jun 2027 07:38:30.164   11 Jun 2027 07:38:31.727             1.563           264.094
       310   11 Jun 2027 07:39:54.030   11 Jun 2027 07:39:58.374             4.344          1537.844
       311   11 Jun 2027 09:08:55.816   11 Jun 2027 09:09:06.713            10.897          5156.187
       312   11 Jun 2027 09:11:47.000   11 Jun 2027 09:11:51.672             4.672          1405.844
       313   11 Jun 2027 09:13:02.794   11 Jun 2027 09:13:04.925             2.131           928.500
       314   11 Jun 2027 09:14:21.114   11 Jun 2027 09:14:27.345             6.231          2169.281
       315   11 Jun 2027 09:15:13.244   11 Jun 2027 09:15:16.760             3.516          1316.187
       316   11 Jun 2027 09:15:24.212   11 Jun 2027 09:15:28.095             3.883           156.969
       317   11 Jun 2027 09:15:53.631   11 Jun 2027 09:15:57.173             3.542           120.344
       318   11 Jun 2027 09:16:05.767   11 Jun 2027 09:16:08.514             2.747           222.531
       319   11 Jun 2027 10:45:51.508   11 Jun 2027 10:45:57.647             6.139          3069.500
       320   11 Jun 2027 10:46:20.295   11 Jun 2027 10:46:24.797             4.502          2208.406
       321   11 Jun 2027 10:47:22.734   11 Jun 2027 10:47:24.654             1.920           872.906
       322   11 Jun 2027 10:49:11.268   11 Jun 2027 10:49:23.241            11.973          1924.187
       323   11 Jun 2027 10:49:56.065   11 Jun 2027 10:50:01.163             5.098           298.563
       324   11 Jun 2027 10:50:15.863   11 Jun 2027 10:50:17.057             1.194           438.219
       325   11 Jun 2027 10:51:31.414   11 Jun 2027 10:51:36.422             5.008          1666.219
       326   11 Jun 2027 10:51:54.107   11 Jun 2027 10:51:56.807             2.700           552.656
       327   11 Jun 2027 10:52:03.190   11 Jun 2027 10:52:16.323            13.133           199.469
       328   12 Jun 2027 03:10:19.447   12 Jun 2027 03:11:26.748            67.301         33650.500
       329   12 Jun 2027 03:11:53.304   12 Jun 2027 03:12:08.454            15.150          7575.000
       330   12 Jun 2027 03:13:32.744   12 Jun 2027 03:14:04.505            31.761         15880.500
       331   12 Jun 2027 04:34:07.301   12 Jun 2027 04:34:47.833            40.532         20266.000
       332   12 Jun 2027 06:10:07.675   12 Jun 2027 06:12:49.417           161.742         80314.656
       333   12 Jun 2027 07:43:51.541   12 Jun 2027 07:44:07.918            16.377          3617.750
       334   12 Jun 2027 07:45:20.114   12 Jun 2027 07:45:21.296             1.182           408.219
       335   12 Jun 2027 07:46:12.139   12 Jun 2027 07:46:16.122             3.983           892.500
       336   12 Jun 2027 07:46:29.918   12 Jun 2027 07:46:34.195             4.277           147.125
       337   12 Jun 2027 07:47:28.024   12 Jun 2027 07:47:30.819             2.795          1387.125
       338   12 Jun 2027 07:48:47.645   12 Jun 2027 07:48:52.784             5.139          2018.125
       339   12 Jun 2027 07:49:20.778   12 Jun 2027 07:49:22.532             1.754           192.469
       340   12 Jun 2027 07:50:27.837   12 Jun 2027 07:50:32.325             4.488          1626.594
       341   12 Jun 2027 07:51:06.908   12 Jun 2027 07:51:10.963             4.055          1035.063
       342   12 Jun 2027 07:51:43.294   12 Jun 2027 07:51:45.267             1.973           924.531
       343   12 Jun 2027 09:21:17.284   12 Jun 2027 09:21:33.596            16.312          7116.969
       344   12 Jun 2027 09:24:41.386   12 Jun 2027 09:24:43.370             1.984           131.406
       345   12 Jun 2027 09:25:09.740   12 Jun 2027 09:25:10.591             0.851           346.750
       346   12 Jun 2027 09:25:50.435   12 Jun 2027 09:25:56.043             5.608          1038.594
       347   12 Jun 2027 09:26:28.664   12 Jun 2027 09:26:29.203             0.539           131.937
       348   12 Jun 2027 09:27:26.651   12 Jun 2027 09:27:30.603             3.952          1795.250
       349   12 Jun 2027 09:27:49.486   12 Jun 2027 09:27:51.183             1.697           590.094
       350   12 Jun 2027 10:58:20.846   12 Jun 2027 10:58:36.782            15.936          6347.469
       351   12 Jun 2027 11:00:32.427   12 Jun 2027 11:00:33.869             1.442           293.969
       352   12 Jun 2027 11:01:35.990   12 Jun 2027 11:01:42.030             6.040           258.313
       353   12 Jun 2027 11:01:56.558   12 Jun 2027 11:01:57.540             0.982           448.125
       354   12 Jun 2027 11:02:14.261   12 Jun 2027 11:02:15.431             1.170           522.531
       355   12 Jun 2027 11:02:38.421   12 Jun 2027 11:02:41.921             3.500           597.187
       356   12 Jun 2027 11:02:46.134   12 Jun 2027 11:02:48.966             2.832           131.656
       357   12 Jun 2027 11:03:54.296   12 Jun 2027 11:03:57.683             3.387          1691.531
       358   13 Jun 2027 03:22:37.819   13 Jun 2027 03:26:10.366           212.547        106273.500
       359   13 Jun 2027 03:26:37.533   13 Jun 2027 03:27:03.553            26.020         13010.000
       360   13 Jun 2027 04:45:58.876   13 Jun 2027 04:46:08.053             9.177          4588.500
       361   13 Jun 2027 04:46:32.987   13 Jun 2027 04:47:01.577            28.590         14295.000
       362   13 Jun 2027 06:22:22.430   13 Jun 2027 06:23:28.209            65.779         32839.469
       363   13 Jun 2027 06:24:24.459   13 Jun 2027 06:24:28.711             4.252          1389.625
       364   13 Jun 2027 06:24:55.125   13 Jun 2027 06:24:58.256             3.131           551.812
       365   13 Jun 2027 06:25:09.980   13 Jun 2027 06:25:10.967             0.987           342.625
       366   13 Jun 2027 07:56:27.502   13 Jun 2027 07:56:35.698             8.196          2870.688
       367   13 Jun 2027 07:58:22.968   13 Jun 2027 07:58:25.008             2.040           190.344
       368   13 Jun 2027 07:59:17.409   13 Jun 2027 07:59:21.072             3.663          1478.625
       369   13 Jun 2027 08:00:46.057   13 Jun 2027 08:00:51.287             5.230          1759.187
       370   13 Jun 2027 08:01:03.530   13 Jun 2027 08:01:08.762             5.232           337.250
       371   13 Jun 2027 08:01:14.946   13 Jun 2027 08:01:15.855             0.909           193.250
       372   13 Jun 2027 08:01:49.941   13 Jun 2027 08:01:59.392             9.451          1016.063
       373   13 Jun 2027 08:02:37.973   13 Jun 2027 08:02:38.313             0.340            94.281
       374   13 Jun 2027 08:03:00.996   13 Jun 2027 08:03:01.510             0.514            10.906
       375   13 Jun 2027 08:03:56.462   13 Jun 2027 08:04:00.125             3.663          1417.969
       376   13 Jun 2027 08:04:05.680   13 Jun 2027 08:04:07.629             1.949            65.438
       377   13 Jun 2027 08:04:21.548   13 Jun 2027 08:04:22.031             0.483            65.344
       378   13 Jun 2027 09:33:29.874   13 Jun 2027 09:33:40.691            10.817          4951.406
       379   13 Jun 2027 09:36:41.850   13 Jun 2027 09:36:42.496             0.646            41.719
       380   13 Jun 2027 09:37:56.537   13 Jun 2027 09:38:00.175             3.638          1749.531
       381   13 Jun 2027 09:38:06.603   13 Jun 2027 09:38:08.392             1.789           200.875
       382   13 Jun 2027 09:38:35.277   13 Jun 2027 09:38:39.800             4.523           728.719
       383   13 Jun 2027 09:39:33.554   13 Jun 2027 09:39:37.419             3.865          1520.875
       384   13 Jun 2027 09:40:09.639   13 Jun 2027 09:40:11.964             2.325           915.094
       385   13 Jun 2027 11:10:27.171   13 Jun 2027 11:10:42.093            14.922          5304.531
       386   13 Jun 2027 11:10:50.894   13 Jun 2027 11:10:51.800             0.906           222.094
       387   13 Jun 2027 11:13:48.021   13 Jun 2027 11:13:50.216             2.195           659.375
       388   13 Jun 2027 11:14:04.681   13 Jun 2027 11:14:05.580             0.899           445.000
       389   13 Jun 2027 11:14:44.162   13 Jun 2027 11:14:46.320             2.158          1054.063
       390   13 Jun 2027 11:15:16.891   13 Jun 2027 11:15:20.689             3.798           715.094
