uniorb/output/strategy_4/Camera/Camera_KinoSat_111708.txt

KinoSat_111708
-------------------------
    Access    *     Start Time (UTCG)     *     Stop Time (UTCG)  *   Duration (s) *   Data (Mbytes)
         1   01 Jun 2027 04:17:54.068   01 Jun 2027 04:18:01.645             7.577          3788.500
         2   01 Jun 2027 04:18:55.190   01 Jun 2027 04:21:08.546           133.356         66678.000
         3   01 Jun 2027 04:22:20.287   01 Jun 2027 04:22:27.516             7.229          3614.500
         4   01 Jun 2027 04:22:37.954   01 Jun 2027 04:22:42.073             4.119          2059.500
         5   01 Jun 2027 04:25:41.597   01 Jun 2027 04:25:46.047             4.450          2225.000
         6   01 Jun 2027 05:56:03.849   01 Jun 2027 05:56:42.865            39.016         19508.000
         7   01 Jun 2027 05:57:06.157   01 Jun 2027 05:58:11.129            64.972         32486.000
         8   01 Jun 2027 05:58:50.997   01 Jun 2027 05:59:00.090             9.093          4546.500
         9   01 Jun 2027 07:20:07.703   01 Jun 2027 07:22:04.552           116.849         58424.500
        10   01 Jun 2027 08:55:54.942   01 Jun 2027 08:57:53.774           118.832         59416.000
        11   01 Jun 2027 08:59:17.875   01 Jun 2027 08:59:50.580            32.705         16352.500
        12   01 Jun 2027 10:30:52.243   01 Jun 2027 10:32:53.153           120.910         60455.000
        13   01 Jun 2027 10:37:30.150   01 Jun 2027 10:37:55.066            24.916         12458.000
        14   02 Jun 2027 04:30:58.985   02 Jun 2027 04:33:18.424           139.439         69719.500
        15   02 Jun 2027 04:35:12.168   02 Jun 2027 04:36:07.036            54.868         27434.000
        16   02 Jun 2027 05:56:53.863   02 Jun 2027 05:57:38.075            44.212         22106.000
        17   02 Jun 2027 06:08:00.311   02 Jun 2027 06:09:41.322           101.011         50505.500
        18   02 Jun 2027 06:11:13.915   02 Jun 2027 06:11:17.184             3.269          1634.500
        19   02 Jun 2027 07:30:57.507   02 Jun 2027 07:32:30.395            92.888         46444.000
        20   02 Jun 2027 07:34:07.015   02 Jun 2027 07:34:27.581            20.566         10283.000
        21   02 Jun 2027 09:06:14.413   02 Jun 2027 09:06:43.714            29.301         14650.500
        22   02 Jun 2027 09:07:39.810   02 Jun 2027 09:10:07.384           147.574         73787.000
        23   02 Jun 2027 10:42:25.333   02 Jun 2027 10:42:58.831            33.498         16749.000
        24   02 Jun 2027 10:43:27.100   02 Jun 2027 10:43:30.038             2.938          1469.000
        25   02 Jun 2027 10:44:23.419   02 Jun 2027 10:44:23.419             0.000             0.000
        26   02 Jun 2027 10:45:24.748   02 Jun 2027 10:45:57.225            32.477         16238.500
        27   02 Jun 2027 10:46:26.606   02 Jun 2027 10:46:39.198            12.592          5952.064
        28   02 Jun 2027 10:49:18.763   02 Jun 2027 10:49:32.464            13.701          4761.688
        29   03 Jun 2027 03:04:22.299   03 Jun 2027 03:04:48.165            25.866         12933.000
        30   03 Jun 2027 03:05:02.666   03 Jun 2027 03:05:12.404             9.738          4869.000
        31   03 Jun 2027 03:05:31.780   03 Jun 2027 03:05:37.213             5.433          2716.500
        32   03 Jun 2027 03:07:24.013   03 Jun 2027 03:07:34.279            10.266          5133.000
        33   03 Jun 2027 03:08:09.562   03 Jun 2027 03:08:25.058            15.496          7748.000
        34   03 Jun 2027 03:08:50.256   03 Jun 2027 03:08:58.930             8.674          4337.000
        35   03 Jun 2027 03:10:16.165   03 Jun 2027 03:10:27.613            11.448          5724.000
        36   03 Jun 2027 04:43:28.707   03 Jun 2027 04:45:50.309           141.602         70801.000
        37   03 Jun 2027 04:45:57.189   03 Jun 2027 04:46:23.569            26.380         13190.000
        38   03 Jun 2027 04:47:16.681   03 Jun 2027 04:48:12.325            55.644         26790.156
        39   03 Jun 2027 04:48:42.468   03 Jun 2027 04:48:44.617             2.149           888.750
        40   03 Jun 2027 04:49:21.799   03 Jun 2027 04:49:25.359             3.560           228.687
        41   03 Jun 2027 06:08:20.489   03 Jun 2027 06:08:46.621            26.132         11788.906
        42   03 Jun 2027 06:20:03.042   03 Jun 2027 06:20:14.790            11.748          5868.875
        43   03 Jun 2027 07:42:16.211   03 Jun 2027 07:42:30.247            14.036          5881.187
        44   03 Jun 2027 07:43:26.567   03 Jun 2027 07:43:28.145             1.578           789.000
        45   03 Jun 2027 07:44:45.658   03 Jun 2027 07:44:54.466             8.808          1715.656
        46   03 Jun 2027 07:46:06.350   03 Jun 2027 07:46:11.603             5.253          2089.219
        47   03 Jun 2027 07:46:42.711   03 Jun 2027 07:46:44.127             1.416           379.062
        48   03 Jun 2027 09:17:21.519   03 Jun 2027 09:17:30.643             9.124          2651.062
        49   03 Jun 2027 09:17:53.331   03 Jun 2027 09:17:54.719             1.388           222.156
        50   03 Jun 2027 09:18:48.400   03 Jun 2027 09:18:51.649             3.249          1624.500
        51   03 Jun 2027 09:19:35.504   03 Jun 2027 09:19:36.937             1.433           475.813
        52   03 Jun 2027 09:20:58.469   03 Jun 2027 09:21:01.582             3.113          1262.938
        53   03 Jun 2027 09:22:28.999   03 Jun 2027 09:22:36.798             7.799          2731.781
        54   03 Jun 2027 09:22:41.516   03 Jun 2027 09:22:42.100             0.584           147.438
        55   03 Jun 2027 09:23:24.636   03 Jun 2027 09:23:26.734             2.098           961.156
        56   03 Jun 2027 09:23:42.922   03 Jun 2027 09:23:44.495             1.573           290.813
        57   03 Jun 2027 09:25:21.062   03 Jun 2027 09:25:25.196             4.134          2066.531
        58   03 Jun 2027 10:54:39.200   03 Jun 2027 10:54:47.987             8.787          3972.375
        59   03 Jun 2027 10:57:59.868   03 Jun 2027 10:58:01.420             1.552           543.406
        60   03 Jun 2027 10:59:52.012   03 Jun 2027 10:59:59.193             7.181          3456.000
        61   03 Jun 2027 11:00:43.229   03 Jun 2027 11:00:49.587             6.358          1365.656
        62   03 Jun 2027 11:01:12.358   03 Jun 2027 11:01:14.261             1.903           479.813
        63   03 Jun 2027 11:02:01.358   03 Jun 2027 11:02:01.948             0.590           295.000
        64   04 Jun 2027 03:16:41.366   04 Jun 2027 03:18:53.892           132.526         66263.000
        65   04 Jun 2027 03:18:54.442   04 Jun 2027 03:19:17.694            23.252         11626.000
        66   04 Jun 2027 03:19:52.476   04 Jun 2027 03:20:26.626            34.150         17075.000
        67   04 Jun 2027 03:21:27.264   04 Jun 2027 03:21:36.353             9.089          4544.500
        68   04 Jun 2027 03:21:48.416   04 Jun 2027 03:22:10.297            21.881         10940.500
        69   04 Jun 2027 04:55:29.311   04 Jun 2027 04:57:02.460            93.149         46541.907
        70   04 Jun 2027 04:57:42.775   04 Jun 2027 04:57:45.920             3.145           847.563
        71   04 Jun 2027 04:57:56.755   04 Jun 2027 04:57:58.485             1.730           128.406
        72   04 Jun 2027 04:59:21.697   04 Jun 2027 04:59:27.373             5.676          2444.281
        73   04 Jun 2027 05:01:40.217   04 Jun 2027 05:01:41.194             0.977           425.469
        74   04 Jun 2027 05:02:06.733   04 Jun 2027 05:02:09.547             2.814           457.438
        75   04 Jun 2027 06:19:49.653   04 Jun 2027 06:20:01.640            11.987          5455.937
        76   04 Jun 2027 06:20:26.659   04 Jun 2027 06:20:26.659             0.000             0.000
        77   04 Jun 2027 06:20:57.006   04 Jun 2027 06:21:00.905             3.899          1456.469
        78   04 Jun 2027 06:21:33.049   04 Jun 2027 06:21:37.198             4.149           260.188
        79   04 Jun 2027 06:21:44.269   04 Jun 2027 06:21:46.844             2.575           154.219
        80   04 Jun 2027 06:32:04.563   04 Jun 2027 06:32:08.975             4.412          2177.969
        81   04 Jun 2027 07:54:01.301   04 Jun 2027 07:54:13.716            12.415          5398.750
        82   04 Jun 2027 07:56:03.964   04 Jun 2027 07:56:09.929             5.965          1542.625
        83   04 Jun 2027 07:56:44.805   04 Jun 2027 07:56:47.288             2.483          1081.750
        84   04 Jun 2027 07:57:47.731   04 Jun 2027 07:57:53.267             5.536          1320.313
        85   04 Jun 2027 07:58:24.853   04 Jun 2027 07:58:28.449             3.596           621.344
        86   04 Jun 2027 07:59:05.596   04 Jun 2027 07:59:07.635             2.039          1004.844
        87   04 Jun 2027 09:28:49.927   04 Jun 2027 09:28:57.325             7.398          3163.437
        88   04 Jun 2027 09:30:35.134   04 Jun 2027 09:30:40.467             5.333          1838.062
        89   04 Jun 2027 09:32:29.851   04 Jun 2027 09:32:35.165             5.314          2147.687
        90   04 Jun 2027 09:33:01.158   04 Jun 2027 09:33:03.535             2.377           761.406
        91   04 Jun 2027 09:35:27.023   04 Jun 2027 09:35:32.154             5.131          1802.062
        92   04 Jun 2027 09:35:53.472   04 Jun 2027 09:35:55.129             1.657           293.469
        93   04 Jun 2027 09:36:32.632   04 Jun 2027 09:36:35.563             2.931           627.562
        94   04 Jun 2027 11:06:38.026   04 Jun 2027 11:06:48.960            10.934          3908.937
        95   04 Jun 2027 11:09:16.228   04 Jun 2027 11:09:19.200             2.972           854.219
        96   04 Jun 2027 11:10:10.754   04 Jun 2027 11:10:15.105             4.351          1030.500
        97   04 Jun 2027 11:10:44.227   04 Jun 2027 11:10:44.227             0.000             0.000
        98   04 Jun 2027 11:12:03.561   04 Jun 2027 11:12:11.902             8.341          3363.469
        99   04 Jun 2027 11:12:57.711   04 Jun 2027 11:12:59.947             2.236           839.000
       100   04 Jun 2027 11:13:43.308   04 Jun 2027 11:13:46.317             3.009          1299.844
       101   05 Jun 2027 03:29:25.933   05 Jun 2027 03:31:05.730            99.797         49898.500
       102   05 Jun 2027 03:31:27.636   05 Jun 2027 03:33:17.732           110.096         55048.000
       103   05 Jun 2027 03:33:51.779   05 Jun 2027 03:33:59.139             7.360          3680.000
       104   05 Jun 2027 05:07:49.117   05 Jun 2027 05:09:21.560            92.443         46197.625
       105   05 Jun 2027 05:11:27.231   05 Jun 2027 05:11:37.071             9.840          3755.125
       106   05 Jun 2027 06:31:50.551   05 Jun 2027 06:32:08.844            18.293          7425.625
       107   05 Jun 2027 06:32:45.711   05 Jun 2027 06:32:47.741             2.030           943.875
       108   05 Jun 2027 06:32:58.533   05 Jun 2027 06:33:03.648             5.115           323.594
       109   05 Jun 2027 06:33:40.745   05 Jun 2027 06:33:42.595             1.850            78.344
       110   05 Jun 2027 08:07:48.337   05 Jun 2027 08:08:05.494            17.157          7940.969
       111   05 Jun 2027 08:08:35.931   05 Jun 2027 08:08:43.212             7.281           915.625
       112   05 Jun 2027 08:09:31.337   05 Jun 2027 08:09:38.258             6.921          1503.906
       113   05 Jun 2027 08:10:09.012   05 Jun 2027 08:10:09.012             0.000             0.000
       114   05 Jun 2027 08:10:36.118   05 Jun 2027 08:10:40.367             4.249          1043.563
       115   05 Jun 2027 08:11:06.456   05 Jun 2027 08:11:08.369             1.913           637.000
       116   05 Jun 2027 09:41:37.915   05 Jun 2027 09:41:46.092             8.177          3101.781
       117   05 Jun 2027 09:43:03.177   05 Jun 2027 09:43:03.177             0.000             0.000
       118   05 Jun 2027 09:43:24.628   05 Jun 2027 09:43:30.949             6.321          1345.156
       119   05 Jun 2027 09:44:13.936   05 Jun 2027 09:44:16.757             2.821          1106.406
       120   05 Jun 2027 09:46:29.121   05 Jun 2027 09:46:41.264            12.143          2684.656
       121   05 Jun 2027 09:47:41.802   05 Jun 2027 09:47:48.576             6.774          1231.562
       122   05 Jun 2027 09:48:14.805   05 Jun 2027 09:48:22.615             7.810           289.281
       123   05 Jun 2027 09:49:11.263   05 Jun 2027 09:49:14.853             3.590          1520.250
       124   05 Jun 2027 09:49:27.191   05 Jun 2027 09:49:27.769             0.578            17.500
       125   05 Jun 2027 09:49:40.450   05 Jun 2027 09:49:45.627             5.177           303.094
       126   05 Jun 2027 11:18:44.455   05 Jun 2027 11:19:01.688            17.233          4523.781
       127   05 Jun 2027 11:20:01.616   05 Jun 2027 11:20:05.260             3.644          1283.125
       128   05 Jun 2027 11:20:55.619   05 Jun 2027 11:20:58.473             2.854          1165.750
       129   05 Jun 2027 11:21:31.234   05 Jun 2027 11:21:41.811            10.577          1023.781
       130   05 Jun 2027 11:22:23.662   05 Jun 2027 11:22:28.486             4.824           253.906
       131   05 Jun 2027 11:24:03.137   05 Jun 2027 11:24:09.323             6.186          2528.500
       132   05 Jun 2027 11:24:42.662   05 Jun 2027 11:24:45.599             2.937          1041.844
       133   05 Jun 2027 11:25:11.549   05 Jun 2027 11:25:14.188             2.639           724.437
       134   05 Jun 2027 11:25:39.837   05 Jun 2027 11:25:43.831             3.994           768.906
       135   06 Jun 2027 03:42:03.580   06 Jun 2027 03:42:46.587            43.007         21503.500
       136   06 Jun 2027 03:42:52.154   06 Jun 2027 03:43:39.201            47.047         23523.500
       137   06 Jun 2027 03:43:41.294   06 Jun 2027 03:44:45.836            64.542         32271.000
       138   06 Jun 2027 03:45:50.091   06 Jun 2027 03:46:45.191            55.100         27550.000
       139   06 Jun 2027 05:20:22.930   06 Jun 2027 05:21:38.412            75.482         37741.000
       140   06 Jun 2027 05:21:40.606   06 Jun 2027 05:22:03.184            22.578         11094.281
       141   06 Jun 2027 05:23:06.813   06 Jun 2027 05:23:11.387             4.574          1758.125
       142   06 Jun 2027 06:43:45.399   06 Jun 2027 06:43:57.804            12.405          6106.469
       143   06 Jun 2027 06:44:59.912   06 Jun 2027 06:45:06.842             6.930          1581.656
       144   06 Jun 2027 06:45:25.608   06 Jun 2027 06:45:29.019             3.411           405.125
       145   06 Jun 2027 08:20:08.701   06 Jun 2027 08:20:27.797            19.096          9077.094
       146   06 Jun 2027 08:20:37.094   06 Jun 2027 08:20:39.065             1.971           273.906
       147   06 Jun 2027 08:20:44.423   06 Jun 2027 08:20:48.354             3.931           116.281
       148   06 Jun 2027 08:21:25.667   06 Jun 2027 08:21:28.543             2.876          1062.375
       149   06 Jun 2027 08:22:54.338   06 Jun 2027 08:23:03.726             9.388          2334.531
       150   06 Jun 2027 09:53:36.588   06 Jun 2027 09:53:44.073             7.485          2219.844
       151   06 Jun 2027 09:55:34.808   06 Jun 2027 09:55:39.036             4.228          1642.969
       152   06 Jun 2027 09:56:05.609   06 Jun 2027 09:56:08.180             2.571           116.125
       153   06 Jun 2027 09:57:07.823   06 Jun 2027 09:57:11.239             3.416          1328.000
       154   06 Jun 2027 09:59:24.333   06 Jun 2027 09:59:28.525             4.192          1754.344
       155   06 Jun 2027 10:00:39.863   06 Jun 2027 10:00:49.236             9.373           493.063
       156   06 Jun 2027 10:01:22.871   06 Jun 2027 10:01:26.689             3.818          1004.625
       157   06 Jun 2027 10:01:54.067   06 Jun 2027 10:02:01.554             7.487           855.563
       158   06 Jun 2027 11:31:10.584   06 Jun 2027 11:31:21.718            11.134          4398.094
       159   06 Jun 2027 11:33:22.381   06 Jun 2027 11:33:23.351             0.970           332.156
       160   06 Jun 2027 11:34:17.103   06 Jun 2027 11:34:19.541             2.438           448.938
       161   06 Jun 2027 11:34:51.609   06 Jun 2027 11:34:56.867             5.258          1002.125
       162   06 Jun 2027 11:35:11.893   06 Jun 2027 11:35:12.785             0.892           243.687
       163   06 Jun 2027 11:35:30.468   06 Jun 2027 11:35:31.687             1.219           335.156
       164   06 Jun 2027 11:36:20.670   06 Jun 2027 11:36:26.663             5.993           835.000
       165   06 Jun 2027 11:37:14.631   06 Jun 2027 11:37:21.973             7.342          1383.875
       166   06 Jun 2027 11:37:44.383   06 Jun 2027 11:37:51.897             7.514           484.063
       167   07 Jun 2027 03:53:56.911   07 Jun 2027 03:54:01.875             4.964          2482.000
       168   07 Jun 2027 03:54:26.658   07 Jun 2027 03:56:02.444            95.786         47893.000
       169   07 Jun 2027 03:56:08.446   07 Jun 2027 03:56:22.443            13.997          6998.500
       170   07 Jun 2027 03:56:57.961   07 Jun 2027 03:58:28.652            90.691         45345.500
       171   07 Jun 2027 03:59:06.871   07 Jun 2027 03:59:22.455            15.584          7792.000
       172   07 Jun 2027 03:59:43.160   07 Jun 2027 03:59:43.160             0.000             0.000
       173   07 Jun 2027 05:32:37.978   07 Jun 2027 05:34:19.954           101.976         50988.000
       174   07 Jun 2027 05:34:50.423   07 Jun 2027 05:34:55.451             5.028          2284.500
       175   07 Jun 2027 06:55:33.246   07 Jun 2027 06:55:43.671            10.425          5212.500
       176   07 Jun 2027 06:57:01.083   07 Jun 2027 06:57:13.829            12.746          3183.625
       177   07 Jun 2027 08:32:10.200   07 Jun 2027 08:32:18.731             8.531          3932.125
       178   07 Jun 2027 08:32:51.622   07 Jun 2027 08:32:54.534             2.912           456.844
       179   07 Jun 2027 08:33:20.585   07 Jun 2027 08:33:25.090             4.505           753.125
       180   07 Jun 2027 08:33:43.601   07 Jun 2027 08:33:45.738             2.137           107.875
       181   07 Jun 2027 08:34:40.826   07 Jun 2027 08:34:46.217             5.391          1721.500
       182   07 Jun 2027 10:07:05.562   07 Jun 2027 10:07:20.797            15.235          5572.969
       183   07 Jun 2027 10:08:11.537   07 Jun 2027 10:08:13.450             1.913           421.562
       184   07 Jun 2027 10:09:15.093   07 Jun 2027 10:09:20.555             5.462          1662.750
       185   07 Jun 2027 10:11:08.703   07 Jun 2027 10:11:16.308             7.605          2525.594
       186   07 Jun 2027 10:11:24.868   07 Jun 2027 10:11:25.811             0.943           267.500
       187   07 Jun 2027 10:12:06.703   07 Jun 2027 10:12:09.766             3.063          1224.438
       188   07 Jun 2027 10:12:37.340   07 Jun 2027 10:12:46.477             9.137           744.969
       189   07 Jun 2027 10:13:31.999   07 Jun 2027 10:13:35.364             3.365           717.656
       190   07 Jun 2027 10:13:44.879   07 Jun 2027 10:13:46.475             1.596           231.531
       191   07 Jun 2027 10:13:56.525   07 Jun 2027 10:13:58.300             1.775           314.063
       192   07 Jun 2027 11:43:18.142   07 Jun 2027 11:43:28.386            10.244          4480.562
       193   07 Jun 2027 11:45:16.160   07 Jun 2027 11:45:23.987             7.827          1696.031
       194   07 Jun 2027 11:45:45.053   07 Jun 2027 11:45:46.393             1.340           501.594
       195   07 Jun 2027 11:46:54.822   07 Jun 2027 11:47:00.890             6.068          1001.750
       196   07 Jun 2027 11:47:19.955   07 Jun 2027 11:47:22.820             2.865           184.844
       197   07 Jun 2027 11:47:31.008   07 Jun 2027 11:47:33.392             2.384           207.781
       198   07 Jun 2027 11:48:03.841   07 Jun 2027 11:48:05.970             2.129           951.531
       199   07 Jun 2027 11:48:59.407   07 Jun 2027 11:49:02.141             2.734          1301.625
       200   07 Jun 2027 11:49:07.136   07 Jun 2027 11:49:12.472             5.336            86.313
       201   07 Jun 2027 11:49:25.168   07 Jun 2027 11:49:37.408            12.240           197.719
       202   08 Jun 2027 04:06:05.712   08 Jun 2027 04:07:07.895            62.183         31091.500
       203   08 Jun 2027 04:07:14.474   08 Jun 2027 04:07:23.352             8.878          4439.000
       204   08 Jun 2027 04:07:46.428   08 Jun 2027 04:09:02.333            75.905         37952.500
       205   08 Jun 2027 04:09:40.420   08 Jun 2027 04:10:31.763            51.343         25671.500
       206   08 Jun 2027 04:10:53.665   08 Jun 2027 04:10:53.665             0.000             0.000
       207   08 Jun 2027 04:11:57.295   08 Jun 2027 04:11:57.822             0.527           263.500
       208   08 Jun 2027 04:12:02.262   08 Jun 2027 04:12:17.913            15.651          7825.500
       209   08 Jun 2027 05:45:28.452   08 Jun 2027 05:47:19.054           110.602         54199.344
       210   08 Jun 2027 07:07:46.789   08 Jun 2027 07:07:59.518            12.729          6339.625
       211   08 Jun 2027 07:08:40.772   08 Jun 2027 07:08:42.510             1.738           760.594
       212   08 Jun 2027 07:09:13.151   08 Jun 2027 07:09:15.463             2.312           957.531
       213   08 Jun 2027 07:10:22.603   08 Jun 2027 07:10:23.940             1.337           668.500
       214   08 Jun 2027 08:44:18.716   08 Jun 2027 08:44:28.553             9.837          2858.625
       215   08 Jun 2027 08:45:12.334   08 Jun 2027 08:45:17.595             5.261          1267.781
       216   08 Jun 2027 08:45:34.135   08 Jun 2027 08:45:34.135             0.000             0.000
       217   08 Jun 2027 08:45:48.612   08 Jun 2027 08:45:52.995             4.383           607.063
       218   08 Jun 2027 08:46:42.782   08 Jun 2027 08:46:49.504             6.722          1406.125
       219   08 Jun 2027 10:19:28.606   08 Jun 2027 10:19:40.619            12.013          4959.281
       220   08 Jun 2027 10:20:45.477   08 Jun 2027 10:20:49.136             3.659          1801.500
       221   08 Jun 2027 10:22:23.669   08 Jun 2027 10:22:29.511             5.842          2788.531
       222   08 Jun 2027 10:25:42.898   08 Jun 2027 10:25:54.813            11.915          5522.906
       223   08 Jun 2027 11:55:54.137   08 Jun 2027 11:56:06.066            11.929          4309.281
       224   08 Jun 2027 11:57:15.255   08 Jun 2027 11:57:19.798             4.543          1742.406
       225   08 Jun 2027 11:57:50.601   08 Jun 2027 11:57:53.649             3.048           626.875
       226   08 Jun 2027 11:59:16.226   08 Jun 2027 11:59:24.113             7.887          2322.156
       227   08 Jun 2027 11:59:49.114   08 Jun 2027 11:59:54.995             5.881           691.031
       228   09 Jun 2027 04:19:12.423   09 Jun 2027 04:19:58.493            46.070         23035.000
       229   09 Jun 2027 04:20:33.245   09 Jun 2027 04:21:21.685            48.440         24220.000
       230   09 Jun 2027 04:21:26.962   09 Jun 2027 04:21:28.099             1.137           568.500
       231   09 Jun 2027 04:22:35.127   09 Jun 2027 04:22:58.222            23.095         11547.500
       232   09 Jun 2027 04:23:44.437   09 Jun 2027 04:24:12.496            28.059         14029.500
       233   09 Jun 2027 04:25:49.643   09 Jun 2027 04:25:56.241             6.598          3299.000
       234   09 Jun 2027 04:26:18.430   09 Jun 2027 04:26:44.182            25.752         12876.000
       235   09 Jun 2027 05:56:21.017   09 Jun 2027 05:57:00.210            39.193         19596.500
       236   09 Jun 2027 05:57:21.995   09 Jun 2027 05:58:54.624            92.629         46314.500
       237   09 Jun 2027 05:59:45.405   09 Jun 2027 05:59:54.030             8.625          3625.969
       238   09 Jun 2027 07:20:22.466   09 Jun 2027 07:20:32.966            10.500          4932.406
       239   09 Jun 2027 07:21:02.462   09 Jun 2027 07:21:02.580             0.118            59.000
       240   09 Jun 2027 07:22:20.268   09 Jun 2027 07:22:23.047             2.779          1389.500
       241   09 Jun 2027 07:22:42.180   09 Jun 2027 07:22:46.507             4.327          2120.719
       242   09 Jun 2027 08:56:11.871   09 Jun 2027 08:56:21.335             9.464          3673.187
       243   09 Jun 2027 08:57:56.843   09 Jun 2027 08:58:04.802             7.959          2887.719
       244   09 Jun 2027 08:58:18.809   09 Jun 2027 08:58:18.809             0.000             0.000
       245   09 Jun 2027 08:58:44.412   09 Jun 2027 08:58:51.712             7.300          1162.844
       246   09 Jun 2027 10:31:07.969   09 Jun 2027 10:31:22.431            14.462          3704.250
       247   09 Jun 2027 10:33:13.020   09 Jun 2027 10:33:20.769             7.749          3099.219
       248   09 Jun 2027 10:33:45.380   09 Jun 2027 10:33:46.412             1.032           228.719
       249   09 Jun 2027 10:36:25.721   09 Jun 2027 10:36:25.721             0.000             0.000
       250   09 Jun 2027 10:37:46.541   09 Jun 2027 10:38:00.868            14.327          6464.844
       251   10 Jun 2027 04:31:16.203   10 Jun 2027 04:34:27.212           191.009         95504.500
       252   10 Jun 2027 04:35:24.140   10 Jun 2027 04:35:26.915             2.775          1387.500
       253   10 Jun 2027 04:36:31.441   10 Jun 2027 04:36:31.441             0.000             0.000
       254   10 Jun 2027 04:37:27.274   10 Jun 2027 04:37:48.089            20.815         10407.500
       255   10 Jun 2027 04:38:48.565   10 Jun 2027 04:38:53.505             4.940          2470.000
       256   10 Jun 2027 05:57:07.639   10 Jun 2027 05:57:50.654            43.015         21507.500
       257   10 Jun 2027 06:08:17.149   10 Jun 2027 06:09:26.221            69.072         33116.750
       258   10 Jun 2027 06:10:29.305   10 Jun 2027 06:10:32.111             2.806          1235.656
       259   10 Jun 2027 06:11:11.814   10 Jun 2027 06:11:14.712             2.898          1055.813
       260   10 Jun 2027 07:30:55.909   10 Jun 2027 07:31:09.255            13.346          4469.281
       261   10 Jun 2027 07:32:04.064   10 Jun 2027 07:32:09.374             5.310          1448.375
       262   10 Jun 2027 07:32:17.379   10 Jun 2027 07:32:18.213             0.834           153.687
       263   10 Jun 2027 07:33:12.806   10 Jun 2027 07:33:15.634             2.828           793.031
       264   10 Jun 2027 07:34:14.345   10 Jun 2027 07:34:17.170             2.825          1164.688
       265   10 Jun 2027 07:34:45.284   10 Jun 2027 07:34:47.082             1.798           697.344
       266   10 Jun 2027 07:35:27.767   10 Jun 2027 07:35:30.872             3.105           600.594
       267   10 Jun 2027 09:06:30.738   10 Jun 2027 09:06:38.259             7.521          2431.750
       268   10 Jun 2027 09:07:56.044   10 Jun 2027 09:07:58.404             2.360          1130.594
       269   10 Jun 2027 09:09:58.238   10 Jun 2027 09:10:06.550             8.312          3253.656
       270   10 Jun 2027 09:10:36.198   10 Jun 2027 09:10:38.019             1.821           272.219
       271   10 Jun 2027 09:10:51.754   10 Jun 2027 09:11:01.388             9.634           256.937
       272   10 Jun 2027 09:11:05.251   10 Jun 2027 09:11:13.497             8.246            32.094
       273   10 Jun 2027 09:12:11.191   10 Jun 2027 09:12:15.589             4.398          1006.406
       274   10 Jun 2027 10:43:43.332   10 Jun 2027 10:43:54.016            10.684          4351.812
       275   10 Jun 2027 10:45:54.059   10 Jun 2027 10:45:55.035             0.976           283.031
       276   10 Jun 2027 10:46:48.339   10 Jun 2027 10:46:54.653             6.314          1069.625
       277   10 Jun 2027 10:49:34.880   10 Jun 2027 10:49:49.904            15.024          4719.250
       278   11 Jun 2027 03:04:40.027   11 Jun 2027 03:05:26.517            46.490         23245.000
       279   11 Jun 2027 03:06:53.534   11 Jun 2027 03:07:03.143             9.609          4804.500
       280   11 Jun 2027 03:07:33.459   11 Jun 2027 03:07:34.653             1.194           597.000
       281   11 Jun 2027 03:08:54.204   11 Jun 2027 03:09:06.897            12.693          6346.500
       282   11 Jun 2027 03:10:17.967   11 Jun 2027 03:10:32.384            14.417          7208.500
       283   11 Jun 2027 04:43:45.633   11 Jun 2027 04:45:33.960           108.327         54163.500
       284   11 Jun 2027 04:47:32.667   11 Jun 2027 04:48:40.930            68.263         34131.500
       285   11 Jun 2027 04:49:13.651   11 Jun 2027 04:49:59.172            45.521         22154.406
       286   11 Jun 2027 06:08:37.702   11 Jun 2027 06:08:44.772             7.070          3535.000
       287   11 Jun 2027 06:09:18.737   11 Jun 2027 06:09:27.263             8.526          4263.000
       288   11 Jun 2027 06:20:19.899   11 Jun 2027 06:20:31.397            11.498          4667.594
       289   11 Jun 2027 07:42:33.567   11 Jun 2027 07:42:44.739            11.172          5524.719
       290   11 Jun 2027 07:43:43.266   11 Jun 2027 07:43:44.256             0.990           495.000
       291   11 Jun 2027 07:45:02.474   11 Jun 2027 07:45:10.986             8.512          1966.906
       292   11 Jun 2027 07:46:22.272   11 Jun 2027 07:46:26.618             4.346          2059.844
       293   11 Jun 2027 07:47:28.004   11 Jun 2027 07:47:32.710             4.706          1241.656
       294   11 Jun 2027 09:17:37.021   11 Jun 2027 09:17:45.054             8.033          3430.656
       295   11 Jun 2027 09:18:30.987   11 Jun 2027 09:18:32.585             1.598           603.437
       296   11 Jun 2027 09:21:54.294   11 Jun 2027 09:22:00.773             6.479          1418.438
       297   11 Jun 2027 09:23:12.333   11 Jun 2027 09:23:18.788             6.455           807.969
       298   11 Jun 2027 09:23:45.076   11 Jun 2027 09:23:46.289             1.213           229.250
       299   11 Jun 2027 09:25:36.968   11 Jun 2027 09:25:43.657             6.689          2089.000
       300   11 Jun 2027 10:55:00.310   11 Jun 2027 10:55:15.654            15.344          4240.156
       301   11 Jun 2027 10:57:58.265   11 Jun 2027 10:58:05.652             7.387          1831.094
       302   11 Jun 2027 11:00:16.635   11 Jun 2027 11:00:23.599             6.964          3482.000
       303   11 Jun 2027 11:01:18.712   11 Jun 2027 11:01:26.959             8.247          2305.562
       304   11 Jun 2027 11:01:46.359   11 Jun 2027 11:01:51.818             5.459           603.250
       305   11 Jun 2027 11:02:13.402   11 Jun 2027 11:02:14.940             1.538           674.500
       306   11 Jun 2027 11:02:18.830   11 Jun 2027 11:02:19.274             0.444            17.313
       307   12 Jun 2027 03:16:59.564   12 Jun 2027 03:18:08.415            68.851         34425.500
       308   12 Jun 2027 03:18:11.030   12 Jun 2027 03:19:09.936            58.906         29453.000
       309   12 Jun 2027 03:19:12.334   12 Jun 2027 03:19:38.533            26.199         13099.500
       310   12 Jun 2027 03:19:52.900   12 Jun 2027 03:20:28.517            35.617         17808.500
       311   12 Jun 2027 03:21:01.000   12 Jun 2027 03:21:04.800             3.800          1900.000
       312   12 Jun 2027 03:21:44.971   12 Jun 2027 03:22:03.091            18.120          9060.000
       313   12 Jun 2027 03:22:27.969   12 Jun 2027 03:22:29.061             1.092           546.000
       314   12 Jun 2027 04:55:47.273   12 Jun 2027 04:57:29.491           102.218         49364.344
       315   12 Jun 2027 04:57:57.405   12 Jun 2027 04:58:00.957             3.552           683.812
       316   12 Jun 2027 04:59:03.252   12 Jun 2027 04:59:07.057             3.805          1679.531
       317   12 Jun 2027 04:59:32.038   12 Jun 2027 04:59:32.747             0.709           145.875
       318   12 Jun 2027 05:00:21.383   12 Jun 2027 05:00:29.719             8.336          1290.688
       319   12 Jun 2027 05:02:10.758   12 Jun 2027 05:02:16.017             5.259           522.375
       320   12 Jun 2027 05:02:48.462   12 Jun 2027 05:02:51.242             2.780           645.656
       321   12 Jun 2027 06:20:08.317   12 Jun 2027 06:20:20.986            12.669          4806.000
       322   12 Jun 2027 06:21:13.980   12 Jun 2027 06:21:17.429             3.449          1470.438
       323   12 Jun 2027 06:21:48.454   12 Jun 2027 06:21:52.079             3.625           254.437
       324   12 Jun 2027 06:22:18.929   12 Jun 2027 06:22:18.929             0.000             0.000
       325   12 Jun 2027 06:32:22.014   12 Jun 2027 06:32:25.726             3.712          1856.000
       326   12 Jun 2027 07:54:17.486   12 Jun 2027 07:54:31.499            14.013          5437.687
       327   12 Jun 2027 07:54:56.869   12 Jun 2027 07:55:03.530             6.661           479.781
       328   12 Jun 2027 07:55:30.145   12 Jun 2027 07:55:31.814             1.669           284.344
       329   12 Jun 2027 07:56:28.829   12 Jun 2027 07:56:32.784             3.955          1564.438
       330   12 Jun 2027 07:57:22.507   12 Jun 2027 07:57:22.507             0.000             0.000
       331   12 Jun 2027 07:58:04.974   12 Jun 2027 07:58:09.721             4.747          2299.781
       332   12 Jun 2027 07:58:41.183   12 Jun 2027 07:58:43.285             2.102           635.344
       333   12 Jun 2027 07:59:20.325   12 Jun 2027 07:59:22.822             2.497           912.844
       334   12 Jun 2027 09:29:05.409   12 Jun 2027 09:29:12.305             6.896          2808.406
       335   12 Jun 2027 09:30:58.265   12 Jun 2027 09:31:00.474             2.209           138.281
       336   12 Jun 2027 09:31:35.914   12 Jun 2027 09:31:38.351             2.437           994.375
       337   12 Jun 2027 09:32:31.854   12 Jun 2027 09:32:38.681             6.827          1305.438
       338   12 Jun 2027 09:33:19.152   12 Jun 2027 09:33:21.859             2.707           864.312
       339   12 Jun 2027 09:35:45.779   12 Jun 2027 09:35:50.258             4.479          1843.469
       340   12 Jun 2027 09:36:12.124   12 Jun 2027 09:36:13.877             1.753           373.094
       341   12 Jun 2027 09:36:50.420   12 Jun 2027 09:36:52.291             1.871           690.812
       342   12 Jun 2027 09:37:26.248   12 Jun 2027 09:37:29.660             3.412           892.281
       343   12 Jun 2027 09:37:47.290   12 Jun 2027 09:37:53.004             5.714            95.656
       344   12 Jun 2027 11:06:55.051   12 Jun 2027 11:07:03.746             8.695          4150.563
       345   12 Jun 2027 11:07:52.964   12 Jun 2027 11:07:55.955             2.991           165.156
       346   12 Jun 2027 11:09:05.947   12 Jun 2027 11:09:16.356            10.409          1004.781
       347   12 Jun 2027 11:09:53.485   12 Jun 2027 11:09:55.746             2.261           739.500
       348   12 Jun 2027 11:10:36.139   12 Jun 2027 11:10:45.497             9.358          1245.500
       349   12 Jun 2027 11:11:11.714   12 Jun 2027 11:11:12.624             0.910           259.375
       350   12 Jun 2027 11:11:33.057   12 Jun 2027 11:11:36.267             3.210            71.281
       351   12 Jun 2027 11:12:16.341   12 Jun 2027 11:12:18.175             1.834           660.375
       352   12 Jun 2027 11:12:47.944   12 Jun 2027 11:12:54.105             6.161           930.281
       353   12 Jun 2027 11:13:59.461   12 Jun 2027 11:14:03.575             4.114          1328.844
       354   13 Jun 2027 03:29:43.657   13 Jun 2027 03:31:21.995            98.338         49169.000
       355   13 Jun 2027 03:31:46.605   13 Jun 2027 03:33:50.684           124.079         62039.500
       356   13 Jun 2027 05:08:09.752   13 Jun 2027 05:09:31.643            81.891         40690.031
       357   13 Jun 2027 05:10:05.266   13 Jun 2027 05:10:07.448             2.182           727.625
       358   13 Jun 2027 05:10:19.163   13 Jun 2027 05:10:22.797             3.634           315.406
       359   13 Jun 2027 05:11:58.470   13 Jun 2027 05:12:00.993             2.523          1100.469
       360   13 Jun 2027 06:32:07.323   13 Jun 2027 06:32:19.164            11.841          3623.500
       361   13 Jun 2027 06:33:05.219   13 Jun 2027 06:33:09.218             3.999          1077.562
       362   13 Jun 2027 06:34:08.387   13 Jun 2027 06:34:10.721             2.334          1167.000
       363   13 Jun 2027 08:08:04.002   13 Jun 2027 08:08:21.203            17.201          7680.031
       364   13 Jun 2027 08:08:23.425   13 Jun 2027 08:08:24.813             1.388            69.437
       365   13 Jun 2027 08:08:59.917   13 Jun 2027 08:09:02.851             2.934           470.594
       366   13 Jun 2027 08:10:18.558   13 Jun 2027 08:10:18.558             0.000             0.000
       367   13 Jun 2027 08:10:25.534   13 Jun 2027 08:10:33.391             7.857          1693.156
       368   13 Jun 2027 08:11:00.599   13 Jun 2027 08:11:02.903             2.304           213.375
       369   13 Jun 2027 09:42:59.340   13 Jun 2027 09:43:09.847            10.507          5060.969
       370   13 Jun 2027 09:44:03.899   13 Jun 2027 09:44:06.138             2.239           627.375
       371   13 Jun 2027 09:45:21.443   13 Jun 2027 09:45:25.754             4.311          2031.031
       372   13 Jun 2027 09:46:28.418   13 Jun 2027 09:46:30.781             2.363            19.531
       373   13 Jun 2027 09:47:51.633   13 Jun 2027 09:47:56.767             5.134          2035.531
       374   13 Jun 2027 09:48:14.179   13 Jun 2027 09:48:15.837             1.658           541.500
       375   13 Jun 2027 09:48:33.722   13 Jun 2027 09:48:33.722             0.000             0.000
       376   13 Jun 2027 09:48:40.674   13 Jun 2027 09:48:46.128             5.454           500.219
       377   13 Jun 2027 09:49:25.451   13 Jun 2027 09:49:26.499             1.048            40.000
       378   13 Jun 2027 11:19:02.008   13 Jun 2027 11:19:11.053             9.045          4118.500
       379   13 Jun 2027 11:23:02.814   13 Jun 2027 11:23:17.531            14.717          5731.938
       380   13 Jun 2027 11:23:45.998   13 Jun 2027 11:23:47.965             1.967            38.500
       381   13 Jun 2027 11:24:09.951   13 Jun 2027 11:24:15.519             5.568           687.063
       382   13 Jun 2027 11:25:03.430   13 Jun 2027 11:25:06.578             3.148          1497.219
       383   13 Jun 2027 11:25:21.051   13 Jun 2027 11:25:22.404             1.353           206.812
       384   13 Jun 2027 11:25:33.649   13 Jun 2027 11:25:34.697             1.048           145.219
