uniorb/output/strategy_4/Camera/Camera_KinoSat_110408.txt

KinoSat_110408
-------------------------
    Access    *     Start Time (UTCG)     *     Stop Time (UTCG)  *   Duration (s) *   Data (Mbytes)
         1   01 Jun 2027 03:20:57.963   01 Jun 2027 03:22:01.289            63.326         31663.000
         2   01 Jun 2027 03:22:22.246   01 Jun 2027 03:22:41.546            19.300          9650.000
         3   01 Jun 2027 03:22:51.670   01 Jun 2027 03:22:51.670             0.000             0.000
         4   01 Jun 2027 03:23:07.097   01 Jun 2027 03:23:12.009             4.912          2456.000
         5   01 Jun 2027 03:23:21.523   01 Jun 2027 03:23:24.962             3.439          1719.500
         6   01 Jun 2027 03:24:34.543   01 Jun 2027 03:24:47.173            12.630          6315.000
         7   01 Jun 2027 03:25:19.721   01 Jun 2027 03:25:45.065            25.344         12672.000
         8   01 Jun 2027 03:26:55.288   01 Jun 2027 03:26:58.066             2.778          1389.000
         9   01 Jun 2027 03:27:01.975   01 Jun 2027 03:27:10.338             8.363          4181.500
        10   01 Jun 2027 03:28:29.002   01 Jun 2027 03:29:01.854            32.852         16426.000
        11   01 Jun 2027 03:29:44.832   01 Jun 2027 03:29:48.046             3.214          1607.000
        12   01 Jun 2027 03:29:51.274   01 Jun 2027 03:30:05.910            14.636          7318.000
        13   01 Jun 2027 04:58:52.355   01 Jun 2027 05:00:51.928           119.573         59786.500
        14   01 Jun 2027 05:01:29.944   01 Jun 2027 05:01:39.642             9.698          4849.000
        15   01 Jun 2027 05:02:27.677   01 Jun 2027 05:02:36.806             9.129          4564.500
        16   01 Jun 2027 05:02:59.051   01 Jun 2027 05:03:07.768             8.717          4358.500
        17   01 Jun 2027 05:05:14.206   01 Jun 2027 05:05:45.840            31.634         15817.000
        18   01 Jun 2027 05:06:08.098   01 Jun 2027 05:06:17.722             9.624          4812.000
        19   01 Jun 2027 06:35:36.482   01 Jun 2027 06:38:35.736           179.254         89627.000
        20   01 Jun 2027 06:39:06.559   01 Jun 2027 06:39:14.647             8.088          4044.000
        21   01 Jun 2027 06:39:49.941   01 Jun 2027 06:39:50.941             1.000           500.000
        22   01 Jun 2027 06:40:50.456   01 Jun 2027 06:41:09.728            19.272          9636.000
        23   01 Jun 2027 06:41:35.902   01 Jun 2027 06:41:51.929            16.027          8013.500
        24   01 Jun 2027 08:13:30.004   01 Jun 2027 08:16:16.779           166.775         83387.500
        25   01 Jun 2027 08:16:41.528   01 Jun 2027 08:16:49.018             7.490          3745.000
        26   01 Jun 2027 08:17:15.771   01 Jun 2027 08:17:16.778             1.007           503.500
        27   01 Jun 2027 09:49:27.836   01 Jun 2027 09:52:47.768           199.932         99966.000
        28   02 Jun 2027 03:33:50.967   02 Jun 2027 03:40:29.782           398.815        199407.500
        29   02 Jun 2027 03:41:30.744   02 Jun 2027 03:41:42.291            11.547          5773.500
        30   02 Jun 2027 03:42:21.047   02 Jun 2027 03:42:21.540             0.493           246.500
        31   02 Jun 2027 05:11:00.815   02 Jun 2027 05:13:44.425           163.610         81805.000
        32   02 Jun 2027 05:14:06.221   02 Jun 2027 05:15:04.999            58.778         29389.000
        33   02 Jun 2027 05:15:50.560   02 Jun 2027 05:16:53.218            62.658         31329.000
        34   02 Jun 2027 05:17:51.840   02 Jun 2027 05:18:17.148            25.308         12654.000
        35   02 Jun 2027 06:48:15.143   02 Jun 2027 06:52:45.627           270.484        135242.000
        36   02 Jun 2027 06:53:01.708   02 Jun 2027 06:54:06.576            64.868         32434.000
        37   02 Jun 2027 08:25:07.943   02 Jun 2027 08:29:48.432           280.489        140244.500
        38   02 Jun 2027 10:00:19.919   02 Jun 2027 10:00:22.360             2.441          1220.500
        39   02 Jun 2027 10:01:54.056   02 Jun 2027 10:04:50.865           176.809         88404.500
        40   03 Jun 2027 03:46:17.242   03 Jun 2027 03:53:14.809           417.567        208783.500
        41   03 Jun 2027 03:53:35.864   03 Jun 2027 03:54:19.875            44.011         22005.500
        42   03 Jun 2027 05:23:25.532   03 Jun 2027 05:30:07.524           401.992        200996.000
        43   03 Jun 2027 07:00:37.239   03 Jun 2027 07:05:33.866           296.627        148313.500
        44   03 Jun 2027 08:37:22.140   03 Jun 2027 08:41:41.533           259.393        129696.500
        45   03 Jun 2027 10:15:56.834   03 Jun 2027 10:16:21.741            24.907         12453.500
        46   04 Jun 2027 03:59:30.607   04 Jun 2027 04:05:16.228           345.621        172810.500
        47   04 Jun 2027 04:05:16.424   04 Jun 2027 04:06:19.781            63.357         31678.500
        48   04 Jun 2027 05:35:51.112   04 Jun 2027 05:42:13.500           382.388        191194.000
        49   04 Jun 2027 07:13:30.692   04 Jun 2027 07:17:47.554           256.862        128431.000
        50   04 Jun 2027 08:50:27.018   04 Jun 2027 08:53:40.105           193.087         96543.500
        51   05 Jun 2027 04:11:42.539   05 Jun 2027 04:18:18.253           395.714        197857.000
        52   05 Jun 2027 05:48:02.138   05 Jun 2027 05:53:46.373           344.235        172117.500
        53   05 Jun 2027 05:53:54.104   05 Jun 2027 05:54:05.656            11.552          5776.000
        54   05 Jun 2027 07:25:38.634   05 Jun 2027 07:30:01.629           262.995        131497.500
        55   05 Jun 2027 09:01:32.573   05 Jun 2027 09:05:43.037           250.464        125232.000
        56   05 Jun 2027 09:06:03.590   05 Jun 2027 09:06:25.132            21.542         10771.000
        57   06 Jun 2027 04:23:11.685   06 Jun 2027 04:25:39.249           147.564         73782.000
        58   06 Jun 2027 04:26:36.370   06 Jun 2027 04:30:27.619           231.249        115624.500
        59   06 Jun 2027 05:59:42.046   06 Jun 2027 06:06:05.993           383.947        191973.500
        60   06 Jun 2027 07:38:24.451   06 Jun 2027 07:41:43.228           198.777         99388.500
        61   06 Jun 2027 09:13:26.042   06 Jun 2027 09:17:28.871           242.829        121414.500
        62   06 Jun 2027 09:17:56.933   06 Jun 2027 09:18:48.472            51.539         25769.500
        63   07 Jun 2027 03:00:04.086   07 Jun 2027 03:04:44.355           280.269        140134.500
        64   07 Jun 2027 04:34:55.797   07 Jun 2027 04:42:28.223           452.426        226213.000
        65   07 Jun 2027 06:12:01.862   07 Jun 2027 06:18:05.670           363.808        181904.000
        66   07 Jun 2027 07:50:41.136   07 Jun 2027 07:53:55.536           194.400         97200.000
        67   07 Jun 2027 09:23:02.987   07 Jun 2027 09:29:23.786           380.799        190399.500
        68   07 Jun 2027 09:30:17.520   07 Jun 2027 09:31:04.502            46.982         23491.000
        69   08 Jun 2027 03:09:43.343   08 Jun 2027 03:11:40.697           117.354         58677.000
        70   08 Jun 2027 03:11:48.593   08 Jun 2027 03:17:06.737           318.144        159072.000
        71   08 Jun 2027 03:17:47.436   08 Jun 2027 03:18:07.308            19.872          9936.000
        72   08 Jun 2027 04:47:13.181   08 Jun 2027 04:54:31.837           438.656        219328.000
        73   08 Jun 2027 06:24:22.150   08 Jun 2027 06:29:15.660           293.510        146755.000
        74   08 Jun 2027 06:29:17.244   08 Jun 2027 06:30:10.270            53.026         26513.000
        75   08 Jun 2027 06:30:14.087   08 Jun 2027 06:30:31.321            17.234          8617.000
        76   08 Jun 2027 08:02:15.971   08 Jun 2027 08:06:07.487           231.516        115758.000
        77   08 Jun 2027 09:35:34.161   08 Jun 2027 09:42:48.980           434.819        217409.500
        78   09 Jun 2027 03:21:12.412   09 Jun 2027 03:29:16.515           484.103        242051.500
        79   09 Jun 2027 03:29:49.346   09 Jun 2027 03:30:34.872            45.526         22763.000
        80   09 Jun 2027 04:59:07.076   09 Jun 2027 05:06:32.525           445.449        222724.500
        81   09 Jun 2027 06:36:01.637   09 Jun 2027 06:41:35.401           333.764        166882.000
        82   09 Jun 2027 06:42:17.435   09 Jun 2027 06:42:34.338            16.903          8451.500
        83   09 Jun 2027 08:13:53.482   09 Jun 2027 08:18:06.748           253.266        126633.000
        84   09 Jun 2027 09:49:42.653   09 Jun 2027 09:54:02.193           259.540        129770.000
        85   10 Jun 2027 03:34:05.454   10 Jun 2027 03:42:36.209           510.755        255377.500
        86   10 Jun 2027 05:11:16.006   10 Jun 2027 05:18:31.770           435.764        217882.000
        87   10 Jun 2027 06:48:32.461   10 Jun 2027 06:53:00.072           267.611        133805.500
        88   10 Jun 2027 06:53:26.322   10 Jun 2027 06:54:21.169            54.847         27423.500
        89   10 Jun 2027 08:25:22.140   10 Jun 2027 08:30:03.157           281.017        140508.500
        90   10 Jun 2027 10:00:34.615   10 Jun 2027 10:00:37.113             2.498          1249.000
        91   10 Jun 2027 10:02:09.067   10 Jun 2027 10:05:05.355           176.288         88144.000
        92   11 Jun 2027 03:46:33.015   11 Jun 2027 03:53:29.678           416.663        208331.500
        93   11 Jun 2027 03:53:50.232   11 Jun 2027 03:54:34.459            44.227         22113.500
        94   11 Jun 2027 05:23:40.173   11 Jun 2027 05:30:22.236           402.063        201031.500
        95   11 Jun 2027 07:00:53.704   11 Jun 2027 07:05:36.468           282.764        141382.000
        96   11 Jun 2027 08:37:33.202   11 Jun 2027 08:41:56.240           263.038        131519.000
        97   11 Jun 2027 10:16:11.491   11 Jun 2027 10:16:36.333            24.842         12421.000
        98   12 Jun 2027 03:59:45.162   12 Jun 2027 04:05:30.943           345.781        172890.500
        99   12 Jun 2027 04:05:31.036   12 Jun 2027 04:06:34.487            63.451         31725.500
       100   12 Jun 2027 05:36:05.672   12 Jun 2027 05:42:28.219           382.547        191273.500
       101   12 Jun 2027 07:13:45.236   12 Jun 2027 07:18:02.489           257.253        128626.500
       102   12 Jun 2027 08:50:41.683   12 Jun 2027 08:53:55.133           193.450         96725.000
       103   13 Jun 2027 04:11:57.140   13 Jun 2027 04:18:32.941           395.801        197900.500
       104   13 Jun 2027 05:48:15.377   13 Jun 2027 05:54:01.043           345.666        172833.000
       105   13 Jun 2027 05:54:08.902   13 Jun 2027 05:54:20.087            11.185          5592.500
       106   13 Jun 2027 07:25:53.020   13 Jun 2027 07:30:16.360           263.340        131670.000
       107   13 Jun 2027 09:01:47.230   13 Jun 2027 09:05:57.666           250.436        125218.000
       108   13 Jun 2027 09:06:02.550   13 Jun 2027 09:06:40.265            37.715         18857.500
