uniorb/output/strategy_4/Camera/Camera_KinoSat_111503.txt

KinoSat_111503
-------------------------
    Access    *     Start Time (UTCG)     *     Stop Time (UTCG)  *   Duration (s) *   Data (Mbytes)
         1   01 Jun 2027 03:38:28.787   01 Jun 2027 03:40:41.920           133.133         66566.500
         2   01 Jun 2027 03:40:52.186   01 Jun 2027 03:40:58.388             6.202          3101.000
         3   01 Jun 2027 03:42:12.838   01 Jun 2027 03:42:12.838             0.000             0.000
         4   01 Jun 2027 03:42:23.669   01 Jun 2027 03:42:27.642             3.973          1986.500
         5   01 Jun 2027 03:42:59.399   01 Jun 2027 03:43:02.225             2.826          1413.000
         6   01 Jun 2027 03:44:00.331   01 Jun 2027 03:44:00.331             0.000             0.000
         7   01 Jun 2027 03:44:03.912   01 Jun 2027 03:44:05.851             1.939           969.500
         8   01 Jun 2027 03:44:42.004   01 Jun 2027 03:44:46.906             4.902          2451.000
         9   01 Jun 2027 03:45:07.387   01 Jun 2027 03:45:12.404             5.017          2508.500
        10   01 Jun 2027 05:04:36.496   01 Jun 2027 05:05:05.046            28.550         14275.000
        11   01 Jun 2027 05:15:32.658   01 Jun 2027 05:16:48.634            75.976         37988.000
        12   01 Jun 2027 05:17:41.177   01 Jun 2027 05:17:50.073             8.896          4448.000
        13   01 Jun 2027 06:39:29.647   01 Jun 2027 06:40:29.544            59.897         29948.500
        14   01 Jun 2027 08:15:15.289   01 Jun 2027 08:17:28.826           133.537         66768.500
        15   01 Jun 2027 09:49:59.157   01 Jun 2027 09:52:07.507           128.350         64175.000
        16   01 Jun 2027 09:52:38.746   01 Jun 2027 09:52:38.746             0.000             0.000
        17   01 Jun 2027 09:55:54.044   01 Jun 2027 09:56:40.810            46.766         23383.000
        18   01 Jun 2027 09:57:15.720   01 Jun 2027 09:57:24.849             9.129          4564.500
        19   01 Jun 2027 11:26:48.892   01 Jun 2027 11:29:25.253           156.361         78180.500
        20   01 Jun 2027 11:32:23.872   01 Jun 2027 11:32:26.654             2.782          1391.000
        21   02 Jun 2027 03:50:51.099   02 Jun 2027 03:53:00.294           129.195         64597.500
        22   02 Jun 2027 03:53:53.627   02 Jun 2027 03:53:53.627             0.000             0.000
        23   02 Jun 2027 03:54:01.054   02 Jun 2027 03:54:07.881             6.827          3413.500
        24   02 Jun 2027 03:55:50.939   02 Jun 2027 03:56:06.548            15.609          7804.500
        25   02 Jun 2027 03:57:41.224   02 Jun 2027 03:58:09.301            28.077         14038.500
        26   02 Jun 2027 05:15:53.962   02 Jun 2027 05:16:58.598            64.636         32318.000
        27   02 Jun 2027 05:27:33.809   02 Jun 2027 05:28:54.100            80.291         40145.500
        28   02 Jun 2027 06:49:50.929   02 Jun 2027 06:51:06.087            75.158         37579.000
        29   02 Jun 2027 06:51:47.009   02 Jun 2027 06:52:15.714            28.705         14352.500
        30   02 Jun 2027 06:52:36.991   02 Jun 2027 06:53:08.361            31.370         15685.000
        31   02 Jun 2027 06:54:26.702   02 Jun 2027 06:54:28.132             1.430           715.000
        32   02 Jun 2027 08:25:05.721   02 Jun 2027 08:26:27.401            81.680         40840.000
        33   02 Jun 2027 08:26:58.903   02 Jun 2027 08:28:31.978            93.075         46537.500
        34   02 Jun 2027 08:29:44.785   02 Jun 2027 08:29:44.785             0.000             0.000
        35   02 Jun 2027 10:02:07.054   02 Jun 2027 10:03:55.958           108.904         53938.530
        36   02 Jun 2027 10:05:25.976   02 Jun 2027 10:05:38.896            12.920          2444.250
        37   02 Jun 2027 10:05:43.862   02 Jun 2027 10:05:44.867             1.005           155.188
        38   02 Jun 2027 10:06:39.347   02 Jun 2027 10:06:44.271             4.924           228.313
        39   02 Jun 2027 10:07:52.505   02 Jun 2027 10:07:57.285             4.780          1904.063
        40   02 Jun 2027 10:08:14.385   02 Jun 2027 10:08:19.825             5.440           492.969
        41   02 Jun 2027 10:08:51.463   02 Jun 2027 10:08:54.239             2.776           286.625
        42   02 Jun 2027 10:09:16.701   02 Jun 2027 10:09:21.621             4.920           701.937
        43   02 Jun 2027 11:39:05.037   02 Jun 2027 11:39:15.070            10.033          4742.719
        44   02 Jun 2027 11:41:26.794   02 Jun 2027 11:41:28.127             1.333           413.531
        45   02 Jun 2027 11:41:52.048   02 Jun 2027 11:41:54.867             2.819           582.844
        46   02 Jun 2027 11:42:50.600   02 Jun 2027 11:42:52.388             1.788           332.062
        47   02 Jun 2027 11:43:15.158   02 Jun 2027 11:43:19.893             4.735           606.344
        48   02 Jun 2027 11:43:41.008   02 Jun 2027 11:43:44.672             3.664           564.781
        49   02 Jun 2027 11:44:19.427   02 Jun 2027 11:44:26.951             7.524           995.625
        50   02 Jun 2027 11:44:46.467   02 Jun 2027 11:44:46.968             0.501           209.094
        51   02 Jun 2027 11:44:53.695   02 Jun 2027 11:44:56.225             2.530           210.219
        52   03 Jun 2027 04:03:10.512   03 Jun 2027 04:04:42.971            92.459         46229.500
        53   03 Jun 2027 04:06:09.490   03 Jun 2027 04:06:20.472            10.982          5491.000
        54   03 Jun 2027 04:06:54.199   03 Jun 2027 04:07:05.998            11.799          5899.500
        55   03 Jun 2027 04:07:19.743   03 Jun 2027 04:07:37.864            18.121          9060.500
        56   03 Jun 2027 04:08:00.793   03 Jun 2027 04:08:18.816            18.023          9011.500
        57   03 Jun 2027 04:09:09.947   03 Jun 2027 04:09:23.284            13.337          6668.500
        58   03 Jun 2027 05:27:15.098   03 Jun 2027 05:28:00.298            45.200         22600.000
        59   03 Jun 2027 05:39:31.118   03 Jun 2027 05:40:10.876            39.758         19879.000
        60   03 Jun 2027 07:01:30.022   03 Jun 2027 07:02:54.064            84.042         42021.000
        61   03 Jun 2027 07:03:37.619   03 Jun 2027 07:03:41.895             4.276          2138.000
        62   03 Jun 2027 07:04:14.946   03 Jun 2027 07:04:14.946             0.000             0.000
        63   03 Jun 2027 07:04:38.899   03 Jun 2027 07:04:45.561             6.662          2227.469
        64   03 Jun 2027 07:06:27.683   03 Jun 2027 07:06:37.392             9.709          2348.500
        65   03 Jun 2027 07:07:00.067   03 Jun 2027 07:07:04.253             4.186           630.906
        66   03 Jun 2027 08:36:30.544   03 Jun 2027 08:36:34.725             4.181          1653.656
        67   03 Jun 2027 08:37:58.295   03 Jun 2027 08:38:03.103             4.808          1445.531
        68   03 Jun 2027 08:39:03.865   03 Jun 2027 08:39:07.706             3.841          1362.875
        69   03 Jun 2027 08:40:15.154   03 Jun 2027 08:40:17.280             2.126           907.875
        70   03 Jun 2027 08:40:48.148   03 Jun 2027 08:40:51.552             3.404           964.625
        71   03 Jun 2027 08:42:47.716   03 Jun 2027 08:42:50.608             2.892          1368.156
        72   03 Jun 2027 08:43:16.620   03 Jun 2027 08:43:17.684             1.064           469.188
        73   03 Jun 2027 08:44:04.235   03 Jun 2027 08:44:07.859             3.624          1402.094
        74   03 Jun 2027 08:44:41.787   03 Jun 2027 08:44:44.543             2.756          1060.250
        75   03 Jun 2027 08:44:58.918   03 Jun 2027 08:45:01.526             2.608           167.937
        76   03 Jun 2027 10:14:09.139   03 Jun 2027 10:14:16.239             7.100          3233.875
        77   03 Jun 2027 10:17:16.481   03 Jun 2027 10:17:22.595             6.114          2159.000
        78   03 Jun 2027 10:18:27.888   03 Jun 2027 10:18:31.779             3.891          1354.938
        79   03 Jun 2027 10:19:24.354   03 Jun 2027 10:19:27.711             3.357          1611.187
        80   03 Jun 2027 10:20:18.738   03 Jun 2027 10:20:22.619             3.881          1502.125
        81   03 Jun 2027 10:20:46.100   03 Jun 2027 10:20:52.850             6.750           733.781
        82   03 Jun 2027 10:20:53.364   03 Jun 2027 10:20:58.429             5.065            16.063
        83   03 Jun 2027 10:21:12.520   03 Jun 2027 10:21:13.544             1.024           439.094
        84   03 Jun 2027 11:50:55.425   03 Jun 2027 11:51:10.153            14.728          5090.219
        85   03 Jun 2027 11:53:43.463   03 Jun 2027 11:53:51.563             8.100          3387.875
        86   03 Jun 2027 11:54:40.916   03 Jun 2027 11:54:44.280             3.364           577.875
        87   03 Jun 2027 11:55:11.131   03 Jun 2027 11:55:12.410             1.279           372.344
        88   03 Jun 2027 11:55:18.727   03 Jun 2027 11:55:20.121             1.394           131.875
        89   03 Jun 2027 11:56:41.958   03 Jun 2027 11:56:46.728             4.770          2352.750
        90   03 Jun 2027 11:56:56.998   03 Jun 2027 11:56:59.073             2.075           320.937
        91   03 Jun 2027 11:57:16.467   03 Jun 2027 11:57:20.152             3.685           394.000
        92   03 Jun 2027 11:57:28.237   03 Jun 2027 11:57:29.462             1.225            65.250
        93   04 Jun 2027 04:15:15.049   04 Jun 2027 04:16:43.995            88.946         44473.000
        94   04 Jun 2027 04:18:53.028   04 Jun 2027 04:19:03.490            10.462          5231.000
        95   04 Jun 2027 04:19:31.452   04 Jun 2027 04:20:23.740            52.288         26144.000
        96   04 Jun 2027 05:39:23.042   04 Jun 2027 05:40:24.496            61.454         30727.000
        97   04 Jun 2027 07:13:12.194   04 Jun 2027 07:15:08.298           116.104         58052.000
        98   04 Jun 2027 07:15:18.416   04 Jun 2027 07:15:21.780             3.364           462.094
        99   04 Jun 2027 07:15:40.542   04 Jun 2027 07:15:42.025             1.483           456.906
       100   04 Jun 2027 07:16:40.796   04 Jun 2027 07:16:40.796             0.000             0.000
       101   04 Jun 2027 07:17:02.387   04 Jun 2027 07:17:08.217             5.830          2040.594
       102   04 Jun 2027 07:18:28.355   04 Jun 2027 07:18:35.811             7.456          2174.531
       103   04 Jun 2027 07:18:37.928   04 Jun 2027 07:18:38.548             0.620            57.031
       104   04 Jun 2027 08:48:04.210   04 Jun 2027 08:48:08.536             4.326          2163.000
       105   04 Jun 2027 08:48:19.844   04 Jun 2027 08:48:26.175             6.331          1182.656
       106   04 Jun 2027 08:49:02.268   04 Jun 2027 08:49:03.547             1.279            91.688
       107   04 Jun 2027 08:50:24.118   04 Jun 2027 08:50:24.339             0.221            87.937
       108   04 Jun 2027 08:52:17.615   04 Jun 2027 08:52:21.625             4.010          1029.906
       109   04 Jun 2027 08:54:03.729   04 Jun 2027 08:54:12.564             8.835          2293.500
       110   04 Jun 2027 08:55:08.804   04 Jun 2027 08:55:15.285             6.481           469.094
       111   04 Jun 2027 08:55:37.988   04 Jun 2027 08:55:39.424             1.436           573.188
       112   04 Jun 2027 08:57:03.940   04 Jun 2027 08:57:11.116             7.176          2641.125
       113   04 Jun 2027 10:26:10.414   04 Jun 2027 10:26:30.046            19.632          7026.406
       114   04 Jun 2027 10:29:03.543   04 Jun 2027 10:29:08.557             5.014          1788.969
       115   04 Jun 2027 10:29:49.363   04 Jun 2027 10:29:52.734             3.371          1219.688
       116   04 Jun 2027 10:30:23.661   04 Jun 2027 10:30:24.974             1.313           465.000
       117   04 Jun 2027 10:30:59.711   04 Jun 2027 10:31:00.262             0.551            50.906
       118   04 Jun 2027 10:31:32.996   04 Jun 2027 10:31:34.958             1.962            89.969
       119   04 Jun 2027 10:31:46.618   04 Jun 2027 10:31:48.397             1.779             8.500
       120   04 Jun 2027 10:32:44.034   04 Jun 2027 10:32:45.410             1.376           402.281
       121   04 Jun 2027 10:33:08.620   04 Jun 2027 10:33:09.641             1.021           274.281
       122   05 Jun 2027 04:27:51.645   05 Jun 2027 04:28:37.172            45.527         22763.500
       123   05 Jun 2027 04:29:05.887   05 Jun 2027 04:29:59.229            53.342         26671.000
       124   05 Jun 2027 04:30:05.858   05 Jun 2027 04:30:09.851             3.993          1996.500
       125   05 Jun 2027 04:30:15.441   05 Jun 2027 04:30:21.464             6.023          3011.500
       126   05 Jun 2027 04:30:59.697   05 Jun 2027 04:31:40.896            41.199         20599.500
       127   05 Jun 2027 05:51:19.134   05 Jun 2027 05:52:00.671            41.537         20768.500
       128   05 Jun 2027 05:52:29.376   05 Jun 2027 05:52:46.391            17.015          8507.500
       129   05 Jun 2027 07:27:32.227   05 Jun 2027 07:29:32.801           120.574         60211.125
       130   05 Jun 2027 07:29:41.072   05 Jun 2027 07:29:42.594             1.522            94.094
       131   05 Jun 2027 07:30:12.754   05 Jun 2027 07:30:15.879             3.125           494.812
       132   05 Jun 2027 09:01:05.360   05 Jun 2027 09:01:10.265             4.905          2301.406
       133   05 Jun 2027 09:04:19.823   05 Jun 2027 09:04:22.497             2.674          1110.000
       134   05 Jun 2027 09:06:02.857   05 Jun 2027 09:06:08.997             6.140          2118.125
       135   05 Jun 2027 09:06:58.304   05 Jun 2027 09:06:59.497             1.193           314.063
       136   05 Jun 2027 09:08:07.354   05 Jun 2027 09:08:10.765             3.411           124.031
       137   05 Jun 2027 09:09:01.480   05 Jun 2027 09:09:05.802             4.322          1579.812
       138   05 Jun 2027 10:38:37.774   05 Jun 2027 10:38:48.982            11.208          4014.188
       139   05 Jun 2027 10:40:38.130   05 Jun 2027 10:40:41.028             2.898           949.937
       140   05 Jun 2027 10:41:29.143   05 Jun 2027 10:41:37.676             8.533          1365.969
       141   05 Jun 2027 10:41:53.421   05 Jun 2027 10:41:53.842             0.421           166.656
       142   05 Jun 2027 10:42:44.938   05 Jun 2027 10:42:47.448             2.510           831.875
       143   05 Jun 2027 10:43:56.729   05 Jun 2027 10:44:00.647             3.918          1482.469
       144   05 Jun 2027 10:44:14.571   05 Jun 2027 10:44:23.186             8.615           242.437
       145   05 Jun 2027 10:44:58.129   05 Jun 2027 10:44:59.118             0.989           487.750
       146   05 Jun 2027 10:45:05.476   05 Jun 2027 10:45:07.283             1.807           198.687
       147   06 Jun 2027 03:01:29.060   06 Jun 2027 03:01:52.346            23.286         11643.000
       148   06 Jun 2027 03:02:10.210   06 Jun 2027 03:02:11.026             0.816           408.000
       149   06 Jun 2027 03:03:02.694   06 Jun 2027 03:03:10.118             7.424          3712.000
       150   06 Jun 2027 03:03:19.900   06 Jun 2027 03:03:31.558            11.658          5829.000
       151   06 Jun 2027 03:04:21.496   06 Jun 2027 03:04:21.496             0.000             0.000
       152   06 Jun 2027 03:05:35.626   06 Jun 2027 03:05:53.848            18.222          9111.000
       153   06 Jun 2027 03:06:41.628   06 Jun 2027 03:06:47.851             6.223          3111.500
       154   06 Jun 2027 03:07:19.973   06 Jun 2027 03:07:34.391            14.418          7209.000
       155   06 Jun 2027 04:39:31.235   06 Jun 2027 04:41:13.055           101.820         50910.000
       156   06 Jun 2027 04:42:07.995   06 Jun 2027 04:43:05.142            57.147         28573.500
       157   06 Jun 2027 06:03:10.298   06 Jun 2027 06:04:08.987            58.689         29344.500
       158   06 Jun 2027 06:05:34.154   06 Jun 2027 06:05:49.380            15.226          7613.000
       159   06 Jun 2027 07:39:37.382   06 Jun 2027 07:40:10.209            32.827         16413.500
       160   06 Jun 2027 07:40:35.265   06 Jun 2027 07:40:38.420             3.155          1029.751
       161   06 Jun 2027 07:41:01.889   06 Jun 2027 07:41:05.896             4.007           546.219
       162   06 Jun 2027 07:41:29.554   06 Jun 2027 07:41:32.466             2.912           730.312
       163   06 Jun 2027 07:41:56.573   06 Jun 2027 07:41:58.236             1.663           720.750
       164   06 Jun 2027 07:42:41.345   06 Jun 2027 07:42:45.649             4.304           825.500
       165   06 Jun 2027 09:11:45.219   06 Jun 2027 09:11:50.547             5.328          2213.344
       166   06 Jun 2027 09:13:44.299   06 Jun 2027 09:13:45.848             1.549           297.000
       167   06 Jun 2027 09:15:29.039   06 Jun 2027 09:15:33.918             4.879          2096.188
       168   06 Jun 2027 09:16:21.744   06 Jun 2027 09:16:28.120             6.376           937.625
       169   06 Jun 2027 09:17:02.478   06 Jun 2027 09:17:06.402             3.924            76.531
       170   06 Jun 2027 09:18:43.991   06 Jun 2027 09:18:47.672             3.681          1337.844
       171   06 Jun 2027 09:19:50.855   06 Jun 2027 09:19:54.569             3.714           454.500
       172   06 Jun 2027 09:21:25.832   06 Jun 2027 09:21:30.685             4.853          2332.125
       173   06 Jun 2027 10:50:42.803   06 Jun 2027 10:50:55.951            13.148          5843.125
       174   06 Jun 2027 10:52:50.066   06 Jun 2027 10:52:54.044             3.978          1919.531
       175   06 Jun 2027 10:53:26.965   06 Jun 2027 10:53:28.382             1.417             6.750
       176   06 Jun 2027 10:54:37.201   06 Jun 2027 10:54:42.378             5.177           916.188
       177   06 Jun 2027 10:55:10.814   06 Jun 2027 10:55:12.571             1.757           745.188
       178   06 Jun 2027 10:55:34.906   06 Jun 2027 10:55:37.878             2.972           337.250
       179   06 Jun 2027 10:55:54.833   06 Jun 2027 10:55:56.553             1.720           500.500
       180   06 Jun 2027 10:56:48.110   06 Jun 2027 10:56:50.430             2.320          1037.781
       181   06 Jun 2027 10:56:52.280   06 Jun 2027 10:56:52.614             0.334            36.125
       182   06 Jun 2027 10:57:14.220   06 Jun 2027 10:57:15.691             1.471           492.344
       183   07 Jun 2027 03:13:36.365   07 Jun 2027 03:14:37.689            61.324         30662.000
       184   07 Jun 2027 03:14:45.527   07 Jun 2027 03:15:16.267            30.740         15370.000
       185   07 Jun 2027 03:15:45.070   07 Jun 2027 03:16:04.711            19.641          9820.500
       186   07 Jun 2027 03:16:46.759   07 Jun 2027 03:17:17.554            30.795         15397.500
       187   07 Jun 2027 03:18:15.284   07 Jun 2027 03:18:55.317            40.033         20016.500
       188   07 Jun 2027 03:19:08.722   07 Jun 2027 03:19:09.692             0.970           485.000
       189   07 Jun 2027 04:52:44.413   07 Jun 2027 04:54:41.635           117.222         58611.000
       190   07 Jun 2027 04:55:29.709   07 Jun 2027 04:55:37.647             7.938          3501.563
       191   07 Jun 2027 06:15:18.676   07 Jun 2027 06:15:28.450             9.774          4205.188
       192   07 Jun 2027 06:16:31.393   07 Jun 2027 06:16:40.509             9.116          1675.313
       193   07 Jun 2027 06:17:05.505   07 Jun 2027 06:17:11.213             5.708           650.938
       194   07 Jun 2027 06:17:46.431   07 Jun 2027 06:17:46.431             0.000             0.000
       195   07 Jun 2027 07:51:47.392   07 Jun 2027 07:51:54.341             6.949          2631.875
       196   07 Jun 2027 07:52:21.450   07 Jun 2027 07:52:22.992             1.542           427.687
       197   07 Jun 2027 07:52:58.575   07 Jun 2027 07:52:58.575             0.000             0.000
       198   07 Jun 2027 07:53:50.764   07 Jun 2027 07:53:55.536             4.772          2022.406
       199   07 Jun 2027 07:55:07.560   07 Jun 2027 07:55:11.529             3.969          1727.500
       200   07 Jun 2027 09:26:58.455   07 Jun 2027 09:27:06.330             7.875          3308.562
       201   07 Jun 2027 09:28:09.678   07 Jun 2027 09:28:12.940             3.262          1527.156
       202   07 Jun 2027 09:28:23.321   07 Jun 2027 09:28:29.727             6.406           278.750
       203   07 Jun 2027 09:29:58.543   07 Jun 2027 09:30:04.564             6.021          1434.500
       204   07 Jun 2027 09:30:44.224   07 Jun 2027 09:30:49.069             4.845           639.156
       205   07 Jun 2027 09:31:25.020   07 Jun 2027 09:31:26.250             1.230           151.312
       206   07 Jun 2027 09:31:39.981   07 Jun 2027 09:31:43.068             3.087           272.844
       207   07 Jun 2027 09:33:00.591   07 Jun 2027 09:33:05.645             5.054          1547.938
       208   07 Jun 2027 09:33:32.827   07 Jun 2027 09:33:36.061             3.234           123.531
       209   07 Jun 2027 11:03:17.475   07 Jun 2027 11:03:26.055             8.580          4163.813
       210   07 Jun 2027 11:06:36.306   07 Jun 2027 11:06:43.736             7.430           361.219
       211   07 Jun 2027 11:07:11.547   07 Jun 2027 11:07:16.436             4.889           703.250
       212   07 Jun 2027 11:08:35.425   07 Jun 2027 11:08:40.391             4.966          2396.750
       213   07 Jun 2027 11:09:00.853   07 Jun 2027 11:09:03.091             2.238           639.437
       214   07 Jun 2027 11:09:10.453   07 Jun 2027 11:09:11.427             0.974           230.062
       215   07 Jun 2027 11:09:26.318   07 Jun 2027 11:09:29.815             3.497           398.094
       216   08 Jun 2027 03:25:41.364   08 Jun 2027 03:26:01.991            20.627         10313.500
       217   08 Jun 2027 03:26:44.197   08 Jun 2027 03:29:36.607           172.410         86205.000
       218   08 Jun 2027 03:29:39.847   08 Jun 2027 03:29:56.277            16.430          8215.000
       219   08 Jun 2027 03:31:40.120   08 Jun 2027 03:31:42.998             2.878          1439.000
       220   08 Jun 2027 03:34:00.140   08 Jun 2027 03:34:23.118            22.978         11489.000
       221   08 Jun 2027 05:03:53.300   08 Jun 2027 05:04:29.845            36.545         18272.500
       222   08 Jun 2027 05:04:58.434   08 Jun 2027 05:05:38.743            40.309         20056.844
       223   08 Jun 2027 05:06:43.271   08 Jun 2027 05:06:47.304             4.033          1699.687
       224   08 Jun 2027 05:07:18.220   08 Jun 2027 05:07:21.290             3.070           777.375
       225   08 Jun 2027 06:28:01.245   08 Jun 2027 06:28:09.710             8.465          3605.500
       226   08 Jun 2027 06:28:16.334   08 Jun 2027 06:28:16.635             0.301            68.063
       227   08 Jun 2027 06:29:58.622   08 Jun 2027 06:30:01.238             2.616          1308.000
       228   08 Jun 2027 06:30:16.125   08 Jun 2027 06:30:20.962             4.837          1864.906
       229   08 Jun 2027 06:30:26.447   08 Jun 2027 06:30:29.790             3.343           171.406
       230   08 Jun 2027 08:03:45.798   08 Jun 2027 08:03:54.586             8.788          1695.438
       231   08 Jun 2027 08:04:47.517   08 Jun 2027 08:04:51.023             3.506          1603.781
       232   08 Jun 2027 08:05:19.156   08 Jun 2027 08:05:20.075             0.919           189.531
       233   08 Jun 2027 08:05:28.950   08 Jun 2027 08:05:31.904             2.954           124.500
       234   08 Jun 2027 08:05:42.607   08 Jun 2027 08:05:45.788             3.181            44.813
       235   08 Jun 2027 08:06:26.288   08 Jun 2027 08:06:29.919             3.631           628.844
       236   08 Jun 2027 09:38:50.205   08 Jun 2027 09:39:00.703            10.498          4443.375
       237   08 Jun 2027 09:40:24.503   08 Jun 2027 09:40:31.654             7.151          2388.625
       238   08 Jun 2027 09:40:57.616   08 Jun 2027 09:40:59.431             1.815           521.594
       239   08 Jun 2027 09:41:52.716   08 Jun 2027 09:41:54.729             2.013           843.938
       240   08 Jun 2027 09:42:45.870   08 Jun 2027 09:42:49.864             3.994          1598.156
       241   08 Jun 2027 09:43:42.879   08 Jun 2027 09:43:44.704             1.825           876.969
       242   08 Jun 2027 09:45:19.968   08 Jun 2027 09:45:24.730             4.762          2118.531
       243   08 Jun 2027 09:45:38.916   08 Jun 2027 09:45:40.257             1.341           440.406
       244   08 Jun 2027 11:14:55.321   08 Jun 2027 11:15:14.112            18.791          7507.000
       245   08 Jun 2027 11:17:38.958   08 Jun 2027 11:17:44.390             5.432          1058.031
       246   08 Jun 2027 11:18:00.864   08 Jun 2027 11:18:02.011             1.147           514.813
       247   08 Jun 2027 11:18:51.125   08 Jun 2027 11:18:54.689             3.564           928.656
       248   08 Jun 2027 11:19:23.755   08 Jun 2027 11:19:31.712             7.957           508.781
       249   08 Jun 2027 11:19:36.710   08 Jun 2027 11:19:37.215             0.505           150.344
       250   08 Jun 2027 11:20:10.536   08 Jun 2027 11:20:12.079             1.543           398.906
       251   08 Jun 2027 11:20:24.833   08 Jun 2027 11:20:29.307             4.474           398.562
       252   09 Jun 2027 03:38:45.834   09 Jun 2027 03:41:47.818           181.984         90992.000
       253   09 Jun 2027 03:42:13.494   09 Jun 2027 03:42:31.122            17.628          8814.000
       254   09 Jun 2027 03:45:00.113   09 Jun 2027 03:45:02.683             2.570          1285.000
       255   09 Jun 2027 03:45:43.110   09 Jun 2027 03:46:31.984            48.874         24437.000
       256   09 Jun 2027 05:05:01.031   09 Jun 2027 05:05:07.394             6.363          3181.500
       257   09 Jun 2027 05:15:49.030   09 Jun 2027 05:17:32.026           102.996         50724.875
       258   09 Jun 2027 05:18:05.420   09 Jun 2027 05:18:09.905             4.485           365.500
       259   09 Jun 2027 05:18:33.909   09 Jun 2027 05:18:36.645             2.736           522.813
       260   09 Jun 2027 05:19:01.049   09 Jun 2027 05:19:03.847             2.798           486.469
       261   09 Jun 2027 06:39:08.070   09 Jun 2027 06:39:20.129            12.059          5231.344
       262   09 Jun 2027 06:40:02.727   09 Jun 2027 06:40:03.924             1.197           412.656
       263   09 Jun 2027 06:40:16.466   09 Jun 2027 06:40:16.466             0.000             0.000
       264   09 Jun 2027 06:40:19.547   09 Jun 2027 06:40:21.636             2.089           216.719
       265   09 Jun 2027 06:40:52.967   09 Jun 2027 06:40:52.967             0.000             0.000
       266   09 Jun 2027 06:41:23.737   09 Jun 2027 06:41:27.706             3.969          1610.781
       267   09 Jun 2027 06:42:42.435   09 Jun 2027 06:42:42.435             0.000             0.000
       268   09 Jun 2027 08:15:30.426   09 Jun 2027 08:15:36.921             6.495          2759.500
       269   09 Jun 2027 08:16:48.762   09 Jun 2027 08:16:56.200             7.438          1935.844
       270   09 Jun 2027 08:17:08.256   09 Jun 2027 08:17:08.256             0.000             0.000
       271   09 Jun 2027 08:18:06.052   09 Jun 2027 08:18:09.706             3.654          1809.594
       272   09 Jun 2027 08:18:23.950   09 Jun 2027 08:18:23.950             0.000             0.000
       273   09 Jun 2027 08:18:24.135   09 Jun 2027 08:18:24.834             0.699           227.094
       274   09 Jun 2027 08:19:06.065   09 Jun 2027 08:19:20.929            14.864          1288.469
       275   09 Jun 2027 09:50:16.036   09 Jun 2027 09:50:26.582            10.546          4770.937
       276   09 Jun 2027 09:52:25.233   09 Jun 2027 09:52:31.299             6.066          2965.594
       277   09 Jun 2027 09:53:11.752   09 Jun 2027 09:53:15.841             4.089           690.781
       278   09 Jun 2027 09:53:49.763   09 Jun 2027 09:53:55.894             6.131           308.625
       279   09 Jun 2027 09:54:50.060   09 Jun 2027 09:54:53.485             3.425          1692.688
       280   09 Jun 2027 09:55:21.295   09 Jun 2027 09:55:26.066             4.771           618.844
       281   09 Jun 2027 09:55:44.196   09 Jun 2027 09:55:44.984             0.788           358.344
       282   09 Jun 2027 09:55:46.212   09 Jun 2027 09:55:46.666             0.454            38.375
       283   09 Jun 2027 09:56:04.195   09 Jun 2027 09:56:06.259             2.064           286.281
       284   09 Jun 2027 09:57:09.206   09 Jun 2027 09:57:13.252             4.046          1807.250
       285   09 Jun 2027 09:57:19.103   09 Jun 2027 09:57:19.893             0.790           182.844
       286   09 Jun 2027 11:27:05.587   09 Jun 2027 11:27:17.006            11.419          5072.719
       287   09 Jun 2027 11:28:03.226   09 Jun 2027 11:28:05.238             2.012           634.281
       288   09 Jun 2027 11:28:52.566   09 Jun 2027 11:28:54.442             1.876           208.438
       289   09 Jun 2027 11:30:01.650   09 Jun 2027 11:30:06.143             4.493          2019.969
       290   09 Jun 2027 11:30:51.770   09 Jun 2027 11:30:55.726             3.956          1334.687
       291   09 Jun 2027 11:31:28.271   09 Jun 2027 11:31:30.450             2.179           727.219
       292   09 Jun 2027 11:32:39.504   09 Jun 2027 11:32:43.856             4.352          1932.750
       293   09 Jun 2027 11:33:01.639   09 Jun 2027 11:33:05.909             4.270           238.031
       294   09 Jun 2027 11:33:15.394   09 Jun 2027 11:33:15.993             0.599            69.781
       295   10 Jun 2027 03:51:09.101   10 Jun 2027 03:54:19.471           190.370         95185.000
       296   10 Jun 2027 03:56:07.648   10 Jun 2027 03:56:28.540            20.892         10446.000
       297   10 Jun 2027 03:57:54.593   10 Jun 2027 03:58:25.556            30.963         15481.500
       298   10 Jun 2027 05:16:09.906   10 Jun 2027 05:16:10.644             0.738           369.000
       299   10 Jun 2027 05:16:21.018   10 Jun 2027 05:16:27.325             6.307          3153.500
       300   10 Jun 2027 05:27:50.260   10 Jun 2027 05:29:11.047            80.787         40393.500
       301   10 Jun 2027 06:50:06.057   10 Jun 2027 06:50:25.568            19.511          8284.718
       302   10 Jun 2027 06:51:13.675   10 Jun 2027 06:51:19.704             6.029          1268.563
       303   10 Jun 2027 06:52:03.319   10 Jun 2027 06:52:04.599             1.280           572.187
       304   10 Jun 2027 06:52:45.410   10 Jun 2027 06:52:47.333             1.923           839.531
       305   10 Jun 2027 06:53:44.708   10 Jun 2027 06:53:49.862             5.154          1557.937
       306   10 Jun 2027 06:54:22.036   10 Jun 2027 06:54:27.327             5.291           680.531
       307   10 Jun 2027 08:25:18.290   10 Jun 2027 08:25:27.103             8.813          2340.687
       308   10 Jun 2027 08:27:14.559   10 Jun 2027 08:27:21.798             7.239          2222.219
       309   10 Jun 2027 08:27:33.454   10 Jun 2027 08:27:35.172             1.718           201.688
       310   10 Jun 2027 08:28:04.852   10 Jun 2027 08:28:08.839             3.987           558.906
       311   10 Jun 2027 08:29:05.762   10 Jun 2027 08:29:08.468             2.706           394.531
       312   10 Jun 2027 08:30:28.183   10 Jun 2027 08:30:30.988             2.805           971.688
       313   10 Jun 2027 08:31:16.949   10 Jun 2027 08:31:19.966             3.017          1359.500
       314   10 Jun 2027 08:31:28.509   10 Jun 2027 08:31:29.975             1.466           265.656
       315   10 Jun 2027 10:02:23.081   10 Jun 2027 10:02:28.725             5.644          2054.187
       316   10 Jun 2027 10:03:09.729   10 Jun 2027 10:03:13.216             3.487            58.156
       317   10 Jun 2027 10:05:56.198   10 Jun 2027 10:05:57.488             1.290           609.125
       318   10 Jun 2027 10:06:51.260   10 Jun 2027 10:06:55.111             3.851          1667.406
       319   10 Jun 2027 10:07:12.811   10 Jun 2027 10:07:14.392             1.581           497.500
       320   10 Jun 2027 10:07:32.735   10 Jun 2027 10:07:37.751             5.016           543.969
       321   10 Jun 2027 10:08:00.871   10 Jun 2027 10:08:05.021             4.150           456.437
       322   10 Jun 2027 10:08:54.457   10 Jun 2027 10:08:57.296             2.839          1396.781
       323   10 Jun 2027 10:09:06.495   10 Jun 2027 10:09:10.439             3.944           245.844
       324   10 Jun 2027 10:09:31.469   10 Jun 2027 10:09:36.370             4.901           657.187
       325   10 Jun 2027 11:39:21.258   10 Jun 2027 11:39:35.771            14.513          5812.844
       326   10 Jun 2027 11:42:45.468   10 Jun 2027 11:42:53.117             7.649          1375.062
       327   10 Jun 2027 11:43:15.307   10 Jun 2027 11:43:16.979             1.672           627.656
       328   10 Jun 2027 11:43:40.019   10 Jun 2027 11:43:41.714             1.695           516.344
       329   10 Jun 2027 11:44:06.753   10 Jun 2027 11:44:19.349            12.596           538.469
       330   11 Jun 2027 04:03:27.435   11 Jun 2027 04:04:57.917            90.482         45241.000
       331   11 Jun 2027 04:06:24.133   11 Jun 2027 04:06:40.940            16.807          8403.500
       332   11 Jun 2027 04:07:22.711   11 Jun 2027 04:07:52.416            29.705         14852.500
       333   11 Jun 2027 04:08:15.477   11 Jun 2027 04:08:35.054            19.577          9788.500
       334   11 Jun 2027 04:09:27.253   11 Jun 2027 04:09:38.287            11.034          5517.000
       335   11 Jun 2027 04:10:12.254   11 Jun 2027 04:10:16.057             3.803          1901.500
       336   11 Jun 2027 05:27:33.015   11 Jun 2027 05:28:16.756            43.741         21870.500
       337   11 Jun 2027 05:28:21.921   11 Jun 2027 05:28:27.871             5.950          2975.000
       338   11 Jun 2027 05:29:31.510   11 Jun 2027 05:29:48.987            17.477          8738.500
       339   11 Jun 2027 05:39:47.411   11 Jun 2027 05:40:27.150            39.739         19869.500
       340   11 Jun 2027 07:01:48.411   11 Jun 2027 07:02:54.154            65.743         31768.562
       341   11 Jun 2027 07:03:00.054   11 Jun 2027 07:03:00.213             0.159            79.500
       342   11 Jun 2027 07:03:59.728   11 Jun 2027 07:04:03.765             4.037          1964.719
       343   11 Jun 2027 07:04:26.201   11 Jun 2027 07:04:27.584             1.383           182.375
       344   11 Jun 2027 07:04:56.289   11 Jun 2027 07:04:56.757             0.468           234.000
       345   11 Jun 2027 07:05:30.402   11 Jun 2027 07:05:33.440             3.038          1519.000
       346   11 Jun 2027 07:06:44.599   11 Jun 2027 07:06:51.946             7.347          2308.063
       347   11 Jun 2027 07:07:14.529   11 Jun 2027 07:07:16.581             2.052           570.656
       348   11 Jun 2027 08:36:45.648   11 Jun 2027 08:36:52.934             7.286          2958.281
       349   11 Jun 2027 08:37:27.279   11 Jun 2027 08:37:29.285             2.006           124.344
       350   11 Jun 2027 08:38:37.504   11 Jun 2027 08:38:40.360             2.856           653.844
       351   11 Jun 2027 08:40:02.190   11 Jun 2027 08:40:07.190             5.000          1270.906
       352   11 Jun 2027 08:40:33.074   11 Jun 2027 08:40:33.332             0.258            38.687
       353   11 Jun 2027 08:42:20.806   11 Jun 2027 08:42:26.360             5.554          2348.000
       354   11 Jun 2027 08:43:05.896   11 Jun 2027 08:43:07.500             1.604           789.437
       355   11 Jun 2027 08:43:43.945   11 Jun 2027 08:43:49.316             5.371          1111.562
       356   11 Jun 2027 08:45:08.576   11 Jun 2027 08:45:15.136             6.560          2012.750
       357   11 Jun 2027 10:14:25.336   11 Jun 2027 10:14:34.175             8.839          3954.469
       358   11 Jun 2027 10:15:24.684   11 Jun 2027 10:15:28.135             3.451          1030.719
       359   11 Jun 2027 10:16:15.066   11 Jun 2027 10:16:20.262             5.196           386.844
       360   11 Jun 2027 10:17:32.562   11 Jun 2027 10:17:37.924             5.362          2111.313
       361   11 Jun 2027 10:18:44.119   11 Jun 2027 10:18:46.972             2.853          1323.219
       362   11 Jun 2027 10:19:42.572   11 Jun 2027 10:19:46.630             4.058          1701.313
       363   11 Jun 2027 10:20:34.937   11 Jun 2027 10:20:41.017             6.080          1509.187
       364   11 Jun 2027 10:20:44.211   11 Jun 2027 10:20:45.805             1.594            54.312
       365   11 Jun 2027 10:21:07.984   11 Jun 2027 10:21:14.521             6.537           255.844
       366   11 Jun 2027 10:21:36.479   11 Jun 2027 10:21:37.392             0.913           416.156
       367   11 Jun 2027 11:51:12.448   11 Jun 2027 11:51:24.917            12.469          5086.000
       368   11 Jun 2027 11:51:33.473   11 Jun 2027 11:51:34.506             1.033            99.875
       369   11 Jun 2027 11:52:50.216   11 Jun 2027 11:52:58.735             8.519          1159.375
       370   11 Jun 2027 11:54:00.057   11 Jun 2027 11:54:04.603             4.546          1157.000
       371   11 Jun 2027 11:54:38.799   11 Jun 2027 11:54:40.298             1.499           749.500
       372   11 Jun 2027 11:55:15.847   11 Jun 2027 11:55:21.194             5.347          1190.281
       373   11 Jun 2027 11:56:07.814   11 Jun 2027 11:56:11.007             3.193          1188.750
       374   11 Jun 2027 11:57:28.163   11 Jun 2027 11:57:31.746             3.583          1090.750
       375   11 Jun 2027 11:57:45.593   11 Jun 2027 11:57:47.915             2.322           115.281
       376   12 Jun 2027 04:15:32.414   12 Jun 2027 04:16:58.590            86.176         43088.000
       377   12 Jun 2027 04:17:19.472   12 Jun 2027 04:18:04.295            44.823         22411.500
       378   12 Jun 2027 04:19:18.387   12 Jun 2027 04:19:32.135            13.748          6874.000
       379   12 Jun 2027 04:19:45.796   12 Jun 2027 04:20:05.907            20.111         10055.500
       380   12 Jun 2027 05:39:39.576   12 Jun 2027 05:40:22.400            42.824         21412.000
       381   12 Jun 2027 07:13:27.399   12 Jun 2027 07:15:26.044           118.645         59322.500
       382   12 Jun 2027 07:15:35.862   12 Jun 2027 07:15:37.948             2.086          1030.750
       383   12 Jun 2027 07:15:56.689   12 Jun 2027 07:16:01.394             4.705           501.000
       384   12 Jun 2027 07:16:29.633   12 Jun 2027 07:16:29.633             0.000             0.000
       385   12 Jun 2027 07:16:58.647   12 Jun 2027 07:17:06.215             7.568          1361.219
       386   12 Jun 2027 07:17:36.814   12 Jun 2027 07:17:39.306             2.492           615.313
       387   12 Jun 2027 07:18:10.947   12 Jun 2027 07:18:10.947             0.000             0.000
       388   12 Jun 2027 07:18:27.394   12 Jun 2027 07:18:30.297             2.903           960.156
       389   12 Jun 2027 07:19:20.046   12 Jun 2027 07:19:20.046             0.000             0.000
       390   12 Jun 2027 08:48:19.626   12 Jun 2027 08:48:24.988             5.362          2446.281
       391   12 Jun 2027 08:48:38.038   12 Jun 2027 08:48:41.475             3.437           407.812
       392   12 Jun 2027 08:50:38.524   12 Jun 2027 08:50:46.979             8.455          2462.063
       393   12 Jun 2027 08:52:35.514   12 Jun 2027 08:52:44.534             9.020          1160.625
       394   12 Jun 2027 08:54:08.613   12 Jun 2027 08:54:17.948             9.335          2439.906
       395   12 Jun 2027 08:55:11.082   12 Jun 2027 08:55:16.336             5.254          1579.000
       396   12 Jun 2027 08:55:42.246   12 Jun 2027 08:55:44.714             2.468           559.719
       397   12 Jun 2027 08:55:58.843   12 Jun 2027 08:55:59.755             0.912           423.875
       398   12 Jun 2027 08:57:08.138   12 Jun 2027 08:57:13.994             5.856          1281.313
       399   12 Jun 2027 10:26:27.940   12 Jun 2027 10:26:38.669            10.729          4574.187
       400   12 Jun 2027 10:30:06.547   12 Jun 2027 10:30:09.514             2.967          1282.437
       401   12 Jun 2027 10:30:40.082   12 Jun 2027 10:30:41.360             1.278           490.281
       402   12 Jun 2027 10:32:00.562   12 Jun 2027 10:32:03.398             2.836          1310.375
       403   12 Jun 2027 10:33:00.183   12 Jun 2027 10:33:01.173             0.990           407.125
       404   12 Jun 2027 10:33:24.687   12 Jun 2027 10:33:25.769             1.082           263.313
       405   12 Jun 2027 10:33:53.380   12 Jun 2027 10:33:53.938             0.558           279.000
       406   13 Jun 2027 04:28:09.238   13 Jun 2027 04:30:13.890           124.652         62326.000
       407   13 Jun 2027 04:30:58.310   13 Jun 2027 04:31:28.644            30.334         15167.000
       408   13 Jun 2027 04:31:32.925   13 Jun 2027 04:31:35.514             2.589          1294.500
       409   13 Jun 2027 05:51:34.795   13 Jun 2027 05:52:15.462            40.667         20333.500
       410   13 Jun 2027 07:27:49.909   13 Jun 2027 07:29:57.384           127.475         63278.468
       411   13 Jun 2027 07:30:10.746   13 Jun 2027 07:30:14.733             3.987           414.625
       412   13 Jun 2027 07:30:55.072   13 Jun 2027 07:31:00.851             5.779           790.125
       413   13 Jun 2027 09:01:22.429   13 Jun 2027 09:01:30.095             7.666          2850.937
       414   13 Jun 2027 09:02:44.144   13 Jun 2027 09:02:45.026             0.882           158.312
       415   13 Jun 2027 09:03:53.115   13 Jun 2027 09:03:54.014             0.899            76.594
       416   13 Jun 2027 09:04:37.692   13 Jun 2027 09:04:44.253             6.561          1098.187
       417   13 Jun 2027 09:06:19.629   13 Jun 2027 09:06:24.168             4.539          2081.563
       418   13 Jun 2027 09:07:13.683   13 Jun 2027 09:07:14.213             0.530           247.750
       419   13 Jun 2027 09:08:16.280   13 Jun 2027 09:08:17.353             1.073           349.781
       420   13 Jun 2027 09:08:25.491   13 Jun 2027 09:08:28.451             2.960           123.781
       421   13 Jun 2027 09:09:19.609   13 Jun 2027 09:09:29.646            10.037          1598.687
       422   13 Jun 2027 09:09:48.717   13 Jun 2027 09:09:50.978             2.261            80.313
       423   13 Jun 2027 10:38:54.992   13 Jun 2027 10:39:05.403            10.411          3751.250
       424   13 Jun 2027 10:41:16.734   13 Jun 2027 10:41:18.261             1.527           686.906
       425   13 Jun 2027 10:42:47.005   13 Jun 2027 10:42:53.210             6.205          2035.094
       426   13 Jun 2027 10:43:44.327   13 Jun 2027 10:43:49.911             5.584          1389.938
       427   13 Jun 2027 10:43:57.654   13 Jun 2027 10:43:58.380             0.726           241.969
       428   13 Jun 2027 10:43:58.386   13 Jun 2027 10:43:58.573             0.187             0.188
       429   13 Jun 2027 10:44:28.515   13 Jun 2027 10:44:38.980            10.465           935.687
       430   13 Jun 2027 10:45:11.927   13 Jun 2027 10:45:13.674             1.747           287.062
       431   13 Jun 2027 10:45:13.782   13 Jun 2027 10:45:14.516             0.734             3.375
       432   13 Jun 2027 10:45:23.929   13 Jun 2027 10:45:24.803             0.874           294.156
       433   13 Jun 2027 10:45:32.901   13 Jun 2027 10:45:33.277             0.376            95.187
