uniorb/output/strategy_4/Camera/Camera_KinoSat_110607.txt

KinoSat_110607
-------------------------
    Access    *     Start Time (UTCG)     *     Stop Time (UTCG)  *   Duration (s) *   Data (Mbytes)
         1   01 Jun 2027 03:24:48.572   01 Jun 2027 03:25:57.192            68.620         34310.000
         2   01 Jun 2027 03:26:24.921   01 Jun 2027 03:26:29.602             4.681          2340.500
         3   01 Jun 2027 03:26:58.066   01 Jun 2027 03:27:01.975             3.909          1954.500
         4   01 Jun 2027 04:58:53.813   01 Jun 2027 05:01:17.489           143.676         71838.000
         5   01 Jun 2027 05:04:42.515   01 Jun 2027 05:04:43.307             0.792           396.000
         6   01 Jun 2027 05:05:24.301   01 Jun 2027 05:05:34.107             9.806          4903.000
         7   01 Jun 2027 05:05:51.139   01 Jun 2027 05:05:51.139             0.000             0.000
         8   01 Jun 2027 05:05:54.380   01 Jun 2027 05:05:56.761             2.381          1190.500
         9   01 Jun 2027 05:06:38.330   01 Jun 2027 05:06:40.084             1.754           877.000
        10   01 Jun 2027 06:35:58.031   01 Jun 2027 06:38:06.601           128.570         64285.000
        11   01 Jun 2027 06:39:14.647   01 Jun 2027 06:39:15.868             1.221           610.500
        12   01 Jun 2027 06:39:40.047   01 Jun 2027 06:39:49.941             9.894          4947.000
        13   01 Jun 2027 08:12:55.662   01 Jun 2027 08:15:22.278           146.616         73308.000
        14   01 Jun 2027 08:16:05.492   01 Jun 2027 08:16:16.721            11.229          5614.500
        15   01 Jun 2027 09:49:41.782   01 Jun 2027 09:52:47.768           185.986         92993.000
        16   01 Jun 2027 11:27:53.297   01 Jun 2027 11:28:53.538            60.241         30120.500
        17   02 Jun 2027 03:36:55.215   02 Jun 2027 03:37:13.803            18.588          9294.000
        18   02 Jun 2027 03:38:26.312   02 Jun 2027 03:38:26.312             0.000             0.000
        19   02 Jun 2027 05:12:03.059   02 Jun 2027 05:15:04.999           181.940         90970.000
        20   02 Jun 2027 05:15:50.560   02 Jun 2027 05:15:56.835             6.275          3137.500
        21   02 Jun 2027 05:17:53.396   02 Jun 2027 05:17:53.396             0.000             0.000
        22   02 Jun 2027 05:17:57.314   02 Jun 2027 05:18:04.126             6.812          3406.000
        23   02 Jun 2027 05:18:43.599   02 Jun 2027 05:18:52.527             8.928          4464.000
        24   02 Jun 2027 06:48:24.001   02 Jun 2027 06:51:17.544           173.543         86771.500
        25   02 Jun 2027 06:51:55.662   02 Jun 2027 06:52:32.654            36.992         18496.000
        26   02 Jun 2027 06:53:46.111   02 Jun 2027 06:53:47.332             1.221           610.500
        27   02 Jun 2027 08:25:57.359   02 Jun 2027 08:30:08.887           251.528        124789.844
        28   02 Jun 2027 10:02:01.096   02 Jun 2027 10:02:21.209            20.113          8233.719
        29   02 Jun 2027 10:03:42.034   02 Jun 2027 10:03:43.090             1.056           360.031
        30   03 Jun 2027 03:49:04.763   03 Jun 2027 03:49:26.240            21.477         10738.500
        31   03 Jun 2027 05:24:14.784   03 Jun 2027 05:26:30.546           135.762         67881.000
        32   03 Jun 2027 05:27:05.370   03 Jun 2027 05:27:20.234            14.864          7432.000
        33   03 Jun 2027 05:28:00.298   03 Jun 2027 05:28:00.298             0.000             0.000
        34   03 Jun 2027 05:28:04.048   03 Jun 2027 05:28:16.050            12.002          6001.000
        35   03 Jun 2027 05:29:55.151   03 Jun 2027 05:30:23.497            28.346         14173.000
        36   03 Jun 2027 07:00:32.018   03 Jun 2027 07:02:27.963           115.945         57584.437
        37   03 Jun 2027 08:38:03.103   03 Jun 2027 08:38:18.124            15.021          4373.531
        38   03 Jun 2027 10:14:04.649   03 Jun 2027 10:14:19.143            14.494          6202.094
        39   04 Jun 2027 04:00:48.639   04 Jun 2027 04:01:15.388            26.749         13374.500
        40   04 Jun 2027 04:03:56.445   04 Jun 2027 04:04:11.793            15.348          7674.000
        41   04 Jun 2027 05:35:43.114   04 Jun 2027 05:38:23.800           160.686         80343.000
        42   04 Jun 2027 05:41:36.016   04 Jun 2027 05:42:23.993            47.977         23988.500
        43   04 Jun 2027 05:42:56.445   04 Jun 2027 05:43:00.796             4.351          2175.500
        44   04 Jun 2027 07:12:15.024   04 Jun 2027 07:13:44.998            89.974         43892.906
        45   04 Jun 2027 07:14:13.092   04 Jun 2027 07:14:21.435             8.343           813.625
        46   04 Jun 2027 08:50:32.608   04 Jun 2027 08:50:42.824            10.216          4925.125
        47   04 Jun 2027 10:25:53.955   04 Jun 2027 10:26:08.252            14.297          5951.156
        48   05 Jun 2027 04:11:03.330   05 Jun 2027 04:11:15.034            11.704          5852.000
        49   05 Jun 2027 04:12:39.599   05 Jun 2027 04:12:48.842             9.243          4621.500
        50   05 Jun 2027 04:13:26.263   05 Jun 2027 04:13:29.870             3.607          1803.500
        51   05 Jun 2027 04:14:03.789   05 Jun 2027 04:14:19.091            15.302          7651.000
        52   05 Jun 2027 04:15:53.103   05 Jun 2027 04:15:59.001             5.898          2949.000
        53   05 Jun 2027 04:17:06.512   05 Jun 2027 04:17:18.527            12.015          6007.500
        54   05 Jun 2027 05:47:29.146   05 Jun 2027 05:49:54.195           145.049         72524.500
        55   05 Jun 2027 05:54:23.547   05 Jun 2027 05:54:59.837            36.290         18145.000
        56   05 Jun 2027 05:55:00.830   05 Jun 2027 05:55:00.986             0.156            78.000
        57   05 Jun 2027 07:24:35.399   05 Jun 2027 07:26:30.727           115.328         54734.751
        58   05 Jun 2027 07:30:40.403   05 Jun 2027 07:30:46.263             5.860           187.906
        59   05 Jun 2027 09:02:30.361   05 Jun 2027 09:02:42.092            11.731          5519.156
        60   05 Jun 2027 09:06:25.496   05 Jun 2027 09:06:26.340             0.844           225.437
        61   05 Jun 2027 10:35:36.300   05 Jun 2027 10:35:55.016            18.716          5595.250
        62   06 Jun 2027 04:22:12.782   06 Jun 2027 04:23:50.892            98.110         49055.000
        63   06 Jun 2027 04:24:20.417   06 Jun 2027 04:24:40.472            20.055         10027.500
        64   06 Jun 2027 04:26:58.330   06 Jun 2027 04:27:01.311             2.981          1490.500
        65   06 Jun 2027 04:27:21.949   06 Jun 2027 04:27:21.949             0.000             0.000
        66   06 Jun 2027 04:28:01.763   06 Jun 2027 04:28:21.621            19.858          9929.000
        67   06 Jun 2027 04:30:13.142   06 Jun 2027 04:30:18.053             4.911          2455.500
        68   06 Jun 2027 04:30:25.093   06 Jun 2027 04:30:40.000            14.907          7453.500
        69   06 Jun 2027 05:59:44.658   06 Jun 2027 06:01:38.695           114.037         57018.500
        70   06 Jun 2027 06:02:09.552   06 Jun 2027 06:02:37.003            27.451         13725.500
        71   06 Jun 2027 06:03:23.867   06 Jun 2027 06:03:26.424             2.557          1278.500
        72   06 Jun 2027 06:04:00.228   06 Jun 2027 06:04:03.334             3.106          1553.000
        73   06 Jun 2027 07:36:30.621   06 Jun 2027 07:37:16.360            45.739         22161.968
        74   06 Jun 2027 07:41:33.616   06 Jun 2027 07:41:37.795             4.179          1671.656
        75   06 Jun 2027 07:42:47.521   06 Jun 2027 07:42:57.077             9.556          1890.750
        76   06 Jun 2027 09:14:30.316   06 Jun 2027 09:14:45.820            15.504          5593.187
        77   06 Jun 2027 09:17:29.451   06 Jun 2027 09:17:30.236             0.785           385.438
        78   06 Jun 2027 09:18:26.223   06 Jun 2027 09:18:26.770             0.547           114.594
        79   06 Jun 2027 10:48:06.719   06 Jun 2027 10:48:11.665             4.946          1821.594
        80   07 Jun 2027 03:00:46.463   07 Jun 2027 03:01:04.883            18.420          9210.000
        81   07 Jun 2027 03:04:44.657   07 Jun 2027 03:04:46.495             1.838           919.000
        82   07 Jun 2027 04:33:43.706   07 Jun 2027 04:35:19.931            96.225         48112.500
        83   07 Jun 2027 04:37:01.321   07 Jun 2027 04:37:35.720            34.399         17199.500
        84   07 Jun 2027 04:42:35.881   07 Jun 2027 04:43:07.443            31.562         15781.000
        85   07 Jun 2027 06:11:39.514   07 Jun 2027 06:13:55.764           136.250         68079.906
        86   07 Jun 2027 06:14:30.676   07 Jun 2027 06:14:33.836             3.160           606.219
        87   07 Jun 2027 06:15:00.905   07 Jun 2027 06:15:00.905             0.000             0.000
        88   07 Jun 2027 06:16:09.491   07 Jun 2027 06:16:18.820             9.329          2573.156
        89   07 Jun 2027 06:16:44.675   07 Jun 2027 06:16:47.356             2.681           807.969
        90   07 Jun 2027 06:17:27.131   07 Jun 2027 06:17:29.209             2.078           675.812
        91   07 Jun 2027 07:48:27.077   07 Jun 2027 07:48:30.555             3.478          1266.469
        92   07 Jun 2027 07:53:47.223   07 Jun 2027 07:53:50.764             3.541          1391.531
        93   07 Jun 2027 09:26:17.442   07 Jun 2027 09:26:23.421             5.979          2484.938
        94   07 Jun 2027 11:02:16.091   07 Jun 2027 11:02:17.926             1.835           553.281
        95   08 Jun 2027 03:12:49.514   08 Jun 2027 03:12:52.262             2.748          1374.000
        96   08 Jun 2027 03:14:03.591   08 Jun 2027 03:14:13.938            10.347          5173.500
        97   08 Jun 2027 04:46:37.180   08 Jun 2027 04:49:10.735           153.555         76777.500
        98   08 Jun 2027 04:49:48.741   08 Jun 2027 04:49:56.927             8.186          4093.000
        99   08 Jun 2027 04:53:52.747   08 Jun 2027 04:55:08.779            76.032         38016.000
       100   08 Jun 2027 06:23:51.411   08 Jun 2027 06:24:49.460            58.049         28143.719
       101   08 Jun 2027 06:26:01.254   08 Jun 2027 06:26:01.254             0.000             0.000
       102   08 Jun 2027 06:26:12.698   08 Jun 2027 06:26:18.614             5.916           394.188
       103   08 Jun 2027 06:26:26.665   08 Jun 2027 06:26:29.893             3.228           251.594
       104   08 Jun 2027 06:28:06.676   08 Jun 2027 06:28:09.710             3.034           110.344
       105   08 Jun 2027 06:28:16.334   08 Jun 2027 06:28:16.635             0.301            68.063
       106   08 Jun 2027 06:28:38.759   08 Jun 2027 06:28:42.496             3.737            15.062
       107   08 Jun 2027 08:01:03.744   08 Jun 2027 08:01:05.174             1.430            94.094
       108   08 Jun 2027 08:04:51.311   08 Jun 2027 08:04:55.351             4.040           531.281
       109   08 Jun 2027 09:37:46.544   08 Jun 2027 09:37:51.283             4.739          1660.031
       110   08 Jun 2027 09:39:18.040   08 Jun 2027 09:39:24.489             6.449          1783.062
       111   08 Jun 2027 11:12:59.015   08 Jun 2027 11:13:02.440             3.425           700.812
       112   09 Jun 2027 03:25:26.597   09 Jun 2027 03:25:59.796            33.199         16599.500
       113   09 Jun 2027 04:57:23.249   09 Jun 2027 04:57:56.354            33.105         16552.500
       114   09 Jun 2027 04:59:08.445   09 Jun 2027 04:59:28.220            19.775          9887.500
       115   09 Jun 2027 05:00:06.920   09 Jun 2027 05:01:02.441            55.521         27760.500
       116   09 Jun 2027 05:03:38.793   09 Jun 2027 05:05:01.031            82.238         41119.000
       117   09 Jun 2027 05:05:38.211   09 Jun 2027 05:05:49.109            10.898          5449.000
       118   09 Jun 2027 05:05:59.880   09 Jun 2027 05:06:02.743             2.863          1431.500
       119   09 Jun 2027 05:06:05.380   09 Jun 2027 05:06:06.661             1.281           640.500
       120   09 Jun 2027 05:06:11.496   09 Jun 2027 05:06:11.523             0.027            13.500
       121   09 Jun 2027 05:06:53.077   09 Jun 2027 05:07:06.454            13.377          6688.500
       122   09 Jun 2027 06:36:12.644   09 Jun 2027 06:37:23.731            71.087         34808.906
       123   09 Jun 2027 08:13:10.396   09 Jun 2027 08:13:16.129             5.733           265.344
       124   09 Jun 2027 08:14:30.405   09 Jun 2027 08:14:33.864             3.459           510.406
       125   09 Jun 2027 09:49:56.201   09 Jun 2027 09:50:03.048             6.847          3238.656
       126   09 Jun 2027 09:52:23.839   09 Jun 2027 09:52:25.233             1.394           382.031
       127   09 Jun 2027 11:28:07.757   09 Jun 2027 11:28:07.956             0.199            63.969
       128   10 Jun 2027 03:37:10.524   10 Jun 2027 03:37:19.666             9.142          4571.000
       129   10 Jun 2027 03:37:59.940   10 Jun 2027 03:38:05.560             5.620          2810.000
       130   10 Jun 2027 05:12:17.973   10 Jun 2027 05:12:48.953            30.980         15490.000
       131   10 Jun 2027 05:12:56.104   10 Jun 2027 05:13:37.658            41.554         20777.000
       132   10 Jun 2027 05:15:19.623   10 Jun 2027 05:17:07.613           107.990         53995.000
       133   10 Jun 2027 05:18:06.574   10 Jun 2027 05:18:44.585            38.011         19005.500
       134   10 Jun 2027 05:18:58.153   10 Jun 2027 05:19:07.184             9.031          4515.500
       135   10 Jun 2027 06:48:39.000   10 Jun 2027 06:49:47.291            68.291         33363.219
       136   10 Jun 2027 08:26:11.922   10 Jun 2027 08:26:15.911             3.989          1059.906
       137   10 Jun 2027 08:28:32.129   10 Jun 2027 08:28:33.496             1.367            96.844
       138   10 Jun 2027 10:02:15.827   10 Jun 2027 10:02:28.725            12.898          5548.313
       139   10 Jun 2027 10:03:47.686   10 Jun 2027 10:03:52.799             5.113           670.406
       140   11 Jun 2027 03:49:19.398   11 Jun 2027 03:49:42.040            22.642         11321.000
       141   11 Jun 2027 05:24:29.373   11 Jun 2027 05:26:03.101            93.728         46864.000
       142   11 Jun 2027 05:26:30.515   11 Jun 2027 05:26:46.130            15.615          7807.500
       143   11 Jun 2027 05:27:20.034   11 Jun 2027 05:28:31.349            71.315         35657.500
       144   11 Jun 2027 05:30:09.065   11 Jun 2027 05:30:38.148            29.083         14541.500
       145   11 Jun 2027 07:00:46.673   11 Jun 2027 07:02:22.885            96.212         46248.219
       146   11 Jun 2027 08:38:18.987   11 Jun 2027 08:38:26.996             8.009          3417.000
       147   11 Jun 2027 10:14:19.028   11 Jun 2027 10:14:34.175            15.147          5396.625
       148   11 Jun 2027 10:15:29.601   11 Jun 2027 10:15:32.618             3.017            43.406
       149   12 Jun 2027 04:01:03.149   12 Jun 2027 04:01:30.196            27.047         13523.500
       150   12 Jun 2027 04:04:12.897   12 Jun 2027 04:04:26.638            13.741          6870.500
       151   12 Jun 2027 04:04:29.709   12 Jun 2027 04:04:32.327             2.618          1309.000
       152   12 Jun 2027 05:35:56.599   12 Jun 2027 05:39:07.272           190.673         95336.500
       153   12 Jun 2027 05:39:23.683   12 Jun 2027 05:39:50.723            27.040         13520.000
       154   12 Jun 2027 05:43:11.150   12 Jun 2027 05:43:15.571             4.421          2210.500
       155   12 Jun 2027 07:12:29.986   12 Jun 2027 07:13:49.741            79.755         37995.218
       156   12 Jun 2027 07:14:29.813   12 Jun 2027 07:14:36.202             6.389           853.469
       157   12 Jun 2027 08:50:47.289   12 Jun 2027 08:51:00.021            12.732          6186.094
       158   12 Jun 2027 10:26:08.264   12 Jun 2027 10:26:23.796            15.532          6035.594
       159   13 Jun 2027 04:11:17.467   13 Jun 2027 04:11:59.192            41.725         20862.500
       160   13 Jun 2027 04:12:12.029   13 Jun 2027 04:12:13.509             1.480           740.000
       161   13 Jun 2027 04:12:48.563   13 Jun 2027 04:12:54.818             6.255          3127.500
       162   13 Jun 2027 04:16:33.760   13 Jun 2027 04:16:33.760             0.000             0.000
       163   13 Jun 2027 04:16:49.783   13 Jun 2027 04:16:51.777             1.994           997.000
       164   13 Jun 2027 05:47:44.078   13 Jun 2027 05:50:08.837           144.759         72379.500
       165   13 Jun 2027 05:54:38.174   13 Jun 2027 05:54:38.904             0.730           365.000
       166   13 Jun 2027 05:55:02.083   13 Jun 2027 05:55:14.194            12.111          6055.500
       167   13 Jun 2027 05:55:15.526   13 Jun 2027 05:55:15.841             0.315           157.500
       168   13 Jun 2027 07:24:50.644   13 Jun 2027 07:27:06.822           136.178         66293.718
       169   13 Jun 2027 07:30:53.530   13 Jun 2027 07:30:53.812             0.282            72.969
       170   13 Jun 2027 09:02:45.026   13 Jun 2027 09:02:56.858            11.832          5592.687
       171   13 Jun 2027 09:06:39.841   13 Jun 2027 09:06:40.265             0.424           208.531
       172   13 Jun 2027 10:35:51.231   13 Jun 2027 10:36:10.908            19.677          5507.281
