uniorb/output/strategy_4/Camera/Camera_KinoSat_112009.txt

KinoSat_112009
-------------------------
    Access    *     Start Time (UTCG)     *     Stop Time (UTCG)  *   Duration (s) *   Data (Mbytes)
         1   01 Jun 2027 03:54:21.614   01 Jun 2027 03:56:42.660           141.046         70523.000
         2   01 Jun 2027 03:57:34.342   01 Jun 2027 03:57:34.532             0.190            95.000
         3   01 Jun 2027 03:59:12.608   01 Jun 2027 03:59:14.867             2.259          1129.500
         4   01 Jun 2027 03:59:23.560   01 Jun 2027 03:59:33.022             9.462          4731.000
         5   01 Jun 2027 04:00:30.832   01 Jun 2027 04:00:38.103             7.271          3635.500
         6   01 Jun 2027 05:32:38.562   01 Jun 2027 05:32:57.992            19.430          9715.000
         7   01 Jun 2027 05:33:41.429   01 Jun 2027 05:35:38.367           116.938         58469.000
         8   01 Jun 2027 05:36:00.175   01 Jun 2027 05:36:00.175             0.000             0.000
         9   01 Jun 2027 05:36:26.877   01 Jun 2027 05:36:28.235             1.358           679.000
        10   01 Jun 2027 05:38:07.247   01 Jun 2027 05:38:12.457             5.210          2605.000
        11   01 Jun 2027 05:40:59.181   01 Jun 2027 05:41:18.197            19.016          9508.000
        12   01 Jun 2027 07:10:50.547   01 Jun 2027 07:11:27.168            36.621         18310.500
        13   01 Jun 2027 07:11:55.758   01 Jun 2027 07:12:49.018            53.260         26630.000
        14   01 Jun 2027 07:13:15.034   01 Jun 2027 07:13:32.171            17.137          8568.500
        15   01 Jun 2027 07:13:54.153   01 Jun 2027 07:14:00.887             6.734          3367.000
        16   01 Jun 2027 07:14:13.144   01 Jun 2027 07:14:13.144             0.000             0.000
        17   01 Jun 2027 08:34:17.908   01 Jun 2027 08:36:50.229           152.321         76160.500
        18   01 Jun 2027 11:46:01.903   01 Jun 2027 11:46:15.438            13.535          6767.500
        19   01 Jun 2027 11:48:14.073   01 Jun 2027 11:48:56.811            42.738         21369.000
        20   01 Jun 2027 11:52:19.450   01 Jun 2027 11:52:35.003            15.553          7776.500
        21   02 Jun 2027 04:06:27.926   02 Jun 2027 04:09:37.812           189.886         94943.000
        22   02 Jun 2027 04:10:46.777   02 Jun 2027 04:11:01.163            14.386          7193.000
        23   02 Jun 2027 05:45:43.446   02 Jun 2027 05:47:58.852           135.406         67703.000
        24   02 Jun 2027 05:50:51.173   02 Jun 2027 05:51:08.330            17.157          8578.500
        25   02 Jun 2027 05:51:52.661   02 Jun 2027 05:53:30.005            97.344         48672.000
        26   02 Jun 2027 07:11:54.084   02 Jun 2027 07:12:18.136            24.052         12026.000
        27   02 Jun 2027 07:22:46.453   02 Jun 2027 07:24:14.442            87.989         43994.500
        28   02 Jun 2027 07:24:36.302   02 Jun 2027 07:24:54.508            18.206          9103.000
        29   02 Jun 2027 08:46:44.845   02 Jun 2027 08:49:12.515           147.670         73835.000
        30   02 Jun 2027 10:22:29.534   02 Jun 2027 10:23:59.071            89.537         41375.813
        31   02 Jun 2027 10:25:28.269   02 Jun 2027 10:25:33.070             4.801          2195.000
        32   02 Jun 2027 10:26:02.670   02 Jun 2027 10:26:03.875             1.205           537.187
        33   02 Jun 2027 11:58:50.540   02 Jun 2027 11:59:06.193            15.653          7826.500
        34   03 Jun 2027 04:19:06.147   03 Jun 2027 04:21:55.162           169.015         84507.500
        35   03 Jun 2027 04:22:16.228   03 Jun 2027 04:22:19.876             3.648          1824.000
        36   03 Jun 2027 04:23:01.237   03 Jun 2027 04:23:01.720             0.483           241.500
        37   03 Jun 2027 05:58:06.960   03 Jun 2027 06:00:39.498           152.538         76269.000
        38   03 Jun 2027 06:02:38.742   03 Jun 2027 06:02:59.414            20.672         10336.000
        39   03 Jun 2027 06:03:30.513   03 Jun 2027 06:03:44.164            13.651          6825.500
        40   03 Jun 2027 06:03:54.413   03 Jun 2027 06:03:58.766             4.353          1688.188
        41   03 Jun 2027 07:23:08.676   03 Jun 2027 07:23:20.983            12.307          5322.375
        42   03 Jun 2027 07:24:31.913   03 Jun 2027 07:24:33.609             1.696           848.000
        43   03 Jun 2027 07:34:47.945   03 Jun 2027 07:34:56.542             8.597          2679.406
        44   03 Jun 2027 07:35:52.739   03 Jun 2027 07:35:54.981             2.242           595.344
        45   03 Jun 2027 08:57:20.221   03 Jun 2027 08:57:49.342            29.121         13929.250
        46   03 Jun 2027 08:59:01.676   03 Jun 2027 08:59:07.837             6.161          1509.844
        47   03 Jun 2027 09:00:01.301   03 Jun 2027 09:00:05.185             3.884          1059.531
        48   03 Jun 2027 10:32:23.019   03 Jun 2027 10:32:30.546             7.527          3278.781
        49   03 Jun 2027 10:33:03.668   03 Jun 2027 10:33:05.810             2.142           403.625
        50   03 Jun 2027 10:34:44.546   03 Jun 2027 10:34:52.711             8.165          3085.500
        51   03 Jun 2027 10:36:02.356   03 Jun 2027 10:36:08.551             6.195          1519.531
        52   03 Jun 2027 10:38:24.882   03 Jun 2027 10:38:31.240             6.358           864.094
        53   03 Jun 2027 10:38:52.070   03 Jun 2027 10:38:52.070             0.000             0.000
        54   04 Jun 2027 03:00:00.000   04 Jun 2027 03:00:03.429             3.429          1714.500
        55   04 Jun 2027 03:00:41.410   04 Jun 2027 03:01:07.505            26.095         13047.500
        56   04 Jun 2027 03:01:49.270   04 Jun 2027 03:01:51.489             2.219          1109.500
        57   04 Jun 2027 04:31:24.214   04 Jun 2027 04:31:24.449             0.235           117.500
        58   04 Jun 2027 04:32:15.383   04 Jun 2027 04:35:01.337           165.954         82977.000
        59   04 Jun 2027 06:10:25.518   04 Jun 2027 06:12:56.999           151.481         75098.469
        60   04 Jun 2027 06:14:04.732   04 Jun 2027 06:14:16.337            11.605          1868.000
        61   04 Jun 2027 06:14:51.574   04 Jun 2027 06:14:56.334             4.760           789.219
        62   04 Jun 2027 06:15:15.239   04 Jun 2027 06:15:17.746             2.507            71.719
        63   04 Jun 2027 06:15:47.753   04 Jun 2027 06:15:51.645             3.892           647.688
        64   04 Jun 2027 07:34:29.889   04 Jun 2027 07:34:43.857            13.968          6438.281
        65   04 Jun 2027 07:35:21.411   04 Jun 2027 07:35:23.667             2.256           512.281
        66   04 Jun 2027 07:35:28.976   04 Jun 2027 07:35:31.107             2.131           114.719
        67   04 Jun 2027 07:35:46.688   04 Jun 2027 07:35:48.125             1.437           362.188
        68   04 Jun 2027 07:36:41.605   04 Jun 2027 07:36:44.928             3.323          1545.375
        69   04 Jun 2027 07:46:45.190   04 Jun 2027 07:46:54.652             9.462          1920.844
        70   04 Jun 2027 09:08:44.578   04 Jun 2027 09:09:23.336            38.758         14871.875
        71   04 Jun 2027 09:10:53.018   04 Jun 2027 09:10:56.435             3.417          1632.875
        72   04 Jun 2027 09:11:34.760   04 Jun 2027 09:11:40.620             5.860           166.125
        73   04 Jun 2027 09:12:44.152   04 Jun 2027 09:12:48.744             4.592          1985.375
        74   04 Jun 2027 09:13:54.518   04 Jun 2027 09:13:57.446             2.928          1372.250
        75   04 Jun 2027 10:44:40.619   04 Jun 2027 10:44:52.198            11.579          4890.812
        76   04 Jun 2027 10:49:30.597   04 Jun 2027 10:49:48.685            18.088          8040.281
        77   04 Jun 2027 10:51:57.235   04 Jun 2027 10:52:02.434             5.199          2442.531
        78   04 Jun 2027 10:52:23.078   04 Jun 2027 10:52:25.154             2.076           506.812
        79   05 Jun 2027 03:06:33.826   05 Jun 2027 03:06:46.349            12.523          6261.500
        80   05 Jun 2027 03:08:51.137   05 Jun 2027 03:09:03.835            12.698          6349.000
        81   05 Jun 2027 03:09:29.617   05 Jun 2027 03:10:23.971            54.354         27177.000
        82   05 Jun 2027 03:10:50.298   05 Jun 2027 03:11:01.193            10.895          5447.500
        83   05 Jun 2027 03:11:43.607   05 Jun 2027 03:12:10.249            26.642         13321.000
        84   05 Jun 2027 03:13:37.766   05 Jun 2027 03:13:42.938             5.172          2586.000
        85   05 Jun 2027 03:14:16.900   05 Jun 2027 03:14:21.314             4.414          2207.000
        86   05 Jun 2027 04:43:48.831   05 Jun 2027 04:43:50.171             1.340           670.000
        87   05 Jun 2027 04:44:10.094   05 Jun 2027 04:46:52.583           162.489         81244.500
        88   05 Jun 2027 06:22:30.704   05 Jun 2027 06:23:47.063            76.359         35469.250
        89   05 Jun 2027 06:23:52.330   05 Jun 2027 06:23:53.238             0.908            99.906
        90   05 Jun 2027 06:24:34.574   05 Jun 2027 06:24:35.431             0.857            70.687
        91   05 Jun 2027 06:25:10.358   05 Jun 2027 06:25:16.399             6.041           794.156
        92   05 Jun 2027 06:26:05.193   05 Jun 2027 06:26:09.694             4.501          1033.625
        93   05 Jun 2027 06:26:42.778   05 Jun 2027 06:26:44.370             1.592           739.313
        94   05 Jun 2027 06:27:14.331   05 Jun 2027 06:27:15.078             0.747           175.781
        95   05 Jun 2027 06:27:49.990   05 Jun 2027 06:27:52.955             2.965          1044.656
        96   05 Jun 2027 06:28:46.032   05 Jun 2027 06:28:49.633             3.601          1054.375
        97   05 Jun 2027 07:46:37.785   05 Jun 2027 07:46:52.963            15.178          7444.813
        98   05 Jun 2027 07:47:40.176   05 Jun 2027 07:47:40.176             0.000             0.000
        99   05 Jun 2027 07:47:53.845   05 Jun 2027 07:47:57.199             3.354          1249.781
       100   05 Jun 2027 09:20:27.268   05 Jun 2027 09:20:46.795            19.527          7902.688
       101   05 Jun 2027 09:22:33.758   05 Jun 2027 09:22:38.919             5.161          1983.844
       102   05 Jun 2027 09:23:05.975   05 Jun 2027 09:23:13.204             7.229           816.406
       103   05 Jun 2027 09:23:31.169   05 Jun 2027 09:23:34.863             3.694           561.406
       104   05 Jun 2027 09:24:26.951   05 Jun 2027 09:24:31.063             4.112          1490.094
       105   05 Jun 2027 09:25:16.235   05 Jun 2027 09:25:21.466             5.231           245.125
       106   05 Jun 2027 09:25:52.691   05 Jun 2027 09:25:53.643             0.952           341.000
       107   05 Jun 2027 10:55:19.154   05 Jun 2027 10:55:23.861             4.707          2304.500
       108   05 Jun 2027 10:56:26.734   05 Jun 2027 10:56:31.586             4.852          1964.781
       109   05 Jun 2027 10:59:03.110   05 Jun 2027 10:59:07.374             4.264          2098.500
       110   05 Jun 2027 11:02:37.540   05 Jun 2027 11:02:50.900            13.360          6566.844
       111   06 Jun 2027 03:18:33.619   06 Jun 2027 03:19:07.118            33.499         16749.500
       112   06 Jun 2027 03:20:56.935   06 Jun 2027 03:20:59.866             2.931          1465.500
       113   06 Jun 2027 03:22:39.971   06 Jun 2027 03:23:05.685            25.714         12857.000
       114   06 Jun 2027 03:23:59.361   06 Jun 2027 03:26:16.437           137.076         68538.000
       115   06 Jun 2027 04:58:26.378   06 Jun 2027 04:58:27.173             0.795           397.500
       116   06 Jun 2027 04:58:27.670   06 Jun 2027 04:59:32.007            64.337         32168.500
       117   06 Jun 2027 05:01:36.058   06 Jun 2027 05:01:58.874            22.816         11408.000
       118   06 Jun 2027 06:35:07.531   06 Jun 2027 06:36:22.102            74.571         37164.656
       119   06 Jun 2027 06:37:47.527   06 Jun 2027 06:37:53.182             5.655          1047.219
       120   06 Jun 2027 06:38:04.260   06 Jun 2027 06:38:07.754             3.494           346.188
       121   06 Jun 2027 06:38:17.741   06 Jun 2027 06:38:19.596             1.855           158.656
       122   06 Jun 2027 06:38:33.115   06 Jun 2027 06:38:37.805             4.690           266.219
       123   06 Jun 2027 06:39:43.969   06 Jun 2027 06:39:48.714             4.745          1327.719
       124   06 Jun 2027 07:58:34.366   06 Jun 2027 07:58:51.257            16.891          7490.219
       125   06 Jun 2027 07:59:55.393   06 Jun 2027 08:00:00.350             4.957          1481.594
       126   06 Jun 2027 08:00:22.284   06 Jun 2027 08:00:22.902             0.618            75.500
       127   06 Jun 2027 08:00:31.700   06 Jun 2027 08:00:34.140             2.440           231.437
       128   06 Jun 2027 08:00:42.871   06 Jun 2027 08:00:43.718             0.847           270.031
       129   06 Jun 2027 09:34:46.878   06 Jun 2027 09:34:55.544             8.666          3172.344
       130   06 Jun 2027 09:35:56.340   06 Jun 2027 09:35:59.852             3.512          1446.500
       131   06 Jun 2027 09:37:05.097   06 Jun 2027 09:37:05.097             0.000             0.000
       132   06 Jun 2027 09:37:16.128   06 Jun 2027 09:37:22.052             5.924          1490.875
       133   06 Jun 2027 11:08:20.241   06 Jun 2027 11:08:28.669             8.428          4146.125
       134   06 Jun 2027 11:10:53.891   06 Jun 2027 11:10:53.891             0.000             0.000
       135   06 Jun 2027 11:14:26.156   06 Jun 2027 11:14:41.890            15.734          7462.719
       136   06 Jun 2027 11:15:28.935   06 Jun 2027 11:15:31.781             2.846           768.844
       137   06 Jun 2027 11:16:53.842   06 Jun 2027 11:16:54.814             0.972           486.000
       138   07 Jun 2027 03:30:39.788   07 Jun 2027 03:30:51.069            11.281          5640.500
       139   07 Jun 2027 03:32:24.354   07 Jun 2027 03:35:00.596           156.242         78121.000
       140   07 Jun 2027 03:35:23.188   07 Jun 2027 03:35:33.285            10.097          5048.500
       141   07 Jun 2027 03:37:35.736   07 Jun 2027 03:38:12.139            36.403         18201.500
       142   07 Jun 2027 05:10:03.489   07 Jun 2027 05:11:19.207            75.718         37859.000
       143   07 Jun 2027 05:12:32.680   07 Jun 2027 05:13:29.125            56.445         26286.188
       144   07 Jun 2027 05:14:23.301   07 Jun 2027 05:14:26.489             3.188          1348.844
       145   07 Jun 2027 05:14:38.551   07 Jun 2027 05:14:40.495             1.944           256.031
       146   07 Jun 2027 06:46:46.247   07 Jun 2027 06:47:16.748            30.501         13219.937
       147   07 Jun 2027 06:47:46.832   07 Jun 2027 06:47:54.607             7.775           177.000
       148   07 Jun 2027 06:48:39.160   07 Jun 2027 06:48:46.329             7.169           673.219
       149   07 Jun 2027 06:49:19.593   07 Jun 2027 06:49:22.017             2.424           978.188
       150   07 Jun 2027 06:49:43.361   07 Jun 2027 06:49:45.610             2.249           560.625
       151   07 Jun 2027 06:50:50.910   07 Jun 2027 06:50:54.585             3.675          1621.375
       152   07 Jun 2027 08:10:25.414   07 Jun 2027 08:10:37.950            12.536          5945.531
       153   07 Jun 2027 08:11:56.733   07 Jun 2027 08:11:56.733             0.000             0.000
       154   07 Jun 2027 08:12:50.607   07 Jun 2027 08:13:04.568            13.961          3462.438
       155   07 Jun 2027 09:46:52.344   07 Jun 2027 09:47:04.217            11.873          3749.469
       156   07 Jun 2027 09:48:07.066   07 Jun 2027 09:48:10.349             3.283          1050.406
       157   07 Jun 2027 09:48:39.133   07 Jun 2027 09:48:40.349             1.216           217.625
       158   07 Jun 2027 09:49:00.458   07 Jun 2027 09:49:00.458             0.000             0.000
       159   07 Jun 2027 09:49:56.412   07 Jun 2027 09:50:01.729             5.317          2285.937
       160   07 Jun 2027 11:19:00.261   07 Jun 2027 11:19:07.434             7.173          3547.844
       161   07 Jun 2027 11:21:05.476   07 Jun 2027 11:21:13.941             8.465          3330.500
       162   07 Jun 2027 11:26:10.384   07 Jun 2027 11:26:10.384             0.000             0.000
       163   07 Jun 2027 11:27:46.057   07 Jun 2027 11:27:47.717             1.660           830.000
       164   07 Jun 2027 11:27:50.971   07 Jun 2027 11:28:10.303            19.332          8811.188
       165   07 Jun 2027 11:28:21.846   07 Jun 2027 11:28:22.640             0.794           358.063
       166   07 Jun 2027 11:28:49.807   07 Jun 2027 11:28:52.430             2.623           640.781
       167   08 Jun 2027 03:42:42.311   08 Jun 2027 03:43:27.861            45.550         22775.000
       168   08 Jun 2027 03:43:52.428   08 Jun 2027 03:45:54.188           121.760         60880.000
       169   08 Jun 2027 03:47:27.301   08 Jun 2027 03:47:53.186            25.885         12942.500
       170   08 Jun 2027 03:48:31.673   08 Jun 2027 03:48:41.157             9.484          4742.000
       171   08 Jun 2027 05:20:51.519   08 Jun 2027 05:21:50.623            59.104         29552.000
       172   08 Jun 2027 05:22:43.308   08 Jun 2027 05:23:55.250            71.942         35863.813
       173   08 Jun 2027 05:24:11.433   08 Jun 2027 05:24:13.803             2.370           453.688
       174   08 Jun 2027 05:24:51.158   08 Jun 2027 05:24:53.724             2.566           273.281
       175   08 Jun 2027 05:25:24.065   08 Jun 2027 05:25:25.403             1.338           361.469
       176   08 Jun 2027 05:25:55.666   08 Jun 2027 05:25:55.820             0.154            77.000
       177   08 Jun 2027 06:59:59.756   08 Jun 2027 07:00:08.856             9.100          4064.875
       178   08 Jun 2027 07:01:19.156   08 Jun 2027 07:01:21.797             2.641           263.000
       179   08 Jun 2027 07:01:57.009   08 Jun 2027 07:02:00.591             3.582           632.594
       180   08 Jun 2027 07:02:11.568   08 Jun 2027 07:02:12.260             0.692           301.594
       181   08 Jun 2027 07:03:00.922   08 Jun 2027 07:03:06.011             5.089          1368.125
       182   08 Jun 2027 08:22:34.038   08 Jun 2027 08:22:48.308            14.270          6037.188
       183   08 Jun 2027 08:23:57.825   08 Jun 2027 08:24:03.889             6.064          2172.406
       184   08 Jun 2027 08:24:15.025   08 Jun 2027 08:24:17.076             2.051           196.063
       185   08 Jun 2027 08:25:30.703   08 Jun 2027 08:25:30.862             0.159            79.500
       186   08 Jun 2027 09:59:02.486   08 Jun 2027 09:59:14.447            11.961          2801.625
       187   08 Jun 2027 10:00:40.712   08 Jun 2027 10:00:45.330             4.618          2088.437
       188   08 Jun 2027 10:01:01.289   08 Jun 2027 10:01:02.267             0.978           223.937
       189   08 Jun 2027 10:02:02.120   08 Jun 2027 10:02:03.292             1.172           485.500
       190   08 Jun 2027 11:34:25.605   08 Jun 2027 11:34:45.141            19.536          8758.687
       191   08 Jun 2027 11:37:47.480   08 Jun 2027 11:37:47.480             0.000             0.000
       192   08 Jun 2027 11:40:18.579   08 Jun 2027 11:40:44.066            25.487         10419.937
       193   08 Jun 2027 11:40:47.518   08 Jun 2027 11:40:48.927             1.409             7.062
       194   09 Jun 2027 03:54:39.892   09 Jun 2027 03:57:32.313           172.421         86210.500
       195   09 Jun 2027 03:59:15.034   09 Jun 2027 03:59:27.629            12.595          6297.500
       196   09 Jun 2027 04:00:52.907   09 Jun 2027 04:01:03.982            11.075          5537.500
       197   09 Jun 2027 05:32:56.370   09 Jun 2027 05:33:11.424            15.054          7527.000
       198   09 Jun 2027 05:33:58.926   09 Jun 2027 05:36:01.735           122.809         61390.125
       199   09 Jun 2027 05:36:10.325   09 Jun 2027 05:36:11.853             1.528           268.438
       200   09 Jun 2027 05:36:46.810   09 Jun 2027 05:36:47.637             0.827           116.656
       201   09 Jun 2027 05:41:13.046   09 Jun 2027 05:41:26.591            13.545          6400.469
       202   09 Jun 2027 07:11:07.706   09 Jun 2027 07:11:14.780             7.074          3162.469
       203   09 Jun 2027 07:12:15.404   09 Jun 2027 07:12:20.771             5.367           645.625
       204   09 Jun 2027 07:13:03.470   09 Jun 2027 07:13:05.398             1.928           829.219
       205   09 Jun 2027 07:13:31.449   09 Jun 2027 07:13:33.823             2.374           677.312
       206   09 Jun 2027 07:14:17.412   09 Jun 2027 07:14:20.157             2.745           620.063
       207   09 Jun 2027 08:35:16.719   09 Jun 2027 08:35:39.999            23.280         11325.594
       208   09 Jun 2027 08:35:50.411   09 Jun 2027 08:35:52.043             1.632           311.250
       209   09 Jun 2027 08:37:29.365   09 Jun 2027 08:37:38.258             8.893          2357.531
       210   09 Jun 2027 10:11:01.793   09 Jun 2027 10:11:09.280             7.487          3499.656
       211   09 Jun 2027 10:12:45.564   09 Jun 2027 10:12:50.243             4.679          2244.844
       212   09 Jun 2027 10:13:22.741   09 Jun 2027 10:13:34.314            11.573            90.906
       213   09 Jun 2027 11:48:36.616   09 Jun 2027 11:49:04.262            27.646         13287.844
       214   09 Jun 2027 11:51:44.531   09 Jun 2027 11:51:56.820            12.289          4825.031
       215   09 Jun 2027 11:52:08.688   09 Jun 2027 11:52:09.120             0.432            78.062
       216   09 Jun 2027 11:52:22.866   09 Jun 2027 11:52:24.280             1.414           374.656
       217   09 Jun 2027 11:52:37.419   09 Jun 2027 11:52:38.542             1.123           410.594
       218   09 Jun 2027 11:52:43.449   09 Jun 2027 11:52:52.878             9.429            17.719
       219   10 Jun 2027 04:07:14.783   10 Jun 2027 04:09:52.010           157.227         78613.500
       220   10 Jun 2027 04:11:01.642   10 Jun 2027 04:11:14.736            13.094          6547.000
       221   10 Jun 2027 04:11:23.164   10 Jun 2027 04:11:27.618             4.454          2227.000
       222   10 Jun 2027 04:12:27.187   10 Jun 2027 04:12:39.207            12.020          6010.000
       223   10 Jun 2027 05:46:01.942   10 Jun 2027 05:47:49.605           107.663         53831.500
       224   10 Jun 2027 05:48:50.743   10 Jun 2027 05:48:54.699             3.956          1978.000
       225   10 Jun 2027 05:52:39.017   10 Jun 2027 05:53:46.776            67.759         33879.500
       226   10 Jun 2027 07:12:08.124   10 Jun 2027 07:12:23.676            15.552          6995.531
       227   10 Jun 2027 07:23:04.062   10 Jun 2027 07:23:11.261             7.199          2578.406
       228   10 Jun 2027 07:24:38.100   10 Jun 2027 07:24:41.044             2.944           850.438
       229   10 Jun 2027 07:24:51.952   10 Jun 2027 07:24:56.074             4.122           340.875
       230   10 Jun 2027 07:25:23.859   10 Jun 2027 07:25:25.766             1.907           457.813
       231   10 Jun 2027 07:25:53.870   10 Jun 2027 07:25:53.870             0.000             0.000
       232   10 Jun 2027 07:26:11.105   10 Jun 2027 07:26:13.311             2.206           730.094
       233   10 Jun 2027 08:46:23.779   10 Jun 2027 08:46:37.430            13.651          6592.187
       234   10 Jun 2027 08:47:23.172   10 Jun 2027 08:47:24.749             1.577           447.563
       235   10 Jun 2027 08:48:15.273   10 Jun 2027 08:48:18.591             3.318          1009.031
       236   10 Jun 2027 10:22:46.398   10 Jun 2027 10:22:59.335            12.937          5325.094
       237   10 Jun 2027 10:24:33.959   10 Jun 2027 10:24:34.969             1.010           505.000
       238   10 Jun 2027 10:24:38.161   10 Jun 2027 10:24:43.007             4.846          1503.344
       239   10 Jun 2027 10:26:05.754   10 Jun 2027 10:26:12.870             7.116           557.000
       240   11 Jun 2027 04:19:25.228   11 Jun 2027 04:22:11.809           166.581         83290.500
       241   11 Jun 2027 05:58:28.037   11 Jun 2027 06:01:39.852           191.815         95907.500
       242   11 Jun 2027 06:03:51.441   11 Jun 2027 06:04:03.525            12.084          6042.000
       243   11 Jun 2027 06:04:37.643   11 Jun 2027 06:04:43.380             5.737          2180.500
       244   11 Jun 2027 07:23:26.211   11 Jun 2027 07:23:42.343            16.132          7931.875
       245   11 Jun 2027 07:24:50.063   11 Jun 2027 07:24:52.320             2.257          1128.500
       246   11 Jun 2027 07:35:06.488   11 Jun 2027 07:35:11.706             5.218          2062.844
       247   11 Jun 2027 07:35:28.322   11 Jun 2027 07:35:28.938             0.616            83.469
       248   11 Jun 2027 07:36:08.366   11 Jun 2027 07:36:12.284             3.918           626.250
       249   11 Jun 2027 08:57:22.012   11 Jun 2027 08:57:53.051            31.039         13575.562
       250   11 Jun 2027 08:59:58.883   11 Jun 2027 09:00:09.432            10.549          3601.063
       251   11 Jun 2027 09:01:28.727   11 Jun 2027 09:01:34.190             5.463          2174.219
       252   11 Jun 2027 10:32:34.099   11 Jun 2027 10:32:42.910             8.811          3846.125
       253   11 Jun 2027 10:33:23.840   11 Jun 2027 10:33:25.394             1.554           519.281
       254   11 Jun 2027 10:35:07.754   11 Jun 2027 10:35:15.681             7.927          3198.750
       255   11 Jun 2027 10:36:17.905   11 Jun 2027 10:36:23.713             5.808          1459.031
       256   11 Jun 2027 10:38:12.210   11 Jun 2027 10:38:17.248             5.038          2519.000
       257   11 Jun 2027 10:38:35.958   11 Jun 2027 10:38:37.188             1.230           615.000
       258   11 Jun 2027 10:39:00.964   11 Jun 2027 10:39:03.748             2.784          1248.469
       259   12 Jun 2027 03:00:00.000   12 Jun 2027 03:00:17.235            17.235          8617.500
       260   12 Jun 2027 03:01:00.773   12 Jun 2027 03:01:11.217            10.444          5222.000
       261   12 Jun 2027 04:31:42.816   12 Jun 2027 04:32:18.803            35.987         17993.500
       262   12 Jun 2027 04:32:27.930   12 Jun 2027 04:34:32.169           124.239         62119.500
       263   12 Jun 2027 06:10:43.132   12 Jun 2027 06:13:47.373           184.241         89928.719
       264   12 Jun 2027 06:14:19.490   12 Jun 2027 06:14:21.895             2.405           855.094
       265   12 Jun 2027 06:15:33.048   12 Jun 2027 06:15:41.911             8.863          1631.250
       266   12 Jun 2027 06:16:03.382   12 Jun 2027 06:16:06.809             3.427           670.969
       267   12 Jun 2027 07:34:48.233   12 Jun 2027 07:35:17.506            29.273          7743.469
       268   12 Jun 2027 07:35:53.390   12 Jun 2027 07:35:56.705             3.315           947.500
       269   12 Jun 2027 07:36:09.990   12 Jun 2027 07:36:11.197             1.207           167.531
       270   12 Jun 2027 07:36:33.719   12 Jun 2027 07:36:36.226             2.507           249.750
       271   12 Jun 2027 07:36:59.113   12 Jun 2027 07:36:59.708             0.595            59.313
       272   12 Jun 2027 07:47:03.664   12 Jun 2027 07:47:09.447             5.783          1249.938
       273   12 Jun 2027 09:09:04.281   12 Jun 2027 09:09:38.384            34.103         14194.906
       274   12 Jun 2027 09:11:09.702   12 Jun 2027 09:11:14.039             4.337          1664.594
       275   12 Jun 2027 09:11:53.516   12 Jun 2027 09:11:57.009             3.493           194.438
       276   12 Jun 2027 09:14:12.152   12 Jun 2027 09:14:21.829             9.677          3328.094
       277   12 Jun 2027 10:44:01.255   12 Jun 2027 10:44:06.739             5.484          2647.563
       278   12 Jun 2027 10:45:48.843   12 Jun 2027 10:45:53.048             4.205          1624.844
       279   12 Jun 2027 10:49:44.973   12 Jun 2027 10:50:01.804            16.831          7098.156
       280   12 Jun 2027 10:52:35.201   12 Jun 2027 10:52:41.787             6.586          3247.625
       281   13 Jun 2027 03:06:51.519   13 Jun 2027 03:07:02.174            10.655          5327.500
       282   13 Jun 2027 03:07:13.021   13 Jun 2027 03:07:16.535             3.514          1757.000
       283   13 Jun 2027 03:07:20.072   13 Jun 2027 03:07:29.681             9.609          4804.500
       284   13 Jun 2027 03:09:44.544   13 Jun 2027 03:10:40.687            56.143         28071.500
       285   13 Jun 2027 03:10:47.042   13 Jun 2027 03:11:04.499            17.457          8728.500
       286   13 Jun 2027 03:11:54.534   13 Jun 2027 03:12:25.184            30.650         15325.000
       287   13 Jun 2027 03:13:40.521   13 Jun 2027 03:13:52.282            11.761          5880.500
       288   13 Jun 2027 03:14:34.580   13 Jun 2027 03:14:40.779             6.199          3099.500
       289   13 Jun 2027 04:44:28.814   13 Jun 2027 04:44:53.367            24.553         12276.500
       290   13 Jun 2027 04:44:56.100   13 Jun 2027 04:45:48.924            52.824         26412.000
       291   13 Jun 2027 04:46:54.647   13 Jun 2027 04:47:06.866            12.219          6109.500
       292   13 Jun 2027 04:47:23.518   13 Jun 2027 04:47:38.078            14.560          7280.000
       293   13 Jun 2027 06:22:51.412   13 Jun 2027 06:24:34.635           103.223         51021.844
       294   13 Jun 2027 06:24:49.295   13 Jun 2027 06:24:51.337             2.042            46.594
       295   13 Jun 2027 06:25:09.101   13 Jun 2027 06:25:09.980             0.879           296.531
       296   13 Jun 2027 06:26:02.374   13 Jun 2027 06:26:04.829             2.455          1165.656
       297   13 Jun 2027 06:26:55.916   13 Jun 2027 06:26:58.351             2.435          1217.500
       298   13 Jun 2027 06:27:29.210   13 Jun 2027 06:27:31.871             2.661           996.469
       299   13 Jun 2027 06:28:07.699   13 Jun 2027 06:28:10.453             2.754          1119.625
       300   13 Jun 2027 07:46:55.737   13 Jun 2027 07:47:07.190            11.453          4891.344
       301   13 Jun 2027 07:48:11.667   13 Jun 2027 07:48:14.358             2.691          1307.656
       302   13 Jun 2027 07:48:41.141   13 Jun 2027 07:48:43.840             2.699           796.219
       303   13 Jun 2027 09:20:43.422   13 Jun 2027 09:20:59.321            15.899          7390.188
       304   13 Jun 2027 09:22:49.483   13 Jun 2027 09:22:54.127             4.644          1940.875
       305   13 Jun 2027 09:23:26.696   13 Jun 2027 09:23:31.160             4.464           832.094
       306   13 Jun 2027 09:23:48.988   13 Jun 2027 09:23:56.766             7.778           541.750
       307   13 Jun 2027 09:24:42.285   13 Jun 2027 09:24:45.608             3.323          1422.469
       308   13 Jun 2027 09:25:38.189   13 Jun 2027 09:25:42.320             4.131           410.375
       309   13 Jun 2027 09:26:10.550   13 Jun 2027 09:26:11.488             0.938           431.188
       310   13 Jun 2027 10:55:35.235   13 Jun 2027 10:55:40.310             5.075          2179.125
       311   13 Jun 2027 10:56:42.607   13 Jun 2027 10:56:42.607             0.000             0.000
       312   13 Jun 2027 10:58:16.236   13 Jun 2027 10:58:29.332            13.096          4831.969
       313   13 Jun 2027 11:01:27.889   13 Jun 2027 11:01:39.121            11.232          5579.906
       314   13 Jun 2027 11:02:50.002   13 Jun 2027 11:02:53.635             3.633            71.875
       315   13 Jun 2027 11:03:14.018   13 Jun 2027 11:03:14.018             0.000             0.000
       316   13 Jun 2027 11:03:30.844   13 Jun 2027 11:03:36.999             6.155          1147.156
       317   13 Jun 2027 11:04:41.126   13 Jun 2027 11:04:46.268             5.142           956.844
