uniorb/output/strategy_4/Camera/Camera_KinoSat_110307.txt

KinoSat_110307
-------------------------
    Access    *     Start Time (UTCG)     *     Stop Time (UTCG)  *   Duration (s) *   Data (Mbytes)
         1   01 Jun 2027 03:37:49.638   01 Jun 2027 03:39:21.527            91.889         45944.500
         2   01 Jun 2027 03:41:13.471   01 Jun 2027 03:41:28.664            15.193          7596.500
         3   01 Jun 2027 03:42:08.333   01 Jun 2027 03:42:16.178             7.845          3922.500
         4   01 Jun 2027 03:43:17.507   01 Jun 2027 03:44:04.111            46.604         23302.000
         5   01 Jun 2027 03:44:08.954   01 Jun 2027 03:44:31.693            22.739         11369.500
         6   01 Jun 2027 05:13:45.442   01 Jun 2027 05:16:18.481           153.039         76519.500
         7   01 Jun 2027 05:16:35.288   01 Jun 2027 05:17:11.727            36.439         18219.500
         8   01 Jun 2027 05:18:39.007   01 Jun 2027 05:18:52.484            13.477          6738.500
         9   01 Jun 2027 06:51:43.828   01 Jun 2027 06:54:05.934           142.106         71053.000
        10   01 Jun 2027 06:55:21.199   01 Jun 2027 06:56:08.648            47.449         23724.500
        11   01 Jun 2027 08:27:35.412   01 Jun 2027 08:29:57.779           142.367         71183.500
        12   01 Jun 2027 08:30:23.261   01 Jun 2027 08:30:26.266             3.005          1502.500
        13   01 Jun 2027 08:30:35.316   01 Jun 2027 08:30:48.656            13.340          6670.000
        14   01 Jun 2027 08:31:57.257   01 Jun 2027 08:32:09.899            12.642          6321.000
        15   02 Jun 2027 03:49:05.226   02 Jun 2027 03:56:38.273           453.047        226523.500
        16   02 Jun 2027 05:25:55.004   02 Jun 2027 05:29:53.227           238.223        119111.500
        17   02 Jun 2027 05:30:19.290   02 Jun 2027 05:31:14.094            54.804         27402.000
        18   02 Jun 2027 07:04:30.717   02 Jun 2027 07:08:03.179           212.462        106231.000
        19   02 Jun 2027 08:37:24.248   02 Jun 2027 08:43:47.347           383.099        191549.500
        20   02 Jun 2027 08:44:50.545   02 Jun 2027 08:45:09.797            19.252          9626.000
        21   03 Jun 2027 04:01:12.995   03 Jun 2027 04:08:37.864           444.869        222434.500
        22   03 Jun 2027 05:38:10.989   03 Jun 2027 05:44:05.222           354.233        177116.500
        23   03 Jun 2027 07:16:29.382   03 Jun 2027 07:20:05.801           216.419        108209.500
        24   03 Jun 2027 08:49:27.290   03 Jun 2027 08:56:50.755           443.465        221732.500
        25   04 Jun 2027 04:13:14.870   04 Jun 2027 04:20:41.114           446.244        223122.000
        26   04 Jun 2027 05:50:01.083   04 Jun 2027 05:55:58.192           357.109        178554.500
        27   04 Jun 2027 05:56:27.644   04 Jun 2027 05:56:43.716            16.072          8036.000
        28   04 Jun 2027 07:28:23.488   04 Jun 2027 07:32:14.665           231.177        115588.500
        29   04 Jun 2027 09:02:07.856   04 Jun 2027 09:08:40.416           392.560        196280.000
        30   05 Jun 2027 04:25:15.645   05 Jun 2027 04:32:42.021           446.376        223188.000
        31   05 Jun 2027 06:02:10.264   05 Jun 2027 06:07:16.689           306.425        153212.500
        32   05 Jun 2027 06:07:47.527   05 Jun 2027 06:08:36.129            48.602         24301.000
        33   05 Jun 2027 07:39:18.889   05 Jun 2027 07:44:12.942           294.053        147026.500
        34   05 Jun 2027 09:14:25.709   05 Jun 2027 09:15:17.215            51.506         25753.000
        35   05 Jun 2027 09:16:00.801   05 Jun 2027 09:19:22.374           201.573        100786.500
        36   06 Jun 2027 03:00:10.421   06 Jun 2027 03:07:42.247           451.826        225913.000
        37   06 Jun 2027 03:07:42.521   06 Jun 2027 03:08:43.927            61.406         30703.000
        38   06 Jun 2027 04:37:41.923   06 Jun 2027 04:44:27.837           405.914        202957.000
        39   06 Jun 2027 06:14:38.041   06 Jun 2027 06:19:07.464           269.423        134711.500
        40   06 Jun 2027 06:19:46.228   06 Jun 2027 06:20:29.056            42.828         21414.000
        41   06 Jun 2027 07:51:31.912   06 Jun 2027 07:56:07.087           275.175        137587.500
        42   06 Jun 2027 09:28:42.011   06 Jun 2027 09:31:09.127           147.116         73558.000
        43   07 Jun 2027 03:10:50.522   07 Jun 2027 03:11:01.423            10.901          5450.500
        44   07 Jun 2027 03:12:49.081   07 Jun 2027 03:19:37.200           408.119        204059.500
        45   07 Jun 2027 03:19:40.195   07 Jun 2027 03:20:38.230            58.035         29017.500
        46   07 Jun 2027 04:49:47.857   07 Jun 2027 04:56:32.403           404.546        202273.000
        47   07 Jun 2027 06:27:52.912   07 Jun 2027 06:31:13.459           200.547        100273.500
        48   07 Jun 2027 06:31:30.123   07 Jun 2027 06:31:54.850            24.727         12363.500
        49   07 Jun 2027 08:04:19.604   07 Jun 2027 08:08:25.456           245.852        122926.000
        50   07 Jun 2027 09:42:06.390   07 Jun 2027 09:42:23.459            17.069          8534.500
        51   08 Jun 2027 03:26:03.169   08 Jun 2027 03:32:40.397           397.228        198614.000
        52   08 Jun 2027 05:02:21.777   08 Jun 2027 05:08:38.341           376.564        188282.000
        53   08 Jun 2027 06:39:44.656   08 Jun 2027 06:44:17.434           272.778        136389.000
        54   08 Jun 2027 08:16:20.715   08 Jun 2027 08:20:31.220           250.505        125252.500
        55   09 Jun 2027 03:38:04.114   09 Jun 2027 03:44:46.521           402.407        201203.500
        56   09 Jun 2027 05:14:00.299   09 Jun 2027 05:20:20.254           379.955        189977.500
        57   09 Jun 2027 06:52:45.673   09 Jun 2027 06:56:23.288           217.615        108807.500
        58   09 Jun 2027 08:27:55.832   09 Jun 2027 08:32:03.741           247.909        123954.500
        59   09 Jun 2027 08:32:14.100   09 Jun 2027 08:33:02.145            48.045         24022.500
        60   10 Jun 2027 03:49:20.001   10 Jun 2027 03:56:52.976           452.975        226487.500
        61   10 Jun 2027 05:26:09.619   10 Jun 2027 05:32:28.993           379.374        189687.000
        62   10 Jun 2027 07:04:20.814   10 Jun 2027 07:08:17.890           237.076        118538.000
        63   10 Jun 2027 08:37:38.690   10 Jun 2027 08:44:02.368           383.678        191839.000
        64   10 Jun 2027 08:45:05.057   10 Jun 2027 08:45:05.095             0.038            19.000
        65   11 Jun 2027 04:01:27.592   11 Jun 2027 04:08:52.842           445.250        222625.000
        66   11 Jun 2027 05:38:25.544   11 Jun 2027 05:44:20.186           354.642        177321.000
        67   11 Jun 2027 07:16:43.998   11 Jun 2027 07:20:20.513           216.515        108257.500
        68   11 Jun 2027 08:49:42.372   11 Jun 2027 08:57:05.396           443.024        221512.000
        69   12 Jun 2027 04:13:29.487   12 Jun 2027 04:20:55.796           446.309        223154.500
        70   12 Jun 2027 05:50:15.739   12 Jun 2027 05:56:12.760           357.021        178510.500
        71   12 Jun 2027 05:56:51.973   12 Jun 2027 05:56:58.700             6.727          3363.500
        72   12 Jun 2027 07:28:23.255   12 Jun 2027 07:32:29.306           246.051        123025.500
        73   12 Jun 2027 09:02:22.589   12 Jun 2027 09:08:54.942           392.353        196176.500
        74   13 Jun 2027 04:25:30.428   13 Jun 2027 04:32:56.897           446.469        223234.500
        75   13 Jun 2027 06:02:25.224   13 Jun 2027 06:07:31.299           306.075        153037.500
        76   13 Jun 2027 06:08:03.161   13 Jun 2027 06:08:50.610            47.449         23724.500
        77   13 Jun 2027 07:39:35.159   13 Jun 2027 07:44:27.586           292.427        146213.500
        78   13 Jun 2027 09:14:40.379   13 Jun 2027 09:15:31.510            51.131         25565.500
        79   13 Jun 2027 09:16:15.490   13 Jun 2027 09:19:36.925           201.435        100717.500
