uniorb/output/strategy_4/Camera/Camera_KinoSat_111107.txt

KinoSat_111107
-------------------------
    Access    *     Start Time (UTCG)     *     Stop Time (UTCG)  *   Duration (s) *   Data (Mbytes)
         1   01 Jun 2027 03:16:31.469   01 Jun 2027 03:17:02.638            31.169         15584.500
         2   01 Jun 2027 03:17:37.927   01 Jun 2027 03:19:04.748            86.821         43410.500
         3   01 Jun 2027 03:19:50.757   01 Jun 2027 03:19:50.757             0.000             0.000
         4   01 Jun 2027 04:39:53.125   01 Jun 2027 04:40:40.623            47.498         23749.000
         5   01 Jun 2027 04:40:52.644   01 Jun 2027 04:41:05.519            12.875          6437.500
         6   01 Jun 2027 06:16:25.909   01 Jun 2027 06:18:19.058           113.149         56574.500
         7   01 Jun 2027 06:19:07.149   01 Jun 2027 06:19:20.342            13.193          6596.500
         8   01 Jun 2027 07:51:36.379   01 Jun 2027 07:53:45.997           129.618         64809.000
         9   01 Jun 2027 07:55:05.014   01 Jun 2027 07:55:05.014             0.000             0.000
        10   01 Jun 2027 07:56:42.725   01 Jun 2027 07:56:47.576             4.851          2425.500
        11   01 Jun 2027 07:57:29.743   01 Jun 2027 07:57:34.354             4.611          2305.500
        12   01 Jun 2027 07:57:38.438   01 Jun 2027 07:57:50.428            11.990          5995.000
        13   01 Jun 2027 09:27:58.174   01 Jun 2027 09:30:29.695           151.521         75760.500
        14   01 Jun 2027 09:31:08.956   01 Jun 2027 09:31:50.475            41.519         20759.500
        15   01 Jun 2027 09:32:41.632   01 Jun 2027 09:32:45.727             4.095          2047.500
        16   01 Jun 2027 09:33:30.008   01 Jun 2027 09:33:34.295             4.287          2143.500
        17   01 Jun 2027 11:05:16.158   01 Jun 2027 11:07:45.814           149.656         74828.000
        18   01 Jun 2027 11:08:21.973   01 Jun 2027 11:08:26.240             4.267          2133.500
        19   01 Jun 2027 11:09:03.130   01 Jun 2027 11:09:27.529            24.399         12199.500
        20   02 Jun 2027 03:28:28.161   02 Jun 2027 03:29:07.142            38.981         19490.500
        21   02 Jun 2027 03:29:29.590   02 Jun 2027 03:31:13.005           103.415         51707.500
        22   02 Jun 2027 03:31:30.550   02 Jun 2027 03:31:44.055            13.505          6752.500
        23   02 Jun 2027 04:52:22.705   02 Jun 2027 04:52:47.502            24.797         12398.500
        24   02 Jun 2027 04:53:45.871   02 Jun 2027 04:53:45.871             0.000             0.000
        25   02 Jun 2027 04:53:53.814   02 Jun 2027 04:54:11.401            17.587          8793.500
        26   02 Jun 2027 04:54:40.362   02 Jun 2027 04:54:47.218             6.856          3428.000
        27   02 Jun 2027 06:28:17.569   02 Jun 2027 06:31:24.538           186.969         93484.500
        28   02 Jun 2027 06:32:21.287   02 Jun 2027 06:32:22.053             0.766           383.000
        29   02 Jun 2027 08:03:11.845   02 Jun 2027 08:06:22.885           191.040         95520.000
        30   02 Jun 2027 08:07:07.253   02 Jun 2027 08:07:07.253             0.000             0.000
        31   02 Jun 2027 08:07:35.124   02 Jun 2027 08:08:42.233            67.109         33554.500
        32   02 Jun 2027 08:09:51.089   02 Jun 2027 08:10:21.138            30.049         15024.500
        33   02 Jun 2027 09:39:33.566   02 Jun 2027 09:40:01.206            27.640         13235.500
        34   02 Jun 2027 09:41:43.105   02 Jun 2027 09:41:44.895             1.790           199.250
        35   02 Jun 2027 09:42:31.941   02 Jun 2027 09:42:33.069             1.128           183.594
        36   02 Jun 2027 09:42:55.328   02 Jun 2027 09:43:02.381             7.053           607.187
        37   02 Jun 2027 09:43:55.123   02 Jun 2027 09:44:04.095             8.972          1648.188
        38   02 Jun 2027 09:44:29.510   02 Jun 2027 09:44:31.906             2.396           744.375
        39   02 Jun 2027 09:45:02.711   02 Jun 2027 09:45:04.386             1.675           583.531
        40   02 Jun 2027 11:17:50.478   02 Jun 2027 11:18:03.844            13.366          4813.813
        41   02 Jun 2027 11:20:05.325   02 Jun 2027 11:20:06.289             0.964           222.406
        42   02 Jun 2027 11:21:03.460   02 Jun 2027 11:21:09.413             5.953          1761.375
        43   02 Jun 2027 11:21:28.848   02 Jun 2027 11:21:35.809             6.961           607.344
        44   02 Jun 2027 11:21:37.572   02 Jun 2027 11:21:38.472             0.900            55.094
        45   02 Jun 2027 11:21:42.159   02 Jun 2027 11:21:42.352             0.193            96.500
        46   03 Jun 2027 03:29:08.387   03 Jun 2027 03:29:26.161            17.774          8887.000
        47   03 Jun 2027 03:40:24.246   03 Jun 2027 03:42:04.989           100.743         50371.500
        48   03 Jun 2027 03:43:01.855   03 Jun 2027 03:43:31.772            29.917         14958.500
        49   03 Jun 2027 05:03:00.206   03 Jun 2027 05:04:08.119            67.913         33956.500
        50   03 Jun 2027 05:04:49.160   03 Jun 2027 05:04:58.468             9.308          4654.000
        51   03 Jun 2027 05:06:49.971   03 Jun 2027 05:07:10.748            20.777         10388.500
        52   03 Jun 2027 06:38:34.879   03 Jun 2027 06:39:18.206            43.327         21663.500
        53   03 Jun 2027 06:40:01.344   03 Jun 2027 06:40:33.173            31.829         15486.312
        54   03 Jun 2027 06:40:55.105   03 Jun 2027 06:40:55.105             0.000             0.000
        55   03 Jun 2027 06:41:05.659   03 Jun 2027 06:41:10.283             4.624           470.563
        56   03 Jun 2027 06:41:55.098   03 Jun 2027 06:42:01.240             6.142          1367.437
        57   03 Jun 2027 06:43:05.238   03 Jun 2027 06:43:08.967             3.729          1694.812
        58   03 Jun 2027 06:43:46.409   03 Jun 2027 06:43:50.118             3.709           485.781
        59   03 Jun 2027 08:14:47.323   03 Jun 2027 08:14:56.727             9.404          1657.844
        60   03 Jun 2027 08:15:49.492   03 Jun 2027 08:16:02.310            12.818           926.687
        61   03 Jun 2027 08:17:01.150   03 Jun 2027 08:17:01.854             0.704           336.062
        62   03 Jun 2027 08:17:48.957   03 Jun 2027 08:17:51.904             2.947          1422.781
        63   03 Jun 2027 08:18:08.377   03 Jun 2027 08:18:10.829             2.452           514.781
        64   03 Jun 2027 08:19:09.226   03 Jun 2027 08:19:16.256             7.030          1657.656
        65   03 Jun 2027 08:19:40.753   03 Jun 2027 08:19:47.644             6.891           466.969
        66   03 Jun 2027 08:21:02.376   03 Jun 2027 08:21:06.690             4.314           666.750
        67   03 Jun 2027 08:21:16.197   03 Jun 2027 08:21:18.130             1.933           226.563
        68   03 Jun 2027 09:51:53.702   03 Jun 2027 09:52:05.248            11.546          5523.688
        69   03 Jun 2027 09:54:31.303   03 Jun 2027 09:54:32.179             0.876           163.812
        70   03 Jun 2027 09:55:01.333   03 Jun 2027 09:55:01.768             0.435           174.469
        71   03 Jun 2027 09:55:59.285   03 Jun 2027 09:56:06.039             6.754          1239.969
        72   03 Jun 2027 09:56:33.237   03 Jun 2027 09:56:34.572             1.335           272.312
        73   03 Jun 2027 09:56:45.076   03 Jun 2027 09:56:45.860             0.784           265.094
        74   03 Jun 2027 09:57:53.426   03 Jun 2027 09:57:57.402             3.976          1591.781
        75   03 Jun 2027 09:58:15.407   03 Jun 2027 09:58:15.907             0.500            94.594
        76   03 Jun 2027 11:29:51.742   03 Jun 2027 11:30:04.958            13.216          6542.938
        77   03 Jun 2027 11:30:46.068   03 Jun 2027 11:30:51.571             5.503           921.000
        78   03 Jun 2027 11:32:10.949   03 Jun 2027 11:32:13.322             2.373           411.781
        79   03 Jun 2027 11:33:21.403   03 Jun 2027 11:33:22.908             1.505           138.969
        80   03 Jun 2027 11:33:46.368   03 Jun 2027 11:33:47.909             1.541           733.125
        81   04 Jun 2027 03:41:27.551   04 Jun 2027 03:41:52.366            24.815         12407.500
        82   04 Jun 2027 03:52:26.787   04 Jun 2027 03:53:33.798            67.011         33505.500
        83   04 Jun 2027 05:14:42.159   04 Jun 2027 05:15:48.887            66.728         33364.000
        84   04 Jun 2027 05:16:39.427   04 Jun 2027 05:17:49.166            69.739         34869.500
        85   04 Jun 2027 05:18:52.606   04 Jun 2027 05:18:55.140             2.534          1267.000
        86   04 Jun 2027 05:19:13.159   04 Jun 2027 05:19:32.955            19.796          9898.000
        87   04 Jun 2027 06:49:41.681   04 Jun 2027 06:50:48.998            67.317         33527.125
        88   04 Jun 2027 06:51:12.052   04 Jun 2027 06:51:13.342             1.290           559.625
        89   04 Jun 2027 06:51:45.330   04 Jun 2027 06:51:47.606             2.276           828.844
        90   04 Jun 2027 06:52:48.130   04 Jun 2027 06:52:54.363             6.233          1851.438
        91   04 Jun 2027 06:52:58.200   04 Jun 2027 06:52:59.346             1.146            79.219
        92   04 Jun 2027 06:53:27.508   04 Jun 2027 06:53:33.538             6.030           602.781
        93   04 Jun 2027 06:54:48.101   04 Jun 2027 06:54:49.991             1.890           945.000
        94   04 Jun 2027 06:55:08.400   04 Jun 2027 06:55:14.138             5.738          1960.375
        95   04 Jun 2027 06:55:33.500   04 Jun 2027 06:55:39.320             5.820           423.313
        96   04 Jun 2027 06:56:02.235   04 Jun 2027 06:56:05.546             3.311            30.000
        97   04 Jun 2027 06:56:14.948   04 Jun 2027 06:56:18.904             3.956           184.656
        98   04 Jun 2027 06:56:40.643   04 Jun 2027 06:56:43.984             3.341           473.375
        99   04 Jun 2027 06:56:57.779   04 Jun 2027 06:56:58.285             0.506           111.687
       100   04 Jun 2027 08:27:07.311   04 Jun 2027 08:27:11.719             4.408          1706.594
       101   04 Jun 2027 08:29:01.625   04 Jun 2027 08:29:06.628             5.003          2185.125
       102   04 Jun 2027 08:30:00.843   04 Jun 2027 08:30:04.394             3.551          1694.219
       103   04 Jun 2027 08:30:25.710   04 Jun 2027 08:30:27.003             1.293           520.094
       104   04 Jun 2027 08:31:10.882   04 Jun 2027 08:31:17.783             6.901          1085.906
       105   04 Jun 2027 08:31:39.355   04 Jun 2027 08:31:41.720             2.365           487.000
       106   04 Jun 2027 08:32:45.417   04 Jun 2027 08:32:48.452             3.035          1230.375
       107   04 Jun 2027 08:33:13.617   04 Jun 2027 08:33:15.364             1.747           264.188
       108   04 Jun 2027 10:03:54.471   04 Jun 2027 10:04:04.683            10.212          4621.813
       109   04 Jun 2027 10:05:21.632   04 Jun 2027 10:05:24.376             2.744           376.656
       110   04 Jun 2027 10:07:17.940   04 Jun 2027 10:07:23.787             5.847          1354.156
       111   04 Jun 2027 10:07:33.107   04 Jun 2027 10:07:36.943             3.836           277.313
       112   04 Jun 2027 10:07:50.677   04 Jun 2027 10:07:52.275             1.598           349.531
       113   04 Jun 2027 10:08:08.186   04 Jun 2027 10:08:10.321             2.135           497.219
       114   04 Jun 2027 10:08:13.384   04 Jun 2027 10:08:14.942             1.558            95.719
       115   04 Jun 2027 10:08:26.157   04 Jun 2027 10:08:28.447             2.290           336.219
       116   04 Jun 2027 10:09:05.511   04 Jun 2027 10:09:08.348             2.837           916.313
       117   04 Jun 2027 10:10:10.801   04 Jun 2027 10:10:15.196             4.395          1799.531
       118   04 Jun 2027 11:41:52.207   04 Jun 2027 11:42:07.286            15.079          6991.219
       119   04 Jun 2027 11:42:52.379   04 Jun 2027 11:42:53.306             0.927           183.469
       120   04 Jun 2027 11:43:42.676   04 Jun 2027 11:43:45.411             2.735          1146.781
       121   04 Jun 2027 11:44:16.046   04 Jun 2027 11:44:17.411             1.365           611.625
       122   04 Jun 2027 11:45:11.790   04 Jun 2027 11:45:18.192             6.402           853.000
       123   04 Jun 2027 11:45:43.323   04 Jun 2027 11:45:46.118             2.795           531.938
       124   04 Jun 2027 11:45:56.153   04 Jun 2027 11:45:58.870             2.717           313.594
       125   05 Jun 2027 03:52:15.447   05 Jun 2027 03:52:30.312            14.865          7432.500
       126   05 Jun 2027 03:53:20.111   05 Jun 2027 03:53:28.845             8.734          4367.000
       127   05 Jun 2027 04:04:28.094   05 Jun 2027 04:04:59.712            31.618         15809.000
       128   05 Jun 2027 05:26:22.198   05 Jun 2027 05:27:35.515            73.317         36658.500
       129   05 Jun 2027 05:28:25.146   05 Jun 2027 05:29:33.917            68.771         34385.500
       130   05 Jun 2027 05:30:30.982   05 Jun 2027 05:30:53.060            22.078         11039.000
       131   05 Jun 2027 07:01:10.458   05 Jun 2027 07:03:04.757           114.299         54810.594
       132   05 Jun 2027 07:03:16.262   05 Jun 2027 07:03:17.027             0.765           342.187
       133   05 Jun 2027 07:03:53.485   05 Jun 2027 07:03:55.752             2.267          1055.563
       134   05 Jun 2027 07:04:39.780   05 Jun 2027 07:04:42.054             2.274            51.906
       135   05 Jun 2027 07:04:44.595   05 Jun 2027 07:04:46.284             1.689            79.406
       136   05 Jun 2027 07:05:10.583   05 Jun 2027 07:05:10.583             0.000             0.000
       137   05 Jun 2027 07:05:36.071   05 Jun 2027 07:05:38.692             2.621          1082.062
       138   05 Jun 2027 07:06:42.510   05 Jun 2027 07:06:45.057             2.547           999.969
       139   05 Jun 2027 07:07:11.472   05 Jun 2027 07:07:14.447             2.975           671.594
       140   05 Jun 2027 07:07:43.956   05 Jun 2027 07:07:43.956             0.000             0.000
       141   05 Jun 2027 07:08:39.253   05 Jun 2027 07:08:43.695             4.442          2009.000
       142   05 Jun 2027 07:09:01.140   05 Jun 2027 07:09:02.972             1.832           162.969
       143   05 Jun 2027 07:10:03.774   05 Jun 2027 07:10:09.661             5.887          1815.125
       144   05 Jun 2027 08:39:01.365   05 Jun 2027 08:39:06.194             4.829          1975.281
       145   05 Jun 2027 08:41:00.736   05 Jun 2027 08:41:04.764             4.028          2008.750
       146   05 Jun 2027 08:41:55.717   05 Jun 2027 08:41:58.456             2.739          1369.500
       147   05 Jun 2027 08:42:59.674   05 Jun 2027 08:43:05.250             5.576          1981.375
       148   05 Jun 2027 08:43:12.171   05 Jun 2027 08:43:12.909             0.738           108.906
       149   05 Jun 2027 08:43:17.620   05 Jun 2027 08:43:23.395             5.775           147.219
       150   05 Jun 2027 08:44:35.970   05 Jun 2027 08:44:41.477             5.507          1118.125
       151   05 Jun 2027 08:45:38.103   05 Jun 2027 08:45:43.907             5.804          1669.000
       152   05 Jun 2027 08:46:17.836   05 Jun 2027 08:46:20.131             2.295           380.844
       153   05 Jun 2027 10:15:46.037   05 Jun 2027 10:15:59.861            13.824          5533.250
       154   05 Jun 2027 10:16:17.600   05 Jun 2027 10:16:23.294             5.694            52.812
       155   05 Jun 2027 10:17:20.331   05 Jun 2027 10:17:24.860             4.529           911.063
       156   05 Jun 2027 10:18:42.066   05 Jun 2027 10:18:49.148             7.082           409.500
       157   05 Jun 2027 10:19:19.150   05 Jun 2027 10:19:19.354             0.204            35.812
       158   05 Jun 2027 10:19:58.124   05 Jun 2027 10:19:58.282             0.158            38.719
       159   05 Jun 2027 10:20:17.126   05 Jun 2027 10:20:18.178             1.052           342.656
       160   05 Jun 2027 10:20:37.703   05 Jun 2027 10:20:38.345             0.642           201.281
       161   05 Jun 2027 10:21:19.999   05 Jun 2027 10:21:23.611             3.612          1301.688
       162   05 Jun 2027 10:22:10.432   05 Jun 2027 10:22:12.045             1.613           357.219
       163   05 Jun 2027 11:53:54.844   05 Jun 2027 11:54:10.031            15.187          4783.344
       164   05 Jun 2027 11:55:44.802   05 Jun 2027 11:55:50.166             5.364          2142.406
       165   05 Jun 2027 11:56:03.875   05 Jun 2027 11:56:05.949             2.074           121.719
       166   05 Jun 2027 11:56:38.794   05 Jun 2027 11:56:43.655             4.861           567.656
       167   05 Jun 2027 11:57:05.219   05 Jun 2027 11:57:11.227             6.008           118.906
       168   05 Jun 2027 11:57:29.504   05 Jun 2027 11:57:31.282             1.778           571.156
       169   05 Jun 2027 11:57:48.248   05 Jun 2027 11:57:50.792             2.544           193.813
       170   06 Jun 2027 04:04:13.114   06 Jun 2027 04:04:47.641            34.527         17263.500
       171   06 Jun 2027 04:05:28.403   06 Jun 2027 04:05:28.403             0.000             0.000
       172   06 Jun 2027 04:06:10.720   06 Jun 2027 04:06:10.720             0.000             0.000
       173   06 Jun 2027 05:40:10.635   06 Jun 2027 05:42:57.426           166.791         83395.500
       174   06 Jun 2027 07:13:58.982   06 Jun 2027 07:16:06.874           127.892         61784.687
       175   06 Jun 2027 07:16:30.559   06 Jun 2027 07:16:33.935             3.376           737.781
       176   06 Jun 2027 07:16:39.738   06 Jun 2027 07:16:39.738             0.000             0.000
       177   06 Jun 2027 07:17:04.790   06 Jun 2027 07:17:07.172             2.382           866.969
       178   06 Jun 2027 07:17:38.837   06 Jun 2027 07:17:42.976             4.139           816.344
       179   06 Jun 2027 07:18:49.375   06 Jun 2027 07:18:57.804             8.429          2074.969
       180   06 Jun 2027 07:19:13.005   06 Jun 2027 07:19:14.435             1.430           408.062
       181   06 Jun 2027 07:19:33.567   06 Jun 2027 07:19:35.843             2.276           597.875
       182   06 Jun 2027 07:20:28.130   06 Jun 2027 07:20:32.132             4.002          1621.844
       183   06 Jun 2027 07:21:30.806   06 Jun 2027 07:21:33.113             2.307          1153.500
       184   06 Jun 2027 07:21:44.707   06 Jun 2027 07:21:46.042             1.335           475.750
       185   06 Jun 2027 08:51:08.540   06 Jun 2027 08:51:17.028             8.488          4213.187
       186   06 Jun 2027 08:53:12.639   06 Jun 2027 08:53:18.376             5.737           424.625
       187   06 Jun 2027 08:53:52.934   06 Jun 2027 08:53:55.136             2.202           278.969
       188   06 Jun 2027 08:54:35.151   06 Jun 2027 08:54:36.940             1.789            80.000
       189   06 Jun 2027 08:54:49.846   06 Jun 2027 08:54:50.845             0.999           222.969
       190   06 Jun 2027 08:56:23.283   06 Jun 2027 08:56:27.807             4.524          2147.594
       191   06 Jun 2027 08:56:45.727   06 Jun 2027 08:56:50.955             5.228            88.844
       192   06 Jun 2027 08:57:44.624   06 Jun 2027 08:57:50.075             5.451          1408.844
       193   06 Jun 2027 08:57:56.570   06 Jun 2027 08:57:57.887             1.317           202.969
       194   06 Jun 2027 10:28:11.927   06 Jun 2027 10:28:17.373             5.446          2723.000
       195   06 Jun 2027 10:28:37.020   06 Jun 2027 10:28:47.053            10.033          3993.906
       196   06 Jun 2027 10:31:53.960   06 Jun 2027 10:31:55.939             1.979           403.625
       197   06 Jun 2027 10:32:08.853   06 Jun 2027 10:32:09.619             0.766           115.375
       198   06 Jun 2027 10:32:16.449   06 Jun 2027 10:32:16.903             0.454           197.813
       199   06 Jun 2027 10:32:39.676   06 Jun 2027 10:32:41.423             1.747           675.437
       200   06 Jun 2027 10:33:05.925   06 Jun 2027 10:33:16.152            10.227           659.125
       201   06 Jun 2027 10:33:58.188   06 Jun 2027 10:34:02.250             4.062          1138.469
       202   06 Jun 2027 10:34:08.027   06 Jun 2027 10:34:15.367             7.340           133.375
       203   07 Jun 2027 04:16:05.659   07 Jun 2027 04:16:37.640            31.981         15990.500
       204   07 Jun 2027 04:16:57.201   07 Jun 2027 04:17:08.990            11.789          5894.500
       205   07 Jun 2027 05:52:27.999   07 Jun 2027 05:54:59.548           151.549         75774.500
       206   07 Jun 2027 05:55:09.752   07 Jun 2027 05:55:14.134             4.382          2191.000
       207   07 Jun 2027 07:26:20.195   07 Jun 2027 07:28:02.090           101.895         50898.625
       208   07 Jun 2027 07:28:17.503   07 Jun 2027 07:28:17.503             0.000             0.000
       209   07 Jun 2027 07:28:21.234   07 Jun 2027 07:28:23.501             2.267           213.687
       210   07 Jun 2027 07:28:33.217   07 Jun 2027 07:28:38.640             5.423           303.625
       211   07 Jun 2027 07:29:14.586   07 Jun 2027 07:29:15.739             1.153           200.000
       212   07 Jun 2027 07:30:16.702   07 Jun 2027 07:30:20.534             3.832          1666.406
       213   07 Jun 2027 07:31:37.248   07 Jun 2027 07:31:42.804             5.556          2289.500
       214   07 Jun 2027 07:32:58.329   07 Jun 2027 07:33:05.993             7.664          2133.594
       215   07 Jun 2027 07:33:07.844   07 Jun 2027 07:33:09.546             1.702            57.844
       216   07 Jun 2027 07:34:12.044   07 Jun 2027 07:34:13.495             1.451           718.156
       217   07 Jun 2027 07:34:27.463   07 Jun 2027 07:34:27.921             0.458           188.031
       218   07 Jun 2027 09:03:35.189   07 Jun 2027 09:03:46.205            11.016          5080.750
       219   07 Jun 2027 09:08:00.862   07 Jun 2027 09:08:04.765             3.903          1444.125
       220   07 Jun 2027 09:08:39.813   07 Jun 2027 09:08:40.464             0.651           298.469
       221   07 Jun 2027 09:09:37.590   07 Jun 2027 09:09:40.361             2.771          1260.594
       222   07 Jun 2027 10:40:36.777   07 Jun 2027 10:40:49.749            12.972          4953.781
       223   07 Jun 2027 10:43:17.013   07 Jun 2027 10:43:20.940             3.927          1893.937
       224   07 Jun 2027 10:44:28.162   07 Jun 2027 10:44:40.099            11.937          1548.687
       225   07 Jun 2027 10:45:12.948   07 Jun 2027 10:45:15.280             2.332          1026.531
       226   07 Jun 2027 10:45:27.456   07 Jun 2027 10:45:29.271             1.815           211.094
       227   07 Jun 2027 10:45:53.985   07 Jun 2027 10:45:58.498             4.513           175.250
       228   08 Jun 2027 03:04:24.526   08 Jun 2027 03:05:20.632            56.106         28053.000
       229   08 Jun 2027 03:05:43.590   08 Jun 2027 03:05:44.039             0.449           224.500
       230   08 Jun 2027 03:07:58.425   08 Jun 2027 03:08:04.502             6.077          3038.500
       231   08 Jun 2027 04:27:54.677   08 Jun 2027 04:28:39.813            45.136         22568.000
       232   08 Jun 2027 06:04:31.389   08 Jun 2027 06:07:30.174           178.785         89392.500
       233   08 Jun 2027 07:39:37.992   08 Jun 2027 07:40:08.381            30.389         14072.313
       234   08 Jun 2027 07:40:43.356   08 Jun 2027 07:40:44.539             1.183           588.656
       235   08 Jun 2027 07:41:11.607   08 Jun 2027 07:41:16.146             4.539           494.188
       236   08 Jun 2027 07:41:52.151   08 Jun 2027 07:41:55.308             3.157          1125.156
       237   08 Jun 2027 07:42:59.957   08 Jun 2027 07:43:03.454             3.497           438.563
       238   08 Jun 2027 07:43:37.406   08 Jun 2027 07:43:41.175             3.769           546.750
       239   08 Jun 2027 07:44:58.910   08 Jun 2027 07:45:05.604             6.694          2204.844
       240   08 Jun 2027 07:45:35.346   08 Jun 2027 07:45:40.504             5.158           757.031
       241   08 Jun 2027 07:46:16.883   08 Jun 2027 07:46:18.762             1.879           409.594
       242   08 Jun 2027 09:15:58.635   08 Jun 2027 09:16:11.341            12.706          5643.531
       243   08 Jun 2027 09:18:13.394   08 Jun 2027 09:18:15.073             1.679           123.469
       244   08 Jun 2027 09:19:07.202   08 Jun 2027 09:19:10.464             3.262          1394.281
       245   08 Jun 2027 09:19:21.516   08 Jun 2027 09:19:22.781             1.265           110.500
       246   08 Jun 2027 09:19:36.040   08 Jun 2027 09:19:37.536             1.496           373.500
       247   08 Jun 2027 09:20:20.825   08 Jun 2027 09:20:24.088             3.263           786.594
       248   08 Jun 2027 09:20:50.066   08 Jun 2027 09:20:52.042             1.976           811.812
       249   08 Jun 2027 09:21:47.965   08 Jun 2027 09:21:50.200             2.235           618.375
       250   08 Jun 2027 09:22:13.914   08 Jun 2027 09:22:14.510             0.596           183.406
       251   08 Jun 2027 10:53:28.716   08 Jun 2027 10:53:42.919            14.203          5236.719
       252   08 Jun 2027 10:54:59.057   08 Jun 2027 10:55:03.533             4.476          1369.281
       253   08 Jun 2027 10:56:09.994   08 Jun 2027 10:56:12.616             2.622          1049.344
       254   08 Jun 2027 10:56:22.560   08 Jun 2027 10:56:24.409             1.849           310.750
       255   08 Jun 2027 10:56:55.020   08 Jun 2027 10:57:01.051             6.031           603.844
       256   08 Jun 2027 10:57:50.266   08 Jun 2027 10:57:52.329             2.063           674.437
       257   09 Jun 2027 03:17:36.415   09 Jun 2027 03:18:54.989            78.574         39287.000
       258   09 Jun 2027 03:19:20.794   09 Jun 2027 03:19:57.738            36.944         18472.000
       259   09 Jun 2027 03:20:29.996   09 Jun 2027 03:20:37.910             7.914          3957.000
       260   09 Jun 2027 04:40:08.133   09 Jun 2027 04:40:55.513            47.380         23690.000
       261   09 Jun 2027 04:41:45.095   09 Jun 2027 04:41:56.784            11.689          5844.500
       262   09 Jun 2027 04:42:35.553   09 Jun 2027 04:42:40.225             4.672          2336.000
       263   09 Jun 2027 04:42:48.452   09 Jun 2027 04:43:00.214            11.762          5881.000
       264   09 Jun 2027 06:16:42.044   09 Jun 2027 06:18:27.144           105.100         50539.094
       265   09 Jun 2027 06:19:45.700   09 Jun 2027 06:19:51.032             5.332          2118.219
       266   09 Jun 2027 07:51:51.778   09 Jun 2027 07:52:01.134             9.356          2662.937
       267   09 Jun 2027 07:52:12.850   09 Jun 2027 07:52:18.379             5.529           110.688
       268   09 Jun 2027 07:53:15.007   09 Jun 2027 07:53:17.342             2.335           256.750
       269   09 Jun 2027 07:53:40.729   09 Jun 2027 07:53:40.729             0.000             0.000
       270   09 Jun 2027 07:54:02.921   09 Jun 2027 07:54:07.769             4.848          1424.344
       271   09 Jun 2027 07:54:46.229   09 Jun 2027 07:54:46.919             0.690           108.125
       272   09 Jun 2027 07:55:22.367   09 Jun 2027 07:55:31.189             8.822           502.062
       273   09 Jun 2027 07:56:58.983   09 Jun 2027 07:57:06.786             7.803          2184.625
       274   09 Jun 2027 07:58:08.459   09 Jun 2027 07:58:13.383             4.924          1692.187
       275   09 Jun 2027 09:28:13.151   09 Jun 2027 09:28:25.743            12.592          4391.219
       276   09 Jun 2027 09:30:52.357   09 Jun 2027 09:30:55.867             3.510           176.437
       277   09 Jun 2027 09:32:06.379   09 Jun 2027 09:32:10.395             4.016          1637.469
       278   09 Jun 2027 09:33:20.558   09 Jun 2027 09:33:26.628             6.070          1218.531
       279   09 Jun 2027 11:05:31.221   09 Jun 2027 11:05:44.037            12.816          5708.219
       280   09 Jun 2027 11:07:24.212   09 Jun 2027 11:07:29.871             5.659           913.781
       281   09 Jun 2027 11:08:51.177   09 Jun 2027 11:08:53.580             2.403          1074.313
       282   09 Jun 2027 11:09:05.029   09 Jun 2027 11:09:11.375             6.346            30.844
       283   09 Jun 2027 11:09:52.630   09 Jun 2027 11:09:53.663             1.033           200.531
       284   10 Jun 2027 03:28:43.620   10 Jun 2027 03:29:22.623            39.003         19501.500
       285   10 Jun 2027 03:29:44.519   10 Jun 2027 03:31:28.984           104.465         52232.500
       286   10 Jun 2027 03:32:07.946   10 Jun 2027 03:32:16.362             8.416          4208.000
       287   10 Jun 2027 04:52:09.990   10 Jun 2027 04:53:03.738            53.748         26874.000
       288   10 Jun 2027 06:28:32.445   10 Jun 2027 06:30:04.808            92.363         44077.219
       289   10 Jun 2027 06:30:32.840   10 Jun 2027 06:30:35.698             2.858           458.375
       290   10 Jun 2027 06:30:45.773   10 Jun 2027 06:30:45.773             0.000             0.000
       291   10 Jun 2027 06:30:58.701   10 Jun 2027 06:31:00.198             1.497           609.688
       292   10 Jun 2027 06:31:19.448   10 Jun 2027 06:31:21.569             2.121           472.844
       293   10 Jun 2027 06:32:22.403   10 Jun 2027 06:32:25.607             3.204          1091.594
       294   10 Jun 2027 08:03:26.029   10 Jun 2027 08:03:30.464             4.435          1672.687
       295   10 Jun 2027 08:03:56.884   10 Jun 2027 08:04:00.096             3.212           647.031
       296   10 Jun 2027 08:05:18.370   10 Jun 2027 08:05:19.067             0.697             7.625
       297   10 Jun 2027 08:06:16.629   10 Jun 2027 08:06:17.817             1.188           404.187
       298   10 Jun 2027 08:06:38.360   10 Jun 2027 08:06:38.360             0.000             0.000
       299   10 Jun 2027 08:07:24.580   10 Jun 2027 08:07:28.065             3.485          1561.219
       300   10 Jun 2027 08:08:58.453   10 Jun 2027 08:09:05.090             6.637          2067.250
       301   10 Jun 2027 08:10:02.285   10 Jun 2027 08:10:06.153             3.868          1403.000
       302   10 Jun 2027 09:39:49.815   10 Jun 2027 09:40:05.047            15.232          5803.687
       303   10 Jun 2027 09:42:46.978   10 Jun 2027 09:42:47.809             0.831           196.250
       304   10 Jun 2027 09:43:10.427   10 Jun 2027 09:43:11.815             1.388           631.031
       305   10 Jun 2027 09:44:11.007   10 Jun 2027 09:44:14.197             3.190          1559.094
       306   10 Jun 2027 09:44:46.014   10 Jun 2027 09:44:49.709             3.695           798.406
       307   10 Jun 2027 09:45:06.949   10 Jun 2027 09:45:13.216             6.267           446.781
       308   10 Jun 2027 09:45:17.184   10 Jun 2027 09:45:17.331             0.147            54.906
       309   10 Jun 2027 11:18:06.261   10 Jun 2027 11:18:17.139            10.878          4835.906
       310   10 Jun 2027 11:18:50.248   10 Jun 2027 11:18:56.452             6.204           636.719
       311   10 Jun 2027 11:20:13.590   10 Jun 2027 11:20:17.127             3.537           597.125
       312   10 Jun 2027 11:20:40.260   10 Jun 2027 11:20:44.776             4.516           659.313
       313   10 Jun 2027 11:20:58.305   10 Jun 2027 11:21:03.559             5.254           315.812
       314   10 Jun 2027 11:21:25.221   10 Jun 2027 11:21:35.923            10.702           181.250
       315   10 Jun 2027 11:21:51.721   10 Jun 2027 11:21:52.840             1.119           253.531
       316   11 Jun 2027 03:29:22.286   11 Jun 2027 03:29:41.400            19.114          9557.000
       317   11 Jun 2027 03:40:39.544   11 Jun 2027 03:42:20.226           100.682         50341.000
       318   11 Jun 2027 03:43:19.069   11 Jun 2027 03:43:46.036            26.967         13483.500
       319   11 Jun 2027 05:03:15.209   11 Jun 2027 05:04:29.166            73.957         36978.500
       320   11 Jun 2027 05:04:31.779   11 Jun 2027 05:04:46.457            14.678          7339.000
       321   11 Jun 2027 06:38:50.120   11 Jun 2027 06:39:36.407            46.287         23143.500
       322   11 Jun 2027 06:40:16.493   11 Jun 2027 06:40:51.769            35.276         17275.437
       323   11 Jun 2027 06:41:13.339   11 Jun 2027 06:41:20.398             7.059           237.562
       324   11 Jun 2027 06:41:27.249   11 Jun 2027 06:41:28.830             1.581           151.344
       325   11 Jun 2027 06:42:29.503   11 Jun 2027 06:42:33.907             4.404          1480.000
       326   11 Jun 2027 06:43:49.181   11 Jun 2027 06:43:53.106             3.925          1891.750
       327   11 Jun 2027 06:44:31.687   11 Jun 2027 06:44:34.993             3.306          1205.656
       328   11 Jun 2027 06:44:51.742   11 Jun 2027 06:44:51.960             0.218           109.000
       329   11 Jun 2027 08:15:03.010   11 Jun 2027 08:15:12.150             9.140          1283.937
       330   11 Jun 2027 08:17:18.424   11 Jun 2027 08:17:23.528             5.104          2240.281
       331   11 Jun 2027 08:18:25.188   11 Jun 2027 08:18:25.188             0.000             0.000
       332   11 Jun 2027 08:19:26.528   11 Jun 2027 08:19:36.621            10.093          2516.750
       333   11 Jun 2027 08:19:58.112   11 Jun 2027 08:20:02.322             4.210           467.062
       334   11 Jun 2027 08:21:53.702   11 Jun 2027 08:21:55.899             2.197          1043.000
       335   11 Jun 2027 09:52:09.336   11 Jun 2027 09:52:26.941            17.605          7799.063
       336   11 Jun 2027 09:55:48.804   11 Jun 2027 09:55:54.479             5.675          1931.625
       337   11 Jun 2027 09:55:58.041   11 Jun 2027 09:56:03.637             5.596           111.312
       338   11 Jun 2027 09:56:30.609   11 Jun 2027 09:56:35.068             4.459           670.281
       339   11 Jun 2027 09:56:49.694   11 Jun 2027 09:56:51.668             1.974           297.156
       340   11 Jun 2027 09:57:00.341   11 Jun 2027 09:57:01.117             0.776           271.031
       341   11 Jun 2027 09:58:07.330   11 Jun 2027 09:58:10.658             3.328          1524.813
       342   11 Jun 2027 09:58:31.099   11 Jun 2027 09:58:31.401             0.302           116.594
       343   11 Jun 2027 11:30:07.213   11 Jun 2027 11:30:19.558            12.345          5546.812
       344   11 Jun 2027 11:30:33.375   11 Jun 2027 11:30:34.246             0.871            66.688
       345   11 Jun 2027 11:32:13.429   11 Jun 2027 11:32:18.588             5.159          2222.937
       346   11 Jun 2027 11:32:19.056   11 Jun 2027 11:32:20.553             1.497            14.625
       347   11 Jun 2027 11:33:55.150   11 Jun 2027 11:33:57.757             2.607          1288.250
       348   12 Jun 2027 03:40:58.492   12 Jun 2027 03:41:16.725            18.233          9116.500
       349   12 Jun 2027 03:52:42.049   12 Jun 2027 03:53:44.058            62.009         31004.500
       350   12 Jun 2027 05:14:57.607   12 Jun 2027 05:16:03.922            66.315         33157.500
       351   12 Jun 2027 05:16:54.514   12 Jun 2027 05:18:01.828            67.314         33657.000
       352   12 Jun 2027 05:19:09.547   12 Jun 2027 05:19:28.878            19.331          9665.500
       353   12 Jun 2027 06:49:56.667   12 Jun 2027 06:51:20.219            83.552         41760.406
       354   12 Jun 2027 06:51:34.144   12 Jun 2027 06:51:35.183             1.039           435.156
       355   12 Jun 2027 06:52:04.550   12 Jun 2027 06:52:04.550             0.000             0.000
       356   12 Jun 2027 06:53:03.236   12 Jun 2027 06:53:08.704             5.468          2007.562
       357   12 Jun 2027 06:53:24.951   12 Jun 2027 06:53:24.951             0.000             0.000
       358   12 Jun 2027 06:53:42.886   12 Jun 2027 06:53:51.622             8.736           973.656
       359   12 Jun 2027 06:54:27.970   12 Jun 2027 06:54:31.919             3.949          1135.875
       360   12 Jun 2027 06:55:22.949   12 Jun 2027 06:55:24.842             1.893           605.281
       361   12 Jun 2027 06:56:17.251   12 Jun 2027 06:56:22.110             4.859          1607.375
       362   12 Jun 2027 06:56:30.641   12 Jun 2027 06:56:31.335             0.694           168.250
       363   12 Jun 2027 06:57:53.667   12 Jun 2027 06:57:58.368             4.701          1998.469
       364   12 Jun 2027 08:27:23.017   12 Jun 2027 08:27:24.105             1.088           392.375
       365   12 Jun 2027 08:28:09.132   12 Jun 2027 08:28:12.784             3.652           914.969
       366   12 Jun 2027 08:29:24.845   12 Jun 2027 08:29:28.319             3.474           209.125
       367   12 Jun 2027 08:30:24.377   12 Jun 2027 08:30:25.090             0.713           199.781
       368   12 Jun 2027 08:31:28.154   12 Jun 2027 08:31:34.664             6.510          1080.781
       369   12 Jun 2027 08:31:54.129   12 Jun 2027 08:31:56.454             2.325           474.094
       370   12 Jun 2027 08:33:00.407   12 Jun 2027 08:33:11.741            11.334          1172.937
       371   12 Jun 2027 08:33:33.797   12 Jun 2027 08:33:35.207             1.410           334.469
       372   12 Jun 2027 10:04:09.578   12 Jun 2027 10:04:25.485            15.907          7446.625
       373   12 Jun 2027 10:05:16.767   12 Jun 2027 10:05:24.334             7.567           399.313
       374   12 Jun 2027 10:05:37.758   12 Jun 2027 10:05:38.751             0.993           396.375
       375   12 Jun 2027 10:06:52.389   12 Jun 2027 10:06:56.735             4.346           189.469
       376   12 Jun 2027 10:07:19.035   12 Jun 2027 10:07:23.541             4.506           584.188
       377   12 Jun 2027 10:07:39.407   12 Jun 2027 10:07:51.237            11.830           428.250
       378   12 Jun 2027 10:07:56.620   12 Jun 2027 10:07:57.594             0.974           168.219
       379   12 Jun 2027 10:08:26.147   12 Jun 2027 10:08:28.238             2.091           831.750
       380   12 Jun 2027 10:08:38.511   12 Jun 2027 10:08:40.747             2.236           321.031
       381   12 Jun 2027 10:08:56.470   12 Jun 2027 10:08:58.389             1.919           491.344
       382   12 Jun 2027 10:09:37.831   12 Jun 2027 10:09:40.606             2.775          1232.562
       383   12 Jun 2027 10:10:10.317   12 Jun 2027 10:10:13.654             3.337           395.969
       384   12 Jun 2027 11:42:07.776   12 Jun 2027 11:42:19.534            11.758          5727.031
       385   12 Jun 2027 11:44:12.087   12 Jun 2027 11:44:13.466             1.379           605.531
       386   12 Jun 2027 11:44:20.116   12 Jun 2027 11:44:22.948             2.832            91.219
       387   12 Jun 2027 11:45:15.537   12 Jun 2027 11:45:24.930             9.393          1311.031
       388   12 Jun 2027 11:45:50.575   12 Jun 2027 11:45:55.461             4.886           700.937
       389   12 Jun 2027 11:46:02.815   12 Jun 2027 11:46:04.220             1.405           202.031
       390   13 Jun 2027 03:52:31.114   13 Jun 2027 03:52:45.045            13.931          6965.500
       391   13 Jun 2027 03:53:34.715   13 Jun 2027 03:53:44.074             9.359          4679.500
       392   13 Jun 2027 04:04:43.638   13 Jun 2027 04:05:15.183            31.545         15772.500
       393   13 Jun 2027 05:26:35.897   13 Jun 2027 05:27:50.762            74.865         37432.500
       394   13 Jun 2027 05:28:39.969   13 Jun 2027 05:29:47.964            67.995         33997.500
       395   13 Jun 2027 05:30:11.961   13 Jun 2027 05:30:18.283             6.322          3161.000
       396   13 Jun 2027 07:01:24.741   13 Jun 2027 07:03:21.329           116.588         58294.000
       397   13 Jun 2027 07:03:32.167   13 Jun 2027 07:03:36.128             3.961          1168.312
       398   13 Jun 2027 07:04:09.651   13 Jun 2027 07:04:09.651             0.000             0.000
       399   13 Jun 2027 07:04:51.141   13 Jun 2027 07:04:55.621             4.480          2240.000
       400   13 Jun 2027 07:04:58.273   13 Jun 2027 07:04:58.902             0.629           146.250
       401   13 Jun 2027 07:05:16.985   13 Jun 2027 07:05:16.985             0.000             0.000
       402   13 Jun 2027 07:05:19.696   13 Jun 2027 07:05:23.917             4.221           625.938
       403   13 Jun 2027 07:05:52.429   13 Jun 2027 07:05:53.477             1.048           524.000
       404   13 Jun 2027 07:06:28.303   13 Jun 2027 07:06:28.303             0.000             0.000
       405   13 Jun 2027 07:06:57.912   13 Jun 2027 07:07:02.583             4.671          2274.906
       406   13 Jun 2027 07:07:28.877   13 Jun 2027 07:07:31.832             2.955           725.625
       407   13 Jun 2027 07:08:01.599   13 Jun 2027 07:08:01.599             0.000             0.000
       408   13 Jun 2027 07:09:21.865   13 Jun 2027 07:09:25.814             3.949          1974.500
       409   13 Jun 2027 07:09:46.688   13 Jun 2027 07:09:49.086             2.398           826.844
       410   13 Jun 2027 07:10:18.652   13 Jun 2027 07:10:24.303             5.651           923.938
       411   13 Jun 2027 08:39:17.172   13 Jun 2027 08:39:28.129            10.957          3984.094
       412   13 Jun 2027 08:41:27.906   13 Jun 2027 08:41:29.157             1.251           334.000
       413   13 Jun 2027 08:43:17.310   13 Jun 2027 08:43:23.673             6.363          1989.844
       414   13 Jun 2027 08:44:32.024   13 Jun 2027 08:44:36.259             4.235          1847.437
       415   13 Jun 2027 08:45:11.409   13 Jun 2027 08:45:15.380             3.971           605.656
       416   13 Jun 2027 08:45:59.496   13 Jun 2027 08:46:00.953             1.457           267.344
       417   13 Jun 2027 08:46:32.144   13 Jun 2027 08:46:34.871             2.727           353.156
       418   13 Jun 2027 10:16:01.363   13 Jun 2027 10:16:12.526            11.163          5177.094
       419   13 Jun 2027 10:16:33.768   13 Jun 2027 10:16:34.511             0.743           118.844
       420   13 Jun 2027 10:18:59.768   13 Jun 2027 10:19:04.107             4.339           475.469
       421   13 Jun 2027 10:19:39.790   13 Jun 2027 10:19:43.475             3.685           193.406
       422   13 Jun 2027 10:20:25.121   13 Jun 2027 10:20:29.133             4.012           439.563
       423   13 Jun 2027 10:20:39.749   13 Jun 2027 10:20:41.390             1.641           331.750
       424   13 Jun 2027 10:20:54.711   13 Jun 2027 10:20:55.394             0.683            70.687
       425   13 Jun 2027 10:20:57.230   13 Jun 2027 10:21:02.831             5.601            57.375
       426   13 Jun 2027 10:22:15.561   13 Jun 2027 10:22:18.959             3.398          1689.344
       427   13 Jun 2027 11:54:11.301   13 Jun 2027 11:54:24.495            13.194          6166.812
       428   13 Jun 2027 11:57:17.029   13 Jun 2027 11:57:20.722             3.693           745.188
