uniorb/output/strategy_4/Camera/Camera_KinoSat_111310.txt

KinoSat_111310
-------------------------
    Access    *     Start Time (UTCG)     *     Stop Time (UTCG)  *   Duration (s) *   Data (Mbytes)
         1   01 Jun 2027 04:15:59.030   01 Jun 2027 04:16:35.769            36.739         18369.500
         2   01 Jun 2027 04:17:04.504   01 Jun 2027 04:18:46.545           102.041         51020.500
         3   01 Jun 2027 04:19:21.934   01 Jun 2027 04:19:31.175             9.241          4620.500
         4   01 Jun 2027 05:40:04.982   01 Jun 2027 05:42:08.944           123.962         61981.000
         5   01 Jun 2027 07:15:50.375   01 Jun 2027 07:17:54.797           124.422         62211.000
         6   01 Jun 2027 07:17:58.497   01 Jun 2027 07:18:02.507             4.010          2005.000
         7   01 Jun 2027 08:50:48.343   01 Jun 2027 08:53:14.107           145.764         72882.000
         8   01 Jun 2027 08:54:34.924   01 Jun 2027 08:54:34.924             0.000             0.000
         9   01 Jun 2027 08:57:24.745   01 Jun 2027 08:57:48.176            23.431         11715.500
        10   01 Jun 2027 10:26:59.991   01 Jun 2027 10:29:12.877           132.886         66443.000
        11   02 Jun 2027 04:16:52.904   02 Jun 2027 04:17:29.669            36.765         18382.500
        12   02 Jun 2027 04:27:54.801   02 Jun 2027 04:29:25.467            90.666         45333.000
        13   02 Jun 2027 05:50:54.835   02 Jun 2027 05:52:20.727            85.892         42946.000
        14   02 Jun 2027 07:26:26.540   02 Jun 2027 07:26:31.949             5.409          2704.500
        15   02 Jun 2027 07:27:35.730   02 Jun 2027 07:30:48.365           192.635         96317.500
        16   02 Jun 2027 07:31:45.806   02 Jun 2027 07:32:01.706            15.900          7950.000
        17   02 Jun 2027 09:02:21.882   02 Jun 2027 09:05:17.502           175.620         87810.000
        18   02 Jun 2027 09:09:04.409   02 Jun 2027 09:09:54.634            50.225         25112.500
        19   02 Jun 2027 10:39:14.726   02 Jun 2027 10:40:06.580            51.854         24365.250
        20   02 Jun 2027 10:41:26.123   02 Jun 2027 10:41:27.589             1.466           157.375
        21   02 Jun 2027 10:41:51.803   02 Jun 2027 10:41:53.443             1.640           227.156
        22   02 Jun 2027 10:42:27.235   02 Jun 2027 10:42:31.922             4.687           638.906
        23   02 Jun 2027 10:43:17.556   02 Jun 2027 10:43:21.102             3.546          1426.062
        24   02 Jun 2027 10:43:40.534   02 Jun 2027 10:43:42.429             1.895           226.031
        25   02 Jun 2027 10:44:11.290   02 Jun 2027 10:44:13.134             1.844           291.219
        26   02 Jun 2027 10:44:17.284   02 Jun 2027 10:44:18.516             1.232             9.469
        27   02 Jun 2027 10:45:01.646   02 Jun 2027 10:45:04.833             3.187           839.031
        28   02 Jun 2027 10:45:27.569   02 Jun 2027 10:45:30.375             2.806            75.000
        29   03 Jun 2027 03:03:15.030   03 Jun 2027 03:03:34.703            19.673          9836.500
        30   03 Jun 2027 03:04:10.017   03 Jun 2027 03:04:23.617            13.600          6800.000
        31   03 Jun 2027 03:05:26.980   03 Jun 2027 03:05:26.980             0.000             0.000
        32   03 Jun 2027 03:07:10.662   03 Jun 2027 03:07:20.175             9.513          4756.500
        33   03 Jun 2027 03:07:26.786   03 Jun 2027 03:07:50.633            23.847         11923.500
        34   03 Jun 2027 03:09:07.650   03 Jun 2027 03:09:26.080            18.430          9215.000
        35   03 Jun 2027 03:10:04.922   03 Jun 2027 03:10:30.574            25.652         12826.000
        36   03 Jun 2027 04:28:14.626   03 Jun 2027 04:28:42.342            27.716         13858.000
        37   03 Jun 2027 04:29:30.921   03 Jun 2027 04:29:43.814            12.893          6446.500
        38   03 Jun 2027 04:39:56.034   03 Jun 2027 04:41:09.246            73.212         36606.000
        39   03 Jun 2027 06:02:10.718   03 Jun 2027 06:02:48.873            38.155         19077.500
        40   03 Jun 2027 06:02:53.839   03 Jun 2027 06:03:04.412            10.573          5286.500
        41   03 Jun 2027 06:04:12.004   03 Jun 2027 06:04:40.345            28.341         14170.500
        42   03 Jun 2027 06:05:09.150   03 Jun 2027 06:05:35.281            26.131         13065.500
        43   03 Jun 2027 06:07:04.986   03 Jun 2027 06:07:04.986             0.000             0.000
        44   03 Jun 2027 07:37:20.616   03 Jun 2027 07:37:53.510            32.894         15363.375
        45   03 Jun 2027 07:38:13.886   03 Jun 2027 07:38:16.272             2.386           271.281
        46   03 Jun 2027 07:39:19.591   03 Jun 2027 07:39:24.155             4.564          1144.625
        47   03 Jun 2027 07:41:03.523   03 Jun 2027 07:41:09.423             5.900          2639.250
        48   03 Jun 2027 07:41:14.419   03 Jun 2027 07:41:17.256             2.837           156.125
        49   03 Jun 2027 07:42:24.505   03 Jun 2027 07:42:30.247             5.742          1461.500
        50   03 Jun 2027 07:42:55.255   03 Jun 2027 07:42:56.328             1.073           536.500
        51   03 Jun 2027 07:43:56.821   03 Jun 2027 07:44:03.393             6.572          1965.813
        52   03 Jun 2027 09:14:29.181   03 Jun 2027 09:14:38.537             9.356          3699.500
        53   03 Jun 2027 09:15:19.255   03 Jun 2027 09:15:22.023             2.768          1147.156
        54   03 Jun 2027 09:17:53.331   03 Jun 2027 09:17:54.719             1.388           222.156
        55   03 Jun 2027 09:18:56.460   03 Jun 2027 09:19:04.792             8.332          1658.844
        56   03 Jun 2027 09:19:43.186   03 Jun 2027 09:19:44.733             1.547           705.406
        57   03 Jun 2027 09:20:50.790   03 Jun 2027 09:20:54.667             3.877          1578.125
        58   03 Jun 2027 09:21:11.110   03 Jun 2027 09:21:13.572             2.462           444.469
        59   03 Jun 2027 09:21:54.640   03 Jun 2027 09:21:55.045             0.405           202.500
        60   03 Jun 2027 10:51:26.787   03 Jun 2027 10:51:38.992            12.205          5699.750
        61   03 Jun 2027 10:53:38.891   03 Jun 2027 10:53:40.365             1.474           156.219
        62   03 Jun 2027 10:54:18.829   03 Jun 2027 10:54:21.873             3.044          1085.656
        63   03 Jun 2027 10:55:27.622   03 Jun 2027 10:55:31.165             3.543           964.687
        64   03 Jun 2027 10:55:37.197   03 Jun 2027 10:55:37.879             0.682           188.500
        65   03 Jun 2027 10:55:55.847   03 Jun 2027 10:56:01.074             5.227           437.750
        66   03 Jun 2027 10:57:24.907   03 Jun 2027 10:57:31.415             6.508          2271.063
        67   04 Jun 2027 03:15:33.298   04 Jun 2027 03:17:33.519           120.221         60110.500
        68   04 Jun 2027 03:17:46.723   04 Jun 2027 03:17:49.447             2.724          1362.000
        69   04 Jun 2027 03:18:38.163   04 Jun 2027 03:18:40.717             2.554          1277.000
        70   04 Jun 2027 03:19:16.852   04 Jun 2027 03:20:29.997            73.145         36572.500
        71   04 Jun 2027 03:20:45.489   04 Jun 2027 03:21:23.656            38.167         19083.500
        72   04 Jun 2027 04:40:04.044   04 Jun 2027 04:40:36.902            32.858         16429.000
        73   04 Jun 2027 04:51:53.064   04 Jun 2027 04:52:32.733            39.669         19834.500
        74   04 Jun 2027 06:13:55.719   04 Jun 2027 06:14:26.319            30.600         14680.468
        75   04 Jun 2027 06:16:04.702   04 Jun 2027 06:16:11.256             6.554          3054.469
        76   04 Jun 2027 06:16:29.285   04 Jun 2027 06:16:30.007             0.722           327.281
        77   04 Jun 2027 06:17:06.273   04 Jun 2027 06:17:09.773             3.500          1133.312
        78   04 Jun 2027 06:17:39.790   04 Jun 2027 06:17:46.087             6.297           901.062
        79   04 Jun 2027 06:18:49.013   04 Jun 2027 06:18:55.853             6.840          1762.594
        80   04 Jun 2027 06:19:17.851   04 Jun 2027 06:19:20.048             2.197           504.344
        81   04 Jun 2027 07:48:48.234   04 Jun 2027 07:48:53.242             5.008          1266.687
        82   04 Jun 2027 07:49:35.977   04 Jun 2027 07:49:42.479             6.502           980.594
        83   04 Jun 2027 07:50:27.808   04 Jun 2027 07:50:31.128             3.320          1413.625
        84   04 Jun 2027 07:50:43.149   04 Jun 2027 07:50:46.653             3.504           117.813
        85   04 Jun 2027 07:51:07.864   04 Jun 2027 07:51:10.243             2.379           662.844
        86   04 Jun 2027 07:53:03.949   04 Jun 2027 07:53:14.549            10.600          3331.781
        87   04 Jun 2027 07:54:25.252   04 Jun 2027 07:54:31.177             5.925          2209.469
        88   04 Jun 2027 07:55:28.252   04 Jun 2027 07:55:35.888             7.636          1542.625
        89   04 Jun 2027 07:55:43.709   04 Jun 2027 07:55:44.422             0.713           244.406
        90   04 Jun 2027 07:57:02.882   04 Jun 2027 07:57:05.481             2.599          1081.750
        91   04 Jun 2027 09:26:30.792   04 Jun 2027 09:26:39.921             9.129          4012.344
        92   04 Jun 2027 09:27:23.246   04 Jun 2027 09:27:28.954             5.708          1198.344
        93   04 Jun 2027 09:29:36.316   04 Jun 2027 09:29:42.697             6.381          1811.219
        94   04 Jun 2027 09:30:06.653   04 Jun 2027 09:30:10.648             3.995           286.781
        95   04 Jun 2027 09:30:49.426   04 Jun 2027 09:30:53.200             3.774           591.344
        96   04 Jun 2027 09:31:52.704   04 Jun 2027 09:32:00.319             7.615          1839.500
        97   04 Jun 2027 09:33:11.188   04 Jun 2027 09:33:17.383             6.195          2214.656
        98   04 Jun 2027 09:33:28.499   04 Jun 2027 09:33:29.606             1.107            57.125
        99   04 Jun 2027 09:33:51.520   04 Jun 2027 09:33:54.996             3.476           188.063
       100   04 Jun 2027 11:03:18.962   04 Jun 2027 11:03:35.472            16.510          6776.031
       101   04 Jun 2027 11:06:48.960   04 Jun 2027 11:07:08.827            19.867          1276.187
       102   04 Jun 2027 11:07:21.251   04 Jun 2027 11:07:22.704             1.453           388.250
       103   04 Jun 2027 11:07:35.914   04 Jun 2027 11:07:37.110             1.196           146.187
       104   04 Jun 2027 11:07:40.599   04 Jun 2027 11:07:41.656             1.057           109.031
       105   04 Jun 2027 11:08:16.788   04 Jun 2027 11:08:27.628            10.840           625.937
       106   04 Jun 2027 11:09:00.872   04 Jun 2027 11:09:02.492             1.620           424.625
       107   04 Jun 2027 11:09:28.830   04 Jun 2027 11:09:36.878             8.048           677.469
       108   05 Jun 2027 03:27:38.153   05 Jun 2027 03:29:40.567           122.414         61207.000
       109   05 Jun 2027 03:30:33.269   05 Jun 2027 03:31:30.230            56.961         28480.500
       110   05 Jun 2027 03:31:50.318   05 Jun 2027 03:32:14.020            23.702         11851.000
       111   05 Jun 2027 03:33:26.716   05 Jun 2027 03:33:39.601            12.885          6442.500
       112   05 Jun 2027 04:51:44.884   05 Jun 2027 04:51:57.222            12.338          6169.000
       113   05 Jun 2027 06:25:31.348   05 Jun 2027 06:27:13.113           101.765         50882.500
       114   05 Jun 2027 06:27:59.351   05 Jun 2027 06:28:05.194             5.843          2115.344
       115   05 Jun 2027 06:28:16.386   05 Jun 2027 06:28:16.386             0.000             0.000
       116   05 Jun 2027 06:28:30.644   05 Jun 2027 06:28:36.290             5.646           580.500
       117   05 Jun 2027 06:29:12.743   05 Jun 2027 06:29:14.804             2.061          1030.500
       118   05 Jun 2027 06:30:16.313   05 Jun 2027 06:30:21.134             4.821          1989.406
       119   05 Jun 2027 06:30:32.070   05 Jun 2027 06:30:32.958             0.888           251.531
       120   05 Jun 2027 06:30:40.903   05 Jun 2027 06:30:42.029             1.126           223.094
       121   05 Jun 2027 08:01:31.739   05 Jun 2027 08:01:44.627            12.888          2686.469
       122   05 Jun 2027 08:02:54.272   05 Jun 2027 08:02:55.939             1.667           359.844
       123   05 Jun 2027 08:04:04.239   05 Jun 2027 08:04:07.747             3.508          1309.062
       124   05 Jun 2027 08:05:17.167   05 Jun 2027 08:05:22.678             5.511           856.500
       125   05 Jun 2027 08:06:42.002   05 Jun 2027 08:06:45.624             3.622           535.219
       126   05 Jun 2027 08:08:26.013   05 Jun 2027 08:08:35.399             9.386          2542.063
       127   05 Jun 2027 08:09:14.162   05 Jun 2027 08:09:19.916             5.754          1194.719
       128   05 Jun 2027 09:38:34.258   05 Jun 2027 09:38:45.041            10.783          4904.000
       129   05 Jun 2027 09:42:41.583   05 Jun 2027 09:42:47.569             5.986          2460.875
       130   05 Jun 2027 09:44:00.970   05 Jun 2027 09:44:02.650             1.680            50.906
       131   05 Jun 2027 09:44:16.757   05 Jun 2027 09:44:23.599             6.842           160.719
       132   05 Jun 2027 09:44:44.392   05 Jun 2027 09:44:51.870             7.478           426.031
       133   05 Jun 2027 09:45:27.187   05 Jun 2027 09:45:29.617             2.430           525.000
       134   05 Jun 2027 09:45:31.575   05 Jun 2027 09:45:32.348             0.773            61.187
       135   05 Jun 2027 09:45:36.323   05 Jun 2027 09:45:40.424             4.101            40.844
       136   05 Jun 2027 11:15:31.178   05 Jun 2027 11:15:46.033            14.855          4943.938
       137   05 Jun 2027 11:16:01.931   05 Jun 2027 11:16:02.957             1.026           496.813
       138   05 Jun 2027 11:18:26.423   05 Jun 2027 11:18:31.227             4.804           355.406
       139   05 Jun 2027 11:19:12.761   05 Jun 2027 11:19:19.103             6.342           884.250
       140   05 Jun 2027 11:19:21.061   05 Jun 2027 11:19:22.930             1.869            61.187
       141   05 Jun 2027 11:20:20.824   05 Jun 2027 11:20:22.574             1.750           842.312
       142   05 Jun 2027 11:21:09.233   05 Jun 2027 11:21:11.417             2.184          1001.375
       143   05 Jun 2027 11:21:41.811   05 Jun 2027 11:21:46.134             4.323           527.719
       144   06 Jun 2027 03:40:14.933   06 Jun 2027 03:43:21.044           186.111         93055.500
       145   06 Jun 2027 03:44:43.227   06 Jun 2027 03:44:56.057            12.830          6415.000
       146   06 Jun 2027 05:03:39.711   06 Jun 2027 05:03:56.334            16.623          8311.500
       147   06 Jun 2027 05:04:24.904   06 Jun 2027 05:04:40.677            15.773          7886.500
       148   06 Jun 2027 06:39:58.879   06 Jun 2027 06:41:14.472            75.593         37706.844
       149   06 Jun 2027 06:41:55.118   06 Jun 2027 06:41:58.455             3.337          1270.188
       150   06 Jun 2027 06:42:19.825   06 Jun 2027 06:42:21.197             1.372           474.750
       151   06 Jun 2027 06:42:34.344   06 Jun 2027 06:42:35.605             1.261           277.219
       152   06 Jun 2027 06:43:00.626   06 Jun 2027 06:43:00.626             0.000             0.000
       153   06 Jun 2027 06:43:16.070   06 Jun 2027 06:43:22.141             6.071          1221.000
       154   06 Jun 2027 08:13:28.400   06 Jun 2027 08:13:32.232             3.832          1756.219
       155   06 Jun 2027 08:14:44.462   06 Jun 2027 08:14:56.929            12.467          2257.188
       156   06 Jun 2027 08:15:55.483   06 Jun 2027 08:16:00.474             4.991            85.250
       157   06 Jun 2027 08:16:51.777   06 Jun 2027 08:17:03.354            11.577          1603.219
       158   06 Jun 2027 08:18:02.287   06 Jun 2027 08:18:07.129             4.842          1841.656
       159   06 Jun 2027 08:18:44.978   06 Jun 2027 08:18:49.031             4.053           661.219
       160   06 Jun 2027 08:20:17.466   06 Jun 2027 08:20:23.326             5.860          2237.344
       161   06 Jun 2027 08:20:37.094   06 Jun 2027 08:20:39.065             1.971           273.906
       162   06 Jun 2027 08:20:44.423   06 Jun 2027 08:20:48.354             3.931           116.281
       163   06 Jun 2027 08:21:25.667   06 Jun 2027 08:21:28.543             2.876          1062.375
       164   06 Jun 2027 08:21:59.431   06 Jun 2027 08:22:00.937             1.506           130.812
       165   06 Jun 2027 09:51:00.418   06 Jun 2027 09:51:09.704             9.286          3980.906
       166   06 Jun 2027 09:54:40.166   06 Jun 2027 09:54:45.688             5.522          2619.500
       167   06 Jun 2027 09:55:57.225   06 Jun 2027 09:55:59.284             2.059           424.875
       168   06 Jun 2027 09:56:45.165   06 Jun 2027 09:56:47.624             2.459          1155.781
       169   06 Jun 2027 09:57:15.467   06 Jun 2027 09:57:16.842             1.375           132.125
       170   06 Jun 2027 09:57:40.349   06 Jun 2027 09:57:44.020             3.671           734.594
       171   06 Jun 2027 11:27:56.664   06 Jun 2027 11:28:06.306             9.642          4747.250
       172   06 Jun 2027 11:30:21.082   06 Jun 2027 11:30:23.705             2.623           724.719
       173   06 Jun 2027 11:31:01.497   06 Jun 2027 11:31:02.590             1.093            48.906
       174   06 Jun 2027 11:31:26.362   06 Jun 2027 11:31:28.082             1.720           144.219
       175   06 Jun 2027 11:32:00.763   06 Jun 2027 11:32:05.899             5.136           658.438
       176   06 Jun 2027 11:33:22.238   06 Jun 2027 11:33:31.189             8.951          2101.156
       177   07 Jun 2027 03:51:53.350   07 Jun 2027 03:54:44.262           170.912         85456.000
       178   07 Jun 2027 03:55:02.029   07 Jun 2027 03:55:28.924            26.895         13447.500
       179   07 Jun 2027 05:15:31.298   07 Jun 2027 05:16:34.414            63.116         31558.000
       180   07 Jun 2027 06:52:00.440   07 Jun 2027 06:53:05.423            64.983         32082.593
       181   07 Jun 2027 06:54:06.112   07 Jun 2027 06:54:09.282             3.170          1562.875
       182   07 Jun 2027 06:54:36.380   07 Jun 2027 06:54:38.870             2.490           694.531
       183   07 Jun 2027 08:26:08.160   07 Jun 2027 08:26:20.045            11.885          3053.062
       184   07 Jun 2027 08:27:44.983   07 Jun 2027 08:27:52.341             7.358          1740.594
       185   07 Jun 2027 08:28:00.787   07 Jun 2027 08:28:02.436             1.649           244.125
       186   07 Jun 2027 08:28:25.811   07 Jun 2027 08:28:28.154             2.343           398.750
       187   07 Jun 2027 08:30:21.947   07 Jun 2027 08:30:28.508             6.561          2764.250
       188   07 Jun 2027 08:31:07.578   07 Jun 2027 08:31:12.061             4.483           618.188
       189   07 Jun 2027 08:32:37.830   07 Jun 2027 08:32:43.821             5.991          2350.844
       190   07 Jun 2027 08:33:20.585   07 Jun 2027 08:33:25.090             4.505           753.125
       191   07 Jun 2027 10:03:06.642   07 Jun 2027 10:03:15.332             8.690          4333.563
       192   07 Jun 2027 10:05:24.696   07 Jun 2027 10:05:25.629             0.933           455.719
       193   07 Jun 2027 10:05:53.534   07 Jun 2027 10:05:54.986             1.452           648.125
       194   07 Jun 2027 10:06:04.498   07 Jun 2027 10:06:09.518             5.020           297.250
       195   07 Jun 2027 10:06:23.819   07 Jun 2027 10:06:26.569             2.750           446.906
       196   07 Jun 2027 10:07:05.597   07 Jun 2027 10:07:09.279             3.682          1219.625
       197   07 Jun 2027 10:07:33.593   07 Jun 2027 10:07:35.250             1.657           295.281
       198   07 Jun 2027 10:07:54.001   07 Jun 2027 10:07:55.299             1.298           585.969
       199   07 Jun 2027 10:08:13.604   07 Jun 2027 10:08:14.466             0.862           430.656
       200   07 Jun 2027 10:09:07.151   07 Jun 2027 10:09:12.963             5.812          1646.406
       201   07 Jun 2027 10:09:45.400   07 Jun 2027 10:09:47.884             2.484          1007.875
       202   07 Jun 2027 11:40:45.714   07 Jun 2027 11:40:56.104            10.390          5136.594
       203   07 Jun 2027 11:44:18.582   07 Jun 2027 11:44:25.198             6.616          2188.937
       204   07 Jun 2027 11:45:10.548   07 Jun 2027 11:45:13.316             2.768             2.406
       205   08 Jun 2027 04:04:20.978   08 Jun 2027 04:04:44.222            23.244         11622.000
       206   08 Jun 2027 04:05:06.595   08 Jun 2027 04:07:53.659           167.064         83532.000
       207   08 Jun 2027 05:27:40.208   08 Jun 2027 05:28:18.568            38.360         19180.000
       208   08 Jun 2027 07:04:10.691   08 Jun 2027 07:05:56.697           106.006         52631.344
       209   08 Jun 2027 07:06:06.590   08 Jun 2027 07:06:09.612             3.022           272.469
       210   08 Jun 2027 07:06:38.152   08 Jun 2027 07:06:41.365             3.213           777.156
       211   08 Jun 2027 07:07:09.503   08 Jun 2027 07:07:09.503             0.000             0.000
       212   08 Jun 2027 08:39:20.798   08 Jun 2027 08:39:30.735             9.937          3934.219
       213   08 Jun 2027 08:39:42.930   08 Jun 2027 08:39:44.487             1.557           107.875
       214   08 Jun 2027 08:40:54.844   08 Jun 2027 08:40:57.863             3.019           385.594
       215   08 Jun 2027 08:41:56.239   08 Jun 2027 08:42:03.616             7.377          1735.250
       216   08 Jun 2027 08:42:44.656   08 Jun 2027 08:42:49.300             4.644           798.656
       217   08 Jun 2027 08:43:22.922   08 Jun 2027 08:43:27.281             4.359          1015.781
       218   08 Jun 2027 08:44:48.368   08 Jun 2027 08:44:50.820             2.452          1183.156
       219   08 Jun 2027 08:45:55.650   08 Jun 2027 08:45:57.751             2.101          1050.500
       220   08 Jun 2027 10:15:42.874   08 Jun 2027 10:15:54.208            11.334          5346.656
       221   08 Jun 2027 10:18:55.766   08 Jun 2027 10:18:59.436             3.670          1051.219
       222   08 Jun 2027 10:19:52.771   08 Jun 2027 10:19:55.846             3.075           379.750
       223   08 Jun 2027 10:21:00.554   08 Jun 2027 10:21:04.307             3.753          1270.312
       224   08 Jun 2027 10:21:23.683   08 Jun 2027 10:21:25.121             1.438           273.469
       225   08 Jun 2027 10:21:40.535   08 Jun 2027 10:21:41.778             1.243           367.875
       226   08 Jun 2027 11:53:00.375   08 Jun 2027 11:53:13.561            13.186          5353.906
       227   08 Jun 2027 11:55:07.250   08 Jun 2027 11:55:13.776             6.526          1141.875
       228   08 Jun 2027 11:55:39.377   08 Jun 2027 11:55:43.111             3.734           277.500
       229   08 Jun 2027 11:55:46.556   08 Jun 2027 11:55:48.907             2.351           103.875
       230   08 Jun 2027 11:56:31.959   08 Jun 2027 11:56:36.178             4.219          1345.375
       231   08 Jun 2027 11:57:12.820   08 Jun 2027 11:57:15.255             2.435           114.375
       232   08 Jun 2027 11:57:31.731   08 Jun 2027 11:57:34.289             2.558           514.875
       233   09 Jun 2027 04:16:14.622   09 Jun 2027 04:16:51.869            37.247         18623.500
       234   09 Jun 2027 04:17:21.548   09 Jun 2027 04:18:46.141            84.593         42296.500
       235   09 Jun 2027 05:40:20.174   09 Jun 2027 05:41:22.905            62.731         31365.500
       236   09 Jun 2027 05:42:39.251   09 Jun 2027 05:42:45.901             6.650          3325.000
       237   09 Jun 2027 07:16:05.802   09 Jun 2027 07:18:18.674           132.872         64352.782
       238   09 Jun 2027 07:18:39.604   09 Jun 2027 07:18:39.604             0.000             0.000
       239   09 Jun 2027 07:19:17.902   09 Jun 2027 07:19:23.842             5.940          1850.875
       240   09 Jun 2027 08:51:03.068   09 Jun 2027 08:51:10.533             7.465          2858.969
       241   09 Jun 2027 08:52:55.791   09 Jun 2027 08:53:04.460             8.669          2702.844
       242   09 Jun 2027 08:53:31.926   09 Jun 2027 08:53:34.077             2.151           858.312
       243   09 Jun 2027 08:54:07.827   09 Jun 2027 08:54:09.761             1.934           420.656
       244   09 Jun 2027 08:54:52.814   09 Jun 2027 08:54:58.568             5.754          1180.094
       245   09 Jun 2027 08:56:37.703   09 Jun 2027 08:56:44.728             7.025          2248.813
       246   09 Jun 2027 08:58:01.509   09 Jun 2027 08:58:04.802             3.293          1646.500
       247   09 Jun 2027 10:27:15.591   09 Jun 2027 10:27:26.371            10.780          5367.969
       248   09 Jun 2027 10:30:22.079   09 Jun 2027 10:30:23.288             1.209           315.094
       249   09 Jun 2027 10:30:42.303   09 Jun 2027 10:30:43.674             1.371           594.219
       250   09 Jun 2027 10:31:28.123   09 Jun 2027 10:31:30.712             2.589          1183.281
       251   09 Jun 2027 10:32:40.041   09 Jun 2027 10:32:45.428             5.387          1545.969
       252   09 Jun 2027 10:32:56.589   09 Jun 2027 10:32:57.068             0.479           142.000
       253   10 Jun 2027 04:17:06.893   10 Jun 2027 04:17:32.425            25.532         12766.000
       254   10 Jun 2027 04:17:36.622   10 Jun 2027 04:17:46.792            10.170          5085.000
       255   10 Jun 2027 04:28:10.633   10 Jun 2027 04:29:52.383           101.750         50875.000
       256   10 Jun 2027 04:30:38.051   10 Jun 2027 04:30:57.927            19.876          9938.000
       257   10 Jun 2027 04:31:06.639   10 Jun 2027 04:31:10.048             3.409          1704.500
       258   10 Jun 2027 05:51:09.498   10 Jun 2027 05:51:58.015            48.517         24258.500
       259   10 Jun 2027 07:26:41.852   10 Jun 2027 07:26:49.101             7.249          3624.500
       260   10 Jun 2027 07:27:51.699   10 Jun 2027 07:29:40.266           108.567         53238.937
       261   10 Jun 2027 07:30:40.686   10 Jun 2027 07:30:46.267             5.581          1806.500
       262   10 Jun 2027 07:31:29.106   10 Jun 2027 07:31:32.327             3.221          1210.188
       263   10 Jun 2027 07:32:10.430   10 Jun 2027 07:32:12.461             2.031           838.906
       264   10 Jun 2027 07:32:17.379   10 Jun 2027 07:32:18.213             0.834           153.687
       265   10 Jun 2027 09:02:36.805   10 Jun 2027 09:02:39.579             2.774          1387.000
       266   10 Jun 2027 09:02:58.115   10 Jun 2027 09:03:05.134             7.019          2408.594
       267   10 Jun 2027 09:03:35.517   10 Jun 2027 09:03:38.648             3.131           790.219
       268   10 Jun 2027 09:05:35.559   10 Jun 2027 09:05:40.039             4.480          1228.063
       269   10 Jun 2027 09:06:11.023   10 Jun 2027 09:06:11.602             0.579            47.656
       270   10 Jun 2027 09:06:54.952   10 Jun 2027 09:06:56.976             2.024           698.969
       271   10 Jun 2027 09:08:36.647   10 Jun 2027 09:08:41.101             4.454          2047.375
       272   10 Jun 2027 09:08:53.150   10 Jun 2027 09:08:55.031             1.881           329.125
       273   10 Jun 2027 09:10:06.550   10 Jun 2027 09:10:10.711             4.161          2051.719
       274   10 Jun 2027 10:39:37.376   10 Jun 2027 10:39:52.299            14.923          5409.000
       275   10 Jun 2027 10:41:36.543   10 Jun 2027 10:41:37.392             0.849            64.000
       276   10 Jun 2027 10:41:51.446   10 Jun 2027 10:41:52.934             1.488           234.563
       277   10 Jun 2027 10:42:27.392   10 Jun 2027 10:42:31.930             4.538          1076.812
       278   10 Jun 2027 10:43:14.990   10 Jun 2027 10:43:19.363             4.373           828.187
       279   10 Jun 2027 10:44:17.897   10 Jun 2027 10:44:22.904             5.007          1414.625
       280   10 Jun 2027 10:44:56.743   10 Jun 2027 10:45:01.523             4.780           885.406
       281   10 Jun 2027 10:45:18.801   10 Jun 2027 10:45:19.983             1.182             9.094
       282   10 Jun 2027 10:45:44.770   10 Jun 2027 10:45:45.634             0.864           129.938
       283   11 Jun 2027 03:03:31.832   11 Jun 2027 03:04:04.944            33.112         16556.000
       284   11 Jun 2027 03:05:41.606   11 Jun 2027 03:06:21.260            39.654         19827.000
       285   11 Jun 2027 03:07:22.551   11 Jun 2027 03:07:25.659             3.108          1554.000
       286   11 Jun 2027 03:08:17.404   11 Jun 2027 03:08:24.378             6.974          3487.000
       287   11 Jun 2027 03:08:58.795   11 Jun 2027 03:09:08.227             9.432          4716.000
       288   11 Jun 2027 03:09:14.317   11 Jun 2027 03:09:21.847             7.530          3765.000
       289   11 Jun 2027 03:09:45.831   11 Jun 2027 03:09:48.647             2.816          1408.000
       290   11 Jun 2027 03:10:05.814   11 Jun 2027 03:10:12.052             6.238          3119.000
       291   11 Jun 2027 04:28:30.065   11 Jun 2027 04:29:06.107            36.042         18021.000
       292   11 Jun 2027 04:29:46.625   11 Jun 2027 04:29:48.411             1.786           893.000
       293   11 Jun 2027 04:40:12.273   11 Jun 2027 04:41:32.296            80.023         40011.500
       294   11 Jun 2027 06:02:25.675   11 Jun 2027 06:03:21.072            55.397         27698.500
       295   11 Jun 2027 06:03:28.592   11 Jun 2027 06:03:39.447            10.855          5427.500
       296   11 Jun 2027 06:04:26.695   11 Jun 2027 06:04:28.993             2.298          1149.000
       297   11 Jun 2027 06:05:43.927   11 Jun 2027 06:06:21.692            37.765         18882.500
       298   11 Jun 2027 07:37:33.411   11 Jun 2027 07:37:50.766            17.355          7549.875
       299   11 Jun 2027 07:38:47.708   11 Jun 2027 07:38:52.303             4.595          1477.187
       300   11 Jun 2027 07:39:35.064   11 Jun 2027 07:39:37.551             2.487          1078.344
       301   11 Jun 2027 07:41:20.715   11 Jun 2027 07:41:30.245             9.530          2708.906
       302   11 Jun 2027 07:42:41.348   11 Jun 2027 07:42:46.852             5.504          2191.375
       303   11 Jun 2027 07:43:14.736   11 Jun 2027 07:43:19.446             4.710           705.688
       304   11 Jun 2027 07:44:15.267   11 Jun 2027 07:44:19.323             4.056          1744.406
       305   11 Jun 2027 09:14:45.601   11 Jun 2027 09:14:55.870            10.269          2758.281
       306   11 Jun 2027 09:15:37.192   11 Jun 2027 09:15:40.884             3.692          1140.812
       307   11 Jun 2027 09:18:11.677   11 Jun 2027 09:18:13.825             2.148           302.125
       308   11 Jun 2027 09:19:12.050   11 Jun 2027 09:19:19.570             7.520          1681.000
       309   11 Jun 2027 09:20:00.784   11 Jun 2027 09:20:02.548             1.764           788.625
       310   11 Jun 2027 09:21:10.195   11 Jun 2027 09:21:14.506             4.311          1701.750
       311   11 Jun 2027 09:21:56.580   11 Jun 2027 09:22:00.773             4.193           937.000
       312   11 Jun 2027 10:51:43.000   11 Jun 2027 10:51:58.813            15.813          7424.281
       313   11 Jun 2027 10:54:18.646   11 Jun 2027 10:54:26.802             8.156          1922.719
       314   11 Jun 2027 10:55:26.899   11 Jun 2027 10:55:27.333             0.434           206.406
       315   11 Jun 2027 10:56:01.218   11 Jun 2027 10:56:03.332             2.114           918.500
       316   11 Jun 2027 10:57:39.100   11 Jun 2027 10:57:45.269             6.169          2220.031
       317   12 Jun 2027 03:15:50.502   12 Jun 2027 03:16:51.847            61.345         30672.500
       318   12 Jun 2027 03:17:16.779   12 Jun 2027 03:17:25.972             9.193          4596.500
       319   12 Jun 2027 03:17:43.671   12 Jun 2027 03:17:56.559            12.888          6444.000
       320   12 Jun 2027 03:18:36.383   12 Jun 2027 03:19:28.023            51.640         25820.000
       321   12 Jun 2027 03:20:44.156   12 Jun 2027 03:21:01.000            16.844          8422.000
       322   12 Jun 2027 03:21:38.315   12 Jun 2027 03:22:27.969            49.654         24827.000
       323   12 Jun 2027 04:39:57.233   12 Jun 2027 04:40:18.585            21.352         10676.000
       324   12 Jun 2027 04:40:41.970   12 Jun 2027 04:40:54.237            12.267          6133.500
       325   12 Jun 2027 04:52:09.112   12 Jun 2027 04:52:48.138            39.026         19513.000
       326   12 Jun 2027 06:14:10.875   12 Jun 2027 06:15:22.461            71.586         35793.000
       327   12 Jun 2027 06:16:14.290   12 Jun 2027 06:16:19.957             5.667          2413.032
       328   12 Jun 2027 06:16:54.966   12 Jun 2027 06:16:57.456             2.490          1038.531
       329   12 Jun 2027 06:16:58.528   12 Jun 2027 06:16:58.528             0.000             0.000
       330   12 Jun 2027 06:17:21.944   12 Jun 2027 06:17:28.256             6.312           765.250
       331   12 Jun 2027 06:17:57.046   12 Jun 2027 06:18:00.983             3.937           899.687
       332   12 Jun 2027 06:19:24.458   12 Jun 2027 06:19:33.077             8.619          2414.719
       333   12 Jun 2027 07:49:03.023   12 Jun 2027 07:49:13.147            10.124          3075.562
       334   12 Jun 2027 07:49:20.778   12 Jun 2027 07:49:22.532             1.754           192.469
       335   12 Jun 2027 07:51:25.946   12 Jun 2027 07:51:31.866             5.920          1221.906
       336   12 Jun 2027 07:53:21.109   12 Jun 2027 07:53:31.522            10.413          3413.844
       337   12 Jun 2027 07:54:41.516   12 Jun 2027 07:54:45.958             4.442          2187.312
       338   12 Jun 2027 07:55:44.851   12 Jun 2027 07:55:50.895             6.044          1499.437
       339   12 Jun 2027 07:55:59.006   12 Jun 2027 07:55:59.006             0.000             0.000
       340   12 Jun 2027 07:56:00.554   12 Jun 2027 07:56:06.748             6.194           245.906
       341   12 Jun 2027 07:57:18.755   12 Jun 2027 07:57:21.253             2.498          1136.531
       342   12 Jun 2027 09:26:47.586   12 Jun 2027 09:26:58.501            10.915          4523.906
       343   12 Jun 2027 09:27:41.410   12 Jun 2027 09:27:44.557             3.147          1199.781
       344   12 Jun 2027 09:29:51.935   12 Jun 2027 09:29:56.831             4.896          1765.937
       345   12 Jun 2027 09:30:23.205   12 Jun 2027 09:30:25.866             2.661           340.375
       346   12 Jun 2027 09:30:54.551   12 Jun 2027 09:30:58.265             3.714            22.219
       347   12 Jun 2027 09:31:09.014   12 Jun 2027 09:31:17.526             8.512           120.531
       348   12 Jun 2027 09:32:31.854   12 Jun 2027 09:32:38.681             6.827          1305.438
       349   12 Jun 2027 09:33:30.123   12 Jun 2027 09:33:32.419             2.296            71.969
       350   12 Jun 2027 09:33:43.043   12 Jun 2027 09:33:45.170             2.127           129.969
       351   12 Jun 2027 09:34:07.148   12 Jun 2027 09:34:08.424             1.276           191.375
       352   12 Jun 2027 11:03:35.452   12 Jun 2027 11:03:50.792            15.340          6770.375
       353   12 Jun 2027 11:05:55.744   12 Jun 2027 11:06:00.125             4.381          1780.125
       354   12 Jun 2027 11:07:47.679   12 Jun 2027 11:07:52.805             5.126          1372.906
       355   12 Jun 2027 11:08:13.891   12 Jun 2027 11:08:17.618             3.727           653.969
       356   12 Jun 2027 11:09:01.796   12 Jun 2027 11:09:04.356             2.560          1111.500
       357   12 Jun 2027 11:09:38.091   12 Jun 2027 11:09:41.942             3.851           746.062
       358   12 Jun 2027 11:09:54.122   12 Jun 2027 11:09:55.746             1.624           380.625
       359   12 Jun 2027 11:10:11.021   12 Jun 2027 11:10:11.926             0.905           145.406
       360   13 Jun 2027 03:27:54.929   13 Jun 2027 03:29:58.121           123.192         61596.000
       361   13 Jun 2027 03:30:48.277   13 Jun 2027 03:31:08.904            20.627         10313.500
       362   13 Jun 2027 03:31:35.408   13 Jun 2027 03:31:46.583            11.175          5587.500
       363   13 Jun 2027 03:31:53.097   13 Jun 2027 03:32:14.140            21.043         10521.500
       364   13 Jun 2027 04:52:00.708   13 Jun 2027 04:52:43.470            42.762         21381.000
       365   13 Jun 2027 06:27:57.906   13 Jun 2027 06:29:37.740            99.834         48517.093
       366   13 Jun 2027 06:31:05.816   13 Jun 2027 06:31:12.980             7.164          2520.937
       367   13 Jun 2027 08:01:47.649   13 Jun 2027 08:01:59.392            11.743          2455.969
       368   13 Jun 2027 08:03:00.996   13 Jun 2027 08:03:01.510             0.514            10.906
       369   13 Jun 2027 08:04:22.918   13 Jun 2027 08:04:28.074             5.156          1307.719
       370   13 Jun 2027 08:05:34.311   13 Jun 2027 08:05:39.756             5.445           850.781
       371   13 Jun 2027 08:06:59.969   13 Jun 2027 08:07:02.646             2.677           589.687
       372   13 Jun 2027 08:08:13.240   13 Jun 2027 08:08:16.959             3.719          1586.875
       373   13 Jun 2027 08:08:23.425   13 Jun 2027 08:08:24.813             1.388            69.437
       374   13 Jun 2027 08:08:59.917   13 Jun 2027 08:09:02.851             2.934           470.594
       375   13 Jun 2027 09:38:50.767   13 Jun 2027 09:39:05.069            14.302          5841.312
       376   13 Jun 2027 09:42:59.340   13 Jun 2027 09:43:06.218             6.878          2535.031
       377   13 Jun 2027 09:44:16.450   13 Jun 2027 09:44:18.387             1.937           392.219
       378   13 Jun 2027 09:44:33.920   13 Jun 2027 09:44:39.255             5.335           485.406
       379   13 Jun 2027 09:45:23.496   13 Jun 2027 09:45:31.290             7.794          1235.500
       380   13 Jun 2027 09:45:45.835   13 Jun 2027 09:45:47.354             1.519            15.844
       381   13 Jun 2027 11:15:45.244   13 Jun 2027 11:15:56.662            11.418          5545.625
       382   13 Jun 2027 11:16:18.758   13 Jun 2027 11:16:19.694             0.936           347.281
       383   13 Jun 2027 11:18:18.054   13 Jun 2027 11:18:23.679             5.625          1884.781
       384   13 Jun 2027 11:18:40.949   13 Jun 2027 11:18:47.477             6.528           238.469
       385   13 Jun 2027 11:19:27.527   13 Jun 2027 11:19:31.189             3.662           852.594
       386   13 Jun 2027 11:20:18.899   13 Jun 2027 11:20:25.044             6.145          1301.438
       387   13 Jun 2027 11:20:27.850   13 Jun 2027 11:20:32.772             4.922            18.531
       388   13 Jun 2027 11:21:13.260   13 Jun 2027 11:21:15.732             2.472          1187.563
       389   13 Jun 2027 11:21:46.842   13 Jun 2027 11:21:59.017            12.175           971.938
