uniorb/output/strategy_4/Camera/Camera_KinoSat_110410.txt

KinoSat_110410
-------------------------
    Access    *     Start Time (UTCG)     *     Stop Time (UTCG)  *   Duration (s) *   Data (Mbytes)
         1   01 Jun 2027 03:02:42.110   01 Jun 2027 03:03:11.353            29.243         14621.500
         2   01 Jun 2027 03:03:28.455   01 Jun 2027 03:03:34.709             6.254          3127.000
         3   01 Jun 2027 03:04:32.880   01 Jun 2027 03:05:05.109            32.229         16114.500
         4   01 Jun 2027 03:05:37.230   01 Jun 2027 03:05:39.257             2.027          1013.500
         5   01 Jun 2027 03:06:20.668   01 Jun 2027 03:06:38.440            17.772          8886.000
         6   01 Jun 2027 03:06:51.088   01 Jun 2027 03:06:54.669             3.581          1790.500
         7   01 Jun 2027 03:08:01.172   01 Jun 2027 03:08:35.747            34.575         17287.500
         8   01 Jun 2027 03:08:56.296   01 Jun 2027 03:08:56.296             0.000             0.000
         9   01 Jun 2027 04:39:41.056   01 Jun 2027 04:41:43.666           122.610         61305.000
        10   01 Jun 2027 04:42:19.229   01 Jun 2027 04:42:21.221             1.992           996.000
        11   01 Jun 2027 04:42:42.089   01 Jun 2027 04:43:00.239            18.150          9075.000
        12   01 Jun 2027 04:46:45.440   01 Jun 2027 04:47:05.640            20.200         10100.000
        13   01 Jun 2027 06:16:39.082   01 Jun 2027 06:19:43.926           184.844         92422.000
        14   01 Jun 2027 06:20:09.030   01 Jun 2027 06:20:28.780            19.750          9875.000
        15   01 Jun 2027 06:21:51.031   01 Jun 2027 06:22:17.962            26.931         13465.500
        16   01 Jun 2027 07:54:35.063   01 Jun 2027 07:57:02.779           147.716         73858.000
        17   01 Jun 2027 07:57:14.540   01 Jun 2027 07:57:17.928             3.388          1694.000
        18   01 Jun 2027 07:57:25.726   01 Jun 2027 07:57:29.743             4.017          2008.500
        19   01 Jun 2027 07:57:34.354   01 Jun 2027 07:57:38.438             4.084          2042.000
        20   01 Jun 2027 07:58:09.942   01 Jun 2027 07:58:28.765            18.823          9411.500
        21   01 Jun 2027 09:27:54.903   01 Jun 2027 09:30:55.354           180.451         90225.500
        22   01 Jun 2027 09:31:50.475   01 Jun 2027 09:32:21.030            30.555         15277.500
        23   01 Jun 2027 09:32:45.727   01 Jun 2027 09:33:01.173            15.446          7723.000
        24   01 Jun 2027 09:33:13.341   01 Jun 2027 09:33:30.008            16.667          8333.500
        25   01 Jun 2027 09:34:37.688   01 Jun 2027 09:34:45.420             7.732          3866.000
        26   02 Jun 2027 03:14:05.620   02 Jun 2027 03:20:41.743           396.123        198061.500
        27   02 Jun 2027 03:20:52.138   02 Jun 2027 03:20:59.045             6.907          3453.500
        28   02 Jun 2027 03:22:14.397   02 Jun 2027 03:22:20.786             6.389          3194.500
        29   02 Jun 2027 04:51:42.903   02 Jun 2027 04:54:27.326           164.423         82211.500
        30   02 Jun 2027 04:56:01.825   02 Jun 2027 04:56:10.459             8.634          4317.000
        31   02 Jun 2027 04:58:19.212   02 Jun 2027 04:59:09.076            49.864         24932.000
        32   02 Jun 2027 06:28:28.931   02 Jun 2027 06:34:26.236           357.305        178652.500
        33   02 Jun 2027 06:35:04.549   02 Jun 2027 06:35:11.457             6.908          3454.000
        34   02 Jun 2027 08:06:47.336   02 Jun 2027 08:10:42.662           235.326        117663.000
        35   02 Jun 2027 09:40:21.880   02 Jun 2027 09:47:08.471           406.591        203295.500
        36   03 Jun 2027 03:25:37.949   03 Jun 2027 03:33:54.149           496.200        248100.000
        37   03 Jun 2027 03:34:23.871   03 Jun 2027 03:35:12.517            48.646         24323.000
        38   03 Jun 2027 05:03:43.602   03 Jun 2027 05:11:10.331           446.729        223364.500
        39   03 Jun 2027 06:40:37.939   03 Jun 2027 06:45:44.708           306.769        153384.500
        40   03 Jun 2027 06:45:56.103   03 Jun 2027 06:47:04.213            68.110         34055.000
        41   03 Jun 2027 08:17:46.840   03 Jun 2027 08:22:40.932           294.092        147046.000
        42   03 Jun 2027 09:52:36.915   03 Jun 2027 09:53:33.854            56.939         28469.500
        43   03 Jun 2027 09:54:33.132   03 Jun 2027 09:57:50.440           197.308         98654.000
        44   04 Jun 2027 03:38:38.333   04 Jun 2027 03:47:11.870           513.537        256768.500
        45   04 Jun 2027 05:16:09.379   04 Jun 2027 05:22:55.744           406.365        203182.500
        46   04 Jun 2027 06:53:05.620   04 Jun 2027 06:57:35.385           269.765        134882.500
        47   04 Jun 2027 06:57:53.482   04 Jun 2027 06:58:57.021            63.539         31769.500
        48   04 Jun 2027 08:30:04.795   04 Jun 2027 08:34:35.223           270.428        135214.000
        49   04 Jun 2027 10:07:09.791   04 Jun 2027 10:09:37.221           147.430         73715.000
        50   05 Jun 2027 03:49:18.858   05 Jun 2027 03:49:29.405            10.547          5273.500
        51   05 Jun 2027 03:51:17.109   05 Jun 2027 03:58:05.127           408.018        204009.000
        52   05 Jun 2027 03:58:08.110   05 Jun 2027 03:59:06.157            58.047         29023.500
        53   05 Jun 2027 05:28:16.007   05 Jun 2027 05:35:00.303           404.296        202148.000
        54   05 Jun 2027 07:05:38.692   05 Jun 2027 07:09:41.261           242.569        121284.500
        55   05 Jun 2027 07:09:43.772   05 Jun 2027 07:10:22.643            38.871         19435.500
        56   05 Jun 2027 08:42:25.464   05 Jun 2027 08:47:06.687           281.223        140611.500
        57   05 Jun 2027 10:20:48.175   05 Jun 2027 10:20:58.117             9.942          4971.000
        58   06 Jun 2027 04:04:31.029   06 Jun 2027 04:11:08.315           397.286        198643.000
        59   06 Jun 2027 05:40:49.583   06 Jun 2027 05:47:06.220           376.637        188318.500
        60   06 Jun 2027 07:18:18.143   06 Jun 2027 07:22:45.248           267.105        133552.500
        61   06 Jun 2027 08:54:26.656   06 Jun 2027 08:58:58.974           272.318        136159.000
        62   07 Jun 2027 04:16:32.240   07 Jun 2027 04:23:14.371           402.131        201065.500
        63   07 Jun 2027 05:52:28.082   07 Jun 2027 05:58:48.038           379.956        189978.000
        64   07 Jun 2027 07:30:59.041   07 Jun 2027 07:34:51.252           232.211        116105.500
        65   07 Jun 2027 09:06:19.140   07 Jun 2027 09:10:31.695           252.555        126277.500
        66   07 Jun 2027 09:10:56.346   07 Jun 2027 09:11:29.846            33.500         16750.000
        67   08 Jun 2027 04:27:47.854   08 Jun 2027 04:35:20.882           453.028        226514.000
        68   08 Jun 2027 06:04:37.614   08 Jun 2027 06:10:50.598           372.984        186492.000
        69   08 Jun 2027 07:42:48.984   08 Jun 2027 07:46:45.792           236.808        118404.000
        70   08 Jun 2027 09:16:06.849   08 Jun 2027 09:22:30.022           383.173        191586.500
        71   08 Jun 2027 09:22:50.365   08 Jun 2027 09:23:52.477            62.112         31056.000
        72   09 Jun 2027 03:02:55.966   09 Jun 2027 03:04:15.881            79.915         39957.500
        73   09 Jun 2027 03:04:47.308   09 Jun 2027 03:09:41.617           294.309        147154.500
        74   09 Jun 2027 04:39:55.595   09 Jun 2027 04:47:20.607           445.012        222506.000
        75   09 Jun 2027 06:16:53.586   09 Jun 2027 06:22:47.902           354.316        177158.000
        76   09 Jun 2027 07:55:31.189   09 Jun 2027 07:58:48.414           197.225         98612.500
        77   09 Jun 2027 09:28:09.919   09 Jun 2027 09:35:40.025           450.106        225053.000
        78   10 Jun 2027 03:14:19.463   10 Jun 2027 03:22:01.602           462.139        231069.500
        79   10 Jun 2027 03:22:33.710   10 Jun 2027 03:23:01.132            27.422         13711.000
        80   10 Jun 2027 04:51:57.465   10 Jun 2027 04:59:23.697           446.232        223116.000
        81   10 Jun 2027 06:28:43.937   10 Jun 2027 06:34:40.749           356.812        178406.000
        82   10 Jun 2027 06:35:20.419   10 Jun 2027 06:35:26.418             5.999          2999.500
        83   10 Jun 2027 08:07:01.865   10 Jun 2027 08:10:57.244           235.379        117689.500
        84   10 Jun 2027 09:40:37.155   10 Jun 2027 09:47:22.980           405.825        202912.500
        85   11 Jun 2027 03:25:52.461   11 Jun 2027 03:34:08.854           496.393        248196.500
        86   11 Jun 2027 03:34:27.937   11 Jun 2027 03:35:27.161            59.224         29612.000
        87   11 Jun 2027 05:03:58.239   11 Jun 2027 05:11:24.859           446.620        223310.000
        88   11 Jun 2027 06:40:52.872   11 Jun 2027 06:45:59.257           306.385        153192.500
        89   11 Jun 2027 06:46:10.747   11 Jun 2027 06:47:18.646            67.899         33949.500
        90   11 Jun 2027 08:18:01.476   11 Jun 2027 08:22:55.517           294.041        147020.500
        91   11 Jun 2027 09:52:52.125   11 Jun 2027 09:53:59.786            67.661         33830.500
        92   11 Jun 2027 09:54:50.015   11 Jun 2027 09:58:04.939           194.924         97462.000
        93   12 Jun 2027 03:38:53.002   12 Jun 2027 03:47:26.494           513.492        256746.000
        94   12 Jun 2027 05:16:24.531   12 Jun 2027 05:23:10.451           405.920        202960.000
        95   12 Jun 2027 06:53:20.652   12 Jun 2027 06:57:50.041           269.389        134694.500
        96   12 Jun 2027 06:58:08.044   12 Jun 2027 06:59:11.622            63.578         31789.000
        97   12 Jun 2027 08:30:44.025   12 Jun 2027 08:34:49.613           245.588        122794.000
        98   12 Jun 2027 10:07:24.600   12 Jun 2027 10:09:51.678           147.078         73539.000
        99   13 Jun 2027 03:49:33.097   13 Jun 2027 03:49:43.998            10.901          5450.500
       100   13 Jun 2027 03:51:31.654   13 Jun 2027 03:58:19.773           408.119        204059.500
       101   13 Jun 2027 03:58:22.777   13 Jun 2027 03:59:20.791            58.014         29007.000
       102   13 Jun 2027 05:28:30.425   13 Jun 2027 05:35:14.982           404.557        202278.500
       103   13 Jun 2027 07:06:34.541   13 Jun 2027 07:09:56.061           201.520        100760.000
       104   13 Jun 2027 07:09:58.690   13 Jun 2027 07:10:37.463            38.773         19386.500
       105   13 Jun 2027 08:42:40.648   13 Jun 2027 08:47:07.937           267.289        133644.500
       106   13 Jun 2027 10:21:02.831   13 Jun 2027 10:21:06.035             3.204          1602.000
