uniorb/output/strategy_4/Camera/Camera_KinoSat_111705.txt

KinoSat_111705
-------------------------
    Access    *     Start Time (UTCG)     *     Stop Time (UTCG)  *   Duration (s) *   Data (Mbytes)
         1   01 Jun 2027 03:09:08.997   01 Jun 2027 03:10:34.036            85.039         42519.500
         2   01 Jun 2027 03:11:18.661   01 Jun 2027 03:11:22.595             3.934          1967.000
         3   01 Jun 2027 03:11:58.720   01 Jun 2027 03:12:02.781             4.061          2030.500
         4   01 Jun 2027 03:14:08.060   01 Jun 2027 03:14:25.796            17.736          8868.000
         5   01 Jun 2027 04:48:13.158   01 Jun 2027 04:49:45.213            92.055         46027.500
         6   01 Jun 2027 04:50:30.644   01 Jun 2027 04:50:40.111             9.467          4733.500
         7   01 Jun 2027 04:54:11.507   01 Jun 2027 04:54:20.563             9.056          4528.000
         8   01 Jun 2027 04:55:02.198   01 Jun 2027 04:55:19.440            17.242          8621.000
         9   01 Jun 2027 06:13:02.703   01 Jun 2027 06:13:58.128            55.425         27712.500
        10   01 Jun 2027 06:14:32.247   01 Jun 2027 06:14:38.406             6.159          3079.500
        11   01 Jun 2027 06:24:42.328   01 Jun 2027 06:25:28.257            45.929         22964.500
        12   01 Jun 2027 07:46:59.732   01 Jun 2027 07:48:06.228            66.496         33248.000
        13   01 Jun 2027 07:48:54.044   01 Jun 2027 07:49:28.354            34.310         17155.000
        14   01 Jun 2027 07:51:35.482   01 Jun 2027 07:51:52.422            16.940          8470.000
        15   01 Jun 2027 09:21:53.552   01 Jun 2027 09:23:03.984            70.432         35216.000
        16   01 Jun 2027 09:23:22.257   01 Jun 2027 09:23:36.582            14.325          7162.500
        17   01 Jun 2027 09:23:52.975   01 Jun 2027 09:23:55.141             2.166          1083.000
        18   01 Jun 2027 09:24:01.920   01 Jun 2027 09:24:19.271            17.351          8675.500
        19   01 Jun 2027 09:25:26.894   01 Jun 2027 09:25:26.894             0.000             0.000
        20   01 Jun 2027 09:27:09.830   01 Jun 2027 09:27:09.830             0.000             0.000
        21   01 Jun 2027 09:28:33.025   01 Jun 2027 09:29:10.994            37.969         18984.500
        22   01 Jun 2027 10:59:26.052   01 Jun 2027 11:02:24.070           178.018         89009.000
        23   01 Jun 2027 11:02:28.892   01 Jun 2027 11:02:29.235             0.343           171.500
        24   01 Jun 2027 11:05:38.326   01 Jun 2027 11:06:18.656            40.330         20165.000
        25   02 Jun 2027 03:21:36.371   02 Jun 2027 03:21:54.367            17.996          8998.000
        26   02 Jun 2027 03:22:01.879   02 Jun 2027 03:22:31.655            29.776         14888.000
        27   02 Jun 2027 03:22:36.572   02 Jun 2027 03:23:30.701            54.129         27064.500
        28   02 Jun 2027 03:23:32.839   02 Jun 2027 03:23:44.882            12.043          6021.500
        29   02 Jun 2027 03:23:52.563   02 Jun 2027 03:24:09.861            17.298          8649.000
        30   02 Jun 2027 03:24:56.182   02 Jun 2027 03:25:06.457            10.275          5137.500
        31   02 Jun 2027 03:26:54.756   02 Jun 2027 03:26:54.756             0.000             0.000
        32   02 Jun 2027 03:27:06.213   02 Jun 2027 03:27:22.111            15.898          7949.000
        33   02 Jun 2027 05:00:18.074   02 Jun 2027 05:02:38.459           140.385         70192.500
        34   02 Jun 2027 05:03:02.109   02 Jun 2027 05:05:28.995           146.886         73443.000
        35   02 Jun 2027 06:24:36.099   02 Jun 2027 06:25:01.793            25.694         12847.000
        36   02 Jun 2027 06:25:17.836   02 Jun 2027 06:25:17.836             0.000             0.000
        37   02 Jun 2027 06:36:57.919   02 Jun 2027 06:37:15.578            17.659          8829.500
        38   02 Jun 2027 07:58:30.910   02 Jun 2027 07:59:52.029            81.119         40559.500
        39   02 Jun 2027 08:00:40.369   02 Jun 2027 08:02:47.427           127.058         63529.000
        40   02 Jun 2027 09:33:24.489   02 Jun 2027 09:34:14.762            50.273         24614.562
        41   02 Jun 2027 09:35:23.629   02 Jun 2027 09:35:28.312             4.683          2152.094
        42   02 Jun 2027 09:36:19.152   02 Jun 2027 09:36:25.416             6.264          1575.594
        43   02 Jun 2027 09:37:08.898   02 Jun 2027 09:37:09.919             1.021           378.000
        44   02 Jun 2027 09:39:12.111   02 Jun 2027 09:39:32.807            20.696          2745.500
        45   02 Jun 2027 09:40:18.459   02 Jun 2027 09:40:21.687             3.228           827.594
        46   02 Jun 2027 09:40:43.961   02 Jun 2027 09:40:43.961             0.000             0.000
        47   02 Jun 2027 09:41:04.130   02 Jun 2027 09:41:10.115             5.985          1252.156
        48   02 Jun 2027 09:41:14.924   02 Jun 2027 09:41:17.091             2.167           150.281
        49   02 Jun 2027 09:42:00.932   02 Jun 2027 09:42:06.514             5.582           853.969
        50   02 Jun 2027 09:42:10.643   02 Jun 2027 09:42:12.664             2.021            75.375
        51   02 Jun 2027 09:42:24.733   02 Jun 2027 09:42:26.066             1.333           377.156
        52   02 Jun 2027 11:11:21.063   02 Jun 2027 11:11:29.144             8.081          4040.500
        53   02 Jun 2027 11:15:07.864   02 Jun 2027 11:15:23.447            15.583          7352.281
        54   02 Jun 2027 11:16:22.450   02 Jun 2027 11:16:25.934             3.484          1446.531
        55   02 Jun 2027 11:16:55.965   02 Jun 2027 11:16:59.000             3.035           751.906
        56   02 Jun 2027 11:17:16.736   02 Jun 2027 11:17:20.640             3.904           317.188
        57   02 Jun 2027 11:17:40.280   02 Jun 2027 11:17:43.140             2.860           352.156
        58   02 Jun 2027 11:17:57.193   02 Jun 2027 11:17:59.388             2.195           439.156
        59   02 Jun 2027 11:18:34.627   02 Jun 2027 11:18:38.228             3.601           674.156
        60   03 Jun 2027 03:34:12.315   03 Jun 2027 03:34:24.945            12.630          6315.000
        61   03 Jun 2027 03:34:35.307   03 Jun 2027 03:35:35.833            60.526         30263.000
        62   03 Jun 2027 03:35:44.062   03 Jun 2027 03:36:11.930            27.868         13934.000
        63   03 Jun 2027 03:36:21.288   03 Jun 2027 03:37:52.884            91.596         45798.000
        64   03 Jun 2027 03:38:49.915   03 Jun 2027 03:39:10.527            20.612         10306.000
        65   03 Jun 2027 05:12:43.461   03 Jun 2027 05:13:57.905            74.444         37222.000
        66   03 Jun 2027 05:14:15.714   03 Jun 2027 05:14:45.654            29.940         14937.813
        67   03 Jun 2027 05:16:12.066   03 Jun 2027 05:16:18.784             6.718          2650.625
        68   03 Jun 2027 05:17:08.884   03 Jun 2027 05:17:09.526             0.642           231.250
        69   03 Jun 2027 06:36:32.124   03 Jun 2027 06:36:47.540            15.416          7351.656
        70   03 Jun 2027 06:37:40.469   03 Jun 2027 06:37:42.015             1.546           773.000
        71   03 Jun 2027 06:38:33.444   03 Jun 2027 06:38:39.140             5.696          2202.062
        72   03 Jun 2027 08:12:31.667   03 Jun 2027 08:12:41.143             9.476          4738.000
        73   03 Jun 2027 08:12:55.640   03 Jun 2027 08:12:59.451             3.811           851.344
        74   03 Jun 2027 08:13:19.358   03 Jun 2027 08:13:20.355             0.997           396.125
        75   03 Jun 2027 08:13:57.387   03 Jun 2027 08:13:59.964             2.577          1001.937
        76   03 Jun 2027 08:14:44.797   03 Jun 2027 08:14:47.902             3.105          1361.156
        77   03 Jun 2027 08:15:19.838   03 Jun 2027 08:15:19.838             0.000             0.000
        78   03 Jun 2027 08:15:49.492   03 Jun 2027 08:16:02.310            12.818           935.375
        79   03 Jun 2027 09:46:18.682   03 Jun 2027 09:46:28.815            10.133          3351.531
        80   03 Jun 2027 09:49:47.254   03 Jun 2027 09:49:50.840             3.586          1719.937
        81   03 Jun 2027 09:52:14.796   03 Jun 2027 09:52:19.416             4.620          1973.906
        82   03 Jun 2027 09:53:05.836   03 Jun 2027 09:53:05.836             0.000             0.000
        83   03 Jun 2027 09:53:06.653   03 Jun 2027 09:53:08.464             1.811            53.594
        84   03 Jun 2027 09:53:33.525   03 Jun 2027 09:53:35.137             1.612           232.906
        85   03 Jun 2027 11:23:34.563   03 Jun 2027 11:23:52.206            17.643          6356.000
        86   03 Jun 2027 11:25:01.600   03 Jun 2027 11:25:02.532             0.932           170.063
        87   03 Jun 2027 11:28:23.539   03 Jun 2027 11:28:37.699            14.160          4409.000
        88   03 Jun 2027 11:29:25.323   03 Jun 2027 11:29:29.850             4.527          1370.063
        89   03 Jun 2027 11:29:47.122   03 Jun 2027 11:29:51.742             4.620           539.750
        90   03 Jun 2027 11:30:22.458   03 Jun 2027 11:30:23.980             1.522           739.250
        91   04 Jun 2027 03:46:45.527   04 Jun 2027 03:47:12.376            26.849         13424.500
        92   04 Jun 2027 03:47:23.233   04 Jun 2027 03:50:11.978           168.745         84372.500
        93   04 Jun 2027 03:50:53.909   04 Jun 2027 03:51:26.011            32.102         16051.000
        94   04 Jun 2027 03:52:25.212   04 Jun 2027 03:52:25.665             0.453           226.500
        95   04 Jun 2027 05:25:02.083   04 Jun 2027 05:25:24.038            21.955         10977.500
        96   04 Jun 2027 05:25:48.714   04 Jun 2027 05:26:57.271            68.557         34278.500
        97   04 Jun 2027 05:27:33.036   04 Jun 2027 05:27:37.260             4.224          2103.250
        98   04 Jun 2027 05:28:11.969   04 Jun 2027 05:28:14.617             2.648           450.000
        99   04 Jun 2027 06:48:24.222   04 Jun 2027 06:48:36.815            12.593          5152.375
       100   04 Jun 2027 06:50:25.989   04 Jun 2027 06:50:27.296             1.307           653.500
       101   04 Jun 2027 06:50:54.144   04 Jun 2027 06:50:59.487             5.343          2671.500
       102   04 Jun 2027 08:24:46.364   04 Jun 2027 08:25:01.490            15.126          7071.469
       103   04 Jun 2027 08:25:21.908   04 Jun 2027 08:25:22.402             0.494            48.188
       104   04 Jun 2027 08:25:24.018   04 Jun 2027 08:25:24.018             0.000             0.000
       105   04 Jun 2027 08:25:34.798   04 Jun 2027 08:25:36.158             1.360           387.375
       106   04 Jun 2027 08:26:25.910   04 Jun 2027 08:26:28.560             2.650          1187.656
       107   04 Jun 2027 08:26:41.038   04 Jun 2027 08:26:43.402             2.364           242.063
       108   04 Jun 2027 08:27:22.232   04 Jun 2027 08:27:26.295             4.063          1213.438
       109   04 Jun 2027 09:57:03.561   04 Jun 2027 09:57:08.519             4.958          2289.719
       110   04 Jun 2027 09:59:25.035   04 Jun 2027 09:59:33.080             8.045          3356.219
       111   04 Jun 2027 10:00:45.948   04 Jun 2027 10:00:51.765             5.817           465.844
       112   04 Jun 2027 10:01:36.356   04 Jun 2027 10:01:41.961             5.605          1393.469
       113   04 Jun 2027 10:03:10.411   04 Jun 2027 10:03:16.958             6.547          2424.219
       114   04 Jun 2027 10:04:07.199   04 Jun 2027 10:04:09.277             2.078           262.594
       115   04 Jun 2027 10:05:48.824   04 Jun 2027 10:05:53.174             4.350          2080.906
       116   04 Jun 2027 10:06:10.660   04 Jun 2027 10:06:11.817             1.157           546.438
       117   04 Jun 2027 10:06:44.055   04 Jun 2027 10:06:46.186             2.131            87.125
       118   04 Jun 2027 10:06:47.372   04 Jun 2027 10:06:49.946             2.574            37.062
       119   04 Jun 2027 11:35:54.733   04 Jun 2027 11:36:04.650             9.917          4294.719
       120   04 Jun 2027 11:37:29.694   04 Jun 2027 11:37:31.934             2.240           869.750
       121   04 Jun 2027 11:39:55.126   04 Jun 2027 11:40:02.070             6.944          2379.938
       122   04 Jun 2027 11:40:48.099   04 Jun 2027 11:40:53.061             4.962          1086.750
       123   04 Jun 2027 11:41:39.317   04 Jun 2027 11:41:45.062             5.745          1445.500
       124   04 Jun 2027 11:42:00.594   04 Jun 2027 11:42:03.632             3.038           430.344
       125   04 Jun 2027 11:42:29.546   04 Jun 2027 11:42:32.578             3.032           809.813
       126   05 Jun 2027 03:58:51.980   05 Jun 2027 03:59:53.487            61.507         30753.500
       127   05 Jun 2027 03:59:59.454   05 Jun 2027 04:01:20.058            80.604         40302.000
       128   05 Jun 2027 04:02:24.096   05 Jun 2027 04:02:47.727            23.631         11815.500
       129   05 Jun 2027 04:04:04.399   05 Jun 2027 04:04:26.537            22.138         11069.000
       130   05 Jun 2027 04:04:40.860   05 Jun 2027 04:04:40.860             0.000             0.000
       131   05 Jun 2027 05:37:55.017   05 Jun 2027 05:40:12.460           137.443         68680.812
       132   05 Jun 2027 07:00:27.700   05 Jun 2027 07:00:39.913            12.213          6014.031
       133   05 Jun 2027 07:01:44.403   05 Jun 2027 07:01:50.772             6.369          2015.312
       134   05 Jun 2027 07:02:07.870   05 Jun 2027 07:02:09.739             1.869           301.656
       135   05 Jun 2027 07:02:35.091   05 Jun 2027 07:02:36.229             1.138           382.813
       136   05 Jun 2027 08:36:57.113   05 Jun 2027 08:37:03.472             6.359          2491.219
       137   05 Jun 2027 08:37:18.174   05 Jun 2027 08:37:20.921             2.747           284.031
       138   05 Jun 2027 08:37:51.741   05 Jun 2027 08:37:57.017             5.276           963.125
       139   05 Jun 2027 08:38:37.298   05 Jun 2027 08:38:40.327             3.029          1258.781
       140   05 Jun 2027 08:39:24.361   05 Jun 2027 08:39:36.623            12.262           960.406
       141   05 Jun 2027 10:12:01.850   05 Jun 2027 10:12:07.911             6.061          2288.594
       142   05 Jun 2027 10:13:09.956   05 Jun 2027 10:13:13.069             3.113          1014.906
       143   05 Jun 2027 10:14:01.120   05 Jun 2027 10:14:05.876             4.756          1501.594
       144   05 Jun 2027 10:15:21.243   05 Jun 2027 10:15:24.368             3.125          1057.156
       145   05 Jun 2027 10:17:08.045   05 Jun 2027 10:17:15.784             7.739          2620.969
       146   05 Jun 2027 10:18:27.705   05 Jun 2027 10:18:34.948             7.243          2105.437
       147   05 Jun 2027 11:48:23.308   05 Jun 2027 11:48:38.607            15.299          6482.156
       148   05 Jun 2027 11:50:10.326   05 Jun 2027 11:50:13.355             3.029           691.812
       149   05 Jun 2027 11:51:06.539   05 Jun 2027 11:51:14.582             8.043          1394.438
       150   05 Jun 2027 11:52:35.307   05 Jun 2027 11:52:43.956             8.649          1736.125
       151   05 Jun 2027 11:53:44.863   05 Jun 2027 11:53:50.386             5.523          1881.000
       152   05 Jun 2027 11:54:22.148   05 Jun 2027 11:54:24.486             2.338           992.563
       153   05 Jun 2027 11:54:36.245   05 Jun 2027 11:54:40.869             4.624           218.469
       154   06 Jun 2027 04:10:50.619   06 Jun 2027 04:11:36.276            45.657         22828.500
       155   06 Jun 2027 04:11:56.915   06 Jun 2027 04:13:31.154            94.239         47119.500
       156   06 Jun 2027 04:14:11.226   06 Jun 2027 04:14:13.953             2.727          1363.500
       157   06 Jun 2027 04:14:36.201   06 Jun 2027 04:15:02.608            26.407         13203.500
       158   06 Jun 2027 04:16:47.700   06 Jun 2027 04:16:58.094            10.394          5197.000
       159   06 Jun 2027 05:49:04.129   06 Jun 2027 05:50:05.540            61.411         30705.500
       160   06 Jun 2027 05:50:11.755   06 Jun 2027 05:50:50.224            38.469         19234.500
       161   06 Jun 2027 05:51:14.068   06 Jun 2027 05:51:50.877            36.809         18404.500
       162   06 Jun 2027 07:12:24.843   06 Jun 2027 07:12:42.793            17.950          8078.344
       163   06 Jun 2027 07:13:17.594   06 Jun 2027 07:13:20.235             2.641           582.344
       164   06 Jun 2027 07:13:55.367   06 Jun 2027 07:13:55.367             0.000             0.000
       165   06 Jun 2027 07:15:06.039   06 Jun 2027 07:15:07.694             1.655           827.500
       166   06 Jun 2027 07:15:31.919   06 Jun 2027 07:15:39.154             7.235          3042.000
       167   06 Jun 2027 08:49:02.490   06 Jun 2027 08:49:08.537             6.047          2166.625
       168   06 Jun 2027 08:50:13.809   06 Jun 2027 08:50:18.637             4.828          1652.188
       169   06 Jun 2027 08:51:35.701   06 Jun 2027 08:51:40.909             5.208          2308.594
       170   06 Jun 2027 08:52:11.876   06 Jun 2027 08:52:15.036             3.160           250.156
       171   06 Jun 2027 10:24:12.414   06 Jun 2027 10:24:17.613             5.199          2239.875
       172   06 Jun 2027 10:25:38.098   06 Jun 2027 10:25:43.314             5.216          2253.250
       173   06 Jun 2027 10:26:12.211   06 Jun 2027 10:26:14.570             2.359           518.688
       174   06 Jun 2027 10:27:17.677   06 Jun 2027 10:27:17.677             0.000             0.000
       175   06 Jun 2027 10:29:08.422   06 Jun 2027 10:29:18.725            10.303          3853.813
       176   06 Jun 2027 10:30:36.822   06 Jun 2027 10:30:39.897             3.075           840.750
       177   07 Jun 2027 04:23:55.985   07 Jun 2027 04:25:17.476            81.491         40745.500
       178   07 Jun 2027 04:26:10.707   07 Jun 2027 04:26:24.815            14.108          7054.000
       179   07 Jun 2027 04:28:52.102   07 Jun 2027 04:29:10.582            18.480          9240.000
       180   07 Jun 2027 04:30:11.528   07 Jun 2027 04:30:32.706            21.178         10589.000
       181   07 Jun 2027 04:30:36.615   07 Jun 2027 04:30:47.372            10.757          5378.500
       182   07 Jun 2027 04:30:49.827   07 Jun 2027 04:30:53.874             4.047          2023.500
       183   07 Jun 2027 05:50:16.008   07 Jun 2027 05:50:25.953             9.945          4972.500
       184   07 Jun 2027 06:01:01.828   07 Jun 2027 06:01:43.697            41.869         20934.500
       185   07 Jun 2027 06:01:49.037   07 Jun 2027 06:03:17.792            88.755         44377.500
       186   07 Jun 2027 06:04:02.565   07 Jun 2027 06:04:33.080            30.515         15236.750
       187   07 Jun 2027 07:25:01.198   07 Jun 2027 07:25:12.819            11.621          5643.875
       188   07 Jun 2027 07:25:54.898   07 Jun 2027 07:25:57.929             3.031           725.000
       189   07 Jun 2027 09:00:46.221   07 Jun 2027 09:00:52.154             5.933          2660.813
       190   07 Jun 2027 09:02:07.417   07 Jun 2027 09:02:15.400             7.983          1471.438
       191   07 Jun 2027 09:03:06.744   07 Jun 2027 09:03:07.295             0.551           275.500
       192   07 Jun 2027 09:03:14.994   07 Jun 2027 09:03:18.444             3.450          1440.688
       193   07 Jun 2027 09:03:33.859   07 Jun 2027 09:03:33.859             0.000             0.000
       194   07 Jun 2027 10:35:37.550   07 Jun 2027 10:35:49.533            11.983          4203.719
       195   07 Jun 2027 10:38:07.237   07 Jun 2027 10:38:14.603             7.366          3659.438
       196   07 Jun 2027 10:38:31.072   07 Jun 2027 10:38:33.057             1.985           150.187
       197   07 Jun 2027 10:39:00.559   07 Jun 2027 10:39:00.559             0.000             0.000
       198   07 Jun 2027 10:41:08.190   07 Jun 2027 10:41:17.895             9.705          4304.750
       199   07 Jun 2027 10:42:03.779   07 Jun 2027 10:42:06.957             3.178          1134.688
       200   07 Jun 2027 10:42:35.015   07 Jun 2027 10:42:41.694             6.679           763.250
       201   08 Jun 2027 03:00:00.000   08 Jun 2027 03:00:09.016             9.016          4508.000
       202   08 Jun 2027 03:00:24.985   08 Jun 2027 03:00:28.086             3.101          1550.500
       203   08 Jun 2027 03:00:53.628   08 Jun 2027 03:01:02.195             8.567          4283.500
       204   08 Jun 2027 03:01:38.757   08 Jun 2027 03:01:58.086            19.329          9664.500
       205   08 Jun 2027 03:02:44.434   08 Jun 2027 03:02:46.439             2.005          1002.500
       206   08 Jun 2027 03:03:36.801   08 Jun 2027 03:03:45.803             9.002          4501.000
       207   08 Jun 2027 04:36:16.679   08 Jun 2027 04:38:16.314           119.635         59817.500
       208   08 Jun 2027 04:38:39.802   08 Jun 2027 04:38:41.577             1.775           887.500
       209   08 Jun 2027 04:39:22.419   08 Jun 2027 04:39:27.499             5.080          2540.000
       210   08 Jun 2027 04:42:16.166   08 Jun 2027 04:43:33.697            77.531         38765.500
       211   08 Jun 2027 06:01:32.789   08 Jun 2027 06:02:46.811            74.022         37011.000
       212   08 Jun 2027 06:13:00.464   08 Jun 2027 06:13:26.672            26.208         12855.875
       213   08 Jun 2027 07:35:39.590   08 Jun 2027 07:35:49.764            10.174          4407.344
       214   08 Jun 2027 07:36:27.398   08 Jun 2027 07:36:28.919             1.521           311.781
       215   08 Jun 2027 07:37:15.345   08 Jun 2027 07:37:17.849             2.504            55.750
       216   08 Jun 2027 07:38:20.311   08 Jun 2027 07:38:25.674             5.363          1082.750
       217   08 Jun 2027 07:39:51.821   08 Jun 2027 07:39:56.569             4.748          1784.969
       218   08 Jun 2027 09:10:59.735   08 Jun 2027 09:11:07.281             7.546          3208.312
       219   08 Jun 2027 09:15:22.715   08 Jun 2027 09:15:34.211            11.496          4707.281
       220   08 Jun 2027 09:15:54.332   08 Jun 2027 09:15:58.635             4.303           540.156
       221   08 Jun 2027 10:47:29.630   08 Jun 2027 10:47:35.044             5.414          2658.219
       222   08 Jun 2027 10:48:02.553   08 Jun 2027 10:48:03.966             1.413           481.156
       223   08 Jun 2027 10:50:43.629   08 Jun 2027 10:50:47.639             4.010          1972.844
       224   08 Jun 2027 10:52:00.228   08 Jun 2027 10:52:05.101             4.873          2059.750
       225   08 Jun 2027 10:52:06.014   08 Jun 2027 10:52:06.081             0.067            28.531
       226   08 Jun 2027 10:52:20.631   08 Jun 2027 10:52:24.023             3.392           454.687
       227   08 Jun 2027 10:53:07.248   08 Jun 2027 10:53:07.248             0.000             0.000
       228   08 Jun 2027 10:54:12.276   08 Jun 2027 10:54:21.089             8.813          3297.469
       229   09 Jun 2027 03:09:26.955   09 Jun 2027 03:10:30.357            63.402         31701.000
       230   09 Jun 2027 03:10:48.896   09 Jun 2027 03:10:51.270             2.374          1187.000
       231   09 Jun 2027 03:12:08.971   09 Jun 2027 03:12:17.712             8.741          4370.500
       232   09 Jun 2027 03:12:32.718   09 Jun 2027 03:12:51.293            18.575          9287.500
       233   09 Jun 2027 03:14:54.484   09 Jun 2027 03:15:04.712            10.228          5114.000
       234   09 Jun 2027 04:48:32.542   09 Jun 2027 04:51:11.887           159.345         79672.500
       235   09 Jun 2027 04:52:19.478   09 Jun 2027 04:53:00.989            41.511         19835.999
       236   09 Jun 2027 04:53:36.255   09 Jun 2027 04:53:38.555             2.300           467.094
       237   09 Jun 2027 04:54:27.087   09 Jun 2027 04:54:29.356             2.269           275.813
       238   09 Jun 2027 04:55:18.195   09 Jun 2027 04:55:23.854             5.659          1084.844
       239   09 Jun 2027 06:12:47.457   09 Jun 2027 06:13:06.997            19.540          9398.281
       240   09 Jun 2027 06:24:59.730   09 Jun 2027 06:25:08.431             8.701          3519.719
       241   09 Jun 2027 07:47:15.690   09 Jun 2027 07:47:25.857            10.167          4802.500
       242   09 Jun 2027 07:48:07.413   09 Jun 2027 07:48:22.435            15.022           932.750
       243   09 Jun 2027 07:49:11.401   09 Jun 2027 07:49:12.357             0.956           247.719
       244   09 Jun 2027 07:49:55.397   09 Jun 2027 07:49:56.890             1.493           693.312
       245   09 Jun 2027 07:51:05.032   09 Jun 2027 07:51:09.610             4.578          1987.906
       246   09 Jun 2027 07:51:34.678   09 Jun 2027 07:51:37.805             3.127            79.875
       247   09 Jun 2027 09:22:09.153   09 Jun 2027 09:22:14.694             5.541          2736.000
       248   09 Jun 2027 09:23:22.427   09 Jun 2027 09:23:23.822             1.395           382.125
       249   09 Jun 2027 09:24:25.722   09 Jun 2027 09:24:28.814             3.092          1426.281
       250   09 Jun 2027 09:25:27.157   09 Jun 2027 09:25:29.487             2.330           325.969
       251   09 Jun 2027 09:26:01.619   09 Jun 2027 09:26:04.047             2.428           385.844
       252   09 Jun 2027 09:27:47.803   09 Jun 2027 09:27:51.297             3.494           574.188
       253   09 Jun 2027 09:28:43.275   09 Jun 2027 09:28:46.624             3.349          1116.625
       254   09 Jun 2027 09:28:52.110   09 Jun 2027 09:28:52.800             0.690           148.219
       255   09 Jun 2027 09:30:13.656   09 Jun 2027 09:30:19.360             5.704          1221.063
       256   09 Jun 2027 10:59:43.098   09 Jun 2027 10:59:57.799            14.701          5003.875
       257   09 Jun 2027 11:03:08.038   09 Jun 2027 11:03:11.443             3.405           783.312
       258   09 Jun 2027 11:04:06.121   09 Jun 2027 11:04:08.241             2.120           432.469
       259   09 Jun 2027 11:04:31.076   09 Jun 2027 11:04:33.095             2.019           477.156
       260   09 Jun 2027 11:04:56.972   09 Jun 2027 11:04:59.364             2.392           746.156
       261   09 Jun 2027 11:05:09.848   09 Jun 2027 11:05:12.770             2.922           327.625
       262   09 Jun 2027 11:06:11.615   09 Jun 2027 11:06:16.328             4.713          1612.344
       263   09 Jun 2027 11:06:53.612   09 Jun 2027 11:07:03.122             9.510           866.813
       264   10 Jun 2027 03:21:53.871   10 Jun 2027 03:22:10.673            16.802          8401.000
       265   10 Jun 2027 03:22:19.805   10 Jun 2027 03:22:47.359            27.554         13777.000
       266   10 Jun 2027 03:23:13.130   10 Jun 2027 03:23:47.812            34.682         17341.000
       267   10 Jun 2027 03:23:49.324   10 Jun 2027 03:24:07.141            17.817          8908.500
       268   10 Jun 2027 03:24:51.392   10 Jun 2027 03:26:30.624            99.232         49616.000
       269   10 Jun 2027 05:00:37.387   10 Jun 2027 05:02:17.405           100.018         49676.344
       270   10 Jun 2027 05:03:16.227   10 Jun 2027 05:03:21.209             4.982          1658.562
       271   10 Jun 2027 05:05:08.639   10 Jun 2027 05:05:12.719             4.080          1372.281
       272   10 Jun 2027 05:06:58.891   10 Jun 2027 05:07:00.950             2.059           919.187
       273   10 Jun 2027 05:07:22.591   10 Jun 2027 05:07:26.833             4.242           237.531
       274   10 Jun 2027 06:24:53.439   10 Jun 2027 06:25:08.363            14.924          6922.594
       275   10 Jun 2027 06:25:34.795   10 Jun 2027 06:25:36.777             1.982           554.219
       276   10 Jun 2027 06:26:43.825   10 Jun 2027 06:26:50.634             6.809          1447.250
       277   10 Jun 2027 06:37:20.925   10 Jun 2027 06:37:27.052             6.127          2544.062
       278   10 Jun 2027 07:58:44.935   10 Jun 2027 07:58:53.728             8.793          2976.750
       279   10 Jun 2027 08:00:45.132   10 Jun 2027 08:00:50.296             5.164          1624.937
       280   10 Jun 2027 08:01:34.935   10 Jun 2027 08:01:40.033             5.098          1362.781
       281   10 Jun 2027 08:02:28.331   10 Jun 2027 08:02:32.082             3.751          1385.656
       282   10 Jun 2027 08:03:53.883   10 Jun 2027 08:04:00.096             6.213          2556.281
       283   10 Jun 2027 09:33:39.794   10 Jun 2027 09:33:45.618             5.824          2808.906
       284   10 Jun 2027 09:35:41.414   10 Jun 2027 09:35:46.527             5.113          2222.125
       285   10 Jun 2027 09:35:55.086   10 Jun 2027 09:35:55.824             0.738           238.844
       286   10 Jun 2027 09:37:20.895   10 Jun 2027 09:37:26.639             5.744          2309.344
       287   10 Jun 2027 09:39:29.529   10 Jun 2027 09:39:48.046            18.517          2724.750
       288   10 Jun 2027 09:40:42.949   10 Jun 2027 09:40:43.153             0.204            84.188
       289   10 Jun 2027 09:40:53.671   10 Jun 2027 09:40:58.448             4.777            63.031
       290   10 Jun 2027 09:41:22.210   10 Jun 2027 09:41:25.844             3.634           609.344
       291   10 Jun 2027 09:42:15.903   10 Jun 2027 09:42:21.359             5.456           828.125
       292   10 Jun 2027 09:42:40.114   10 Jun 2027 09:42:40.698             0.584           104.125
       293   10 Jun 2027 09:42:50.234   10 Jun 2027 09:42:51.784             1.550           101.750
       294   10 Jun 2027 11:11:37.255   10 Jun 2027 11:11:51.728            14.473          4749.750
       295   10 Jun 2027 11:15:28.212   10 Jun 2027 11:15:44.838            16.626          6765.125
       296   10 Jun 2027 11:16:10.247   10 Jun 2027 11:16:14.687             4.440           228.781
       297   10 Jun 2027 11:16:29.437   10 Jun 2027 11:16:30.696             1.259           388.656
       298   10 Jun 2027 11:16:48.297   10 Jun 2027 11:16:54.179             5.882           550.031
       299   10 Jun 2027 11:17:46.265   10 Jun 2027 11:17:51.596             5.331          1471.250
       300   10 Jun 2027 11:18:07.639   10 Jun 2027 11:18:14.175             6.536           501.344
       301   10 Jun 2027 11:18:37.561   10 Jun 2027 11:18:39.577             2.016           730.813
       302   11 Jun 2027 03:34:30.469   11 Jun 2027 03:34:41.651            11.182          5591.000
       303   11 Jun 2027 03:34:53.226   11 Jun 2027 03:35:54.579            61.353         30676.500
       304   11 Jun 2027 03:36:00.573   11 Jun 2027 03:36:36.822            36.249         18124.500
       305   11 Jun 2027 03:36:38.694   11 Jun 2027 03:38:07.363            88.669         44334.500
       306   11 Jun 2027 03:40:05.080   11 Jun 2027 03:40:06.587             1.507           753.500
       307   11 Jun 2027 05:13:00.273   11 Jun 2027 05:14:52.034           111.761         55248.437
       308   11 Jun 2027 05:16:29.809   11 Jun 2027 05:16:36.214             6.405          2637.625
       309   11 Jun 2027 05:17:22.919   11 Jun 2027 05:17:24.796             1.877           145.875
       310   11 Jun 2027 06:36:49.513   11 Jun 2027 06:37:02.607            13.094          6195.781
       311   11 Jun 2027 06:37:57.565   11 Jun 2027 06:37:58.977             1.412           706.000
       312   11 Jun 2027 06:38:50.703   11 Jun 2027 06:38:56.561             5.858          2337.344
       313   11 Jun 2027 08:12:49.078   11 Jun 2027 08:12:59.931            10.853          5196.750
       314   11 Jun 2027 08:13:34.312   11 Jun 2027 08:13:35.790             1.478           618.406
       315   11 Jun 2027 08:14:18.499   11 Jun 2027 08:14:21.329             2.830          1318.469
       316   11 Jun 2027 08:15:54.419   11 Jun 2027 08:16:02.599             8.180          2467.344
       317   11 Jun 2027 09:46:33.407   11 Jun 2027 09:46:38.876             5.469          2240.281
       318   11 Jun 2027 09:48:16.569   11 Jun 2027 09:48:19.621             3.052          1070.219
       319   11 Jun 2027 09:48:48.858   11 Jun 2027 09:48:51.094             2.236           319.062
       320   11 Jun 2027 09:49:08.696   11 Jun 2027 09:49:10.368             1.672           501.250
       321   11 Jun 2027 09:51:28.985   11 Jun 2027 09:51:34.390             5.405          2606.562
       322   11 Jun 2027 09:53:23.883   11 Jun 2027 09:53:28.302             4.419          1662.937
       323   11 Jun 2027 09:55:08.025   11 Jun 2027 09:55:08.156             0.131            65.500
       324   11 Jun 2027 11:23:58.616   11 Jun 2027 11:24:11.778            13.162          6205.594
       325   11 Jun 2027 11:26:18.306   11 Jun 2027 11:26:22.726             4.420          1776.906
       326   11 Jun 2027 11:26:26.895   11 Jun 2027 11:26:29.467             2.572            61.750
       327   11 Jun 2027 11:27:17.675   11 Jun 2027 11:27:18.211             0.536           113.531
       328   11 Jun 2027 11:27:52.127   11 Jun 2027 11:27:56.197             4.070           224.875
       329   11 Jun 2027 11:28:34.930   11 Jun 2027 11:28:38.350             3.420          1203.031
       330   11 Jun 2027 11:28:57.944   11 Jun 2027 11:28:58.523             0.579           262.938
       331   11 Jun 2027 11:30:21.495   11 Jun 2027 11:30:24.459             2.964          1286.875
       332   11 Jun 2027 11:30:31.241   11 Jun 2027 11:30:31.869             0.628           211.937
       333   11 Jun 2027 11:31:02.295   11 Jun 2027 11:31:03.836             1.541           770.500
       334   12 Jun 2027 03:47:01.844   12 Jun 2027 03:47:11.054             9.210          4605.000
       335   12 Jun 2027 03:49:01.407   12 Jun 2027 03:51:42.353           160.946         80473.000
       336   12 Jun 2027 03:52:20.467   12 Jun 2027 03:53:11.802            51.335         25667.500
       337   12 Jun 2027 05:25:00.838   12 Jun 2027 05:25:38.609            37.771         18885.500
       338   12 Jun 2027 05:27:15.543   12 Jun 2027 05:28:25.355            69.812         34197.250
       339   12 Jun 2027 06:48:41.085   12 Jun 2027 06:49:02.680            21.595          6713.625
       340   12 Jun 2027 06:50:23.376   12 Jun 2027 06:50:36.308            12.932          2455.875
       341   12 Jun 2027 06:51:11.717   12 Jun 2027 06:51:14.130             2.413           900.500
       342   12 Jun 2027 08:25:03.694   12 Jun 2027 08:25:20.187            16.493          6860.094
       343   12 Jun 2027 08:25:37.676   12 Jun 2027 08:25:38.069             0.393           175.031
       344   12 Jun 2027 08:25:53.950   12 Jun 2027 08:25:56.374             2.424           467.188
       345   12 Jun 2027 08:26:44.790   12 Jun 2027 08:26:48.292             3.502          1173.125
       346   12 Jun 2027 08:26:56.791   12 Jun 2027 08:26:57.232             0.441           209.469
       347   12 Jun 2027 08:27:39.853   12 Jun 2027 08:27:42.880             3.027          1331.906
       348   12 Jun 2027 09:59:08.160   12 Jun 2027 09:59:12.757             4.597          2247.156
       349   12 Jun 2027 10:00:50.387   12 Jun 2027 10:00:54.739             4.352          2114.406
       350   12 Jun 2027 10:01:10.818   12 Jun 2027 10:01:12.451             1.633           266.406
       351   12 Jun 2027 10:02:11.405   12 Jun 2027 10:02:15.404             3.999           455.500
       352   12 Jun 2027 10:03:42.954   12 Jun 2027 10:03:47.477             4.523           542.469
       353   12 Jun 2027 10:05:25.164   12 Jun 2027 10:05:30.489             5.325          2110.531
       354   12 Jun 2027 10:06:12.985   12 Jun 2027 10:06:14.592             1.607           638.750
       355   12 Jun 2027 10:07:00.220   12 Jun 2027 10:07:03.495             3.275           956.562
       356   12 Jun 2027 11:36:12.090   12 Jun 2027 11:36:20.928             8.838          4065.250
       357   12 Jun 2027 11:38:16.853   12 Jun 2027 11:38:19.380             2.527           921.281
       358   12 Jun 2027 11:40:11.219   12 Jun 2027 11:40:16.345             5.126          2350.063
       359   12 Jun 2027 11:40:36.595   12 Jun 2027 11:40:39.882             3.287           197.906
       360   12 Jun 2027 11:41:19.645   12 Jun 2027 11:41:22.378             2.733           713.969
       361   12 Jun 2027 11:41:54.747   12 Jun 2027 11:41:59.755             5.008           912.562
       362   12 Jun 2027 11:42:17.594   12 Jun 2027 11:42:19.534             1.940           478.125
       363   13 Jun 2027 03:59:07.878   13 Jun 2027 04:00:09.793            61.915         30957.500
       364   13 Jun 2027 04:00:16.266   13 Jun 2027 04:00:40.717            24.451         12225.500
       365   13 Jun 2027 04:01:11.599   13 Jun 2027 04:01:37.126            25.527         12763.500
       366   13 Jun 2027 04:01:43.594   13 Jun 2027 04:01:48.124             4.530          2265.000
       367   13 Jun 2027 04:01:57.591   13 Jun 2027 04:03:13.091            75.500         37750.000
       368   13 Jun 2027 04:03:35.475   13 Jun 2027 04:03:36.652             1.177           588.500
       369   13 Jun 2027 04:04:21.686   13 Jun 2027 04:04:43.833            22.147         11073.500
       370   13 Jun 2027 05:38:14.014   13 Jun 2027 05:40:06.907           112.893         56446.500
       371   13 Jun 2027 05:40:25.793   13 Jun 2027 05:40:30.409             4.616          2064.093
       372   13 Jun 2027 07:00:45.482   13 Jun 2027 07:00:54.926             9.444          4722.000
       373   13 Jun 2027 07:02:01.328   13 Jun 2027 07:02:12.149            10.821          3226.313
       374   13 Jun 2027 07:02:24.843   13 Jun 2027 07:02:27.344             2.501           321.625
       375   13 Jun 2027 07:03:21.329   13 Jun 2027 07:03:24.311             2.982          1346.469
       376   13 Jun 2027 08:37:14.495   13 Jun 2027 08:37:20.336             5.841          2858.313
       377   13 Jun 2027 08:37:34.660   13 Jun 2027 08:37:37.805             3.145           272.594
       378   13 Jun 2027 08:38:09.205   13 Jun 2027 08:38:13.708             4.503           981.250
       379   13 Jun 2027 08:38:56.396   13 Jun 2027 08:38:59.433             3.037          1249.500
       380   13 Jun 2027 08:39:41.961   13 Jun 2027 08:39:48.763             6.802           959.969
       381   13 Jun 2027 10:12:20.104   13 Jun 2027 10:12:29.456             9.352          3663.250
       382   13 Jun 2027 10:13:29.714   13 Jun 2027 10:13:32.416             2.702          1127.250
       383   13 Jun 2027 10:14:19.944   13 Jun 2027 10:14:24.183             4.239          1485.250
       384   13 Jun 2027 10:15:43.565   13 Jun 2027 10:15:47.514             3.949           564.687
       385   13 Jun 2027 10:17:26.003   13 Jun 2027 10:17:32.134             6.131          2706.688
       386   13 Jun 2027 10:18:41.268   13 Jun 2027 10:18:45.645             4.377          2020.125
       387   13 Jun 2027 10:18:58.823   13 Jun 2027 10:18:59.768             0.945           411.813
       388   13 Jun 2027 11:48:42.396   13 Jun 2027 11:48:54.068            11.672          5782.531
       389   13 Jun 2027 11:50:28.374   13 Jun 2027 11:50:31.234             2.860           779.406
       390   13 Jun 2027 11:50:38.438   13 Jun 2027 11:50:42.567             4.129            26.187
       391   13 Jun 2027 11:52:14.378   13 Jun 2027 11:52:21.010             6.632          2346.781
       392   13 Jun 2027 11:52:32.360   13 Jun 2027 11:52:33.357             0.997            18.969
       393   13 Jun 2027 11:53:41.893   13 Jun 2027 11:53:57.615            15.722          1857.313
       394   13 Jun 2027 11:54:09.156   13 Jun 2027 11:54:11.301             2.145           245.063
       395   13 Jun 2027 11:54:44.784   13 Jun 2027 11:54:52.479             7.695           789.156
