uniorb/output/strategy_4/Camera/Camera_KinoSat_110109.txt

KinoSat_110109
-------------------------
    Access    *     Start Time (UTCG)     *     Stop Time (UTCG)  *   Duration (s) *   Data (Mbytes)
         1   01 Jun 2027 03:28:05.142   01 Jun 2027 03:30:25.765           140.623         70311.500
         2   01 Jun 2027 03:30:28.821   01 Jun 2027 03:30:32.299             3.478          1739.000
         3   01 Jun 2027 03:31:39.081   01 Jun 2027 03:32:01.655            22.574         11287.000
         4   01 Jun 2027 03:32:26.875   01 Jun 2027 03:32:42.347            15.472          7736.000
         5   01 Jun 2027 03:33:50.972   01 Jun 2027 03:33:57.976             7.004          3502.000
         6   01 Jun 2027 05:05:36.239   01 Jun 2027 05:07:46.528           130.289         65144.500
         7   01 Jun 2027 05:08:03.676   01 Jun 2027 05:08:14.968            11.292          5646.000
         8   01 Jun 2027 05:08:51.497   01 Jun 2027 05:08:56.710             5.213          2606.500
         9   01 Jun 2027 05:09:45.104   01 Jun 2027 05:10:06.426            21.322         10661.000
        10   01 Jun 2027 05:10:11.540   01 Jun 2027 05:10:12.633             1.093           546.500
        11   01 Jun 2027 06:41:54.590   01 Jun 2027 06:44:14.557           139.967         69983.500
        12   01 Jun 2027 06:44:45.557   01 Jun 2027 06:44:56.497            10.940          5470.000
        13   01 Jun 2027 06:45:24.125   01 Jun 2027 06:45:45.287            21.162         10581.000
        14   01 Jun 2027 08:20:08.886   01 Jun 2027 08:20:39.935            31.049         15524.500
        15   02 Jun 2027 03:40:39.707   02 Jun 2027 03:46:56.065           376.358        188179.000
        16   02 Jun 2027 05:18:02.567   02 Jun 2027 05:22:35.339           272.772        136386.000
        17   02 Jun 2027 06:54:11.957   02 Jun 2027 06:58:49.416           277.459        138729.500
        18   03 Jun 2027 03:52:16.757   03 Jun 2027 03:58:38.535           381.778        190889.000
        19   03 Jun 2027 05:30:15.385   03 Jun 2027 05:34:39.796           264.411        132205.500
        20   03 Jun 2027 07:06:06.412   03 Jun 2027 07:10:20.924           254.512        127256.000
        21   03 Jun 2027 07:10:26.991   03 Jun 2027 07:11:21.280            54.289         27144.500
        22   04 Jun 2027 04:04:27.247   04 Jun 2027 04:10:46.204           378.957        189478.500
        23   04 Jun 2027 05:42:37.596   04 Jun 2027 05:46:35.052           237.456        118728.000
        24   04 Jun 2027 07:15:54.796   04 Jun 2027 07:17:39.622           104.826         52413.000
        25   04 Jun 2027 07:17:41.749   04 Jun 2027 07:22:20.835           279.086        139543.000
        26   04 Jun 2027 07:22:52.461   04 Jun 2027 07:23:43.812            51.351         25675.500
        27   05 Jun 2027 04:16:42.603   05 Jun 2027 04:22:51.195           368.592        184296.000
        28   05 Jun 2027 05:54:38.875   05 Jun 2027 05:58:37.755           238.880        119440.000
        29   05 Jun 2027 07:28:00.618   05 Jun 2027 07:35:42.367           461.749        230874.500
        30   06 Jun 2027 04:28:33.558   06 Jun 2027 04:34:29.811           356.253        178126.500
        31   06 Jun 2027 04:34:41.817   06 Jun 2027 04:35:16.697            34.880         17440.000
        32   06 Jun 2027 06:06:35.906   06 Jun 2027 06:10:46.356           250.450        125225.000
        33   06 Jun 2027 07:40:40.123   06 Jun 2027 07:47:11.650           391.527        195763.500
        34   07 Jun 2027 03:03:48.832   07 Jun 2027 03:11:11.596           442.764        221382.000
        35   07 Jun 2027 04:40:43.938   07 Jun 2027 04:45:48.396           304.458        152229.000
        36   07 Jun 2027 04:46:04.448   07 Jun 2027 04:47:07.222            62.774         31387.000
        37   07 Jun 2027 06:17:51.743   07 Jun 2027 06:22:44.718           292.975        146487.500
        38   07 Jun 2027 07:53:02.694   07 Jun 2027 07:53:43.915            41.221         20610.500
        39   07 Jun 2027 07:55:20.083   07 Jun 2027 07:57:53.806           153.723         76861.500
        40   08 Jun 2027 03:16:15.731   08 Jun 2027 03:23:00.532           404.801        202400.500
        41   08 Jun 2027 04:53:10.322   08 Jun 2027 04:57:39.281           268.959        134479.500
        42   08 Jun 2027 04:57:44.290   08 Jun 2027 04:59:00.660            76.370         38185.000
        43   08 Jun 2027 06:30:05.768   08 Jun 2027 06:34:37.930           272.162        136081.000
        44   08 Jun 2027 08:07:13.904   08 Jun 2027 08:09:40.602           146.698         73349.000
        45   09 Jun 2027 03:28:20.445   09 Jun 2027 03:35:04.776           404.331        202165.500
        46   09 Jun 2027 05:05:53.254   09 Jun 2027 05:10:27.900           274.646        137323.000
        47   09 Jun 2027 06:42:10.649   09 Jun 2027 06:46:55.027           284.378        142189.000
        48   10 Jun 2027 03:40:55.096   10 Jun 2027 03:47:11.194           376.098        188049.000
        49   10 Jun 2027 05:18:16.751   10 Jun 2027 05:22:50.589           273.838        136919.000
        50   10 Jun 2027 06:54:40.665   10 Jun 2027 06:59:04.746           264.081        132040.500
        51   11 Jun 2027 03:52:31.372   11 Jun 2027 03:58:54.029           382.657        191328.500
        52   11 Jun 2027 05:30:30.553   11 Jun 2027 05:34:54.251           263.698        131849.000
        53   11 Jun 2027 07:06:31.152   11 Jun 2027 07:10:35.858           244.706        122353.000
        54   11 Jun 2027 07:10:41.923   11 Jun 2027 07:11:36.961            55.038         27519.000
        55   12 Jun 2027 04:04:42.941   12 Jun 2027 04:11:01.016           378.075        189037.500
        56   12 Jun 2027 05:42:52.626   12 Jun 2027 05:46:49.766           237.140        118570.000
        57   12 Jun 2027 07:16:28.485   12 Jun 2027 07:17:55.034            86.549         43274.500
        58   12 Jun 2027 07:17:55.808   12 Jun 2027 07:22:36.215           280.407        140203.500
        59   12 Jun 2027 07:23:14.149   12 Jun 2027 07:23:59.038            44.889         22444.500
        60   13 Jun 2027 04:16:57.543   13 Jun 2027 04:23:06.166           368.623        184311.500
        61   13 Jun 2027 05:54:51.484   13 Jun 2027 05:58:52.642           241.158        120579.000
        62   13 Jun 2027 07:28:15.999   13 Jun 2027 07:35:57.266           461.267        230633.500
