uniorb/output/strategy_4/Camera/Camera_KinoSat_110301.txt

KinoSat_110301
-------------------------
    Access    *     Start Time (UTCG)     *     Stop Time (UTCG)  *   Duration (s) *   Data (Mbytes)
         1   01 Jun 2027 03:00:00.000   01 Jun 2027 03:00:13.544            13.544          6772.000
         2   01 Jun 2027 03:00:55.137   01 Jun 2027 03:00:58.708             3.571          1785.500
         3   01 Jun 2027 03:01:31.758   01 Jun 2027 03:01:41.989            10.231          5115.500
         4   01 Jun 2027 03:02:26.641   01 Jun 2027 03:02:40.007            13.366          6683.000
         5   01 Jun 2027 03:02:47.840   01 Jun 2027 03:03:11.353            23.513         11756.500
         6   01 Jun 2027 03:03:34.709   01 Jun 2027 03:03:34.709             0.000             0.000
         7   01 Jun 2027 03:04:17.469   01 Jun 2027 03:04:44.483            27.014         13507.000
         8   01 Jun 2027 03:05:05.109   01 Jun 2027 03:05:07.076             1.967           983.500
         9   01 Jun 2027 03:05:11.165   01 Jun 2027 03:05:37.230            26.065         13032.500
        10   01 Jun 2027 03:06:10.503   01 Jun 2027 03:06:11.487             0.984           492.000
        11   01 Jun 2027 04:35:02.477   01 Jun 2027 04:37:34.423           151.946         75973.000
        12   01 Jun 2027 04:37:58.037   01 Jun 2027 04:38:02.266             4.229          2114.500
        13   01 Jun 2027 04:38:13.295   01 Jun 2027 04:38:13.295             0.000             0.000
        14   01 Jun 2027 04:38:53.158   01 Jun 2027 04:38:58.187             5.029          2514.500
        15   01 Jun 2027 04:39:08.451   01 Jun 2027 04:39:15.880             7.429          3714.500
        16   01 Jun 2027 04:39:44.796   01 Jun 2027 04:40:00.016            15.220          7610.000
        17   01 Jun 2027 04:40:18.169   01 Jun 2027 04:40:32.174            14.005          7002.500
        18   01 Jun 2027 04:41:51.288   01 Jun 2027 04:42:05.636            14.348          7174.000
        19   01 Jun 2027 06:12:06.028   01 Jun 2027 06:14:52.758           166.730         83365.000
        20   01 Jun 2027 06:15:09.599   01 Jun 2027 06:15:17.918             8.319          4159.500
        21   01 Jun 2027 06:16:30.910   01 Jun 2027 06:16:35.063             4.153          2076.500
        22   01 Jun 2027 06:16:42.442   01 Jun 2027 06:17:07.646            25.204         12602.000
        23   01 Jun 2027 06:17:36.295   01 Jun 2027 06:17:37.511             1.216           608.000
        24   01 Jun 2027 07:48:51.352   01 Jun 2027 07:51:37.967           166.615         83307.500
        25   01 Jun 2027 07:52:02.438   01 Jun 2027 07:52:14.902            12.464          6232.000
        26   01 Jun 2027 07:52:22.800   01 Jun 2027 07:52:35.665            12.865          6432.500
        27   01 Jun 2027 07:53:13.320   01 Jun 2027 07:53:25.535            12.215          6107.500
        28   01 Jun 2027 09:24:07.532   01 Jun 2027 09:24:14.537             7.005          3502.500
        29   01 Jun 2027 09:25:49.098   01 Jun 2027 09:28:38.191           169.093         84546.500
        30   02 Jun 2027 03:10:12.076   02 Jun 2027 03:16:37.510           385.434        192717.000
        31   02 Jun 2027 03:18:06.177   02 Jun 2027 03:18:08.455             2.278          1139.000
        32   02 Jun 2027 04:47:15.148   02 Jun 2027 04:52:33.521           318.373        159186.500
        33   02 Jun 2027 04:53:36.753   02 Jun 2027 04:53:43.460             6.707          3353.500
        34   02 Jun 2027 06:24:12.048   02 Jun 2027 06:28:36.683           264.635        132317.500
        35   02 Jun 2027 06:28:37.639   02 Jun 2027 06:29:12.777            35.138         17569.000
        36   02 Jun 2027 08:01:44.465   02 Jun 2027 08:06:05.130           260.665        130332.500
        37   02 Jun 2027 09:39:33.416   02 Jun 2027 09:40:07.394            33.978         16989.000
        38   03 Jun 2027 03:23:23.597   03 Jun 2027 03:30:09.996           406.399        203199.500
        39   03 Jun 2027 04:59:45.749   03 Jun 2027 05:06:04.829           379.080        189540.000
        40   03 Jun 2027 06:37:13.908   03 Jun 2027 06:41:41.731           267.823        133911.500
        41   03 Jun 2027 08:13:20.355   03 Jun 2027 08:17:34.122           253.767        126883.500
        42   04 Jun 2027 03:35:32.205   04 Jun 2027 03:42:08.674           396.469        198234.500
        43   04 Jun 2027 05:11:30.694   04 Jun 2027 05:17:37.620           366.926        183463.000
        44   04 Jun 2027 06:50:12.835   04 Jun 2027 06:53:50.986           218.151        109075.500
        45   04 Jun 2027 08:25:28.242   04 Jun 2027 08:29:32.938           244.696        122348.000
        46   04 Jun 2027 08:29:37.021   04 Jun 2027 08:30:23.292            46.271         23135.500
        47   05 Jun 2027 03:46:55.217   05 Jun 2027 03:54:19.336           444.119        222059.500
        48   05 Jun 2027 05:23:32.886   05 Jun 2027 05:29:56.334           383.448        191724.000
        49   05 Jun 2027 07:01:50.772   05 Jun 2027 07:05:45.076           234.304        117152.000
        50   05 Jun 2027 08:35:09.937   05 Jun 2027 08:36:37.725            87.788         43894.000
        51   05 Jun 2027 08:37:09.892   05 Jun 2027 08:41:23.221           253.329        126664.500
        52   05 Jun 2027 08:41:47.473   05 Jun 2027 08:42:47.757            60.284         30142.000
        53   06 Jun 2027 03:58:51.050   06 Jun 2027 04:06:19.577           448.527        224263.500
        54   06 Jun 2027 05:35:53.766   06 Jun 2027 05:41:44.553           350.787        175393.500
        55   06 Jun 2027 07:14:11.586   06 Jun 2027 07:17:47.386           215.800        107900.000
        56   06 Jun 2027 08:47:02.047   06 Jun 2027 08:53:23.028           380.981        190490.500
        57   06 Jun 2027 08:54:22.631   06 Jun 2027 08:54:54.273            31.642         15821.000
        58   07 Jun 2027 04:11:01.314   07 Jun 2027 04:18:23.114           441.800        220900.000
        59   07 Jun 2027 05:47:44.083   07 Jun 2027 05:53:57.609           373.526        186763.000
        60   07 Jun 2027 05:54:01.891   07 Jun 2027 05:54:22.865            20.974         10487.000
        61   07 Jun 2027 07:25:47.877   07 Jun 2027 07:29:57.137           249.260        124630.000
        62   07 Jun 2027 08:59:29.928   07 Jun 2027 09:06:24.547           414.619        207309.500
        63   08 Jun 2027 04:22:55.818   08 Jun 2027 04:30:24.534           448.716        224358.000
        64   08 Jun 2027 05:59:52.242   08 Jun 2027 06:05:10.572           318.330        159165.000
        65   08 Jun 2027 06:05:29.378   08 Jun 2027 06:06:21.207            51.829         25914.500
        66   08 Jun 2027 07:37:40.413   08 Jun 2027 07:41:55.625           255.212        127606.000
        67   08 Jun 2027 09:11:49.551   08 Jun 2027 09:12:48.839            59.288         29644.000
        68   08 Jun 2027 09:13:33.811   08 Jun 2027 09:17:07.194           213.383        106691.500
        69   09 Jun 2027 03:00:00.000   09 Jun 2027 03:05:21.732           321.732        160866.000
        70   09 Jun 2027 03:05:25.886   09 Jun 2027 03:06:26.162            60.276         30138.000
        71   09 Jun 2027 04:35:17.289   09 Jun 2027 04:42:11.700           414.411        207205.500
        72   09 Jun 2027 06:12:20.855   09 Jun 2027 06:16:49.731           268.876        134438.000
        73   09 Jun 2027 06:17:35.616   09 Jun 2027 06:18:10.736            35.120         17560.000
        74   09 Jun 2027 07:49:06.550   09 Jun 2027 07:53:53.626           287.076        143538.000
        75   09 Jun 2027 09:26:04.047   09 Jun 2027 09:28:52.800           168.753         84376.500
        76   10 Jun 2027 03:08:35.084   10 Jun 2027 03:08:46.884            11.800          5900.000
        77   10 Jun 2027 03:10:28.117   10 Jun 2027 03:17:20.052           411.935        205967.500
        78   10 Jun 2027 03:18:20.822   10 Jun 2027 03:18:22.985             2.163          1081.500
        79   10 Jun 2027 04:47:29.391   10 Jun 2027 04:54:13.057           403.666        201833.000
        80   10 Jun 2027 06:25:48.268   10 Jun 2027 06:28:54.221           185.953         92976.500
        81   10 Jun 2027 06:28:54.552   10 Jun 2027 06:29:27.780            33.228         16614.000
        82   10 Jun 2027 08:02:00.213   10 Jun 2027 08:06:20.097           259.884        129942.000
        83   10 Jun 2027 09:39:27.231   10 Jun 2027 09:40:21.944            54.713         27356.500
        84   11 Jun 2027 03:23:39.090   11 Jun 2027 03:30:24.613           405.523        202761.500
        85   11 Jun 2027 05:00:00.865   11 Jun 2027 05:06:19.581           378.716        189358.000
        86   11 Jun 2027 06:37:28.474   11 Jun 2027 06:41:56.681           268.207        134103.500
        87   11 Jun 2027 08:13:35.790   11 Jun 2027 08:17:48.885           253.095        126547.500
        88   12 Jun 2027 03:35:46.956   12 Jun 2027 03:42:23.881           396.925        198462.500
        89   12 Jun 2027 05:11:44.859   12 Jun 2027 05:17:52.550           367.691        183845.500
        90   12 Jun 2027 06:50:27.481   12 Jun 2027 06:54:05.424           217.943        108971.500
        91   12 Jun 2027 08:25:42.823   12 Jun 2027 08:29:47.423           244.600        122300.000
        92   12 Jun 2027 08:29:51.646   12 Jun 2027 08:30:38.494            46.848         23424.000
        93   13 Jun 2027 03:47:04.732   13 Jun 2027 03:54:34.153           449.421        224710.500
        94   13 Jun 2027 05:23:48.038   13 Jun 2027 05:30:11.027           382.989        191494.500
        95   13 Jun 2027 07:02:27.344   13 Jun 2027 07:05:59.788           212.444        106222.000
        96   13 Jun 2027 08:35:24.382   13 Jun 2027 08:36:52.509            88.127         44063.500
        97   13 Jun 2027 08:37:23.649   13 Jun 2027 08:41:37.979           254.330        127165.000
        98   13 Jun 2027 08:42:02.765   13 Jun 2027 08:43:02.744            59.979         29989.500
