uniorb/output/strategy_4/Camera/Camera_KinoSat_112002.txt

KinoSat_112002
-------------------------
    Access    *     Start Time (UTCG)     *     Stop Time (UTCG)  *   Duration (s) *   Data (Mbytes)
         1   01 Jun 2027 03:25:34.963   01 Jun 2027 03:26:55.288            80.325         40162.500
         2   01 Jun 2027 03:27:38.878   01 Jun 2027 03:27:50.323            11.445          5722.500
         3   01 Jun 2027 03:29:35.371   01 Jun 2027 03:30:36.608            61.237         30618.500
         4   01 Jun 2027 03:32:42.347   01 Jun 2027 03:32:51.201             8.854          4427.000
         5   01 Jun 2027 05:03:52.500   01 Jun 2027 05:04:16.135            23.635         11817.500
         6   01 Jun 2027 05:04:29.332   01 Jun 2027 05:05:14.206            44.874         22437.000
         7   01 Jun 2027 05:05:56.761   01 Jun 2027 05:06:20.684            23.923         11961.500
         8   01 Jun 2027 05:06:31.271   01 Jun 2027 05:06:38.330             7.059          3529.500
         9   01 Jun 2027 05:07:46.528   01 Jun 2027 05:07:49.406             2.878          1439.000
        10   01 Jun 2027 05:07:58.655   01 Jun 2027 05:08:02.084             3.429          1714.500
        11   01 Jun 2027 05:08:21.116   01 Jun 2027 05:08:31.653            10.537          5268.500
        12   01 Jun 2027 06:42:04.999   01 Jun 2027 06:43:46.745           101.746         50873.000
        13   01 Jun 2027 06:44:20.584   01 Jun 2027 06:44:32.049            11.465          5732.500
        14   01 Jun 2027 06:44:50.196   01 Jun 2027 06:44:58.322             8.126          4063.000
        15   01 Jun 2027 08:05:28.483   01 Jun 2027 08:07:27.630           119.147         59573.500
        16   01 Jun 2027 08:07:55.694   01 Jun 2027 08:07:58.234             2.540          1270.000
        17   01 Jun 2027 09:41:51.181   01 Jun 2027 09:42:34.992            43.811         21905.500
        18   01 Jun 2027 09:43:27.640   01 Jun 2027 09:44:02.923            35.283         17641.500
        19   01 Jun 2027 11:15:46.983   01 Jun 2027 11:17:45.204           118.221         59110.500
        20   01 Jun 2027 11:19:23.426   01 Jun 2027 11:19:57.988            34.562         17281.000
        21   01 Jun 2027 11:22:37.743   01 Jun 2027 11:22:51.155            13.412          6706.000
        22   01 Jun 2027 11:22:52.348   01 Jun 2027 11:23:23.992            31.644         15822.000
        23   01 Jun 2027 11:23:51.341   01 Jun 2027 11:23:53.567             2.226          1113.000
        24   02 Jun 2027 03:37:41.665   02 Jun 2027 03:38:03.997            22.332         11166.000
        25   02 Jun 2027 03:38:31.115   02 Jun 2027 03:38:57.097            25.982         12991.000
        26   02 Jun 2027 03:39:06.556   02 Jun 2027 03:41:02.756           116.200         58100.000
        27   02 Jun 2027 03:42:22.568   02 Jun 2027 03:42:23.638             1.070           535.000
        28   02 Jun 2027 03:42:34.293   02 Jun 2027 03:42:52.791            18.498          9249.000
        29   02 Jun 2027 05:15:56.235   02 Jun 2027 05:16:57.254            61.019         30509.500
        30   02 Jun 2027 05:17:02.954   02 Jun 2027 05:17:51.840            48.886         24443.000
        31   02 Jun 2027 05:18:47.458   02 Jun 2027 05:20:47.025           119.567         59783.500
        32   02 Jun 2027 06:54:57.590   02 Jun 2027 06:58:27.624           210.034        105017.000
        33   02 Jun 2027 08:17:20.932   02 Jun 2027 08:18:15.725            54.793         27396.500
        34   02 Jun 2027 08:19:16.046   02 Jun 2027 08:19:16.046             0.000             0.000
        35   02 Jun 2027 09:53:54.744   02 Jun 2027 09:55:03.639            68.895         33120.938
        36   02 Jun 2027 11:29:31.657   02 Jun 2027 11:29:49.684            18.027          9013.500
        37   02 Jun 2027 11:32:58.956   02 Jun 2027 11:32:58.956             0.000             0.000
        38   02 Jun 2027 11:35:02.288   02 Jun 2027 11:35:24.779            22.491         11245.500
        39   02 Jun 2027 11:35:46.508   02 Jun 2027 11:35:48.929             2.421           779.438
        40   03 Jun 2027 03:49:39.904   03 Jun 2027 03:49:59.493            19.589          9794.500
        41   03 Jun 2027 03:50:35.271   03 Jun 2027 03:52:57.988           142.717         71358.500
        42   03 Jun 2027 03:54:21.532   03 Jun 2027 03:54:35.895            14.363          7181.500
        43   03 Jun 2027 03:55:26.286   03 Jun 2027 03:55:47.852            21.566         10783.000
        44   03 Jun 2027 03:55:50.339   03 Jun 2027 03:55:55.587             5.248          2624.000
        45   03 Jun 2027 05:27:53.008   03 Jun 2027 05:28:43.329            50.321         25160.500
        46   03 Jun 2027 05:28:59.721   03 Jun 2027 05:30:23.714            83.993         41990.781
        47   03 Jun 2027 05:32:05.986   03 Jun 2027 05:32:11.250             5.264          1739.250
        48   03 Jun 2027 07:06:08.197   03 Jun 2027 07:06:18.454            10.257          4344.219
        49   03 Jun 2027 07:06:40.450   03 Jun 2027 07:06:45.653             5.203           527.469
        50   03 Jun 2027 07:06:52.839   03 Jun 2027 07:06:56.000             3.161           224.562
        51   03 Jun 2027 07:07:38.210   03 Jun 2027 07:07:41.557             3.347           680.344
        52   03 Jun 2027 07:08:34.684   03 Jun 2027 07:08:41.651             6.967           714.313
        53   03 Jun 2027 07:09:18.084   03 Jun 2027 07:09:20.315             2.231           532.906
        54   03 Jun 2027 08:29:30.601   03 Jun 2027 08:29:46.372            15.771          7504.406
        55   03 Jun 2027 08:30:38.826   03 Jun 2027 08:30:40.405             1.579           650.063
        56   03 Jun 2027 08:31:51.968   03 Jun 2027 08:31:56.119             4.151          1689.156
        57   03 Jun 2027 10:06:05.682   03 Jun 2027 10:06:16.151            10.469          3229.750
        58   03 Jun 2027 10:07:49.921   03 Jun 2027 10:07:57.044             7.123          2387.937
        59   03 Jun 2027 10:08:12.275   03 Jun 2027 10:08:15.349             3.074           328.906
        60   03 Jun 2027 11:41:15.837   03 Jun 2027 11:41:37.293            21.456         10580.188
        61   03 Jun 2027 11:43:27.001   03 Jun 2027 11:43:27.001             0.000             0.000
        62   03 Jun 2027 11:44:29.785   03 Jun 2027 11:44:29.785             0.000             0.000
        63   03 Jun 2027 11:47:39.862   03 Jun 2027 11:47:51.607            11.745          5872.500
        64   04 Jun 2027 04:01:41.106   04 Jun 2027 04:05:09.714           208.608        104304.000
        65   04 Jun 2027 04:06:35.362   04 Jun 2027 04:07:05.637            30.275         15137.500
        66   04 Jun 2027 05:40:58.716   04 Jun 2027 05:42:44.205           105.489         51719.125
        67   04 Jun 2027 05:43:09.721   04 Jun 2027 05:43:13.162             3.441           138.062
        68   04 Jun 2027 05:44:27.558   04 Jun 2027 05:44:34.215             6.657          1793.969
        69   04 Jun 2027 05:44:50.845   04 Jun 2027 05:45:00.000             9.156           388.156
        70   04 Jun 2027 05:45:31.850   04 Jun 2027 05:45:36.497             4.647           969.375
        71   04 Jun 2027 05:47:38.204   04 Jun 2027 05:47:46.524             8.320          3064.094
        72   04 Jun 2027 07:18:04.928   04 Jun 2027 07:18:21.465            16.537          7069.406
        73   04 Jun 2027 07:19:13.123   04 Jun 2027 07:19:16.078             2.955           801.812
        74   04 Jun 2027 07:19:39.295   04 Jun 2027 07:19:42.954             3.659           372.531
        75   04 Jun 2027 07:20:27.558   04 Jun 2027 07:20:30.440             2.882           514.219
        76   04 Jun 2027 07:21:17.309   04 Jun 2027 07:21:20.010             2.701           733.656
        77   04 Jun 2027 08:42:03.538   04 Jun 2027 08:42:27.538            24.000          9078.656
        78   04 Jun 2027 08:42:41.457   04 Jun 2027 08:42:42.737             1.280           126.250
        79   04 Jun 2027 08:44:23.556   04 Jun 2027 08:44:29.632             6.076          2658.281
        80   04 Jun 2027 10:17:53.532   04 Jun 2027 10:18:03.083             9.551          3640.969
        81   04 Jun 2027 10:19:39.811   04 Jun 2027 10:19:44.143             4.332          2088.031
        82   04 Jun 2027 10:20:44.413   04 Jun 2027 10:20:45.447             1.034           271.969
        83   04 Jun 2027 11:53:22.017   04 Jun 2027 11:53:22.017             0.000             0.000
        84   04 Jun 2027 11:59:30.810   04 Jun 2027 12:00:00.000            29.190         14595.000
        85   05 Jun 2027 04:14:21.905   05 Jun 2027 04:16:29.057           127.152         63576.000
        86   05 Jun 2027 04:18:04.940   05 Jun 2027 04:18:18.055            13.115          6557.500
        87   05 Jun 2027 05:53:07.497   05 Jun 2027 05:55:08.403           120.906         60453.000
        88   05 Jun 2027 05:55:51.887   05 Jun 2027 05:55:54.580             2.693          1346.500
        89   05 Jun 2027 05:56:12.807   05 Jun 2027 05:56:17.728             4.921          2460.500
        90   05 Jun 2027 05:58:41.958   05 Jun 2027 06:00:04.663            82.705         39810.532
        91   05 Jun 2027 07:18:44.089   05 Jun 2027 07:18:58.863            14.774          6350.906
        92   05 Jun 2027 07:19:46.081   05 Jun 2027 07:19:48.531             2.450          1222.656
        93   05 Jun 2027 07:30:03.251   05 Jun 2027 07:30:09.533             6.282          1998.094
        94   05 Jun 2027 07:31:10.377   05 Jun 2027 07:31:12.460             2.083           657.813
        95   05 Jun 2027 08:52:38.771   05 Jun 2027 08:52:55.554            16.783          6934.000
        96   05 Jun 2027 08:53:23.015   05 Jun 2027 08:53:26.094             3.079           858.156
        97   05 Jun 2027 08:54:00.945   05 Jun 2027 08:54:02.271             1.326           485.281
        98   05 Jun 2027 08:54:43.868   05 Jun 2027 08:54:47.579             3.711          1150.562
        99   05 Jun 2027 08:57:18.234   05 Jun 2027 08:57:20.109             1.875           937.500
       100   05 Jun 2027 10:28:09.770   05 Jun 2027 10:28:21.060            11.290          5471.156
       101   05 Jun 2027 10:30:31.732   05 Jun 2027 10:30:36.091             4.359          2073.438
       102   05 Jun 2027 10:33:03.085   05 Jun 2027 10:33:10.029             6.944          3034.375
       103   05 Jun 2027 10:33:35.034   05 Jun 2027 10:33:36.015             0.981           206.344
       104   06 Jun 2027 04:26:29.678   06 Jun 2027 04:26:36.370             6.692          3346.000
       105   06 Jun 2027 04:26:46.258   06 Jun 2027 04:28:04.733            78.475         39237.500
       106   06 Jun 2027 04:28:05.048   06 Jun 2027 04:29:33.199            88.151         44075.500
       107   06 Jun 2027 04:30:30.639   06 Jun 2027 04:30:46.792            16.153          8076.500
       108   06 Jun 2027 06:05:33.484   06 Jun 2027 06:07:56.645           143.161         71075.594
       109   06 Jun 2027 06:08:19.050   06 Jun 2027 06:08:21.133             2.083           666.000
       110   06 Jun 2027 06:09:20.004   06 Jun 2027 06:09:22.131             2.127           970.406
       111   06 Jun 2027 06:10:29.018   06 Jun 2027 06:10:32.716             3.698           909.531
       112   06 Jun 2027 06:10:48.501   06 Jun 2027 06:10:49.186             0.685           246.813
       113   06 Jun 2027 07:30:22.747   06 Jun 2027 07:30:34.657            11.910          5499.219
       114   06 Jun 2027 07:30:41.380   06 Jun 2027 07:30:42.151             0.771           199.156
       115   06 Jun 2027 07:31:54.934   06 Jun 2027 07:31:57.318             2.384          1192.000
       116   06 Jun 2027 07:42:02.735   06 Jun 2027 07:42:07.075             4.340          2062.219
       117   06 Jun 2027 09:04:21.330   06 Jun 2027 09:04:55.787            34.457         15264.781
       118   06 Jun 2027 09:05:24.314   06 Jun 2027 09:05:26.530             2.216            98.875
       119   06 Jun 2027 09:06:16.372   06 Jun 2027 09:06:22.296             5.924          1094.187
       120   06 Jun 2027 09:06:46.019   06 Jun 2027 09:06:49.526             3.507           707.094
       121   06 Jun 2027 10:39:17.200   06 Jun 2027 10:39:31.296            14.096          6225.062
       122   06 Jun 2027 10:40:37.165   06 Jun 2027 10:40:44.394             7.229          1100.344
       123   06 Jun 2027 10:42:29.551   06 Jun 2027 10:42:40.205            10.654          3213.469
       124   06 Jun 2027 10:43:36.675   06 Jun 2027 10:43:39.765             3.090           944.687
       125   06 Jun 2027 10:44:17.824   06 Jun 2027 10:44:19.851             2.027           853.750
       126   06 Jun 2027 10:44:56.135   06 Jun 2027 10:45:07.602            11.467           928.687
       127   06 Jun 2027 10:45:44.283   06 Jun 2027 10:45:46.076             1.793           294.094
       128   06 Jun 2027 10:46:37.462   06 Jun 2027 10:46:39.444             1.982           991.000
       129   07 Jun 2027 03:01:53.312   07 Jun 2027 03:02:02.298             8.986          4493.000
       130   07 Jun 2027 03:02:14.481   07 Jun 2027 03:02:14.481             0.000             0.000
       131   07 Jun 2027 03:03:31.088   07 Jun 2027 03:03:42.639            11.551          5775.500
       132   07 Jun 2027 03:04:07.011   07 Jun 2027 03:04:19.252            12.241          6120.500
       133   07 Jun 2027 03:04:59.097   07 Jun 2027 03:05:19.462            20.365         10182.500
       134   07 Jun 2027 03:07:23.657   07 Jun 2027 03:07:32.845             9.188          4594.000
       135   07 Jun 2027 03:08:01.150   07 Jun 2027 03:08:17.016            15.866          7933.000
       136   07 Jun 2027 04:38:56.925   07 Jun 2027 04:39:14.675            17.750          8875.000
       137   07 Jun 2027 04:39:37.029   07 Jun 2027 04:39:52.139            15.110          7555.000
       138   07 Jun 2027 04:39:57.041   07 Jun 2027 04:39:57.580             0.539           269.500
       139   07 Jun 2027 04:42:09.069   07 Jun 2027 04:42:35.881            26.812         13406.000
       140   07 Jun 2027 04:43:50.515   07 Jun 2027 04:44:50.919            60.404         30202.000
       141   07 Jun 2027 06:17:38.481   07 Jun 2027 06:20:07.154           148.673         74251.875
       142   07 Jun 2027 06:20:51.699   07 Jun 2027 06:20:54.059             2.360           844.500
       143   07 Jun 2027 06:21:23.782   07 Jun 2027 06:21:26.466             2.684           745.000
       144   07 Jun 2027 06:21:38.861   07 Jun 2027 06:21:38.944             0.083            18.469
       145   07 Jun 2027 06:22:29.067   07 Jun 2027 06:22:30.693             1.626           811.906
       146   07 Jun 2027 06:23:03.521   07 Jun 2027 06:23:05.969             2.448           863.125
       147   07 Jun 2027 07:41:56.491   07 Jun 2027 07:42:12.452            15.961          5885.969
       148   07 Jun 2027 07:42:43.062   07 Jun 2027 07:42:43.889             0.827           329.687
       149   07 Jun 2027 07:43:03.474   07 Jun 2027 07:43:05.165             1.691           587.562
       150   07 Jun 2027 07:54:18.380   07 Jun 2027 07:54:27.742             9.362          2832.312
       151   07 Jun 2027 09:15:53.463   07 Jun 2027 09:16:16.150            22.687         10102.594
       152   07 Jun 2027 09:17:54.118   07 Jun 2027 09:17:58.977             4.859          2078.375
       153   07 Jun 2027 09:18:21.813   07 Jun 2027 09:18:25.184             3.371           603.438
       154   07 Jun 2027 09:19:30.106   07 Jun 2027 09:19:33.927             3.821          1319.813
       155   07 Jun 2027 09:20:26.406   07 Jun 2027 09:20:30.145             3.739          1282.156
       156   07 Jun 2027 10:50:46.722   07 Jun 2027 10:50:55.175             8.453          3443.750
       157   07 Jun 2027 10:53:02.686   07 Jun 2027 10:53:02.762             0.076            38.000
       158   07 Jun 2027 10:53:09.477   07 Jun 2027 10:53:15.562             6.085          2454.125
       159   07 Jun 2027 10:56:35.811   07 Jun 2027 10:56:51.245            15.434          6201.625
       160   07 Jun 2027 11:00:04.272   07 Jun 2027 11:00:08.367             4.095          2047.500
       161   08 Jun 2027 03:13:51.451   08 Jun 2027 03:14:04.399            12.948          6474.000
       162   08 Jun 2027 03:14:15.125   08 Jun 2027 03:14:15.125             0.000             0.000
       163   08 Jun 2027 03:16:06.686   08 Jun 2027 03:17:47.436           100.750         50375.000
       164   08 Jun 2027 03:18:39.689   08 Jun 2027 03:19:25.534            45.845         22922.500
       165   08 Jun 2027 03:21:18.131   08 Jun 2027 03:21:37.143            19.012          9506.000
       166   08 Jun 2027 04:53:52.747   08 Jun 2027 04:54:31.736            38.989         19494.500
       167   08 Jun 2027 04:54:45.106   08 Jun 2027 04:55:46.156            61.050         30525.000
       168   08 Jun 2027 04:56:33.527   08 Jun 2027 04:57:05.657            32.130         16065.000
       169   08 Jun 2027 06:30:04.097   08 Jun 2027 06:31:00.175            56.078         26448.875
       170   08 Jun 2027 06:31:08.224   08 Jun 2027 06:31:09.426             1.202           251.531
       171   08 Jun 2027 06:31:51.064   08 Jun 2027 06:31:52.507             1.443           172.156
       172   08 Jun 2027 06:32:29.753   08 Jun 2027 06:32:35.103             5.350           849.219
       173   08 Jun 2027 06:33:31.521   08 Jun 2027 06:33:34.532             3.011           802.438
       174   08 Jun 2027 06:33:41.130   08 Jun 2027 06:33:47.318             6.188           206.187
       175   08 Jun 2027 06:34:23.100   08 Jun 2027 06:34:25.766             2.666           917.281
       176   08 Jun 2027 07:53:52.541   08 Jun 2027 07:54:06.789            14.248          6660.937
       177   08 Jun 2027 07:55:12.141   08 Jun 2027 07:55:18.327             6.186          1400.031
       178   08 Jun 2027 09:29:52.535   08 Jun 2027 09:30:03.374            10.839          3182.281
       179   08 Jun 2027 09:30:53.566   08 Jun 2027 09:30:56.955             3.389          1184.437
       180   08 Jun 2027 09:32:37.082   08 Jun 2027 09:32:42.466             5.384          2142.125
       181   08 Jun 2027 09:33:10.153   08 Jun 2027 09:33:11.861             1.708           812.625
       182   08 Jun 2027 11:03:40.344   08 Jun 2027 11:03:49.130             8.786          4227.437
       183   08 Jun 2027 11:09:48.071   08 Jun 2027 11:09:48.071             0.000             0.000
       184   08 Jun 2027 11:10:26.031   08 Jun 2027 11:10:50.426            24.395          9176.500
       185   09 Jun 2027 03:25:53.691   09 Jun 2027 03:26:06.795            13.104          6552.000
       186   09 Jun 2027 03:26:45.287   09 Jun 2027 03:26:57.718            12.431          6215.500
       187   09 Jun 2027 03:27:53.823   09 Jun 2027 03:29:49.346           115.523         57761.500
       188   09 Jun 2027 03:30:40.772   09 Jun 2027 03:31:00.752            19.980          9990.000
       189   09 Jun 2027 03:32:01.989   09 Jun 2027 03:32:58.898            56.909         28454.500
       190   09 Jun 2027 05:04:06.150   09 Jun 2027 05:04:32.905            26.755         13377.500
       191   09 Jun 2027 05:04:43.876   09 Jun 2027 05:05:28.561            44.685         22342.500
       192   09 Jun 2027 05:06:11.523   09 Jun 2027 05:06:34.651            23.128         11564.000
       193   09 Jun 2027 05:08:15.680   09 Jun 2027 05:08:55.328            39.648         19347.406
       194   09 Jun 2027 05:09:20.379   09 Jun 2027 05:09:21.425             1.046           344.031
       195   09 Jun 2027 05:09:48.401   09 Jun 2027 05:09:50.192             1.791           792.906
       196   09 Jun 2027 06:42:22.794   09 Jun 2027 06:42:50.366            27.572         13696.437
       197   09 Jun 2027 06:43:40.404   09 Jun 2027 06:43:43.423             3.019          1093.750
       198   09 Jun 2027 06:45:02.152   09 Jun 2027 06:45:07.095             4.943          1028.594
       199   09 Jun 2027 06:46:27.437   09 Jun 2027 06:46:33.137             5.700          2318.906
       200   09 Jun 2027 08:05:45.137   09 Jun 2027 08:05:54.070             8.933          4342.375
       201   09 Jun 2027 08:07:56.520   09 Jun 2027 08:08:03.234             6.714          3011.875
       202   09 Jun 2027 08:08:15.027   09 Jun 2027 08:08:17.675             2.648            72.719
       203   09 Jun 2027 09:42:06.210   09 Jun 2027 09:42:16.999            10.789          4257.281
       204   09 Jun 2027 09:44:21.224   09 Jun 2027 09:44:31.639            10.415          3019.313
       205   09 Jun 2027 11:18:15.184   09 Jun 2027 11:18:33.689            18.505          8897.844
       206   09 Jun 2027 11:21:34.162   09 Jun 2027 11:21:34.162             0.000             0.000
       207   09 Jun 2027 11:23:46.028   09 Jun 2027 11:24:02.282            16.254          7458.906
       208   09 Jun 2027 11:24:02.682   09 Jun 2027 11:24:07.278             4.596            12.500
       209   10 Jun 2027 03:37:59.340   10 Jun 2027 03:38:18.672            19.332          9666.000
       210   10 Jun 2027 03:39:11.844   10 Jun 2027 03:42:00.255           168.411         84205.500
       211   10 Jun 2027 03:42:40.600   10 Jun 2027 03:43:11.436            30.836         15418.000
       212   10 Jun 2027 03:43:32.141   10 Jun 2027 03:43:55.766            23.625         11812.500
       213   10 Jun 2027 05:16:12.439   10 Jun 2027 05:16:25.452            13.013          6506.500
       214   10 Jun 2027 05:18:06.574   10 Jun 2027 05:19:51.281           104.707         52018.375
       215   10 Jun 2027 05:21:46.019   10 Jun 2027 05:21:47.898             1.879           939.500
       216   10 Jun 2027 06:55:15.771   10 Jun 2027 06:55:39.930            24.159         11654.094
       217   10 Jun 2027 06:56:36.118   10 Jun 2027 06:56:39.499             3.381          1376.750
       218   10 Jun 2027 06:56:55.963   10 Jun 2027 06:56:57.223             1.260           271.625
       219   10 Jun 2027 06:58:15.864   10 Jun 2027 06:58:19.551             3.687          1785.531
       220   10 Jun 2027 08:17:47.084   10 Jun 2027 08:17:59.744            12.660          5993.781
       221   10 Jun 2027 08:19:14.756   10 Jun 2027 08:19:14.756             0.000             0.000
       222   10 Jun 2027 09:54:12.967   10 Jun 2027 09:54:23.262            10.295          4278.844
       223   10 Jun 2027 09:55:44.410   10 Jun 2027 09:55:48.519             4.109          1666.281
       224   10 Jun 2027 09:56:10.184   10 Jun 2027 09:56:11.362             1.178           318.281
       225   10 Jun 2027 09:56:13.810   10 Jun 2027 09:56:13.810             0.000             0.000
       226   10 Jun 2027 09:56:35.309   10 Jun 2027 09:56:38.442             3.133           748.344
       227   10 Jun 2027 11:29:21.290   10 Jun 2027 11:29:37.928            16.638          8294.031
       228   10 Jun 2027 11:33:14.414   10 Jun 2027 11:33:14.414             0.000             0.000
       229   10 Jun 2027 11:36:03.852   10 Jun 2027 11:36:08.406             4.554          2277.000
       230   11 Jun 2027 03:49:57.834   11 Jun 2027 03:50:14.093            16.259          8129.500
       231   11 Jun 2027 03:50:41.490   11 Jun 2027 03:52:57.465           135.975         67987.500
       232   11 Jun 2027 03:53:51.149   11 Jun 2027 03:53:51.802             0.653           326.500
       233   11 Jun 2027 03:54:31.740   11 Jun 2027 03:54:39.925             8.185          4092.500
       234   11 Jun 2027 03:57:04.969   11 Jun 2027 03:57:05.761             0.792           396.000
       235   11 Jun 2027 05:28:11.681   11 Jun 2027 05:28:56.754            45.073         22536.500
       236   11 Jun 2027 05:29:17.785   11 Jun 2027 05:31:16.698           118.913         58943.312
       237   11 Jun 2027 05:32:20.354   11 Jun 2027 05:32:23.944             3.590          1637.937
       238   11 Jun 2027 07:06:24.989   11 Jun 2027 07:06:38.306            13.317          6131.906
       239   11 Jun 2027 07:08:51.121   11 Jun 2027 07:08:57.865             6.744           768.781
       240   11 Jun 2027 07:09:49.530   11 Jun 2027 07:09:53.008             3.478          1563.875
       241   11 Jun 2027 08:29:46.888   11 Jun 2027 08:30:09.941            23.053         10052.313
       242   11 Jun 2027 08:30:36.786   11 Jun 2027 08:30:38.571             1.785           211.563
       243   11 Jun 2027 08:31:14.968   11 Jun 2027 08:31:19.408             4.440           568.937
       244   11 Jun 2027 08:32:46.279   11 Jun 2027 08:32:51.629             5.350          2343.594
       245   11 Jun 2027 10:06:23.524   11 Jun 2027 10:06:31.486             7.962          2540.688
       246   11 Jun 2027 10:08:06.167   11 Jun 2027 10:08:11.842             5.675          2343.781
       247   11 Jun 2027 10:08:31.499   11 Jun 2027 10:08:34.323             2.824           317.812
       248   11 Jun 2027 11:41:33.517   11 Jun 2027 11:41:36.397             2.880          1440.000
       249   11 Jun 2027 11:43:34.038   11 Jun 2027 11:43:43.032             8.994          4497.000
       250   11 Jun 2027 11:47:57.004   11 Jun 2027 11:48:09.482            12.478          6239.000
       251   12 Jun 2027 04:01:59.493   12 Jun 2027 04:02:21.774            22.281         11140.500
       252   12 Jun 2027 04:02:24.319   12 Jun 2027 04:03:13.786            49.467         24733.500
       253   12 Jun 2027 04:04:36.318   12 Jun 2027 04:06:31.994           115.676         57838.000
       254   12 Jun 2027 04:06:54.388   12 Jun 2027 04:07:03.058             8.670          4335.000
       255   12 Jun 2027 04:07:44.228   12 Jun 2027 04:08:09.787            25.559         12779.500
       256   12 Jun 2027 05:41:17.004   12 Jun 2027 05:43:42.757           145.753         70847.375
       257   12 Jun 2027 05:44:44.552   12 Jun 2027 05:44:49.200             4.648          1879.125
       258   12 Jun 2027 05:45:06.126   12 Jun 2027 05:45:14.729             8.603           431.125
       259   12 Jun 2027 05:45:45.821   12 Jun 2027 05:45:47.660             1.839           871.312
       260   12 Jun 2027 05:47:56.814   12 Jun 2027 05:48:06.913            10.099          3711.906
       261   12 Jun 2027 07:07:39.982   12 Jun 2027 07:07:43.342             3.360          1680.000
       262   12 Jun 2027 07:18:22.818   12 Jun 2027 07:18:32.091             9.273          4398.531
       263   12 Jun 2027 07:19:28.722   12 Jun 2027 07:19:30.706             1.984           831.875
       264   12 Jun 2027 07:19:54.030   12 Jun 2027 07:19:58.561             4.531           341.875
       265   12 Jun 2027 07:20:43.923   12 Jun 2027 07:20:45.122             1.199           566.406
       266   12 Jun 2027 07:21:11.650   12 Jun 2027 07:21:11.650             0.000             0.000
       267   12 Jun 2027 07:21:32.206   12 Jun 2027 07:21:33.871             1.665           716.531
       268   12 Jun 2027 07:21:49.942   12 Jun 2027 07:21:53.143             3.201           502.219
       269   12 Jun 2027 08:42:23.303   12 Jun 2027 08:42:47.155            23.852          9888.687
       270   12 Jun 2027 08:42:59.375   12 Jun 2027 08:43:00.334             0.959           233.969
       271   12 Jun 2027 08:44:39.970   12 Jun 2027 08:44:46.494             6.524          2618.062
       272   12 Jun 2027 10:18:07.868   12 Jun 2027 10:18:18.974            11.106          3170.875
       273   12 Jun 2027 10:19:55.839   12 Jun 2027 10:19:59.959             4.120          2038.937
       274   12 Jun 2027 10:21:04.465   12 Jun 2027 10:21:06.274             1.809           288.094
       275   12 Jun 2027 11:56:30.926   12 Jun 2027 11:56:44.066            13.140          6570.000
       276   12 Jun 2027 11:59:47.681   12 Jun 2027 12:00:00.000            12.319          6159.500
       277   13 Jun 2027 04:14:40.089   13 Jun 2027 04:17:02.377           142.288         71144.000
       278   13 Jun 2027 04:17:06.508   13 Jun 2027 04:17:50.390            43.882         21941.000
       279   13 Jun 2027 04:18:27.091   13 Jun 2027 04:18:32.889             5.798          2899.000
       280   13 Jun 2027 05:53:37.829   13 Jun 2027 05:55:24.955           107.126         53563.000
       281   13 Jun 2027 05:56:06.598   13 Jun 2027 05:56:09.261             2.663          1331.500
       282   13 Jun 2027 05:56:27.544   13 Jun 2027 05:56:50.690            23.146         11573.000
       283   13 Jun 2027 05:59:00.866   13 Jun 2027 05:59:49.324            48.458         23302.625
       284   13 Jun 2027 07:18:57.319   13 Jun 2027 07:19:10.871            13.552          5510.031
       285   13 Jun 2027 07:20:04.162   13 Jun 2027 07:20:06.841             2.679          1229.906
       286   13 Jun 2027 07:30:21.612   13 Jun 2027 07:30:26.833             5.221          1840.656
       287   13 Jun 2027 07:31:25.995   13 Jun 2027 07:31:30.339             4.344           688.469
       288   13 Jun 2027 08:52:59.420   13 Jun 2027 08:53:15.067            15.647          7214.313
       289   13 Jun 2027 08:54:32.283   13 Jun 2027 08:54:33.718             1.435           702.375
       290   13 Jun 2027 08:56:46.108   13 Jun 2027 08:56:54.673             8.565          3260.969
       291   13 Jun 2027 10:28:22.099   13 Jun 2027 10:28:27.532             5.433          2716.500
       292   13 Jun 2027 10:28:34.874   13 Jun 2027 10:28:39.779             4.905          2283.125
       293   13 Jun 2027 10:30:49.248   13 Jun 2027 10:30:53.765             4.517          1936.469
       294   13 Jun 2027 10:33:22.959   13 Jun 2027 10:33:29.415             6.456          3164.500
       295   13 Jun 2027 10:33:55.732   13 Jun 2027 10:33:57.902             2.170           251.313
       296   13 Jun 2027 10:34:28.176   13 Jun 2027 10:34:28.176             0.000             0.000
