uniorb/output/strategy_4/Camera/Camera_KinoSat_110901.txt

KinoSat_110901
-------------------------
    Access    *     Start Time (UTCG)     *     Stop Time (UTCG)  *   Duration (s) *   Data (Mbytes)
         1   01 Jun 2027 04:08:27.462   01 Jun 2027 04:10:23.040           115.578         57789.000
         2   01 Jun 2027 05:44:00.788   01 Jun 2027 05:44:50.124            49.336         24668.000
         3   01 Jun 2027 05:45:28.390   01 Jun 2027 05:46:35.698            67.308         33654.000
         4   01 Jun 2027 05:47:27.202   01 Jun 2027 05:47:47.502            20.300         10150.000
         5   01 Jun 2027 05:49:56.971   01 Jun 2027 05:50:06.205             9.234          4617.000
         6   01 Jun 2027 07:20:17.312   01 Jun 2027 07:22:24.464           127.152         63576.000
         7   01 Jun 2027 07:23:04.474   01 Jun 2027 07:23:17.047            12.573          6286.500
         8   01 Jun 2027 07:23:37.553   01 Jun 2027 07:23:37.553             0.000             0.000
         9   01 Jun 2027 07:24:06.043   01 Jun 2027 07:24:14.185             8.142          4071.000
        10   01 Jun 2027 07:25:31.864   01 Jun 2027 07:25:43.799            11.935          5967.500
        11   01 Jun 2027 07:27:50.739   01 Jun 2027 07:27:50.856             0.117            58.500
        12   01 Jun 2027 08:57:23.124   01 Jun 2027 09:00:44.165           201.041        100520.500
        13   01 Jun 2027 09:03:42.754   01 Jun 2027 09:03:44.382             1.628           814.000
        14   01 Jun 2027 10:35:20.597   01 Jun 2027 10:35:56.315            35.718         17859.000
        15   01 Jun 2027 10:36:22.912   01 Jun 2027 10:37:24.624            61.712         30856.000
        16   01 Jun 2027 10:37:27.848   01 Jun 2027 10:38:05.004            37.156         18578.000
        17   01 Jun 2027 10:39:17.922   01 Jun 2027 10:39:18.349             0.427           213.500
        18   02 Jun 2027 04:20:10.650   02 Jun 2027 04:21:16.558            65.908         32954.000
        19   02 Jun 2027 04:22:07.509   02 Jun 2027 04:22:28.560            21.051         10525.500
        20   02 Jun 2027 04:23:55.130   02 Jun 2027 04:24:06.044            10.914          5457.000
        21   02 Jun 2027 04:25:08.942   02 Jun 2027 04:25:22.706            13.764          6882.000
        22   02 Jun 2027 05:55:08.960   02 Jun 2027 05:57:01.671           112.711         56355.500
        23   02 Jun 2027 05:58:08.955   02 Jun 2027 05:58:12.453             3.498          1749.000
        24   02 Jun 2027 05:58:19.488   02 Jun 2027 05:58:23.045             3.557          1778.500
        25   02 Jun 2027 06:00:08.241   02 Jun 2027 06:00:16.537             8.296          4148.000
        26   02 Jun 2027 06:00:27.122   02 Jun 2027 06:01:02.847            35.725         17862.500
        27   02 Jun 2027 06:01:37.740   02 Jun 2027 06:01:47.930            10.190          5095.000
        28   02 Jun 2027 06:02:14.906   02 Jun 2027 06:02:28.984            14.078          7039.000
        29   02 Jun 2027 06:03:10.433   02 Jun 2027 06:03:30.020            19.587          9793.500
        30   02 Jun 2027 07:32:36.978   02 Jun 2027 07:34:51.679           134.701         67350.500
        31   02 Jun 2027 07:36:00.588   02 Jun 2027 07:36:09.456             8.868          4434.000
        32   02 Jun 2027 07:37:47.973   02 Jun 2027 07:38:15.605            27.632         13816.000
        33   02 Jun 2027 07:39:43.787   02 Jun 2027 07:39:55.013            11.226          5613.000
        34   02 Jun 2027 09:09:22.697   02 Jun 2027 09:12:49.552           206.855        102891.094
        35   02 Jun 2027 09:13:02.413   02 Jun 2027 09:13:05.292             2.879           312.000
        36   02 Jun 2027 09:13:20.635   02 Jun 2027 09:13:20.890             0.255            77.875
        37   02 Jun 2027 09:14:38.716   02 Jun 2027 09:14:43.809             5.093          2432.062
        38   02 Jun 2027 09:14:57.982   02 Jun 2027 09:14:59.877             1.895           360.094
        39   02 Jun 2027 10:47:20.421   02 Jun 2027 10:47:35.771            15.350          5923.406
        40   02 Jun 2027 10:47:54.189   02 Jun 2027 10:47:58.156             3.967           338.875
        41   02 Jun 2027 10:48:15.195   02 Jun 2027 10:48:17.279             2.084           526.687
        42   02 Jun 2027 10:49:16.515   02 Jun 2027 10:49:20.877             4.362          1834.781
        43   02 Jun 2027 10:50:38.632   02 Jun 2027 10:50:40.818             2.186           512.062
        44   02 Jun 2027 10:51:06.629   02 Jun 2027 10:51:13.014             6.385           569.938
        45   02 Jun 2027 10:51:13.590   02 Jun 2027 10:51:15.597             2.007            18.000
        46   03 Jun 2027 03:09:56.763   03 Jun 2027 03:10:28.283            31.520         15760.000
        47   03 Jun 2027 04:31:47.282   03 Jun 2027 04:33:03.617            76.335         38167.500
        48   03 Jun 2027 04:33:52.045   03 Jun 2027 04:34:26.153            34.108         17054.000
        49   03 Jun 2027 04:35:52.639   03 Jun 2027 04:36:13.174            20.535         10267.500
        50   03 Jun 2027 04:36:41.286   03 Jun 2027 04:36:48.022             6.736          3368.000
        51   03 Jun 2027 04:37:35.074   03 Jun 2027 04:37:35.440             0.366           183.000
        52   03 Jun 2027 06:06:36.813   03 Jun 2027 06:08:27.657           110.844         55422.000
        53   03 Jun 2027 06:10:14.798   03 Jun 2027 06:10:21.644             6.846          3423.000
        54   03 Jun 2027 06:11:37.903   03 Jun 2027 06:11:54.561            16.658          8087.656
        55   03 Jun 2027 06:12:39.878   03 Jun 2027 06:12:41.559             1.681           840.500
        56   03 Jun 2027 06:12:45.671   03 Jun 2027 06:12:48.043             2.372           447.375
        57   03 Jun 2027 06:13:36.229   03 Jun 2027 06:13:40.446             4.217          1168.719
        58   03 Jun 2027 06:14:59.664   03 Jun 2027 06:15:05.730             6.066          2013.063
        59   03 Jun 2027 06:15:30.476   03 Jun 2027 06:15:32.941             2.465           546.062
        60   03 Jun 2027 07:44:30.047   03 Jun 2027 07:44:32.527             2.480          1222.563
        61   03 Jun 2027 07:46:06.350   03 Jun 2027 07:46:11.603             5.253          2089.219
        62   03 Jun 2027 07:47:37.233   03 Jun 2027 07:47:45.233             8.000          2167.000
        63   03 Jun 2027 07:48:22.341   03 Jun 2027 07:48:23.225             0.884           158.781
        64   03 Jun 2027 07:48:45.783   03 Jun 2027 07:48:46.893             1.110           433.750
        65   03 Jun 2027 07:49:45.274   03 Jun 2027 07:49:50.029             4.755          1462.781
        66   03 Jun 2027 07:50:21.259   03 Jun 2027 07:50:26.023             4.764           916.531
        67   03 Jun 2027 07:51:30.417   03 Jun 2027 07:51:35.185             4.768           538.562
        68   03 Jun 2027 07:51:47.070   03 Jun 2027 07:51:47.699             0.629           272.750
        69   03 Jun 2027 09:21:13.901   03 Jun 2027 09:21:28.957            15.056          7396.844
        70   03 Jun 2027 09:23:07.204   03 Jun 2027 09:23:09.823             2.619          1199.594
        71   03 Jun 2027 09:23:49.038   03 Jun 2027 09:23:50.305             1.267           141.969
        72   03 Jun 2027 09:24:53.210   03 Jun 2027 09:24:57.571             4.361          1828.688
        73   03 Jun 2027 09:25:17.054   03 Jun 2027 09:25:21.062             4.008           345.437
        74   03 Jun 2027 09:25:25.716   03 Jun 2027 09:25:27.901             2.185           116.469
        75   03 Jun 2027 09:25:43.104   03 Jun 2027 09:25:45.694             2.590           150.000
        76   03 Jun 2027 09:26:01.933   03 Jun 2027 09:26:04.852             2.919           507.469
        77   03 Jun 2027 09:27:05.248   03 Jun 2027 09:27:08.321             3.073          1097.531
        78   03 Jun 2027 10:59:20.817   03 Jun 2027 10:59:33.013            12.196          5302.312
        79   03 Jun 2027 11:00:10.244   03 Jun 2027 11:00:13.375             3.131           438.375
        80   03 Jun 2027 11:00:57.004   03 Jun 2027 11:00:59.900             2.896          1121.125
        81   03 Jun 2027 11:01:35.184   03 Jun 2027 11:01:38.668             3.484           713.312
        82   03 Jun 2027 11:02:46.883   03 Jun 2027 11:02:50.042             3.159          1501.250
        83   03 Jun 2027 11:02:58.903   03 Jun 2027 11:03:00.502             1.599           205.156
        84   03 Jun 2027 11:03:14.270   03 Jun 2027 11:03:14.554             0.284            15.781
        85   04 Jun 2027 03:09:40.502   04 Jun 2027 03:09:44.037             3.535          1767.500
        86   04 Jun 2027 03:10:54.693   04 Jun 2027 03:11:08.875            14.182          7091.000
        87   04 Jun 2027 04:45:41.009   04 Jun 2027 04:49:33.293           232.284        116142.000
        88   04 Jun 2027 06:19:28.498   04 Jun 2027 06:20:18.780            50.282         25132.500
        89   04 Jun 2027 06:20:30.808   04 Jun 2027 06:20:31.730             0.922           375.875
        90   04 Jun 2027 06:21:41.679   04 Jun 2027 06:21:42.959             1.280           269.687
        91   04 Jun 2027 06:22:01.874   04 Jun 2027 06:22:03.678             1.804           550.156
        92   04 Jun 2027 06:22:25.815   04 Jun 2027 06:22:25.815             0.000             0.000
        93   04 Jun 2027 06:24:08.632   04 Jun 2027 06:24:17.835             9.203          3512.375
        94   04 Jun 2027 06:24:53.341   04 Jun 2027 06:24:58.536             5.195          1078.250
        95   04 Jun 2027 06:25:03.181   04 Jun 2027 06:25:03.634             0.453            50.594
        96   04 Jun 2027 06:25:34.592   04 Jun 2027 06:25:36.598             2.006           855.219
        97   04 Jun 2027 06:25:51.046   04 Jun 2027 06:25:52.554             1.508           290.500
        98   04 Jun 2027 06:25:54.013   04 Jun 2027 06:25:54.013             0.000             0.000
        99   04 Jun 2027 06:26:04.824   04 Jun 2027 06:26:10.858             6.034           383.437
       100   04 Jun 2027 06:26:17.952   04 Jun 2027 06:26:17.952             0.000             0.000
       101   04 Jun 2027 06:26:47.303   04 Jun 2027 06:26:50.231             2.928          1138.906
       102   04 Jun 2027 06:27:55.208   04 Jun 2027 06:27:59.189             3.981           466.563
       103   04 Jun 2027 07:56:37.312   04 Jun 2027 07:56:41.466             4.154          1116.688
       104   04 Jun 2027 07:58:24.853   04 Jun 2027 07:58:28.449             3.596           621.344
       105   04 Jun 2027 07:59:51.227   04 Jun 2027 07:59:56.866             5.639          2586.812
       106   04 Jun 2027 08:00:22.973   04 Jun 2027 08:00:26.453             3.480           148.094
       107   04 Jun 2027 08:00:42.889   04 Jun 2027 08:00:43.152             0.263           101.281
       108   04 Jun 2027 08:01:38.948   04 Jun 2027 08:01:41.440             2.492           838.688
       109   04 Jun 2027 08:02:12.759   04 Jun 2027 08:02:14.560             1.801           127.063
       110   04 Jun 2027 08:02:31.212   04 Jun 2027 08:02:32.853             1.641           475.719
       111   04 Jun 2027 08:02:54.044   04 Jun 2027 08:02:55.886             1.842           580.125
       112   04 Jun 2027 08:03:07.528   04 Jun 2027 08:03:12.399             4.871           351.344
       113   04 Jun 2027 09:33:51.428   04 Jun 2027 09:34:01.954            10.526          5035.719
       114   04 Jun 2027 09:36:15.750   04 Jun 2027 09:36:18.617             2.867           763.313
       115   04 Jun 2027 09:37:29.254   04 Jun 2027 09:37:38.153             8.899          1095.250
       116   04 Jun 2027 09:38:00.773   04 Jun 2027 09:38:05.124             4.351           166.375
       117   04 Jun 2027 09:38:11.492   04 Jun 2027 09:38:13.858             2.366            37.344
       118   04 Jun 2027 09:39:25.801   04 Jun 2027 09:39:33.758             7.957          1702.906
       119   04 Jun 2027 11:10:34.203   04 Jun 2027 11:10:46.131            11.928          5516.375
       120   04 Jun 2027 11:12:02.446   04 Jun 2027 11:12:02.901             0.455            38.219
       121   04 Jun 2027 11:13:13.695   04 Jun 2027 11:13:17.221             3.526           459.156
       122   04 Jun 2027 11:13:28.550   04 Jun 2027 11:13:28.940             0.390           101.344
       123   04 Jun 2027 11:13:52.957   04 Jun 2027 11:13:57.811             4.854           505.250
       124   04 Jun 2027 11:14:07.031   04 Jun 2027 11:14:13.588             6.557           228.219
       125   04 Jun 2027 11:15:06.236   04 Jun 2027 11:15:09.143             2.907           370.031
       126   04 Jun 2027 11:15:20.211   04 Jun 2027 11:15:20.837             0.626           166.781
       127   04 Jun 2027 11:15:28.784   04 Jun 2027 11:15:28.815             0.031            15.500
       128   05 Jun 2027 03:21:33.541   05 Jun 2027 03:21:54.654            21.113         10556.500
       129   05 Jun 2027 04:57:55.415   05 Jun 2027 05:00:02.419           127.004         63502.000
       130   05 Jun 2027 05:00:09.902   05 Jun 2027 05:01:24.107            74.205         37102.500
       131   05 Jun 2027 06:31:51.639   05 Jun 2027 06:33:10.428            78.789         39241.501
       132   05 Jun 2027 06:34:09.024   05 Jun 2027 06:34:09.228             0.204            48.156
       133   05 Jun 2027 06:36:07.883   05 Jun 2027 06:36:18.685            10.802          3087.031
       134   05 Jun 2027 06:37:23.088   05 Jun 2027 06:37:27.116             4.028          1921.156
       135   05 Jun 2027 06:37:36.185   05 Jun 2027 06:37:36.185             0.000             0.000
       136   05 Jun 2027 06:38:08.396   05 Jun 2027 06:38:10.044             1.648           824.000
       137   05 Jun 2027 06:38:31.202   05 Jun 2027 06:38:35.372             4.170          1023.094
       138   05 Jun 2027 06:38:58.059   05 Jun 2027 06:38:59.895             1.836           681.375
       139   05 Jun 2027 06:39:55.284   05 Jun 2027 06:39:57.042             1.758           430.250
       140   05 Jun 2027 08:09:02.880   05 Jun 2027 08:09:08.897             6.017          2642.875
       141   05 Jun 2027 08:10:49.642   05 Jun 2027 08:10:51.575             1.933           674.187
       142   05 Jun 2027 08:11:58.902   05 Jun 2027 08:12:03.433             4.531          1963.969
       143   05 Jun 2027 08:12:19.226   05 Jun 2027 08:12:21.296             2.070           393.156
       144   05 Jun 2027 08:13:35.651   05 Jun 2027 08:13:36.184             0.533           242.406
       145   05 Jun 2027 08:14:54.050   05 Jun 2027 08:14:56.812             2.762           837.469
       146   05 Jun 2027 08:15:38.803   05 Jun 2027 08:15:44.245             5.442           974.437
       147   05 Jun 2027 09:46:04.882   05 Jun 2027 09:46:17.782            12.900          6102.250
       148   05 Jun 2027 09:46:41.264   05 Jun 2027 09:46:44.601             3.337           264.469
       149   05 Jun 2027 09:47:57.262   05 Jun 2027 09:48:00.299             3.037           483.125
       150   05 Jun 2027 09:49:04.444   05 Jun 2027 09:49:06.179             1.735           725.594
       151   05 Jun 2027 09:49:30.520   05 Jun 2027 09:49:32.370             1.850           208.094
       152   05 Jun 2027 09:50:02.223   05 Jun 2027 09:50:07.753             5.530           795.125
       153   05 Jun 2027 09:50:30.836   05 Jun 2027 09:50:36.099             5.263           491.469
       154   05 Jun 2027 09:50:44.775   05 Jun 2027 09:50:46.894             2.119            31.281
       155   05 Jun 2027 11:22:49.392   05 Jun 2027 11:23:04.890            15.498          7442.563
       156   05 Jun 2027 11:24:58.468   05 Jun 2027 11:25:00.540             2.072           493.938
       157   06 Jun 2027 03:33:26.194   06 Jun 2027 03:33:46.618            20.424         10212.000
       158   06 Jun 2027 05:09:59.805   06 Jun 2027 05:10:21.665            21.860         10930.000
       159   06 Jun 2027 05:12:41.602   06 Jun 2027 05:13:30.309            48.707         24353.500
       160   06 Jun 2027 06:45:08.617   06 Jun 2027 06:48:42.933           214.316        107062.437
       161   06 Jun 2027 06:48:54.960   06 Jun 2027 06:48:54.960             0.000             0.000
       162   06 Jun 2027 06:49:10.523   06 Jun 2027 06:49:12.021             1.498           541.125
       163   06 Jun 2027 06:50:24.371   06 Jun 2027 06:50:26.073             1.702           556.469
       164   06 Jun 2027 06:51:11.739   06 Jun 2027 06:51:12.730             0.991           184.750
       165   06 Jun 2027 06:51:40.795   06 Jun 2027 06:51:42.504             1.709           339.406
       166   06 Jun 2027 08:21:28.543   06 Jun 2027 08:21:30.322             1.779           686.500
       167   06 Jun 2027 08:23:45.051   06 Jun 2027 08:23:52.680             7.629          1524.813
       168   06 Jun 2027 08:24:31.675   06 Jun 2027 08:24:36.404             4.729           902.469
       169   06 Jun 2027 08:25:41.970   06 Jun 2027 08:25:47.040             5.070          1729.437
       170   06 Jun 2027 08:25:52.768   06 Jun 2027 08:25:53.593             0.825           168.562
       171   06 Jun 2027 08:26:43.637   06 Jun 2027 08:26:46.464             2.827           686.719
       172   06 Jun 2027 08:27:19.019   06 Jun 2027 08:27:25.772             6.753           365.281
       173   06 Jun 2027 08:27:50.123   06 Jun 2027 08:27:50.923             0.800           400.000
       174   06 Jun 2027 09:59:03.335   06 Jun 2027 09:59:13.406            10.071          4992.937
       175   06 Jun 2027 10:01:12.267   06 Jun 2027 10:01:13.430             1.163           381.219
       176   06 Jun 2027 10:01:26.689   06 Jun 2027 10:01:28.818             2.129           180.688
       177   06 Jun 2027 10:02:22.995   06 Jun 2027 10:02:28.782             5.787          1590.125
       178   06 Jun 2027 10:02:45.504   06 Jun 2027 10:02:51.139             5.635           522.562
       179   06 Jun 2027 10:02:59.854   06 Jun 2027 10:03:02.407             2.553           107.844
       180   06 Jun 2027 10:03:19.682   06 Jun 2027 10:03:20.919             1.237            42.906
       181   06 Jun 2027 11:35:05.942   06 Jun 2027 11:35:19.743            13.801          6900.313
       182   07 Jun 2027 03:45:35.198   07 Jun 2027 03:45:47.380            12.182          6091.000
       183   07 Jun 2027 03:48:17.481   07 Jun 2027 03:48:17.481             0.000             0.000
       184   07 Jun 2027 05:22:30.774   07 Jun 2027 05:22:57.359            26.585         13292.500
       185   07 Jun 2027 05:24:25.010   07 Jun 2027 05:25:38.215            73.205         36602.500
       186   07 Jun 2027 06:57:20.276   07 Jun 2027 07:00:30.769           190.493         94914.969
       187   07 Jun 2027 07:02:06.756   07 Jun 2027 07:02:06.756             0.000             0.000
       188   07 Jun 2027 07:02:27.478   07 Jun 2027 07:02:35.645             8.167          2966.281
       189   07 Jun 2027 07:03:28.519   07 Jun 2027 07:03:29.685             1.166           313.531
       190   07 Jun 2027 07:03:50.208   07 Jun 2027 07:03:51.728             1.520           641.344
       191   07 Jun 2027 08:33:41.297   07 Jun 2027 08:33:48.905             7.608          3550.906
       192   07 Jun 2027 08:36:09.087   07 Jun 2027 08:36:12.311             3.224           199.719
       193   07 Jun 2027 08:36:59.076   07 Jun 2027 08:37:02.580             3.504           175.031
       194   07 Jun 2027 08:37:56.901   07 Jun 2027 08:37:57.798             0.897           268.563
       195   07 Jun 2027 08:38:36.287   07 Jun 2027 08:38:39.542             3.255           694.000
       196   07 Jun 2027 08:39:28.776   07 Jun 2027 08:39:33.141             4.365          1538.563
       197   07 Jun 2027 10:10:58.210   07 Jun 2027 10:11:11.826            13.616          5993.156
       198   07 Jun 2027 10:11:42.039   07 Jun 2027 10:11:43.598             1.559           412.406
       199   07 Jun 2027 10:13:05.368   07 Jun 2027 10:13:08.116             2.748          1125.875
       200   07 Jun 2027 10:13:33.092   07 Jun 2027 10:13:35.364             2.272           431.500
       201   07 Jun 2027 10:14:34.109   07 Jun 2027 10:14:37.982             3.873           106.156
       202   07 Jun 2027 10:15:00.425   07 Jun 2027 10:15:01.181             0.756            92.437
       203   07 Jun 2027 10:15:21.688   07 Jun 2027 10:15:25.217             3.529            35.250
       204   07 Jun 2027 11:47:10.498   07 Jun 2027 11:47:24.359            13.861          6709.000
       205   07 Jun 2027 11:51:36.111   07 Jun 2027 11:51:38.482             2.371           756.719
       206   08 Jun 2027 03:58:08.002   08 Jun 2027 03:58:26.079            18.077          9038.500
       207   08 Jun 2027 04:00:46.134   08 Jun 2027 04:00:50.851             4.717          2358.500
       208   08 Jun 2027 05:33:58.347   08 Jun 2027 05:37:10.547           192.200         96100.000
       209   08 Jun 2027 05:37:59.024   08 Jun 2027 05:38:06.724             7.700          3850.000
       210   08 Jun 2027 07:08:51.842   08 Jun 2027 07:10:16.383            84.541         42120.313
       211   08 Jun 2027 07:10:38.976   08 Jun 2027 07:10:40.205             1.229           511.656
       212   08 Jun 2027 07:11:18.075   08 Jun 2027 07:11:20.462             2.387           891.906
       213   08 Jun 2027 07:12:10.965   08 Jun 2027 07:12:14.256             3.291           641.844
       214   08 Jun 2027 07:12:28.907   08 Jun 2027 07:12:30.198             1.291           249.688
       215   08 Jun 2027 07:14:06.392   08 Jun 2027 07:14:18.596            12.204          2932.531
       216   08 Jun 2027 07:14:58.022   08 Jun 2027 07:15:00.728             2.706           860.406
       217   08 Jun 2027 07:15:33.291   08 Jun 2027 07:15:34.631             1.340           624.344
       218   08 Jun 2027 07:16:00.942   08 Jun 2027 07:16:02.082             1.140           362.875
       219   08 Jun 2027 08:45:19.239   08 Jun 2027 08:45:29.186             9.947          4669.563
       220   08 Jun 2027 08:47:09.821   08 Jun 2027 08:47:14.077             4.256           301.812
       221   08 Jun 2027 08:47:36.347   08 Jun 2027 08:47:36.583             0.236            56.969
       222   08 Jun 2027 08:49:03.836   08 Jun 2027 08:49:06.876             3.040           769.906
       223   08 Jun 2027 08:49:52.093   08 Jun 2027 08:49:53.395             1.302           619.719
       224   08 Jun 2027 08:50:15.195   08 Jun 2027 08:50:23.234             8.039           350.625
       225   08 Jun 2027 08:51:35.922   08 Jun 2027 08:51:40.684             4.762          1997.125
       226   08 Jun 2027 10:23:37.517   08 Jun 2027 10:23:54.196            16.679          7772.281
       227   08 Jun 2027 10:24:19.089   08 Jun 2027 10:24:20.440             1.351           152.375
       228   08 Jun 2027 10:25:33.403   08 Jun 2027 10:25:37.959             4.556           243.375
       229   08 Jun 2027 10:26:48.654   08 Jun 2027 10:26:53.100             4.446          1917.375
       230   08 Jun 2027 10:27:07.637   08 Jun 2027 10:27:12.179             4.542           123.062
       231   08 Jun 2027 10:27:26.716   08 Jun 2027 10:27:26.955             0.239            66.906
       232   08 Jun 2027 11:59:04.186   08 Jun 2027 11:59:16.226            12.040          4948.719
       233   09 Jun 2027 04:08:42.395   09 Jun 2027 04:09:14.888            32.493         16246.500
       234   09 Jun 2027 04:09:39.950   09 Jun 2027 04:09:39.950             0.000             0.000
       235   09 Jun 2027 04:09:42.311   09 Jun 2027 04:09:46.745             4.434          2217.000
       236   09 Jun 2027 04:11:44.640   09 Jun 2027 04:11:51.796             7.156          3578.000
       237   09 Jun 2027 05:44:14.496   09 Jun 2027 05:45:05.030            50.534         25267.000
       238   09 Jun 2027 05:45:43.097   09 Jun 2027 05:47:28.772           105.675         52837.500
       239   09 Jun 2027 07:20:32.966   09 Jun 2027 07:22:39.890           126.924         63361.094
       240   09 Jun 2027 07:23:20.571   09 Jun 2027 07:23:24.654             4.083          1199.719
       241   09 Jun 2027 07:23:39.978   09 Jun 2027 07:23:39.978             0.000             0.000
       242   09 Jun 2027 07:23:41.644   09 Jun 2027 07:23:47.005             5.361           257.469
       243   09 Jun 2027 07:24:24.303   09 Jun 2027 07:24:30.595             6.292           992.188
       244   09 Jun 2027 07:25:48.347   09 Jun 2027 07:25:54.203             5.856          2420.938
       245   09 Jun 2027 07:26:50.284   09 Jun 2027 07:26:54.043             3.759          1499.063
       246   09 Jun 2027 07:27:20.493   09 Jun 2027 07:27:21.707             1.214           378.594
       247   09 Jun 2027 08:57:38.933   09 Jun 2027 08:57:51.644            12.711          4864.719
       248   09 Jun 2027 08:58:14.413   09 Jun 2027 08:58:16.195             1.782           403.250
       249   09 Jun 2027 08:59:07.387   09 Jun 2027 08:59:08.538             1.151           461.688
       250   09 Jun 2027 08:59:30.233   09 Jun 2027 08:59:32.633             2.400           667.187
       251   09 Jun 2027 09:01:02.934   09 Jun 2027 09:01:09.710             6.776          1764.719
       252   09 Jun 2027 09:01:50.565   09 Jun 2027 09:01:52.640             2.075          1019.562
       253   09 Jun 2027 09:01:55.991   09 Jun 2027 09:01:56.450             0.459            57.594
       254   09 Jun 2027 09:02:30.865   09 Jun 2027 09:02:33.271             2.406           574.187
       255   09 Jun 2027 10:35:35.750   09 Jun 2027 10:35:49.641            13.891          6320.375
       256   09 Jun 2027 10:36:20.168   09 Jun 2027 10:36:22.624             2.456           909.437
       257   09 Jun 2027 10:36:52.631   09 Jun 2027 10:36:54.218             1.587           714.781
       258   09 Jun 2027 10:37:31.344   09 Jun 2027 10:37:32.959             1.615           726.875
       259   09 Jun 2027 10:37:42.735   09 Jun 2027 10:37:45.056             2.321           305.500
       260   09 Jun 2027 10:39:06.879   09 Jun 2027 10:39:08.972             2.093           543.062
       261   09 Jun 2027 10:39:16.511   09 Jun 2027 10:39:16.836             0.325           126.750
       262   09 Jun 2027 10:39:31.843   09 Jun 2027 10:39:33.472             1.629           153.000
       263   10 Jun 2027 04:20:25.473   10 Jun 2027 04:21:15.612            50.139         25069.500
       264   10 Jun 2027 04:22:21.564   10 Jun 2027 04:22:22.004             0.440           220.000
       265   10 Jun 2027 04:23:58.308   10 Jun 2027 04:24:48.079            49.771         24885.500
       266   10 Jun 2027 05:55:23.358   10 Jun 2027 05:57:18.101           114.743         57371.500
       267   10 Jun 2027 05:57:27.053   10 Jun 2027 05:57:34.432             7.379          3689.500
       268   10 Jun 2027 05:58:30.221   10 Jun 2027 05:58:45.032            14.811          7405.500
       269   10 Jun 2027 06:00:31.010   10 Jun 2027 06:00:55.111            24.101         12050.500
       270   10 Jun 2027 06:02:04.890   10 Jun 2027 06:02:30.565            25.675         12837.500
       271   10 Jun 2027 06:03:20.674   10 Jun 2027 06:03:45.142            24.468         12234.000
       272   10 Jun 2027 07:32:51.844   10 Jun 2027 07:32:58.887             7.043          3278.000
       273   10 Jun 2027 07:35:18.475   10 Jun 2027 07:35:21.201             2.726          1037.219
       274   10 Jun 2027 07:36:15.267   10 Jun 2027 07:36:18.673             3.406           436.062
       275   10 Jun 2027 07:38:03.570   10 Jun 2027 07:38:07.467             3.897          1810.219
       276   10 Jun 2027 07:38:36.086   10 Jun 2027 07:38:38.031             1.945           411.344
       277   10 Jun 2027 07:39:58.532   10 Jun 2027 07:40:03.271             4.739          2144.781
       278   10 Jun 2027 09:09:36.612   10 Jun 2027 09:09:49.160            12.548          5123.719
       279   10 Jun 2027 09:10:46.912   10 Jun 2027 09:10:48.346             1.434           154.875
       280   10 Jun 2027 09:12:58.724   10 Jun 2027 09:13:04.458             5.734          1652.094
       281   10 Jun 2027 09:13:20.833   10 Jun 2027 09:13:22.448             1.615           343.344
       282   10 Jun 2027 09:13:36.075   10 Jun 2027 09:13:37.095             1.020           110.500
       283   10 Jun 2027 09:14:32.922   10 Jun 2027 09:14:36.680             3.758          1056.375
       284   10 Jun 2027 09:14:47.308   10 Jun 2027 09:14:48.841             1.533           296.813
       285   10 Jun 2027 09:15:01.990   10 Jun 2027 09:15:07.932             5.942           283.000
       286   10 Jun 2027 09:15:53.083   10 Jun 2027 09:16:00.756             7.673          1272.031
       287   10 Jun 2027 10:47:34.985   10 Jun 2027 10:47:50.925            15.940          7763.000
       288   10 Jun 2027 10:48:09.913   10 Jun 2027 10:48:13.174             3.261           167.219
       289   10 Jun 2027 10:48:27.340   10 Jun 2027 10:48:28.421             1.081           385.156
       290   10 Jun 2027 10:49:31.662   10 Jun 2027 10:49:35.803             4.141          1851.469
       291   10 Jun 2027 10:50:37.976   10 Jun 2027 10:50:45.162             7.186          1920.281
       292   10 Jun 2027 10:51:06.429   10 Jun 2027 10:51:08.507             2.078           613.813
       293   10 Jun 2027 10:51:28.769   10 Jun 2027 10:51:29.120             0.351           136.844
       294   11 Jun 2027 03:00:00.000   11 Jun 2027 03:00:05.675             5.675          2837.500
       295   11 Jun 2027 03:10:11.837   11 Jun 2027 03:10:43.298            31.461         15730.500
       296   11 Jun 2027 04:31:58.559   11 Jun 2027 04:33:17.905            79.346         39673.000
       297   11 Jun 2027 04:34:06.505   11 Jun 2027 04:34:24.950            18.445          9222.500
       298   11 Jun 2027 04:35:00.290   11 Jun 2027 04:35:22.632            22.342         11171.000
       299   11 Jun 2027 04:36:45.884   11 Jun 2027 04:36:51.197             5.313          2656.500
       300   11 Jun 2027 04:37:04.033   11 Jun 2027 04:37:07.715             3.682          1841.000
       301   11 Jun 2027 06:06:51.361   11 Jun 2027 06:08:54.390           123.029         61514.500
       302   11 Jun 2027 06:09:37.905   11 Jun 2027 06:09:43.753             5.848          2428.812
       303   11 Jun 2027 06:10:28.655   11 Jun 2027 06:10:30.887             2.232          1116.000
       304   11 Jun 2027 06:12:24.398   11 Jun 2027 06:12:32.703             8.305          3733.031
       305   11 Jun 2027 06:13:24.963   11 Jun 2027 06:13:28.951             3.988          1633.125
       306   11 Jun 2027 06:14:04.656   11 Jun 2027 06:14:11.978             7.322          1106.875
       307   11 Jun 2027 06:14:21.354   11 Jun 2027 06:14:25.813             4.459            68.750
       308   11 Jun 2027 06:15:14.686   11 Jun 2027 06:15:18.765             4.079          1015.781
       309   11 Jun 2027 06:15:45.085   11 Jun 2027 06:15:48.072             2.987           464.219
       310   11 Jun 2027 07:44:44.952   11 Jun 2027 07:44:45.980             1.028           417.563
       311   11 Jun 2027 07:46:42.743   11 Jun 2027 07:46:44.126             1.383           691.500
       312   11 Jun 2027 07:47:08.373   11 Jun 2027 07:47:13.207             4.834           908.531
       313   11 Jun 2027 07:48:07.322   11 Jun 2027 07:48:10.930             3.608           474.844
       314   11 Jun 2027 07:48:33.904   11 Jun 2027 07:48:34.562             0.658            86.937
       315   11 Jun 2027 07:49:15.328   11 Jun 2027 07:49:21.392             6.064          1142.469
       316   11 Jun 2027 07:52:01.609   11 Jun 2027 07:52:05.487             3.878           953.813
       317   11 Jun 2027 09:21:28.879   11 Jun 2027 09:21:45.060            16.181          7502.156
       318   11 Jun 2027 09:24:10.246   11 Jun 2027 09:24:13.912             3.666          1460.438
       319   11 Jun 2027 09:25:03.655   11 Jun 2027 09:25:06.132             2.477            28.594
       320   11 Jun 2027 09:26:01.062   11 Jun 2027 09:26:01.470             0.408            75.531
       321   11 Jun 2027 09:26:16.496   11 Jun 2027 09:26:19.369             2.873           469.562
       322   11 Jun 2027 09:26:44.486   11 Jun 2027 09:26:46.780             2.294           379.563
       323   11 Jun 2027 10:59:35.217   11 Jun 2027 10:59:47.344            12.127          5913.406
       324   11 Jun 2027 11:00:30.204   11 Jun 2027 11:00:32.101             1.897           567.219
       325   11 Jun 2027 11:01:12.494   11 Jun 2027 11:01:14.982             2.488          1076.875
       326   11 Jun 2027 11:01:41.197   11 Jun 2027 11:01:43.424             2.227           369.375
       327   11 Jun 2027 11:03:02.580   11 Jun 2027 11:03:06.974             4.394          1536.813
       328   11 Jun 2027 11:03:09.273   11 Jun 2027 11:03:10.259             0.986            27.094
       329   11 Jun 2027 11:03:34.937   11 Jun 2027 11:03:38.269             3.332           646.313
       330   12 Jun 2027 03:09:55.418   12 Jun 2027 03:09:58.701             3.283          1641.500
       331   12 Jun 2027 03:10:22.808   12 Jun 2027 03:10:23.873             1.065           532.500
       332   12 Jun 2027 03:10:48.655   12 Jun 2027 03:11:01.177            12.522          6261.000
       333   12 Jun 2027 04:45:56.386   12 Jun 2027 04:49:13.010           196.624         98312.000
       334   12 Jun 2027 04:49:28.624   12 Jun 2027 04:49:47.815            19.191          9595.500
       335   12 Jun 2027 06:19:43.764   12 Jun 2027 06:20:58.504            74.740         35027.469
       336   12 Jun 2027 06:21:57.556   12 Jun 2027 06:21:57.556             0.000             0.000
       337   12 Jun 2027 06:22:16.606   12 Jun 2027 06:22:18.929             2.323           879.750
       338   12 Jun 2027 06:22:47.251   12 Jun 2027 06:22:47.251             0.000             0.000
       339   12 Jun 2027 06:23:15.759   12 Jun 2027 06:23:21.722             5.963          1775.938
       340   12 Jun 2027 06:23:40.319   12 Jun 2027 06:23:41.900             1.581           167.812
       341   12 Jun 2027 06:24:57.776   12 Jun 2027 06:25:03.730             5.954          2329.125
       342   12 Jun 2027 06:25:23.994   12 Jun 2027 06:25:27.999             4.005           591.406
       343   12 Jun 2027 06:25:58.196   12 Jun 2027 06:25:59.235             1.039           198.469
       344   12 Jun 2027 06:26:20.569   12 Jun 2027 06:26:26.370             5.801           404.781
       345   12 Jun 2027 06:26:35.380   12 Jun 2027 06:26:37.131             1.751           281.563
       346   12 Jun 2027 06:27:55.759   12 Jun 2027 06:27:59.387             3.628          1647.344
       347   12 Jun 2027 06:28:14.134   12 Jun 2027 06:28:14.153             0.019             9.500
       348   12 Jun 2027 07:56:52.563   12 Jun 2027 07:56:55.475             2.912           439.812
       349   12 Jun 2027 07:58:51.114   12 Jun 2027 07:58:56.776             5.662           310.344
       350   12 Jun 2027 08:00:10.118   12 Jun 2027 08:00:14.139             4.021          1883.625
       351   12 Jun 2027 08:00:39.755   12 Jun 2027 08:00:41.104             1.349           153.312
       352   12 Jun 2027 08:01:16.442   12 Jun 2027 08:01:20.957             4.515           968.875
       353   12 Jun 2027 08:01:52.512   12 Jun 2027 08:01:54.838             2.326           741.344
       354   12 Jun 2027 08:02:29.398   12 Jun 2027 08:02:32.473             3.075          1061.469
       355   12 Jun 2027 08:03:05.750   12 Jun 2027 08:03:07.840             2.090           688.031
       356   12 Jun 2027 08:03:21.859   12 Jun 2027 08:03:27.660             5.801           334.625
       357   12 Jun 2027 08:03:41.888   12 Jun 2027 08:03:43.778             1.890           362.375
       358   12 Jun 2027 09:34:07.067   12 Jun 2027 09:34:22.024            14.957          5581.969
       359   12 Jun 2027 09:34:36.683   12 Jun 2027 09:34:37.787             1.104           169.188
       360   12 Jun 2027 09:35:24.735   12 Jun 2027 09:35:29.739             5.004          1245.469
       361   12 Jun 2027 09:37:09.939   12 Jun 2027 09:37:12.795             2.856          1256.312
       362   12 Jun 2027 09:37:43.644   12 Jun 2027 09:37:46.663             3.019           964.031
       363   12 Jun 2027 09:38:10.007   12 Jun 2027 09:38:12.787             2.780           465.344
       364   12 Jun 2027 09:38:25.369   12 Jun 2027 09:38:26.200             0.831           319.594
       365   12 Jun 2027 09:38:48.495   12 Jun 2027 09:38:50.741             2.246           424.281
       366   12 Jun 2027 11:10:49.116   12 Jun 2027 11:11:00.740            11.624          4885.125
       367   12 Jun 2027 11:12:18.175   12 Jun 2027 11:12:21.006             2.831            31.312
       368   12 Jun 2027 11:13:39.060   12 Jun 2027 11:13:43.840             4.780           410.781
       369   12 Jun 2027 11:14:15.271   12 Jun 2027 11:14:21.314             6.043           934.219
       370   12 Jun 2027 11:15:30.576   12 Jun 2027 11:15:35.287             4.711          2110.188
       371   12 Jun 2027 11:15:35.651   12 Jun 2027 11:15:35.849             0.198            11.375
       372   13 Jun 2027 03:21:48.360   13 Jun 2027 03:22:09.267            20.907         10453.500
       373   13 Jun 2027 04:58:09.263   13 Jun 2027 05:00:25.605           136.342         68171.000
       374   13 Jun 2027 05:01:12.329   13 Jun 2027 05:01:38.942            26.613         13306.500
       375   13 Jun 2027 06:32:07.583   13 Jun 2027 06:34:07.530           119.947         56952.000
       376   13 Jun 2027 06:34:12.126   13 Jun 2027 06:34:13.780             1.654            90.438
       377   13 Jun 2027 06:34:34.890   13 Jun 2027 06:34:35.742             0.852           349.875
       378   13 Jun 2027 06:35:05.469   13 Jun 2027 06:35:05.469             0.000             0.000
       379   13 Jun 2027 06:36:23.026   13 Jun 2027 06:36:29.621             6.595          3006.062
       380   13 Jun 2027 06:36:38.359   13 Jun 2027 06:36:38.359             0.000             0.000
       381   13 Jun 2027 06:37:12.282   13 Jun 2027 06:37:24.047            11.765          1333.156
       382   13 Jun 2027 06:38:21.622   13 Jun 2027 06:38:24.425             2.803          1354.625
       383   13 Jun 2027 06:38:47.860   13 Jun 2027 06:38:49.980             2.120           695.687
       384   13 Jun 2027 06:39:13.892   13 Jun 2027 06:39:15.530             1.638           688.719
       385   13 Jun 2027 06:40:10.166   13 Jun 2027 06:40:11.148             0.982           394.906
       386   13 Jun 2027 08:09:17.960   13 Jun 2027 08:09:21.862             3.902          1447.156
       387   13 Jun 2027 08:11:07.518   13 Jun 2027 08:11:10.703             3.185           769.812
       388   13 Jun 2027 08:12:13.805   13 Jun 2027 08:12:21.157             7.352          1971.938
       389   13 Jun 2027 08:12:44.807   13 Jun 2027 08:12:46.782             1.975           736.813
       390   13 Jun 2027 08:15:09.098   13 Jun 2027 08:15:12.204             3.106           850.219
       391   13 Jun 2027 08:15:53.295   13 Jun 2027 08:15:58.533             5.238           897.250
       392   13 Jun 2027 09:46:17.360   13 Jun 2027 09:46:30.781            13.421          6486.438
       393   13 Jun 2027 09:47:56.851   13 Jun 2027 09:48:03.486             6.635          1303.125
       394   13 Jun 2027 09:49:44.032   13 Jun 2027 09:49:45.316             1.284            88.156
       395   13 Jun 2027 09:49:51.037   13 Jun 2027 09:49:52.882             1.845           164.563
       396   13 Jun 2027 09:50:01.032   13 Jun 2027 09:50:03.413             2.381           174.719
       397   13 Jun 2027 09:50:59.539   13 Jun 2027 09:51:03.545             4.006          1745.375
       398   13 Jun 2027 11:23:03.911   13 Jun 2027 11:23:17.531            13.620          5069.281
       399   13 Jun 2027 11:25:58.294   13 Jun 2027 11:25:59.331             1.037            51.563
       400   13 Jun 2027 11:27:12.574   13 Jun 2027 11:27:14.939             2.365           668.063
