uniorb/output/strategy_4/Camera/Camera_KinoSat_110110.txt

KinoSat_110110
-------------------------
    Access    *     Start Time (UTCG)     *     Stop Time (UTCG)  *   Duration (s) *   Data (Mbytes)
         1   01 Jun 2027 03:18:28.183   01 Jun 2027 03:20:25.642           117.459         58729.500
         2   01 Jun 2027 03:20:31.916   01 Jun 2027 03:20:42.606            10.690          5345.000
         3   01 Jun 2027 03:21:43.014   01 Jun 2027 03:22:10.616            27.602         13801.000
         4   01 Jun 2027 03:23:25.049   01 Jun 2027 03:23:37.882            12.833          6416.500
         5   01 Jun 2027 03:24:32.517   01 Jun 2027 03:24:42.369             9.852          4926.000
         6   01 Jun 2027 04:55:22.725   01 Jun 2027 04:57:58.093           155.368         77684.000
         7   01 Jun 2027 04:59:41.370   01 Jun 2027 04:59:45.966             4.596          2298.000
         8   01 Jun 2027 04:59:50.584   01 Jun 2027 05:00:02.049            11.465          5732.500
         9   01 Jun 2027 05:00:20.519   01 Jun 2027 05:00:28.213             7.694          3847.000
        10   01 Jun 2027 05:00:53.947   01 Jun 2027 05:01:04.088            10.141          5070.500
        11   01 Jun 2027 05:01:08.715   01 Jun 2027 05:01:08.715             0.000             0.000
        12   01 Jun 2027 06:32:13.680   01 Jun 2027 06:34:32.207           138.527         69263.500
        13   01 Jun 2027 06:34:58.022   01 Jun 2027 06:35:18.984            20.962         10481.000
        14   01 Jun 2027 06:36:38.652   01 Jun 2027 06:36:45.738             7.086          3543.000
        15   01 Jun 2027 08:09:50.162   01 Jun 2027 08:11:34.621           104.459         52229.500
        16   02 Jun 2027 03:30:35.017   02 Jun 2027 03:37:16.611           401.594        200797.000
        17   02 Jun 2027 05:08:17.370   02 Jun 2027 05:12:44.082           266.712        133356.000
        18   02 Jun 2027 06:44:15.872   02 Jun 2027 06:49:02.309           286.437        143218.500
        19   03 Jun 2027 03:43:10.405   03 Jun 2027 03:49:21.719           371.314        185657.000
        20   03 Jun 2027 05:20:23.935   03 Jun 2027 05:25:02.705           278.770        139385.000
        21   03 Jun 2027 06:56:48.482   03 Jun 2027 07:01:23.667           275.185        137592.500
        22   04 Jun 2027 03:54:42.057   04 Jun 2027 04:01:09.182           387.125        193562.500
        23   04 Jun 2027 05:33:01.679   04 Jun 2027 05:36:52.344           230.665        115332.500
        24   04 Jun 2027 07:08:21.178   04 Jun 2027 07:12:30.156           248.978        124489.000
        25   04 Jun 2027 07:12:38.048   04 Jun 2027 07:13:50.668            72.620         36310.000
        26   05 Jun 2027 04:07:03.447   05 Jun 2027 04:13:24.708           381.261        190630.500
        27   05 Jun 2027 05:45:02.972   05 Jun 2027 05:48:59.595           236.623        118311.500
        28   05 Jun 2027 07:18:13.733   05 Jun 2027 07:24:26.553           372.820        186410.000
        29   05 Jun 2027 07:24:31.177   05 Jun 2027 07:26:08.829            97.652         48826.000
        30   06 Jun 2027 04:19:06.373   06 Jun 2027 04:25:16.747           370.374        185187.000
        31   06 Jun 2027 05:57:02.654   06 Jun 2027 06:01:01.594           238.940        119470.000
        32   06 Jun 2027 07:30:38.047   06 Jun 2027 07:38:07.688           449.641        224820.500
        33   07 Jun 2027 03:00:00.000   07 Jun 2027 03:01:38.415            98.415         49207.500
        34   07 Jun 2027 04:30:57.809   07 Jun 2027 04:36:53.339           355.530        177765.000
        35   07 Jun 2027 04:37:10.811   07 Jun 2027 04:37:43.176            32.365         16182.500
        36   07 Jun 2027 06:09:03.541   07 Jun 2027 06:13:12.308           248.767        124383.500
        37   07 Jun 2027 07:43:05.956   07 Jun 2027 07:49:34.428           388.472        194236.000
        38   08 Jun 2027 03:06:17.644   08 Jun 2027 03:13:35.682           438.038        219019.000
        39   08 Jun 2027 04:43:16.322   08 Jun 2027 04:48:12.502           296.180        148090.000
        40   08 Jun 2027 04:48:28.260   08 Jun 2027 04:49:29.638            61.378         30689.000
        41   08 Jun 2027 06:20:19.915   08 Jun 2027 06:25:09.679           289.764        144882.000
        42   08 Jun 2027 07:55:21.621   08 Jun 2027 07:56:02.623            41.002         20501.000
        43   08 Jun 2027 07:57:37.343   08 Jun 2027 08:00:16.400           159.057         79528.500
        44   09 Jun 2027 03:18:44.137   09 Jun 2027 03:25:26.746           402.609        201304.500
        45   09 Jun 2027 04:55:37.868   09 Jun 2027 05:00:01.128           263.260        131630.000
        46   09 Jun 2027 05:00:06.139   09 Jun 2027 05:01:15.851            69.712         34856.000
        47   09 Jun 2027 06:32:34.639   09 Jun 2027 06:37:00.702           266.063        133031.500
        48   09 Jun 2027 08:09:41.078   09 Jun 2027 08:11:49.722           128.644         64322.000
        49   10 Jun 2027 03:30:50.299   10 Jun 2027 03:37:31.785           401.486        200743.000
        50   10 Jun 2027 05:08:33.129   10 Jun 2027 05:12:59.318           266.189        133094.500
        51   10 Jun 2027 06:44:54.403   10 Jun 2027 06:49:16.915           262.512        131256.000
        52   11 Jun 2027 03:43:26.206   11 Jun 2027 03:49:36.366           370.160        185080.000
        53   11 Jun 2027 05:20:39.256   11 Jun 2027 05:25:18.013           278.757        139378.500
        54   11 Jun 2027 06:56:57.048   11 Jun 2027 07:01:38.764           281.716        140858.000
        55   12 Jun 2027 03:54:58.390   12 Jun 2027 04:01:24.313           385.923        192961.500
        56   12 Jun 2027 05:33:16.380   12 Jun 2027 05:37:07.423           231.043        115521.500
        57   12 Jun 2027 07:08:36.036   12 Jun 2027 07:12:45.706           249.670        124835.000
        58   12 Jun 2027 07:12:54.794   12 Jun 2027 07:14:05.924            71.130         35565.000
        59   13 Jun 2027 04:07:18.622   13 Jun 2027 04:13:40.296           381.674        190837.000
        60   13 Jun 2027 05:45:17.974   13 Jun 2027 05:49:14.362           236.388        118194.000
        61   13 Jun 2027 07:18:30.123   13 Jun 2027 07:24:41.754           371.631        185815.500
        62   13 Jun 2027 07:24:46.166   13 Jun 2027 07:26:23.810            97.644         48822.000
