uniorb/output/strategy_4/Camera/Camera_KinoSat_110707.txt

KinoSat_110707
-------------------------
    Access    *     Start Time (UTCG)     *     Stop Time (UTCG)  *   Duration (s) *   Data (Mbytes)
         1   01 Jun 2027 03:18:51.805   01 Jun 2027 03:19:50.727            58.922         29461.000
         2   01 Jun 2027 03:21:07.416   01 Jun 2027 03:21:13.713             6.297          3148.500
         3   01 Jun 2027 03:22:38.003   01 Jun 2027 03:22:57.553            19.550          9775.000
         4   01 Jun 2027 03:23:12.009   01 Jun 2027 03:23:14.376             2.367          1183.500
         5   01 Jun 2027 03:23:21.523   01 Jun 2027 03:23:21.523             0.000             0.000
         6   01 Jun 2027 03:23:24.962   01 Jun 2027 03:23:39.214            14.252          7126.000
         7   01 Jun 2027 04:53:50.113   01 Jun 2027 04:55:29.141            99.028         49514.000
         8   01 Jun 2027 04:56:14.753   01 Jun 2027 04:56:17.878             3.125          1562.500
         9   01 Jun 2027 04:56:23.844   01 Jun 2027 04:56:31.341             7.497          3748.500
        10   01 Jun 2027 04:56:57.872   01 Jun 2027 04:56:57.964             0.092            46.000
        11   01 Jun 2027 04:58:07.239   01 Jun 2027 04:58:15.451             8.212          4106.000
        12   01 Jun 2027 04:59:45.748   01 Jun 2027 04:59:58.889            13.141          6570.500
        13   01 Jun 2027 05:02:05.779   01 Jun 2027 05:02:11.270             5.491          2745.500
        14   01 Jun 2027 06:31:18.129   01 Jun 2027 06:32:41.694            83.565         41782.500
        15   01 Jun 2027 06:33:17.781   01 Jun 2027 06:33:49.968            32.187         16093.500
        16   01 Jun 2027 06:34:13.749   01 Jun 2027 06:34:15.166             1.417           708.500
        17   01 Jun 2027 06:35:13.935   01 Jun 2027 06:35:21.512             7.577          3788.500
        18   01 Jun 2027 06:36:18.342   01 Jun 2027 06:36:25.716             7.374          3687.000
        19   01 Jun 2027 06:38:35.736   01 Jun 2027 06:38:36.174             0.438           219.000
        20   01 Jun 2027 08:08:03.850   01 Jun 2027 08:10:15.187           131.337         65668.500
        21   01 Jun 2027 08:11:51.449   01 Jun 2027 08:12:14.243            22.794         11397.000
        22   01 Jun 2027 08:14:10.016   01 Jun 2027 08:14:11.758             1.742           871.000
        23   01 Jun 2027 09:46:01.531   01 Jun 2027 09:48:58.682           177.151         88575.500
        24   01 Jun 2027 11:19:39.212   01 Jun 2027 11:22:00.090           140.878         70439.000
        25   01 Jun 2027 11:23:15.127   01 Jun 2027 11:23:32.084            16.957          8478.500
        26   01 Jun 2027 11:26:41.253   01 Jun 2027 11:26:41.253             0.000             0.000
        27   02 Jun 2027 03:30:28.392   02 Jun 2027 03:30:54.771            26.379         13189.500
        28   02 Jun 2027 05:05:17.970   02 Jun 2027 05:08:35.219           197.249         98624.500
        29   02 Jun 2027 05:13:04.524   02 Jun 2027 05:13:06.085             1.561           780.500
        30   02 Jun 2027 05:14:00.407   02 Jun 2027 05:14:08.219             7.812          3906.000
        31   02 Jun 2027 06:43:11.173   02 Jun 2027 06:45:21.692           130.519         65259.500
        32   02 Jun 2027 06:46:20.459   02 Jun 2027 06:46:51.974            31.515         15757.500
        33   02 Jun 2027 06:47:02.937   02 Jun 2027 06:47:24.594            21.657         10828.500
        34   02 Jun 2027 06:48:08.479   02 Jun 2027 06:48:14.527             6.048          3024.000
        35   02 Jun 2027 08:19:55.023   02 Jun 2027 08:24:24.137           269.114        134557.000
        36   02 Jun 2027 08:24:38.952   02 Jun 2027 08:24:43.459             4.507          2253.500
        37   02 Jun 2027 08:25:26.996   02 Jun 2027 08:25:33.998             7.002          3501.000
        38   02 Jun 2027 08:26:14.356   02 Jun 2027 08:26:25.352            10.996          4005.094
        39   02 Jun 2027 09:58:01.941   02 Jun 2027 09:58:18.277            16.336          7839.562
        40   02 Jun 2027 10:01:24.492   02 Jun 2027 10:01:27.199             2.707           648.625
        41   02 Jun 2027 10:02:01.058   02 Jun 2027 10:02:07.054             5.996           195.844
        42   02 Jun 2027 11:33:44.577   02 Jun 2027 11:33:48.451             3.874          1176.344
        43   03 Jun 2027 03:44:22.167   03 Jun 2027 03:44:25.637             3.470          1735.000
        44   03 Jun 2027 03:44:45.793   03 Jun 2027 03:45:06.030            20.237         10118.500
        45   03 Jun 2027 05:18:09.559   03 Jun 2027 05:20:50.617           161.058         80529.000
        46   03 Jun 2027 05:26:15.658   03 Jun 2027 05:26:40.204            24.546         12273.000
        47   03 Jun 2027 06:55:18.387   03 Jun 2027 06:57:25.329           126.942         62301.281
        48   03 Jun 2027 06:58:57.699   03 Jun 2027 06:59:05.247             7.548          2452.125
        49   03 Jun 2027 06:59:36.583   03 Jun 2027 06:59:40.545             3.962           900.188
        50   03 Jun 2027 07:00:08.482   03 Jun 2027 07:00:10.631             2.149           389.594
        51   03 Jun 2027 07:00:19.631   03 Jun 2027 07:00:20.590             0.959            41.187
        52   03 Jun 2027 08:32:32.466   03 Jun 2027 08:32:38.035             5.569          2232.719
        53   03 Jun 2027 08:34:46.343   03 Jun 2027 08:34:48.389             2.046           927.781
        54   03 Jun 2027 08:35:13.690   03 Jun 2027 08:35:17.838             4.148           251.375
        55   03 Jun 2027 08:35:45.258   03 Jun 2027 08:35:47.521             2.263           607.844
        56   03 Jun 2027 08:35:57.234   03 Jun 2027 08:35:59.822             2.588           158.500
        57   03 Jun 2027 08:36:45.881   03 Jun 2027 08:36:51.369             5.488          1375.656
        58   03 Jun 2027 08:36:59.728   03 Jun 2027 08:37:00.927             1.199           261.219
        59   03 Jun 2027 08:37:40.981   03 Jun 2027 08:37:42.778             1.797           194.063
        60   03 Jun 2027 08:38:19.499   03 Jun 2027 08:38:21.687             2.188           966.187
        61   03 Jun 2027 10:09:15.275   03 Jun 2027 10:09:26.141            10.866          5289.875
        62   03 Jun 2027 10:13:04.789   03 Jun 2027 10:13:08.207             3.418            83.156
        63   03 Jun 2027 10:13:25.482   03 Jun 2027 10:13:26.657             1.175           459.406
        64   03 Jun 2027 11:44:26.608   03 Jun 2027 11:44:29.785             3.177           136.531
        65   04 Jun 2027 03:56:36.398   04 Jun 2027 03:56:44.296             7.898          3949.000
        66   04 Jun 2027 03:57:26.243   04 Jun 2027 03:57:38.311            12.068          6034.000
        67   04 Jun 2027 05:30:32.603   04 Jun 2027 05:32:49.132           136.529         68264.500
        68   04 Jun 2027 05:33:17.847   04 Jun 2027 05:33:25.469             7.622          3811.000
        69   04 Jun 2027 05:35:54.969   04 Jun 2027 05:36:43.589            48.620         24310.000
        70   04 Jun 2027 05:37:17.076   04 Jun 2027 05:37:19.281             2.205          1102.500
        71   04 Jun 2027 05:38:23.800   04 Jun 2027 05:38:38.974            15.174          7587.000
        72   04 Jun 2027 07:07:43.931   04 Jun 2027 07:09:20.706            96.775         46893.437
        73   04 Jun 2027 07:11:27.089   04 Jun 2027 07:11:28.977             1.888           827.844
        74   04 Jun 2027 07:13:47.056   04 Jun 2027 07:13:50.637             3.581            64.313
        75   04 Jun 2027 08:44:45.915   04 Jun 2027 08:44:58.367            12.452          4413.062
        76   04 Jun 2027 08:47:25.879   04 Jun 2027 08:47:28.377             2.498          1004.094
        77   04 Jun 2027 08:49:26.711   04 Jun 2027 08:49:28.531             1.820           723.875
        78   04 Jun 2027 08:49:56.706   04 Jun 2027 08:50:01.614             4.908           392.219
        79   04 Jun 2027 10:21:30.482   04 Jun 2027 10:21:44.954            14.472          6024.469
        80   04 Jun 2027 10:23:36.978   04 Jun 2027 10:23:38.712             1.734           378.281
        81   04 Jun 2027 10:24:11.326   04 Jun 2027 10:24:13.066             1.740           152.062
        82   04 Jun 2027 10:25:25.805   04 Jun 2027 10:25:30.365             4.560           271.031
        83   04 Jun 2027 11:59:40.032   04 Jun 2027 11:59:40.744             0.712            84.500
        84   05 Jun 2027 04:08:40.820   05 Jun 2027 04:08:45.727             4.907          2453.500
        85   05 Jun 2027 04:10:43.255   05 Jun 2027 04:11:02.754            19.499          9749.500
        86   05 Jun 2027 05:43:49.568   05 Jun 2027 05:45:22.853            93.285         46642.500
        87   05 Jun 2027 05:45:59.375   05 Jun 2027 05:46:14.799            15.424          7712.000
        88   05 Jun 2027 05:46:38.754   05 Jun 2027 05:46:54.290            15.536          7768.000
        89   05 Jun 2027 05:47:21.695   05 Jun 2027 05:48:12.080            50.385         25192.500
        90   05 Jun 2027 05:50:17.001   05 Jun 2027 05:50:38.181            21.180         10590.000
        91   05 Jun 2027 07:20:09.518   05 Jun 2027 07:22:03.902           114.384         55782.812
        92   05 Jun 2027 07:22:31.689   05 Jun 2027 07:22:36.473             4.784           835.000
        93   05 Jun 2027 07:23:42.827   05 Jun 2027 07:23:45.052             2.225            60.125
        94   05 Jun 2027 08:57:44.299   05 Jun 2027 08:57:56.487            12.188          4641.625
        95   05 Jun 2027 08:59:50.493   05 Jun 2027 08:59:54.510             4.017          1727.469
        96   05 Jun 2027 09:00:53.557   05 Jun 2027 09:01:00.872             7.315          1709.125
        97   05 Jun 2027 09:01:42.120   05 Jun 2027 09:01:43.326             1.206            14.125
        98   05 Jun 2027 10:33:46.915   05 Jun 2027 10:33:59.608            12.693          5928.750
        99   05 Jun 2027 10:37:34.728   05 Jun 2027 10:37:37.228             2.500           292.375
       100   06 Jun 2027 04:20:51.307   06 Jun 2027 04:21:39.528            48.221         24110.500
       101   06 Jun 2027 04:22:13.932   06 Jun 2027 04:22:37.199            23.267         11633.500
       102   06 Jun 2027 04:23:50.892   06 Jun 2027 04:24:14.433            23.541         11770.500
       103   06 Jun 2027 05:56:01.207   06 Jun 2027 05:58:08.795           127.588         63794.000
       104   06 Jun 2027 06:00:23.775   06 Jun 2027 06:00:33.252             9.477          4738.500
       105   06 Jun 2027 06:01:44.705   06 Jun 2027 06:02:36.967            52.262         26131.000
       106   06 Jun 2027 07:32:22.278   06 Jun 2027 07:33:00.463            38.185         18799.188
       107   06 Jun 2027 07:33:34.739   06 Jun 2027 07:33:37.509             2.770           572.094
       108   06 Jun 2027 07:35:41.567   06 Jun 2027 07:35:43.441             1.874           416.406
       109   06 Jun 2027 07:36:45.653   06 Jun 2027 07:36:48.798             3.145          1425.094
       110   06 Jun 2027 07:37:14.873   06 Jun 2027 07:37:16.360             1.487           242.688
       111   06 Jun 2027 07:37:48.695   06 Jun 2027 07:37:51.083             2.388           395.437
       112   06 Jun 2027 09:09:39.226   06 Jun 2027 09:09:49.293            10.067          4382.406
       113   06 Jun 2027 09:11:08.427   06 Jun 2027 09:11:12.145             3.718           449.813
       114   06 Jun 2027 09:11:52.971   06 Jun 2027 09:11:53.966             0.995            75.750
       115   06 Jun 2027 09:12:07.668   06 Jun 2027 09:12:12.127             4.459           266.281
       116   06 Jun 2027 10:45:51.483   06 Jun 2027 10:46:05.670            14.187          6271.719
       117   07 Jun 2027 04:32:39.366   07 Jun 2027 04:34:19.190            99.824         49912.000
       118   07 Jun 2027 04:35:19.931   07 Jun 2027 04:35:44.282            24.351         12175.500
       119   07 Jun 2027 04:36:43.769   07 Jun 2027 04:36:47.696             3.927          1963.500
       120   07 Jun 2027 06:07:33.025   07 Jun 2027 06:10:21.985           168.960         84389.312
       121   07 Jun 2027 06:10:29.017   07 Jun 2027 06:10:31.467             2.450           192.906
       122   07 Jun 2027 06:12:15.313   07 Jun 2027 06:12:17.381             2.068          1034.000
       123   07 Jun 2027 06:13:17.056   07 Jun 2027 06:13:29.310            12.254          4076.031
       124   07 Jun 2027 06:14:11.277   07 Jun 2027 06:14:14.085             2.808           448.031
       125   07 Jun 2027 07:43:59.948   07 Jun 2027 07:44:02.361             2.413           495.188
       126   07 Jun 2027 07:45:20.599   07 Jun 2027 07:45:23.807             3.208            80.844
       127   07 Jun 2027 07:46:08.610   07 Jun 2027 07:46:10.934             2.324           371.469
       128   07 Jun 2027 07:48:01.895   07 Jun 2027 07:48:05.641             3.746          1409.562
       129   07 Jun 2027 07:48:46.124   07 Jun 2027 07:48:50.720             4.596           211.594
       130   07 Jun 2027 09:22:18.362   07 Jun 2027 09:22:33.066            14.704          7126.906
       131   07 Jun 2027 09:23:15.360   07 Jun 2027 09:23:17.348             1.988           468.531
       132   07 Jun 2027 09:24:06.210   07 Jun 2027 09:24:07.509             1.299           351.719
       133   07 Jun 2027 09:24:55.697   07 Jun 2027 09:24:56.136             0.439            49.812
       134   07 Jun 2027 09:25:29.468   07 Jun 2027 09:25:31.470             2.002           293.062
       135   07 Jun 2027 10:57:44.894   07 Jun 2027 10:57:57.539            12.645          5802.594
       136   08 Jun 2027 03:07:23.302   08 Jun 2027 03:07:49.465            26.163         13081.500
       137   08 Jun 2027 04:42:55.650   08 Jun 2027 04:43:45.970            50.320         25160.000
       138   08 Jun 2027 04:44:24.031   08 Jun 2027 04:46:47.979           143.948         71974.000
       139   08 Jun 2027 04:46:57.366   08 Jun 2027 04:47:14.039            16.673          8336.500
       140   08 Jun 2027 06:19:13.708   08 Jun 2027 06:20:30.090            76.382         37263.812
       141   08 Jun 2027 06:21:32.518   08 Jun 2027 06:21:36.768             4.250          1661.219
       142   08 Jun 2027 06:22:08.865   08 Jun 2027 06:22:10.401             1.536           601.469
       143   08 Jun 2027 06:22:24.979   08 Jun 2027 06:22:26.353             1.374            43.313
       144   08 Jun 2027 06:22:53.340   08 Jun 2027 06:22:53.340             0.000             0.000
       145   08 Jun 2027 06:24:16.760   08 Jun 2027 06:24:25.679             8.919          3189.813
       146   08 Jun 2027 06:25:01.196   08 Jun 2027 06:25:05.779             4.583          1061.781
       147   08 Jun 2027 06:25:11.217   08 Jun 2027 06:25:12.036             0.819            52.781
       148   08 Jun 2027 06:26:01.254   08 Jun 2027 06:26:06.518             5.264            36.563
       149   08 Jun 2027 07:56:19.495   08 Jun 2027 07:56:21.249             1.754           148.969
       150   08 Jun 2027 07:59:58.703   08 Jun 2027 08:00:04.005             5.302          2588.594
       151   08 Jun 2027 08:00:14.809   08 Jun 2027 08:00:15.802             0.993           337.625
       152   08 Jun 2027 08:00:50.375   08 Jun 2027 08:00:50.946             0.571           110.375
       153   08 Jun 2027 08:01:47.817   08 Jun 2027 08:01:49.192             1.375           356.969
       154   08 Jun 2027 08:02:15.971   08 Jun 2027 08:02:19.482             3.511           601.687
       155   08 Jun 2027 09:34:16.633   08 Jun 2027 09:34:29.416            12.783          4935.312
       156   08 Jun 2027 09:35:21.603   08 Jun 2027 09:35:26.197             4.594          1630.844
       157   08 Jun 2027 09:37:03.127   08 Jun 2027 09:37:10.003             6.876          1893.344
       158   08 Jun 2027 09:37:46.496   08 Jun 2027 09:37:47.610             1.114           277.219
       159   08 Jun 2027 09:38:02.728   08 Jun 2027 09:38:05.536             2.808           472.438
       160   08 Jun 2027 11:07:21.466   08 Jun 2027 11:07:30.937             9.471          4416.500
       161   09 Jun 2027 03:19:06.404   09 Jun 2027 03:19:10.532             4.128          2064.000
       162   09 Jun 2027 03:20:07.875   09 Jun 2027 03:20:09.677             1.802           901.000
       163   09 Jun 2027 03:21:02.796   09 Jun 2027 03:21:14.773            11.977          5988.500
       164   09 Jun 2027 03:21:52.816   09 Jun 2027 03:22:01.961             9.145          4572.500
       165   09 Jun 2027 04:54:04.484   09 Jun 2027 04:55:58.918           114.434         57217.000
       166   09 Jun 2027 04:56:07.949   09 Jun 2027 04:57:35.062            87.113         43556.500
       167   09 Jun 2027 04:59:45.753   09 Jun 2027 05:00:02.024            16.271          8135.500
       168   09 Jun 2027 06:31:32.785   09 Jun 2027 06:32:48.285            75.500         37679.500
       169   09 Jun 2027 06:33:46.051   09 Jun 2027 06:33:47.112             1.061           213.531
       170   09 Jun 2027 06:34:15.232   09 Jun 2027 06:34:19.481             4.249           832.813
       171   09 Jun 2027 06:34:37.967   09 Jun 2027 06:34:38.682             0.715           347.062
       172   09 Jun 2027 06:36:15.456   09 Jun 2027 06:36:20.396             4.940          2435.656
       173   09 Jun 2027 06:37:04.253   09 Jun 2027 06:37:15.402            11.149          1366.969
       174   09 Jun 2027 06:37:43.550   09 Jun 2027 06:37:44.637             1.087           402.187
       175   09 Jun 2027 08:08:17.675   09 Jun 2027 08:08:19.999             2.324           729.719
       176   09 Jun 2027 08:10:35.477   09 Jun 2027 08:10:41.215             5.738          1719.469
       177   09 Jun 2027 08:12:00.728   09 Jun 2027 08:12:03.096             2.368           221.000
       178   09 Jun 2027 08:12:16.748   09 Jun 2027 08:12:24.203             7.455           285.781
       179   09 Jun 2027 08:12:50.659   09 Jun 2027 08:12:53.404             2.745           803.625
       180   09 Jun 2027 08:13:43.640   09 Jun 2027 08:13:44.746             1.106           275.656
       181   09 Jun 2027 08:14:14.072   09 Jun 2027 08:14:16.701             2.629           608.625
       182   09 Jun 2027 09:46:15.962   09 Jun 2027 09:46:30.803            14.841          6742.125
       183   09 Jun 2027 09:49:12.998   09 Jun 2027 09:49:17.004             4.006           755.562
       184   09 Jun 2027 09:49:38.146   09 Jun 2027 09:49:39.029             0.883           216.063
       185   09 Jun 2027 09:50:09.760   09 Jun 2027 09:50:15.931             6.171           807.812
       186   09 Jun 2027 11:19:53.784   09 Jun 2027 11:19:55.109             1.325           543.781
       187   10 Jun 2027 03:31:11.102   10 Jun 2027 03:31:47.824            36.722         18361.000
       188   10 Jun 2027 05:05:32.374   10 Jun 2027 05:09:28.231           235.857        117928.500
       189   10 Jun 2027 05:10:36.040   10 Jun 2027 05:10:45.779             9.739          4869.500
       190   10 Jun 2027 06:43:25.805   10 Jun 2027 06:44:18.713            52.908         26082.938
       191   10 Jun 2027 06:45:25.059   10 Jun 2027 06:45:30.523             5.464          1238.281
       192   10 Jun 2027 06:46:06.731   10 Jun 2027 06:46:11.502             4.771          1116.469
       193   10 Jun 2027 06:46:41.278   10 Jun 2027 06:46:42.945             1.667           400.438
       194   10 Jun 2027 06:47:04.311   10 Jun 2027 06:47:04.311             0.000             0.000
       195   10 Jun 2027 06:48:13.330   10 Jun 2027 06:48:22.913             9.583          2434.406
       196   10 Jun 2027 06:48:26.487   10 Jun 2027 06:48:30.097             3.610            92.281
       197   10 Jun 2027 06:49:01.296   10 Jun 2027 06:49:01.296             0.000             0.000
       198   10 Jun 2027 06:49:02.620   10 Jun 2027 06:49:07.525             4.905           937.875
       199   10 Jun 2027 08:20:09.694   10 Jun 2027 08:20:14.016             4.322           981.562
       200   10 Jun 2027 08:23:16.633   10 Jun 2027 08:23:19.515             2.882           544.250
       201   10 Jun 2027 08:24:58.147   10 Jun 2027 08:25:04.220             6.073          2001.906
       202   10 Jun 2027 08:25:42.210   10 Jun 2027 08:25:45.443             3.233          1061.969
       203   10 Jun 2027 08:26:28.968   10 Jun 2027 08:26:32.292             3.324          1219.625
       204   10 Jun 2027 09:58:16.213   10 Jun 2027 09:58:23.390             7.177          3435.000
       205   10 Jun 2027 09:59:32.347   10 Jun 2027 09:59:36.418             4.071          1689.344
       206   10 Jun 2027 10:01:20.794   10 Jun 2027 10:01:25.431             4.637           428.406
       207   10 Jun 2027 11:34:00.088   10 Jun 2027 11:34:03.714             3.626          1589.656
       208   11 Jun 2027 03:44:45.814   11 Jun 2027 03:44:58.306            12.492          6246.000
       209   11 Jun 2027 05:18:24.470   11 Jun 2027 05:21:38.180           193.710         96855.000
       210   11 Jun 2027 05:22:41.539   11 Jun 2027 05:22:52.278            10.739          5369.500
       211   11 Jun 2027 05:24:58.582   11 Jun 2027 05:24:58.582             0.000             0.000
       212   11 Jun 2027 05:26:05.569   11 Jun 2027 05:26:18.769            13.200          6600.000
       213   11 Jun 2027 05:26:28.383   11 Jun 2027 05:26:55.009            26.626         13313.000
       214   11 Jun 2027 06:55:33.260   11 Jun 2027 06:56:35.104            61.844         30014.250
       215   11 Jun 2027 06:56:48.308   11 Jun 2027 06:56:54.028             5.720           102.469
       216   11 Jun 2027 06:57:25.031   11 Jun 2027 06:57:26.568             1.537           596.000
       217   11 Jun 2027 06:58:29.729   11 Jun 2027 06:58:30.772             1.043           521.500
       218   11 Jun 2027 06:58:44.575   11 Jun 2027 06:58:50.479             5.904          1033.313
       219   11 Jun 2027 06:59:51.556   11 Jun 2027 06:59:55.515             3.959          1466.781
       220   11 Jun 2027 07:00:26.733   11 Jun 2027 07:00:27.878             1.145           516.094
       221   11 Jun 2027 08:32:47.666   11 Jun 2027 08:32:51.629             3.963          1524.031
       222   11 Jun 2027 08:34:31.427   11 Jun 2027 08:34:33.030             1.603           707.313
       223   11 Jun 2027 08:35:32.869   11 Jun 2027 08:35:40.759             7.890          1844.469
       224   11 Jun 2027 08:36:48.956   11 Jun 2027 08:36:52.934             3.978          1249.156
       225   11 Jun 2027 08:37:06.655   11 Jun 2027 08:37:09.377             2.722           174.625
       226   11 Jun 2027 08:37:55.631   11 Jun 2027 08:37:59.174             3.543           177.781
       227   11 Jun 2027 10:09:30.039   11 Jun 2027 10:09:42.617            12.578          5937.562
       228   11 Jun 2027 10:11:26.508   11 Jun 2027 10:11:32.382             5.874          1177.062
       229   11 Jun 2027 10:13:27.786   11 Jun 2027 10:13:30.865             3.079           536.688
       230   11 Jun 2027 11:44:41.539   11 Jun 2027 11:44:49.565             8.026          1776.031
       231   12 Jun 2027 03:56:50.230   12 Jun 2027 03:56:59.777             9.547          4773.500
       232   12 Jun 2027 05:30:47.943   12 Jun 2027 05:33:55.845           187.902         93951.000
       233   12 Jun 2027 05:34:31.878   12 Jun 2027 05:34:33.657             1.779           889.500
       234   12 Jun 2027 05:38:06.349   12 Jun 2027 05:38:31.341            24.992         12496.000
       235   12 Jun 2027 05:38:50.845   12 Jun 2027 05:38:53.665             2.820          1410.000
       236   12 Jun 2027 07:07:58.660   12 Jun 2027 07:09:28.417            89.757         44737.250
       237   12 Jun 2027 07:11:15.279   12 Jun 2027 07:11:17.138             1.859           226.094
       238   12 Jun 2027 07:12:24.075   12 Jun 2027 07:12:29.986             5.911          1266.469
       239   12 Jun 2027 07:14:02.502   12 Jun 2027 07:14:04.481             1.979            88.781
       240   12 Jun 2027 08:44:58.642   12 Jun 2027 08:45:08.055             9.413          4371.250
       241   12 Jun 2027 08:48:13.715   12 Jun 2027 08:48:16.798             3.083           938.031
       242   12 Jun 2027 08:48:28.159   12 Jun 2027 08:48:29.491             1.332             4.063
       243   12 Jun 2027 08:49:11.467   12 Jun 2027 08:49:14.412             2.945           706.281
       244   12 Jun 2027 08:49:18.250   12 Jun 2027 08:49:19.738             1.488            28.625
       245   12 Jun 2027 10:21:44.866   12 Jun 2027 10:22:00.845            15.979          6974.625
       246   12 Jun 2027 10:24:01.777   12 Jun 2027 10:24:02.818             1.041           393.656
       247   12 Jun 2027 11:59:54.877   12 Jun 2027 11:59:55.968             1.091           471.563
       248   13 Jun 2027 04:08:55.611   13 Jun 2027 04:09:22.613            27.002         13501.000
       249   13 Jun 2027 04:09:47.220   13 Jun 2027 04:09:50.037             2.817          1408.500
       250   13 Jun 2027 05:44:04.469   13 Jun 2027 05:45:37.558            93.089         46544.500
       251   13 Jun 2027 05:46:30.959   13 Jun 2027 05:46:53.340            22.381         11190.500
       252   13 Jun 2027 05:47:09.277   13 Jun 2027 05:47:35.844            26.567         13283.500
       253   13 Jun 2027 05:50:08.837   13 Jun 2027 05:50:34.436            25.599         12799.500
       254   13 Jun 2027 05:50:45.429   13 Jun 2027 05:50:53.080             7.651          3825.500
       255   13 Jun 2027 07:20:24.494   13 Jun 2027 07:22:26.489           121.995         60493.125
       256   13 Jun 2027 07:23:34.082   13 Jun 2027 07:23:35.920             1.838           471.531
       257   13 Jun 2027 07:24:18.514   13 Jun 2027 07:24:23.636             5.122          1110.219
       258   13 Jun 2027 07:24:53.036   13 Jun 2027 07:24:59.498             6.462           746.531
       259   13 Jun 2027 08:57:58.956   13 Jun 2027 08:58:08.540             9.584          4379.375
       260   13 Jun 2027 08:59:17.075   13 Jun 2027 08:59:19.708             2.633           420.844
       261   13 Jun 2027 09:00:15.746   13 Jun 2027 09:00:18.663             2.917           229.250
       262   13 Jun 2027 09:01:50.435   13 Jun 2027 09:01:54.362             3.927          1004.969
       263   13 Jun 2027 09:01:58.835   13 Jun 2027 09:02:00.093             1.258            79.094
       264   13 Jun 2027 10:34:01.811   13 Jun 2027 10:34:15.222            13.411          5683.063
       265   13 Jun 2027 10:37:40.543   13 Jun 2027 10:37:41.198             0.655            23.063
