uniorb/output/strategy_4/Camera/Camera_KinoSat_111209.txt

KinoSat_111209
-------------------------
    Access    *     Start Time (UTCG)     *     Stop Time (UTCG)  *   Duration (s) *   Data (Mbytes)
         1   01 Jun 2027 04:17:02.863   01 Jun 2027 04:18:32.801            89.938         44969.000
         2   01 Jun 2027 04:29:16.485   01 Jun 2027 04:29:48.557            32.072         16036.000
         3   01 Jun 2027 05:51:12.727   01 Jun 2027 05:52:27.695            74.968         37484.000
         4   01 Jun 2027 05:53:51.061   01 Jun 2027 05:53:58.125             7.064          3532.000
         5   01 Jun 2027 05:54:34.444   01 Jun 2027 05:54:55.793            21.349         10674.500
         6   01 Jun 2027 05:55:15.658   01 Jun 2027 05:55:46.350            30.692         15346.000
         7   01 Jun 2027 07:26:01.017   01 Jun 2027 07:28:29.929           148.912         74456.000
         8   01 Jun 2027 07:34:20.641   01 Jun 2027 07:34:26.488             5.847          2923.500
         9   01 Jun 2027 09:03:49.786   01 Jun 2027 09:06:39.508           169.722         84861.000
        10   01 Jun 2027 09:09:49.242   01 Jun 2027 09:09:52.551             3.309          1654.500
        11   01 Jun 2027 09:10:32.004   01 Jun 2027 09:10:39.583             7.579          3789.500
        12   01 Jun 2027 09:10:56.335   01 Jun 2027 09:11:15.726            19.391          9695.500
        13   01 Jun 2027 10:40:34.211   01 Jun 2027 10:40:55.444            21.233         10616.500
        14   01 Jun 2027 10:41:03.746   01 Jun 2027 10:42:55.643           111.897         55948.500
        15   01 Jun 2027 10:43:01.793   01 Jun 2027 10:43:03.845             2.052          1026.000
        16   01 Jun 2027 10:43:25.464   01 Jun 2027 10:43:33.436             7.972          3986.000
        17   01 Jun 2027 10:46:03.869   01 Jun 2027 10:46:05.147             1.278           639.000
        18   01 Jun 2027 10:46:11.156   01 Jun 2027 10:46:20.608             9.452          4726.000
        19   01 Jun 2027 10:47:17.666   01 Jun 2027 10:47:20.448             2.782          1391.000
        20   02 Jun 2027 03:05:00.120   02 Jun 2027 03:05:55.703            55.583         27791.500
        21   02 Jun 2027 03:06:16.342   02 Jun 2027 03:06:17.375             1.033           516.500
        22   02 Jun 2027 03:06:49.360   02 Jun 2027 03:07:06.069            16.709          8354.500
        23   02 Jun 2027 03:07:18.081   02 Jun 2027 03:07:29.567            11.486          5743.000
        24   02 Jun 2027 03:08:47.694   02 Jun 2027 03:09:35.242            47.548         23774.000
        25   02 Jun 2027 04:29:01.883   02 Jun 2027 04:29:40.609            38.726         19363.000
        26   02 Jun 2027 06:04:58.714   02 Jun 2027 06:08:30.230           211.516        105758.000
        27   02 Jun 2027 07:38:49.587   02 Jun 2027 07:41:19.019           149.432         74716.000
        28   02 Jun 2027 07:41:40.195   02 Jun 2027 07:42:06.419            26.224         13112.000
        29   02 Jun 2027 07:44:04.222   02 Jun 2027 07:44:20.905            16.683          8341.500
        30   02 Jun 2027 07:44:56.366   02 Jun 2027 07:44:56.366             0.000             0.000
        31   02 Jun 2027 07:45:46.366   02 Jun 2027 07:45:47.711             1.345           672.500
        32   02 Jun 2027 07:45:58.040   02 Jun 2027 07:46:09.339            11.299          5649.500
        33   02 Jun 2027 07:46:36.319   02 Jun 2027 07:47:19.570            43.251         21625.500
        34   02 Jun 2027 09:15:56.326   02 Jun 2027 09:17:25.517            89.191         44513.562
        35   02 Jun 2027 09:18:28.742   02 Jun 2027 09:18:32.439             3.697           273.906
        36   02 Jun 2027 09:20:21.986   02 Jun 2027 09:20:21.986             0.000             0.000
        37   02 Jun 2027 09:20:49.102   02 Jun 2027 09:20:59.638            10.536          4153.719
        38   02 Jun 2027 09:21:10.769   02 Jun 2027 09:21:14.549             3.780           132.531
        39   02 Jun 2027 09:21:38.928   02 Jun 2027 09:21:45.714             6.786           468.281
        40   02 Jun 2027 09:22:17.491   02 Jun 2027 09:22:19.667             2.176           451.469
        41   02 Jun 2027 09:22:43.176   02 Jun 2027 09:22:45.380             2.204           301.906
        42   02 Jun 2027 09:22:58.616   02 Jun 2027 09:22:59.474             0.858           315.406
        43   02 Jun 2027 09:23:06.142   02 Jun 2027 09:23:07.177             1.035           204.750
        44   02 Jun 2027 10:52:58.800   02 Jun 2027 10:53:08.182             9.382          4691.000
        45   02 Jun 2027 10:53:23.838   02 Jun 2027 10:53:31.893             8.055          1701.469
        46   02 Jun 2027 10:55:17.644   02 Jun 2027 10:55:23.427             5.783          1916.000
        47   02 Jun 2027 10:55:40.877   02 Jun 2027 10:55:44.883             4.006            85.125
        48   02 Jun 2027 10:56:07.286   02 Jun 2027 10:56:13.228             5.942           637.156
        49   02 Jun 2027 10:56:34.609   02 Jun 2027 10:56:37.259             2.650           646.625
        50   02 Jun 2027 10:56:50.956   02 Jun 2027 10:56:55.833             4.877           344.750
        51   02 Jun 2027 10:56:58.054   02 Jun 2027 10:56:58.375             0.321            57.469
        52   02 Jun 2027 10:57:25.890   02 Jun 2027 10:57:29.996             4.106           803.437
        53   02 Jun 2027 10:57:39.792   02 Jun 2027 10:57:40.450             0.658           306.125
        54   02 Jun 2027 10:58:31.048   02 Jun 2027 10:58:34.485             3.437          1071.688
        55   03 Jun 2027 03:17:34.650   03 Jun 2027 03:20:25.982           171.332         85666.000
        56   03 Jun 2027 03:20:31.966   03 Jun 2027 03:21:02.040            30.074         15037.000
        57   03 Jun 2027 03:22:07.732   03 Jun 2027 03:22:12.836             5.104          2552.000
        58   03 Jun 2027 04:40:56.223   03 Jun 2027 04:41:03.555             7.332          3666.000
        59   03 Jun 2027 04:41:34.160   03 Jun 2027 04:41:53.896            19.736          9868.000
        60   03 Jun 2027 06:17:20.536   03 Jun 2027 06:18:57.139            96.603         48182.250
        61   03 Jun 2027 06:19:18.444   03 Jun 2027 06:19:21.195             2.751           538.219
        62   03 Jun 2027 06:20:32.043   03 Jun 2027 06:20:39.886             7.843          1688.000
        63   03 Jun 2027 07:51:00.492   03 Jun 2027 07:51:06.162             5.670          1491.406
        64   03 Jun 2027 07:52:54.417   03 Jun 2027 07:52:55.304             0.887           192.563
        65   03 Jun 2027 07:53:14.339   03 Jun 2027 07:53:18.353             4.014            78.406
        66   03 Jun 2027 07:54:08.343   03 Jun 2027 07:54:12.808             4.465          1517.875
        67   03 Jun 2027 07:54:58.384   03 Jun 2027 07:55:03.032             4.648          1219.750
        68   03 Jun 2027 07:55:39.721   03 Jun 2027 07:55:42.899             3.178          1146.531
        69   03 Jun 2027 07:56:07.115   03 Jun 2027 07:56:08.339             1.224           139.844
        70   03 Jun 2027 07:57:36.590   03 Jun 2027 07:57:46.421             9.831          2162.625
        71   03 Jun 2027 07:58:17.722   03 Jun 2027 07:58:20.931             3.209           973.844
        72   03 Jun 2027 07:58:42.454   03 Jun 2027 07:58:43.200             0.746           209.969
        73   03 Jun 2027 07:59:16.760   03 Jun 2027 07:59:18.934             2.174            23.094
        74   03 Jun 2027 09:28:22.381   03 Jun 2027 09:28:33.403            11.022          5015.937
        75   03 Jun 2027 09:31:58.183   03 Jun 2027 09:31:59.029             0.846           206.000
        76   03 Jun 2027 09:32:57.420   03 Jun 2027 09:33:00.372             2.952           700.281
        77   03 Jun 2027 09:33:29.764   03 Jun 2027 09:33:33.352             3.588           194.250
        78   03 Jun 2027 09:34:30.745   03 Jun 2027 09:34:33.230             2.485           980.500
        79   03 Jun 2027 09:35:02.356   03 Jun 2027 09:35:04.437             2.081           909.031
        80   03 Jun 2027 11:05:19.522   03 Jun 2027 11:05:38.777            19.255          5423.937
        81   03 Jun 2027 11:07:01.655   03 Jun 2027 11:07:07.094             5.439          1248.531
        82   03 Jun 2027 11:07:39.226   03 Jun 2027 11:07:41.578             2.352           328.500
        83   03 Jun 2027 11:09:08.584   03 Jun 2027 11:09:12.343             3.759          1278.719
        84   03 Jun 2027 11:09:34.385   03 Jun 2027 11:09:37.189             2.804           228.594
        85   03 Jun 2027 11:10:46.116   03 Jun 2027 11:10:52.445             6.329          1462.812
        86   04 Jun 2027 03:29:12.480   04 Jun 2027 03:32:19.589           187.109         93554.500
        87   04 Jun 2027 03:32:31.206   04 Jun 2027 03:33:27.802            56.596         28298.000
        88   04 Jun 2027 04:52:43.590   04 Jun 2027 04:52:52.299             8.709          4354.500
        89   04 Jun 2027 04:54:08.762   04 Jun 2027 04:54:16.714             7.952          3976.000
        90   04 Jun 2027 06:29:22.224   04 Jun 2027 06:30:32.541            70.317         34298.156
        91   04 Jun 2027 06:32:05.290   04 Jun 2027 06:32:14.090             8.800          2898.406
        92   04 Jun 2027 08:04:17.441   04 Jun 2027 08:04:26.697             9.256          3758.000
        93   04 Jun 2027 08:05:34.120   04 Jun 2027 08:05:34.414             0.294            41.344
        94   04 Jun 2027 08:06:46.489   04 Jun 2027 08:06:50.948             4.459          1141.750
        95   04 Jun 2027 08:08:02.740   04 Jun 2027 08:08:09.198             6.458          1815.719
        96   04 Jun 2027 08:08:25.114   04 Jun 2027 08:08:28.164             3.050           477.469
        97   04 Jun 2027 08:09:53.035   04 Jun 2027 08:10:00.445             7.410          2257.688
        98   04 Jun 2027 08:11:08.679   04 Jun 2027 08:11:14.977             6.298          1604.656
        99   04 Jun 2027 09:40:29.971   04 Jun 2027 09:40:40.708            10.737          4908.562
       100   04 Jun 2027 09:43:34.829   04 Jun 2027 09:43:36.942             2.113           870.312
       101   04 Jun 2027 09:44:43.446   04 Jun 2027 09:44:48.901             5.455          1676.125
       102   04 Jun 2027 09:45:28.841   04 Jun 2027 09:45:31.457             2.616          1138.438
       103   04 Jun 2027 09:46:37.052   04 Jun 2027 09:46:38.734             1.682           583.906
       104   04 Jun 2027 11:18:13.511   04 Jun 2027 11:18:26.142            12.631          5825.313
       105   04 Jun 2027 11:20:02.672   04 Jun 2027 11:20:04.290             1.618           431.719
       106   04 Jun 2027 11:20:28.128   04 Jun 2027 11:20:35.461             7.333           530.281
       107   04 Jun 2027 11:20:59.473   04 Jun 2027 11:21:04.097             4.624           134.844
       108   04 Jun 2027 11:21:41.843   04 Jun 2027 11:21:44.569             2.726          1179.563
       109   04 Jun 2027 11:22:20.580   04 Jun 2027 11:22:24.748             4.168           201.188
       110   05 Jun 2027 03:41:35.459   05 Jun 2027 03:42:06.126            30.667         15333.500
       111   05 Jun 2027 03:42:24.653   05 Jun 2027 03:44:12.110           107.457         53728.500
       112   05 Jun 2027 03:44:24.537   05 Jun 2027 03:45:27.558            63.021         31510.500
       113   05 Jun 2027 05:04:57.987   05 Jun 2027 05:05:18.329            20.342         10171.000
       114   05 Jun 2027 05:06:56.483   05 Jun 2027 05:07:05.207             8.724          4362.000
       115   05 Jun 2027 06:41:29.773   05 Jun 2027 06:42:41.789            72.016         36008.000
       116   05 Jun 2027 06:42:51.544   05 Jun 2027 06:42:55.657             4.113          1190.938
       117   05 Jun 2027 06:42:58.800   05 Jun 2027 06:43:01.389             2.589            98.219
       118   05 Jun 2027 06:43:36.343   05 Jun 2027 06:43:36.343             0.000             0.000
       119   05 Jun 2027 06:44:35.753   05 Jun 2027 06:44:43.978             8.225          2296.969
       120   05 Jun 2027 08:16:39.894   05 Jun 2027 08:16:48.865             8.971          1740.562
       121   05 Jun 2027 08:17:57.480   05 Jun 2027 08:18:02.310             4.830          1775.969
       122   05 Jun 2027 08:18:16.341   05 Jun 2027 08:18:22.874             6.533           160.719
       123   05 Jun 2027 08:19:32.163   05 Jun 2027 08:19:34.606             2.443          1086.344
       124   05 Jun 2027 08:19:58.256   05 Jun 2027 08:20:01.540             3.284           739.062
       125   05 Jun 2027 08:20:38.644   05 Jun 2027 08:20:41.536             2.892          1159.500
       126   05 Jun 2027 08:21:53.150   05 Jun 2027 08:22:01.303             8.153          2237.938
       127   05 Jun 2027 08:22:20.160   05 Jun 2027 08:22:21.531             1.371           589.281
       128   05 Jun 2027 08:23:15.182   05 Jun 2027 08:23:16.461             1.279           639.500
       129   05 Jun 2027 09:53:04.532   05 Jun 2027 09:53:18.854            14.322          6791.844
       130   05 Jun 2027 09:54:25.537   05 Jun 2027 09:54:37.540            12.003          1389.250
       131   05 Jun 2027 09:54:56.135   05 Jun 2027 09:55:02.049             5.914           293.219
       132   05 Jun 2027 09:55:32.974   05 Jun 2027 09:55:36.329             3.355           255.813
       133   05 Jun 2027 09:55:39.302   05 Jun 2027 09:55:41.991             2.689            92.906
       134   05 Jun 2027 09:55:47.423   05 Jun 2027 09:55:49.832             2.409            83.094
       135   05 Jun 2027 09:56:06.982   05 Jun 2027 09:56:10.184             3.202           324.313
       136   05 Jun 2027 09:57:05.216   05 Jun 2027 09:57:11.492             6.276          1644.813
       137   05 Jun 2027 09:57:35.725   05 Jun 2027 09:57:37.467             1.742           754.000
       138   05 Jun 2027 09:58:15.128   05 Jun 2027 09:58:16.978             1.850            16.250
       139   05 Jun 2027 09:58:43.590   05 Jun 2027 09:58:45.065             1.475           261.750
       140   05 Jun 2027 09:59:06.316   05 Jun 2027 09:59:09.592             3.276           664.094
       141   05 Jun 2027 11:30:20.093   05 Jun 2027 11:30:30.466            10.373          4882.281
       142   05 Jun 2027 11:31:41.056   05 Jun 2027 11:31:43.845             2.789           284.750
       143   05 Jun 2027 11:32:25.639   05 Jun 2027 11:32:28.504             2.865          1019.125
       144   05 Jun 2027 11:33:06.393   05 Jun 2027 11:33:06.923             0.530            38.656
       145   05 Jun 2027 11:33:52.513   05 Jun 2027 11:33:56.008             3.495           943.656
       146   05 Jun 2027 11:34:36.866   05 Jun 2027 11:34:43.358             6.492          1056.063
       147   06 Jun 2027 03:53:32.205   06 Jun 2027 03:54:11.128            38.923         19461.500
       148   06 Jun 2027 03:54:35.325   06 Jun 2027 03:56:20.384           105.059         52529.500
       149   06 Jun 2027 03:56:56.540   06 Jun 2027 03:57:08.243            11.703          5851.500
       150   06 Jun 2027 05:17:00.515   06 Jun 2027 05:17:55.181            54.666         27333.000
       151   06 Jun 2027 06:53:22.727   06 Jun 2027 06:55:01.700            98.973         46122.125
       152   06 Jun 2027 06:55:16.799   06 Jun 2027 06:55:17.460             0.661           251.000
       153   06 Jun 2027 06:55:52.397   06 Jun 2027 06:55:52.397             0.000             0.000
       154   06 Jun 2027 06:55:55.887   06 Jun 2027 06:55:57.907             2.020           997.625
       155   06 Jun 2027 06:56:37.582   06 Jun 2027 06:56:38.035             0.453           226.500
       156   06 Jun 2027 06:56:59.255   06 Jun 2027 06:57:06.200             6.945          1536.281
       157   06 Jun 2027 08:28:18.697   06 Jun 2027 08:28:24.418             5.721          1961.219
       158   06 Jun 2027 08:30:12.029   06 Jun 2027 08:30:16.822             4.793          2341.562
       159   06 Jun 2027 08:31:08.290   06 Jun 2027 08:31:11.115             2.825          1359.781
       160   06 Jun 2027 08:31:20.070   06 Jun 2027 08:31:21.805             1.735           279.844
       161   06 Jun 2027 08:31:46.102   06 Jun 2027 08:31:50.931             4.829           759.281
       162   06 Jun 2027 08:32:41.568   06 Jun 2027 08:32:44.795             3.227          1324.375
       163   06 Jun 2027 08:33:52.658   06 Jun 2027 08:33:56.913             4.255          2120.719
       164   06 Jun 2027 08:34:49.961   06 Jun 2027 08:34:53.779             3.818          1576.250
       165   06 Jun 2027 10:04:38.041   06 Jun 2027 10:04:49.859            11.818          4863.000
       166   06 Jun 2027 10:07:38.257   06 Jun 2027 10:07:39.999             1.742           459.062
       167   06 Jun 2027 10:08:05.494   06 Jun 2027 10:08:08.743             3.249           777.969
       168   06 Jun 2027 10:08:22.462   06 Jun 2027 10:08:27.143             4.681           423.031
       169   06 Jun 2027 10:09:02.340   06 Jun 2027 10:09:03.860             1.520           608.031
       170   06 Jun 2027 10:09:40.214   06 Jun 2027 10:09:43.149             2.935          1136.063
       171   06 Jun 2027 10:10:11.971   06 Jun 2027 10:10:21.462             9.491           622.438
       172   06 Jun 2027 11:42:53.109   06 Jun 2027 11:43:05.055            11.946          5755.531
       173   06 Jun 2027 11:43:41.644   06 Jun 2027 11:43:45.899             4.255           559.750
       174   06 Jun 2027 11:45:05.538   06 Jun 2027 11:45:10.240             4.702          2092.844
       175   06 Jun 2027 11:45:32.625   06 Jun 2027 11:45:34.119             1.494           112.156
       176   06 Jun 2027 11:45:49.448   06 Jun 2027 11:45:52.740             3.292           340.875
       177   06 Jun 2027 11:46:06.591   06 Jun 2027 11:46:10.211             3.620           373.312
       178   06 Jun 2027 11:46:36.591   06 Jun 2027 11:46:38.588             1.997           293.281
       179   06 Jun 2027 11:46:42.241   06 Jun 2027 11:46:42.983             0.742           114.156
       180   07 Jun 2027 03:54:16.149   07 Jun 2027 03:54:24.273             8.124          4062.000
       181   07 Jun 2027 04:05:28.573   07 Jun 2027 04:07:09.635           101.062         50531.000
       182   07 Jun 2027 04:07:35.392   07 Jun 2027 04:08:26.937            51.545         25772.500
       183   07 Jun 2027 05:28:05.343   07 Jun 2027 05:28:53.114            47.771         23885.500
       184   07 Jun 2027 05:31:05.072   07 Jun 2027 05:31:14.374             9.302          4651.000
       185   07 Jun 2027 07:03:41.293   07 Jun 2027 07:04:20.444            39.151         19575.500
       186   07 Jun 2027 07:05:06.886   07 Jun 2027 07:06:13.782            66.896         30719.595
       187   07 Jun 2027 07:06:18.446   07 Jun 2027 07:06:19.198             0.752            68.031
       188   07 Jun 2027 07:07:39.170   07 Jun 2027 07:07:39.170             0.000             0.000
       189   07 Jun 2027 07:07:59.634   07 Jun 2027 07:08:07.172             7.538          2609.062
       190   07 Jun 2027 07:08:39.349   07 Jun 2027 07:08:41.547             2.198           900.250
       191   07 Jun 2027 07:09:28.456   07 Jun 2027 07:09:31.801             3.345          1209.281
       192   07 Jun 2027 08:39:52.136   07 Jun 2027 08:39:54.147             2.011          1005.500
       193   07 Jun 2027 08:40:24.115   07 Jun 2027 08:40:29.207             5.092          1660.562
       194   07 Jun 2027 08:42:12.372   07 Jun 2027 08:42:18.704             6.332          2358.219
       195   07 Jun 2027 08:43:01.106   07 Jun 2027 08:43:06.411             5.305          1211.844
       196   07 Jun 2027 08:43:24.444   07 Jun 2027 08:43:28.221             3.777           446.906
       197   07 Jun 2027 08:44:13.176   07 Jun 2027 08:44:16.657             3.481          1404.844
       198   07 Jun 2027 08:44:50.641   07 Jun 2027 08:45:00.607             9.966          1062.000
       199   07 Jun 2027 08:45:17.117   07 Jun 2027 08:45:18.230             1.113           330.969
       200   07 Jun 2027 08:46:07.377   07 Jun 2027 08:46:11.556             4.179           842.969
       201   07 Jun 2027 08:46:59.586   07 Jun 2027 08:47:01.123             1.537           738.719
       202   07 Jun 2027 10:16:57.701   07 Jun 2027 10:17:13.744            16.043          6962.875
       203   07 Jun 2027 10:20:26.843   07 Jun 2027 10:20:32.557             5.714          1001.500
       204   07 Jun 2027 10:21:32.763   07 Jun 2027 10:21:40.200             7.437          1225.875
       205   07 Jun 2027 10:21:45.121   07 Jun 2027 10:21:49.344             4.223           153.781
       206   07 Jun 2027 10:22:58.702   07 Jun 2027 10:23:07.878             9.176          2156.125
       207   07 Jun 2027 11:54:56.250   07 Jun 2027 11:55:14.028            17.778          7621.156
       208   07 Jun 2027 11:56:34.853   07 Jun 2027 11:56:36.241             1.388           179.812
       209   07 Jun 2027 11:57:05.892   07 Jun 2027 11:57:10.843             4.951           365.094
       210   07 Jun 2027 11:57:34.025   07 Jun 2027 11:57:36.915             2.890           548.906
       211   07 Jun 2027 11:58:24.321   07 Jun 2027 11:58:24.903             0.582           251.688
       212   07 Jun 2027 11:58:33.136   07 Jun 2027 11:58:33.782             0.646            48.750
       213   08 Jun 2027 04:05:48.086   08 Jun 2027 04:06:18.770            30.684         15342.000
       214   08 Jun 2027 04:17:31.573   08 Jun 2027 04:18:44.514            72.941         36470.500
       215   08 Jun 2027 05:39:44.302   08 Jun 2027 05:40:54.564            70.262         35131.000
       216   08 Jun 2027 05:41:44.802   08 Jun 2027 05:42:16.799            31.997         15998.500
       217   08 Jun 2027 05:43:48.658   08 Jun 2027 05:43:59.903            11.245          5622.500
       218   08 Jun 2027 05:44:07.932   08 Jun 2027 05:44:18.262            10.330          5165.000
       219   08 Jun 2027 07:14:47.518   08 Jun 2027 07:16:20.223            92.705         45229.531
       220   08 Jun 2027 07:16:51.312   08 Jun 2027 07:16:57.907             6.595           941.938
       221   08 Jun 2027 07:17:30.683   08 Jun 2027 07:17:32.010             1.327           392.906
       222   08 Jun 2027 07:18:02.825   08 Jun 2027 07:18:04.651             1.826           431.844
       223   08 Jun 2027 07:18:43.245   08 Jun 2027 07:18:45.901             2.656           761.719
       224   08 Jun 2027 07:19:57.399   08 Jun 2027 07:20:04.200             6.801          2225.125
       225   08 Jun 2027 07:20:32.391   08 Jun 2027 07:20:35.742             3.351           593.750
       226   08 Jun 2027 07:21:35.786   08 Jun 2027 07:21:40.892             5.106          1712.000
       227   08 Jun 2027 08:52:11.051   08 Jun 2027 08:52:17.252             6.201          2992.375
       228   08 Jun 2027 08:56:27.017   08 Jun 2027 08:56:33.206             6.189          2555.125
       229   08 Jun 2027 08:56:47.637   08 Jun 2027 08:56:49.693             2.056           188.969
       230   08 Jun 2027 08:57:48.304   08 Jun 2027 08:57:52.638             4.334          1535.094
       231   08 Jun 2027 08:58:27.714   08 Jun 2027 08:58:31.216             3.502           697.438
       232   08 Jun 2027 08:58:49.278   08 Jun 2027 08:58:53.082             3.804           512.281
       233   08 Jun 2027 08:59:29.688   08 Jun 2027 08:59:30.038             0.350            49.219
       234   08 Jun 2027 10:28:59.193   08 Jun 2027 10:29:10.929            11.736          5640.250
       235   08 Jun 2027 10:32:40.414   08 Jun 2027 10:32:50.466            10.052          1167.156
       236   08 Jun 2027 10:33:08.052   08 Jun 2027 10:33:09.609             1.557           450.313
       237   08 Jun 2027 10:33:24.164   08 Jun 2027 10:33:25.661             1.497           313.188
       238   08 Jun 2027 10:34:15.240   08 Jun 2027 10:34:19.421             4.181           886.406
       239   08 Jun 2027 10:35:15.480   08 Jun 2027 10:35:19.335             3.855          1751.844
       240   09 Jun 2027 03:00:00.000   09 Jun 2027 03:00:03.426             3.426          1713.000
       241   09 Jun 2027 04:17:19.099   09 Jun 2027 04:17:49.654            30.555         15277.500
       242   09 Jun 2027 04:19:07.267   09 Jun 2027 04:19:21.573            14.306          7153.000
       243   09 Jun 2027 04:29:32.210   09 Jun 2027 04:30:03.994            31.784         15892.000
       244   09 Jun 2027 05:51:27.807   09 Jun 2027 05:52:41.816            74.009         37004.500
       245   09 Jun 2027 05:53:30.654   09 Jun 2027 05:54:11.566            40.912         20456.000
       246   09 Jun 2027 05:56:02.174   09 Jun 2027 05:56:21.319            19.145          9572.500
       247   09 Jun 2027 07:26:15.910   09 Jun 2027 07:27:53.295            97.385         47003.344
       248   09 Jun 2027 07:28:23.914   09 Jun 2027 07:28:26.255             2.341           362.375
       249   09 Jun 2027 07:28:51.572   09 Jun 2027 07:28:53.583             2.011           229.906
       250   09 Jun 2027 07:29:07.444   09 Jun 2027 07:29:12.333             4.889           201.969
       251   09 Jun 2027 07:30:37.084   09 Jun 2027 07:30:42.796             5.712          1900.281
       252   09 Jun 2027 07:31:57.437   09 Jun 2027 07:32:08.348            10.911          2209.531
       253   09 Jun 2027 07:32:57.031   09 Jun 2027 07:33:01.023             3.992          1191.563
       254   09 Jun 2027 07:33:14.122   09 Jun 2027 07:33:15.663             1.541           304.938
       255   09 Jun 2027 07:33:22.326   09 Jun 2027 07:33:23.355             1.029            40.625
       256   09 Jun 2027 07:34:01.204   09 Jun 2027 07:34:03.907             2.703          1182.781
       257   09 Jun 2027 07:34:38.369   09 Jun 2027 07:34:41.274             2.905           993.250
       258   09 Jun 2027 09:04:05.475   09 Jun 2027 09:04:16.967            11.492          4636.625
       259   09 Jun 2027 09:05:04.047   09 Jun 2027 09:05:09.116             5.069          1102.750
       260   09 Jun 2027 09:06:57.003   09 Jun 2027 09:07:01.408             4.405          1429.937
       261   09 Jun 2027 09:08:19.690   09 Jun 2027 09:08:21.261             1.571           102.156
       262   09 Jun 2027 09:08:22.254   09 Jun 2027 09:08:23.704             1.450            31.031
       263   09 Jun 2027 09:10:09.069   09 Jun 2027 09:10:13.527             4.458           891.406
       264   09 Jun 2027 09:11:06.566   09 Jun 2027 09:11:07.869             1.303           463.438
       265   09 Jun 2027 09:11:14.077   09 Jun 2027 09:11:17.918             3.841            91.125
       266   09 Jun 2027 10:40:49.889   09 Jun 2027 10:41:01.797            11.908          4785.062
       267   09 Jun 2027 10:41:20.352   09 Jun 2027 10:41:21.786             1.434           303.000
       268   09 Jun 2027 10:43:49.561   09 Jun 2027 10:43:50.476             0.915           411.375
       269   09 Jun 2027 10:44:54.562   09 Jun 2027 10:44:59.378             4.816          2002.688
       270   09 Jun 2027 10:45:04.931   09 Jun 2027 10:45:05.901             0.970            39.437
       271   09 Jun 2027 10:45:06.452   09 Jun 2027 10:45:09.564             3.112            17.219
       272   09 Jun 2027 10:45:24.109   09 Jun 2027 10:45:24.842             0.733            73.656
       273   09 Jun 2027 10:45:44.264   09 Jun 2027 10:45:47.154             2.890           403.281
       274   09 Jun 2027 10:45:58.897   09 Jun 2027 10:46:00.534             1.637           308.719
       275   09 Jun 2027 10:46:24.094   09 Jun 2027 10:46:24.972             0.878            69.781
       276   09 Jun 2027 10:47:02.329   09 Jun 2027 10:47:06.481             4.152           556.813
       277   09 Jun 2027 10:47:09.843   09 Jun 2027 10:47:10.317             0.474           105.063
       278   10 Jun 2027 03:05:15.967   10 Jun 2027 03:06:01.300            45.333         22666.500
       279   10 Jun 2027 03:06:31.923   10 Jun 2027 03:06:32.870             0.947           473.500
       280   10 Jun 2027 03:07:03.568   10 Jun 2027 03:07:06.232             2.664          1332.000
       281   10 Jun 2027 03:07:15.489   10 Jun 2027 03:07:22.743             7.254          3627.000
       282   10 Jun 2027 03:07:32.855   10 Jun 2027 03:07:32.855             0.000             0.000
       283   10 Jun 2027 03:07:41.701   10 Jun 2027 03:07:45.499             3.798          1899.000
       284   10 Jun 2027 03:08:39.027   10 Jun 2027 03:08:52.750            13.723          6861.500
       285   10 Jun 2027 03:08:59.156   10 Jun 2027 03:09:05.618             6.462          3231.000
       286   10 Jun 2027 03:09:15.761   10 Jun 2027 03:09:50.650            34.889         17444.500
       287   10 Jun 2027 04:29:17.537   10 Jun 2027 04:30:01.706            44.169         22084.500
       288   10 Jun 2027 04:30:52.031   10 Jun 2027 04:30:58.518             6.487          3243.500
       289   10 Jun 2027 04:31:14.657   10 Jun 2027 04:31:19.363             4.706          2353.000
       290   10 Jun 2027 06:05:14.268   10 Jun 2027 06:07:47.200           152.932         76466.000
       291   10 Jun 2027 06:08:04.827   10 Jun 2027 06:08:11.821             6.994          3497.000
       292   10 Jun 2027 07:39:04.624   10 Jun 2027 07:39:19.503            14.879          4714.656
       293   10 Jun 2027 07:41:14.519   10 Jun 2027 07:41:17.223             2.704          1078.781
       294   10 Jun 2027 07:42:04.777   10 Jun 2027 07:42:06.824             2.047           738.969
       295   10 Jun 2027 07:42:49.762   10 Jun 2027 07:42:52.841             3.079           822.656
       296   10 Jun 2027 07:43:42.440   10 Jun 2027 07:43:45.276             2.836           923.156
       297   10 Jun 2027 07:44:21.915   10 Jun 2027 07:44:25.965             4.050           782.500
       298   10 Jun 2027 07:45:03.281   10 Jun 2027 07:45:10.516             7.235           820.875
       299   10 Jun 2027 07:45:43.602   10 Jun 2027 07:45:53.385             9.783          1011.281
       300   10 Jun 2027 07:46:08.001   10 Jun 2027 07:46:11.411             3.410           120.437
       301   10 Jun 2027 07:46:35.326   10 Jun 2027 07:46:37.175             1.849           597.406
       302   10 Jun 2027 09:16:12.192   10 Jun 2027 09:16:30.664            18.472          7064.906
       303   10 Jun 2027 09:18:09.536   10 Jun 2027 09:18:19.986            10.450          1811.781
       304   10 Jun 2027 09:20:20.604   10 Jun 2027 09:20:26.432             5.828          2782.219
       305   10 Jun 2027 09:21:44.731   10 Jun 2027 09:21:52.369             7.638          1505.406
       306   10 Jun 2027 09:22:47.809   10 Jun 2027 09:22:51.738             3.929          1732.500
       307   10 Jun 2027 09:23:06.759   10 Jun 2027 09:23:08.266             1.507           251.438
       308   10 Jun 2027 09:23:27.180   10 Jun 2027 09:23:28.200             1.020           384.406
       309   10 Jun 2027 10:53:15.245   10 Jun 2027 10:53:23.524             8.279          4139.500
       310   10 Jun 2027 10:53:31.436   10 Jun 2027 10:53:36.780             5.344          2440.094
       311   10 Jun 2027 10:55:33.448   10 Jun 2027 10:55:38.354             4.906          1884.625
       312   10 Jun 2027 10:56:02.766   10 Jun 2027 10:56:04.186             1.420           487.219
       313   10 Jun 2027 10:56:56.255   10 Jun 2027 10:56:58.896             2.641           185.594
       314   10 Jun 2027 10:57:16.275   10 Jun 2027 10:57:17.188             0.913           456.500
       315   10 Jun 2027 10:57:25.875   10 Jun 2027 10:57:26.902             1.027           280.094
       316   10 Jun 2027 10:58:13.645   10 Jun 2027 10:58:17.342             3.697          1447.375
       317   10 Jun 2027 10:59:03.218   10 Jun 2027 10:59:13.755            10.537           975.188
       318   11 Jun 2027 03:17:50.741   11 Jun 2027 03:20:46.066           175.325         87662.500
       319   11 Jun 2027 04:41:11.356   11 Jun 2027 04:41:48.610            37.254         18627.000
       320   11 Jun 2027 04:42:59.064   11 Jun 2027 04:42:59.064             0.000             0.000
       321   11 Jun 2027 06:17:35.987   11 Jun 2027 06:19:17.886           101.899         50713.156
       322   11 Jun 2027 06:19:28.744   11 Jun 2027 06:19:30.477             1.733           194.750
       323   11 Jun 2027 06:19:55.820   11 Jun 2027 06:19:58.360             2.540           672.625
       324   11 Jun 2027 06:19:59.104   11 Jun 2027 06:20:00.446             1.342            23.250
       325   11 Jun 2027 07:51:18.914   11 Jun 2027 07:51:26.025             7.111          3509.563
       326   11 Jun 2027 07:53:28.590   11 Jun 2027 07:53:31.151             2.561           513.437
       327   11 Jun 2027 07:54:25.339   11 Jun 2027 07:54:28.656             3.317          1574.562
       328   11 Jun 2027 07:55:16.739   11 Jun 2027 07:55:16.739             0.000             0.000
       329   11 Jun 2027 07:55:31.689   11 Jun 2027 07:55:35.867             4.178          1736.219
       330   11 Jun 2027 07:56:18.927   11 Jun 2027 07:56:23.756             4.829           728.594
       331   11 Jun 2027 07:56:58.034   11 Jun 2027 07:57:01.498             3.464          1038.812
       332   11 Jun 2027 07:57:45.323   11 Jun 2027 07:57:46.480             1.157           242.531
       333   11 Jun 2027 07:58:32.201   11 Jun 2027 07:58:32.310             0.109            54.500
       334   11 Jun 2027 07:58:33.478   11 Jun 2027 07:58:35.447             1.969           909.875
       335   11 Jun 2027 07:58:59.444   11 Jun 2027 07:59:01.140             1.696           221.500
       336   11 Jun 2027 09:28:38.631   11 Jun 2027 09:28:54.080            15.449          6028.719
       337   11 Jun 2027 09:32:12.727   11 Jun 2027 09:32:13.163             0.436           189.469
       338   11 Jun 2027 09:33:13.868   11 Jun 2027 09:33:17.153             3.285           738.937
       339   11 Jun 2027 09:33:41.320   11 Jun 2027 09:33:42.365             1.045           153.000
       340   11 Jun 2027 09:34:45.181   11 Jun 2027 09:34:53.537             8.356          1893.531
       341   11 Jun 2027 11:05:35.395   11 Jun 2027 11:05:54.973            19.578          7088.500
       342   11 Jun 2027 11:07:41.215   11 Jun 2027 11:07:45.517             4.302           657.813
       343   11 Jun 2027 11:08:48.266   11 Jun 2027 11:08:49.396             1.130           174.125
       344   11 Jun 2027 11:08:58.161   11 Jun 2027 11:08:58.274             0.113            10.844
       345   11 Jun 2027 11:09:10.626   11 Jun 2027 11:09:12.341             1.715            22.000
       346   11 Jun 2027 11:09:42.761   11 Jun 2027 11:09:48.312             5.551           758.531
       347   11 Jun 2027 11:10:18.830   11 Jun 2027 11:10:27.229             8.399           891.062
       348   11 Jun 2027 11:10:53.678   11 Jun 2027 11:10:54.874             1.196           243.031
       349   12 Jun 2027 03:29:28.459   12 Jun 2027 03:32:18.524           170.065         85032.500
       350   12 Jun 2027 03:32:45.940   12 Jun 2027 03:33:32.495            46.555         23277.500
       351   12 Jun 2027 03:33:34.342   12 Jun 2027 03:33:43.033             8.691          4345.500
       352   12 Jun 2027 04:52:59.044   12 Jun 2027 04:53:09.978            10.934          5467.000
       353   12 Jun 2027 04:54:46.168   12 Jun 2027 04:55:15.234            29.066         14533.000
       354   12 Jun 2027 06:29:39.273   12 Jun 2027 06:30:38.180            58.907         29359.875
       355   12 Jun 2027 06:31:40.100   12 Jun 2027 06:31:44.460             4.360          1580.937
       356   12 Jun 2027 06:32:21.216   12 Jun 2027 06:32:23.704             2.488          1084.250
       357   12 Jun 2027 08:04:38.334   12 Jun 2027 08:04:49.420            11.086          2468.969
       358   12 Jun 2027 08:05:51.093   12 Jun 2027 08:05:53.270             2.177            48.250
       359   12 Jun 2027 08:07:03.646   12 Jun 2027 08:07:12.447             8.801          1147.625
       360   12 Jun 2027 08:08:02.851   12 Jun 2027 08:08:04.827             1.976           291.906
       361   12 Jun 2027 08:08:39.694   12 Jun 2027 08:08:43.806             4.112           381.406
       362   12 Jun 2027 08:10:09.625   12 Jun 2027 08:10:15.827             6.202          2240.750
       363   12 Jun 2027 08:11:24.664   12 Jun 2027 08:11:30.908             6.244          1634.625
       364   12 Jun 2027 09:40:46.604   12 Jun 2027 09:41:01.103            14.499          6019.469
       365   12 Jun 2027 09:43:22.652   12 Jun 2027 09:43:23.452             0.800           160.469
       366   12 Jun 2027 09:44:04.326   12 Jun 2027 09:44:05.949             1.623            33.594
       367   12 Jun 2027 09:44:22.092   12 Jun 2027 09:44:28.306             6.214            46.625
       368   12 Jun 2027 09:45:08.662   12 Jun 2027 09:45:09.828             1.166           342.281
       369   12 Jun 2027 09:45:47.380   12 Jun 2027 09:45:48.888             1.508           469.625
       370   12 Jun 2027 09:46:54.179   12 Jun 2027 09:46:55.639             1.460           645.094
       371   12 Jun 2027 11:18:30.723   12 Jun 2027 11:18:42.986            12.263          5788.906
       372   12 Jun 2027 11:20:06.677   12 Jun 2027 11:20:11.029             4.352          1371.844
       373   12 Jun 2027 11:20:43.360   12 Jun 2027 11:20:50.770             7.410           779.781
       374   12 Jun 2027 11:21:17.532   12 Jun 2027 11:21:18.652             1.120           203.406
       375   12 Jun 2027 11:21:57.895   12 Jun 2027 11:22:00.828             2.933          1179.906
       376   12 Jun 2027 11:22:36.487   12 Jun 2027 11:22:37.149             0.662            98.406
       377   13 Jun 2027 03:41:51.238   13 Jun 2027 03:42:22.310            31.072         15536.000
       378   13 Jun 2027 03:42:40.837   13 Jun 2027 03:44:28.498           107.661         53830.500
       379   13 Jun 2027 03:45:33.290   13 Jun 2027 03:45:42.920             9.630          4815.000
       380   13 Jun 2027 05:05:13.479   13 Jun 2027 05:06:14.419            60.940         30470.000
       381   13 Jun 2027 05:08:07.645   13 Jun 2027 05:08:21.652            14.007          7003.500
       382   13 Jun 2027 06:41:45.551   13 Jun 2027 06:43:07.903            82.352         41171.219
       383   13 Jun 2027 06:44:20.110   13 Jun 2027 06:44:25.584             5.474          2242.719
       384   13 Jun 2027 08:16:55.936   13 Jun 2027 08:17:03.537             7.601          2711.375
       385   13 Jun 2027 08:17:16.823   13 Jun 2027 08:17:17.726             0.903            37.094
       386   13 Jun 2027 08:18:33.329   13 Jun 2027 08:18:37.591             4.262           162.250
       387   13 Jun 2027 08:19:48.841   13 Jun 2027 08:19:51.453             2.612          1065.969
       388   13 Jun 2027 08:20:29.992   13 Jun 2027 08:20:43.933            13.941           546.656
       389   13 Jun 2027 08:20:56.414   13 Jun 2027 08:20:58.856             2.442           150.906
       390   13 Jun 2027 08:22:09.703   13 Jun 2027 08:22:14.586             4.883          2213.969
       391   13 Jun 2027 08:23:11.533   13 Jun 2027 08:23:20.532             8.999          1779.594
       392   13 Jun 2027 09:53:18.883   13 Jun 2027 09:53:30.753            11.870          5580.656
       393   13 Jun 2027 09:55:11.321   13 Jun 2027 09:55:14.379             3.058           295.500
       394   13 Jun 2027 09:55:53.011   13 Jun 2027 09:55:54.027             1.016           385.688
       395   13 Jun 2027 09:56:28.983   13 Jun 2027 09:56:31.489             2.506           976.937
       396   13 Jun 2027 09:57:30.123   13 Jun 2027 09:57:37.801             7.678           564.219
       397   13 Jun 2027 09:58:21.400   13 Jun 2027 09:58:27.767             6.367          1237.813
       398   13 Jun 2027 09:58:31.155   13 Jun 2027 09:58:34.597             3.442            37.531
       399   13 Jun 2027 09:58:57.688   13 Jun 2027 09:58:58.772             1.084           237.344
       400   13 Jun 2027 09:59:21.553   13 Jun 2027 09:59:25.003             3.450           607.000
       401   13 Jun 2027 11:30:36.153   13 Jun 2027 11:30:46.370            10.217          5090.656
       402   13 Jun 2027 11:31:58.088   13 Jun 2027 11:31:59.515             1.427           663.438
       403   13 Jun 2027 11:32:42.877   13 Jun 2027 11:32:47.320             4.443          1003.187
       404   13 Jun 2027 11:33:53.785   13 Jun 2027 11:33:58.558             4.773           982.438
       405   13 Jun 2027 11:34:18.457   13 Jun 2027 11:34:20.194             1.737           621.844
       406   13 Jun 2027 11:34:50.432   13 Jun 2027 11:34:52.341             1.909           161.937
       407   13 Jun 2027 11:35:07.891   13 Jun 2027 11:35:12.546             4.655           485.937
