uniorb/output/strategy_4/Camera/Camera_KinoSat_111210.txt

KinoSat_111210
-------------------------
    Access    *     Start Time (UTCG)     *     Stop Time (UTCG)  *   Duration (s) *   Data (Mbytes)
         1   01 Jun 2027 04:07:56.964   01 Jun 2027 04:09:31.403            94.439         47219.500
         2   01 Jun 2027 04:19:40.805   01 Jun 2027 04:20:27.990            47.185         23592.500
         3   01 Jun 2027 05:41:56.203   01 Jun 2027 05:43:02.104            65.901         32950.500
         4   01 Jun 2027 05:43:53.189   01 Jun 2027 05:44:15.401            22.212         11106.000
         5   01 Jun 2027 07:16:54.122   01 Jun 2027 07:18:48.652           114.530         57265.000
         6   01 Jun 2027 07:18:57.744   01 Jun 2027 07:19:16.411            18.667          9333.500
         7   01 Jun 2027 07:20:45.691   01 Jun 2027 07:20:45.691             0.000             0.000
         8   01 Jun 2027 07:22:28.809   01 Jun 2027 07:22:49.512            20.703         10351.500
         9   01 Jun 2027 07:23:46.042   01 Jun 2027 07:24:06.043            20.001         10000.500
        10   01 Jun 2027 08:54:22.542   01 Jun 2027 08:57:09.574           167.032         83516.000
        11   01 Jun 2027 08:57:24.745   01 Jun 2027 08:57:24.745             0.000             0.000
        12   01 Jun 2027 09:00:34.298   01 Jun 2027 09:01:18.913            44.615         22307.500
        13   01 Jun 2027 10:31:07.389   01 Jun 2027 10:32:40.611            93.222         46611.000
        14   01 Jun 2027 10:33:47.512   01 Jun 2027 10:34:41.210            53.698         26849.000
        15   02 Jun 2027 03:00:00.000   02 Jun 2027 03:00:37.789            37.789         18894.500
        16   02 Jun 2027 04:19:30.296   02 Jun 2027 04:20:14.422            44.126         22063.000
        17   02 Jun 2027 04:21:17.702   02 Jun 2027 04:21:32.214            14.512          7256.000
        18   02 Jun 2027 04:31:46.627   02 Jun 2027 04:32:13.963            27.336         13668.000
        19   02 Jun 2027 05:53:29.739   02 Jun 2027 05:54:49.004            79.265         39632.500
        20   02 Jun 2027 05:55:22.574   02 Jun 2027 05:55:49.176            26.602         13301.000
        21   02 Jun 2027 05:56:53.644   02 Jun 2027 05:57:22.679            29.035         14517.500
        22   02 Jun 2027 07:28:22.081   02 Jun 2027 07:31:27.405           185.324         92662.000
        23   02 Jun 2027 07:32:30.395   02 Jun 2027 07:32:45.917            15.522          7761.000
        24   02 Jun 2027 07:33:19.055   02 Jun 2027 07:33:58.716            39.661         19830.500
        25   02 Jun 2027 07:37:16.873   02 Jun 2027 07:37:17.596             0.723           361.500
        26   02 Jun 2027 09:06:15.691   02 Jun 2027 09:08:19.884           124.193         62096.500
        27   02 Jun 2027 09:10:25.337   02 Jun 2027 09:11:20.815            55.478         27739.000
        28   02 Jun 2027 09:12:08.605   02 Jun 2027 09:12:45.867            37.262         18631.000
        29   02 Jun 2027 09:12:52.429   02 Jun 2027 09:12:56.223             3.794          1070.282
        30   02 Jun 2027 09:13:18.143   02 Jun 2027 09:13:19.758             1.615           491.562
        31   02 Jun 2027 09:13:20.890   02 Jun 2027 09:13:22.556             1.666             7.969
        32   02 Jun 2027 10:42:59.617   02 Jun 2027 10:43:19.721            20.104          9950.875
        33   02 Jun 2027 10:43:33.900   02 Jun 2027 10:43:39.982             6.082           339.562
        34   02 Jun 2027 10:46:27.634   02 Jun 2027 10:46:39.198            11.564           903.469
        35   02 Jun 2027 10:47:01.254   02 Jun 2027 10:47:04.165             2.911           689.250
        36   02 Jun 2027 10:47:15.224   02 Jun 2027 10:47:20.421             5.197           345.594
        37   02 Jun 2027 10:47:43.345   02 Jun 2027 10:47:45.028             1.683           616.469
        38   02 Jun 2027 10:47:58.341   02 Jun 2027 10:47:59.392             1.051           346.469
        39   02 Jun 2027 10:48:19.461   02 Jun 2027 10:48:21.379             1.918           133.312
        40   02 Jun 2027 10:48:54.974   02 Jun 2027 10:49:00.165             5.191           841.187
        41   02 Jun 2027 10:49:34.955   02 Jun 2027 10:49:41.962             7.007           740.312
        42   03 Jun 2027 03:07:31.474   03 Jun 2027 03:08:39.447            67.973         33986.500
        43   03 Jun 2027 03:09:51.197   03 Jun 2027 03:09:52.295             1.098           549.000
        44   03 Jun 2027 03:10:45.928   03 Jun 2027 03:11:13.511            27.583         13791.500
        45   03 Jun 2027 03:11:19.133   03 Jun 2027 03:11:22.988             3.855          1927.500
        46   03 Jun 2027 04:31:26.284   03 Jun 2027 04:32:10.348            44.064         22032.000
        47   03 Jun 2027 04:33:17.431   03 Jun 2027 04:33:43.053            25.622         12811.000
        48   03 Jun 2027 06:07:27.166   03 Jun 2027 06:10:02.111           154.945         75342.969
        49   03 Jun 2027 07:41:14.590   03 Jun 2027 07:41:23.117             8.527          3469.937
        50   03 Jun 2027 07:42:35.674   03 Jun 2027 07:42:37.462             1.788           331.844
        51   03 Jun 2027 07:43:44.864   03 Jun 2027 07:43:46.013             1.149           571.781
        52   03 Jun 2027 07:44:27.113   03 Jun 2027 07:44:29.922             2.809          1149.625
        53   03 Jun 2027 07:44:59.495   03 Jun 2027 07:45:04.669             5.174           842.750
        54   03 Jun 2027 07:45:50.628   03 Jun 2027 07:45:56.732             6.104           921.969
        55   03 Jun 2027 07:46:30.581   03 Jun 2027 07:46:34.475             3.894           757.219
        56   03 Jun 2027 07:47:11.190   03 Jun 2027 07:47:13.878             2.688           889.969
        57   03 Jun 2027 07:47:57.328   03 Jun 2027 07:48:03.968             6.640          1180.844
        58   03 Jun 2027 07:48:17.260   03 Jun 2027 07:48:17.260             0.000             0.000
        59   03 Jun 2027 07:48:22.341   03 Jun 2027 07:48:23.225             0.884           295.906
        60   03 Jun 2027 07:48:45.261   03 Jun 2027 07:48:46.893             1.632           576.594
        61   03 Jun 2027 09:18:23.387   03 Jun 2027 09:18:38.953            15.566          6718.750
        62   03 Jun 2027 09:20:58.469   03 Jun 2027 09:21:01.582             3.113          1262.938
        63   03 Jun 2027 09:22:28.999   03 Jun 2027 09:22:36.798             7.799          2731.781
        64   03 Jun 2027 09:23:55.406   03 Jun 2027 09:23:58.513             3.107          1506.312
        65   03 Jun 2027 09:24:47.746   03 Jun 2027 09:24:48.615             0.869            71.563
        66   03 Jun 2027 09:25:06.000   03 Jun 2027 09:25:12.598             6.598           399.687
        67   03 Jun 2027 09:25:38.304   03 Jun 2027 09:25:41.398             3.094           664.063
        68   03 Jun 2027 10:55:37.879   03 Jun 2027 10:55:51.439            13.560          6780.000
        69   03 Jun 2027 10:55:52.834   03 Jun 2027 10:55:55.847             3.013           146.406
        70   03 Jun 2027 10:58:05.167   03 Jun 2027 10:58:09.826             4.659           165.594
        71   03 Jun 2027 10:59:15.718   03 Jun 2027 10:59:16.747             1.029           451.656
        72   03 Jun 2027 10:59:26.278   03 Jun 2027 10:59:27.219             0.941           289.469
        73   03 Jun 2027 10:59:37.974   03 Jun 2027 10:59:44.765             6.791           217.875
        74   03 Jun 2027 10:59:56.216   03 Jun 2027 10:59:57.290             1.074           348.188
        75   03 Jun 2027 10:59:59.528   03 Jun 2027 11:00:05.881             6.353            69.938
        76   03 Jun 2027 11:01:14.261   03 Jun 2027 11:01:24.337            10.076          2000.531
        77   04 Jun 2027 03:19:57.664   04 Jun 2027 03:23:57.637           239.973        119986.500
        78   04 Jun 2027 04:43:19.310   04 Jun 2027 04:43:27.389             8.079          4039.500
        79   04 Jun 2027 04:43:30.049   04 Jun 2027 04:43:56.471            26.422         13211.000
        80   04 Jun 2027 06:19:40.375   04 Jun 2027 06:20:51.081            70.706         35321.063
        81   04 Jun 2027 06:21:39.334   04 Jun 2027 06:21:41.679             2.345          1172.500
        82   04 Jun 2027 06:22:01.126   04 Jun 2027 06:22:01.874             0.748           374.000
        83   04 Jun 2027 06:22:58.167   04 Jun 2027 06:23:04.251             6.084          2143.125
        84   04 Jun 2027 07:53:38.646   04 Jun 2027 07:53:43.681             5.035          2351.500
        85   04 Jun 2027 07:55:35.888   04 Jun 2027 07:55:36.667             0.779           238.625
        86   04 Jun 2027 07:56:34.392   04 Jun 2027 07:56:37.918             3.526          1583.844
        87   04 Jun 2027 07:57:25.196   04 Jun 2027 07:57:28.248             3.052          1229.000
        88   04 Jun 2027 07:58:53.316   04 Jun 2027 07:58:58.322             5.006          2313.687
        89   04 Jun 2027 07:59:07.635   04 Jun 2027 07:59:10.188             2.553            63.719
        90   04 Jun 2027 08:00:03.354   04 Jun 2027 08:00:04.429             1.075           254.656
        91   04 Jun 2027 08:00:20.299   04 Jun 2027 08:00:22.973             2.674           351.750
        92   04 Jun 2027 08:01:10.869   04 Jun 2027 08:01:18.586             7.717          1496.750
        93   04 Jun 2027 08:01:41.440   04 Jun 2027 08:01:43.908             2.468            77.875
        94   04 Jun 2027 09:30:48.886   04 Jun 2027 09:31:07.396            18.510          6194.031
        95   04 Jun 2027 09:33:26.671   04 Jun 2027 09:33:28.499             1.828           453.562
        96   04 Jun 2027 09:33:51.520   04 Jun 2027 09:33:54.996             3.476           188.063
        97   04 Jun 2027 09:34:29.101   04 Jun 2027 09:34:31.056             1.955           966.594
        98   04 Jun 2027 09:35:20.585   04 Jun 2027 09:35:24.770             4.185           702.281
        99   04 Jun 2027 09:35:55.129   04 Jun 2027 09:35:59.212             4.083           453.719
       100   04 Jun 2027 09:36:54.206   04 Jun 2027 09:36:57.997             3.791          1201.750
       101   04 Jun 2027 11:07:48.228   04 Jun 2027 11:08:03.438            15.210          6786.063
       102   04 Jun 2027 11:10:54.902   04 Jun 2027 11:10:56.607             1.705           217.688
       103   04 Jun 2027 11:11:19.200   04 Jun 2027 11:11:24.514             5.314           120.031
       104   04 Jun 2027 11:12:01.223   04 Jun 2027 11:12:03.561             2.338          1025.531
       105   04 Jun 2027 11:13:10.836   04 Jun 2027 11:13:12.424             1.588           794.000
       106   05 Jun 2027 03:32:15.217   05 Jun 2027 03:35:41.099           205.882        102941.000
       107   05 Jun 2027 03:35:46.126   05 Jun 2027 03:35:51.975             5.849          2924.500
       108   05 Jun 2027 04:55:12.802   05 Jun 2027 04:55:18.004             5.202          2601.000
       109   05 Jun 2027 04:55:22.041   05 Jun 2027 04:55:46.135            24.094         12047.000
       110   05 Jun 2027 04:56:22.517   05 Jun 2027 04:56:22.517             0.000             0.000
       111   05 Jun 2027 06:31:45.902   05 Jun 2027 06:33:09.589            83.687         40619.938
       112   05 Jun 2027 06:33:38.238   05 Jun 2027 06:33:39.152             0.914           219.531
       113   05 Jun 2027 06:34:07.483   05 Jun 2027 06:34:09.228             1.745           835.562
       114   05 Jun 2027 06:34:29.098   05 Jun 2027 06:34:30.722             1.624           320.875
       115   05 Jun 2027 08:06:54.759   05 Jun 2027 08:07:00.414             5.655          2425.719
       116   05 Jun 2027 08:07:35.174   05 Jun 2027 08:07:35.605             0.431           188.344
       117   05 Jun 2027 08:08:06.631   05 Jun 2027 08:08:08.019             1.388            76.063
       118   05 Jun 2027 08:10:02.724   05 Jun 2027 08:10:07.238             4.514          1517.562
       119   05 Jun 2027 08:10:36.118   05 Jun 2027 08:10:40.367             4.249           847.062
       120   05 Jun 2027 08:11:06.456   05 Jun 2027 08:11:08.369             1.913           637.000
       121   05 Jun 2027 08:11:59.957   05 Jun 2027 08:12:00.470             0.513           163.406
       122   05 Jun 2027 08:12:43.139   05 Jun 2027 08:12:44.914             1.775           792.063
       123   05 Jun 2027 08:13:26.296   05 Jun 2027 08:13:28.891             2.595          1046.125
       124   05 Jun 2027 08:13:36.184   05 Jun 2027 08:13:37.439             1.255           227.906
       125   05 Jun 2027 09:43:14.990   05 Jun 2027 09:43:26.156            11.166          5414.313
       126   05 Jun 2027 09:45:36.323   05 Jun 2027 09:45:40.424             4.101            40.844
       127   05 Jun 2027 09:45:40.651   05 Jun 2027 09:45:42.583             1.932             7.094
       128   05 Jun 2027 09:46:13.259   05 Jun 2027 09:46:16.573             3.314           701.125
       129   05 Jun 2027 09:46:32.801   05 Jun 2027 09:46:41.264             8.463            24.812
       130   05 Jun 2027 09:47:14.634   05 Jun 2027 09:47:16.807             2.173           938.531
       131   05 Jun 2027 09:47:54.031   05 Jun 2027 09:47:56.614             2.583          1090.875
       132   05 Jun 2027 09:48:45.481   05 Jun 2027 09:48:53.281             7.800          1506.844
       133   05 Jun 2027 11:20:49.203   05 Jun 2027 11:21:01.145            11.942          5060.219
       134   05 Jun 2027 11:22:15.537   05 Jun 2027 11:22:21.888             6.351          1384.469
       135   05 Jun 2027 11:22:51.666   05 Jun 2027 11:22:54.204             2.538           875.125
       136   05 Jun 2027 11:23:26.720   05 Jun 2027 11:23:27.748             1.028            28.750
       137   05 Jun 2027 11:23:54.617   05 Jun 2027 11:23:59.034             4.417             4.844
       138   05 Jun 2027 11:24:48.367   05 Jun 2027 11:24:58.468            10.101          1541.656
       139   05 Jun 2027 11:25:06.018   05 Jun 2027 11:25:07.643             1.625           235.937
       140   06 Jun 2027 03:44:00.485   06 Jun 2027 03:44:34.468            33.983         16991.500
       141   06 Jun 2027 03:44:48.992   06 Jun 2027 03:47:30.720           161.728         80864.000
       142   06 Jun 2027 03:47:42.191   06 Jun 2027 03:47:48.998             6.807          3403.500
       143   06 Jun 2027 05:07:26.964   06 Jun 2027 05:07:35.534             8.570          4285.000
       144   06 Jun 2027 05:07:44.234   06 Jun 2027 05:07:45.910             1.676           838.000
       145   06 Jun 2027 05:08:09.688   06 Jun 2027 05:08:24.919            15.231          7615.500
       146   06 Jun 2027 05:08:29.227   06 Jun 2027 05:08:40.601            11.374          5687.000
       147   06 Jun 2027 05:09:30.504   06 Jun 2027 05:09:30.504             0.000             0.000
       148   06 Jun 2027 06:43:56.364   06 Jun 2027 06:45:10.663            74.299         37128.312
       149   06 Jun 2027 06:45:25.608   06 Jun 2027 06:45:29.019             3.411           405.125
       150   06 Jun 2027 06:46:29.506   06 Jun 2027 06:46:32.407             2.901          1335.781
       151   06 Jun 2027 06:46:47.623   06 Jun 2027 06:46:47.623             0.000             0.000
       152   06 Jun 2027 08:19:06.580   06 Jun 2027 08:19:13.556             6.976          2917.625
       153   06 Jun 2027 08:19:24.699   06 Jun 2027 08:19:25.081             0.382            36.531
       154   06 Jun 2027 08:20:51.671   06 Jun 2027 08:20:55.279             3.608           455.531
       155   06 Jun 2027 08:21:55.245   06 Jun 2027 08:21:58.440             3.195           924.312
       156   06 Jun 2027 08:22:16.583   06 Jun 2027 08:22:18.772             2.189           536.000
       157   06 Jun 2027 08:22:52.672   06 Jun 2027 08:22:54.338             1.666           813.281
       158   06 Jun 2027 08:24:18.755   06 Jun 2027 08:24:26.390             7.635          2219.844
       159   06 Jun 2027 08:24:46.036   06 Jun 2027 08:24:50.805             4.769           448.781
       160   06 Jun 2027 08:25:27.483   06 Jun 2027 08:25:29.121             1.638           213.500
       161   06 Jun 2027 09:55:27.338   06 Jun 2027 09:55:35.462             8.124          4038.250
       162   06 Jun 2027 09:57:40.349   06 Jun 2027 09:57:44.020             3.671           734.594
       163   06 Jun 2027 09:57:57.809   06 Jun 2027 09:57:58.578             0.769            70.094
       164   06 Jun 2027 09:58:08.106   06 Jun 2027 09:58:09.041             0.935           163.094
       165   06 Jun 2027 09:58:16.689   06 Jun 2027 09:58:17.482             0.793           110.500
       166   06 Jun 2027 09:58:30.687   06 Jun 2027 09:58:31.433             0.746           160.781
       167   06 Jun 2027 09:59:12.183   06 Jun 2027 09:59:13.406             1.223           216.219
       168   06 Jun 2027 09:59:51.986   06 Jun 2027 09:59:54.148             2.162           867.094
       169   06 Jun 2027 10:00:35.370   06 Jun 2027 10:00:38.706             3.336          1031.094
       170   06 Jun 2027 11:32:52.588   06 Jun 2027 11:33:06.692            14.104          6992.312
       171   06 Jun 2027 11:35:53.950   06 Jun 2027 11:35:57.137             3.187           639.312
       172   06 Jun 2027 11:36:37.532   06 Jun 2027 11:36:45.250             7.718           971.219
       173   06 Jun 2027 11:36:59.475   06 Jun 2027 11:37:00.563             1.088           160.094
       174   06 Jun 2027 11:37:16.960   06 Jun 2027 11:37:21.973             5.013           443.438
       175   07 Jun 2027 03:45:13.655   07 Jun 2027 03:45:14.683             1.028           514.000
       176   07 Jun 2027 03:55:57.295   07 Jun 2027 03:56:37.302            40.007         20003.500
       177   07 Jun 2027 03:56:55.458   07 Jun 2027 03:59:32.727           157.269         78634.500
       178   07 Jun 2027 05:19:54.260   07 Jun 2027 05:19:58.030             3.770          1885.000
       179   07 Jun 2027 05:19:59.733   07 Jun 2027 05:20:27.132            27.399         13699.500
       180   07 Jun 2027 05:22:05.758   07 Jun 2027 05:22:20.586            14.828          7414.000
       181   07 Jun 2027 06:55:43.681   07 Jun 2027 06:56:57.402            73.721         36722.625
       182   07 Jun 2027 06:57:16.892   07 Jun 2027 06:57:18.215             1.323           590.719
       183   07 Jun 2027 06:58:11.127   07 Jun 2027 06:58:14.840             3.713           963.469
       184   07 Jun 2027 06:59:42.345   07 Jun 2027 06:59:48.291             5.946          2521.406
       185   07 Jun 2027 08:30:36.515   07 Jun 2027 08:30:40.750             4.235          1847.437
       186   07 Jun 2027 08:31:22.603   07 Jun 2027 08:31:26.566             3.963           469.531
       187   07 Jun 2027 08:32:56.485   07 Jun 2027 08:32:58.002             1.517           582.969
       188   07 Jun 2027 08:33:40.149   07 Jun 2027 08:33:41.412             1.263           611.375
       189   07 Jun 2027 08:33:45.738   07 Jun 2027 08:33:45.738             0.000             0.000
       190   07 Jun 2027 08:34:40.826   07 Jun 2027 08:34:46.217             5.391          1788.281
       191   07 Jun 2027 08:35:13.235   07 Jun 2027 08:35:18.897             5.662           626.156
       192   07 Jun 2027 08:36:02.696   07 Jun 2027 08:36:07.483             4.787          1259.219
       193   07 Jun 2027 08:36:53.475   07 Jun 2027 08:36:58.753             5.278          1387.125
       194   07 Jun 2027 08:37:47.430   07 Jun 2027 08:37:51.278             3.848          1511.062
       195   07 Jun 2027 10:07:06.462   07 Jun 2027 10:07:20.797            14.335          6177.938
       196   07 Jun 2027 10:09:51.496   07 Jun 2027 10:09:56.817             5.321           748.031
       197   07 Jun 2027 10:10:24.754   07 Jun 2027 10:10:26.433             1.679           648.156
       198   07 Jun 2027 10:11:18.844   07 Jun 2027 10:11:24.868             6.024          1235.063
       199   07 Jun 2027 10:11:39.697   07 Jun 2027 10:11:40.933             1.236           463.406
       200   07 Jun 2027 10:11:48.833   07 Jun 2027 10:11:54.535             5.702           212.312
       201   07 Jun 2027 10:12:13.501   07 Jun 2027 10:12:20.515             7.014           212.437
       202   07 Jun 2027 10:12:29.340   07 Jun 2027 10:12:30.880             1.540           275.781
       203   07 Jun 2027 10:13:20.085   07 Jun 2027 10:13:23.652             3.567          1335.781
       204   07 Jun 2027 11:45:23.987   07 Jun 2027 11:45:40.349            16.362          7423.469
       205   07 Jun 2027 11:46:22.766   07 Jun 2027 11:46:31.664             8.898          1178.531
       206   07 Jun 2027 11:47:39.628   07 Jun 2027 11:47:42.524             2.896           265.938
       207   07 Jun 2027 11:47:59.759   07 Jun 2027 11:48:00.554             0.795           182.781
       208   07 Jun 2027 11:48:17.755   07 Jun 2027 11:48:18.869             1.114           434.813
       209   07 Jun 2027 11:48:35.470   07 Jun 2027 11:48:42.350             6.880           251.188
       210   07 Jun 2027 11:49:04.374   07 Jun 2027 11:49:06.961             2.587           425.750
       211   08 Jun 2027 03:56:32.373   08 Jun 2027 03:56:52.038            19.665          9832.500
       212   08 Jun 2027 04:07:53.492   08 Jun 2027 04:09:34.204           100.712         50356.000
       213   08 Jun 2027 05:30:28.914   08 Jun 2027 05:31:32.669            63.755         31877.500
       214   08 Jun 2027 05:32:03.746   08 Jun 2027 05:32:42.896            39.150         19575.000
       215   08 Jun 2027 07:06:00.152   08 Jun 2027 07:06:50.930            50.778         25389.000
       216   08 Jun 2027 07:07:28.996   08 Jun 2027 07:08:11.482            42.486         19834.343
       217   08 Jun 2027 07:08:40.772   08 Jun 2027 07:08:42.510             1.738           760.594
       218   08 Jun 2027 07:10:22.603   08 Jun 2027 07:10:36.158            13.555          3127.906
       219   08 Jun 2027 07:10:49.534   08 Jun 2027 07:10:53.779             4.245           329.938
       220   08 Jun 2027 07:11:52.131   08 Jun 2027 07:11:52.131             0.000             0.000
       221   08 Jun 2027 08:42:19.980   08 Jun 2027 08:42:26.652             6.672          3058.875
       222   08 Jun 2027 08:44:38.065   08 Jun 2027 08:44:46.927             8.862          2348.219
       223   08 Jun 2027 08:45:48.612   08 Jun 2027 08:45:48.612             0.000             0.000
       224   08 Jun 2027 08:45:57.786   08 Jun 2027 08:45:59.436             1.650           739.094
       225   08 Jun 2027 08:46:20.047   08 Jun 2027 08:46:29.283             9.236           644.094
       226   08 Jun 2027 08:46:54.420   08 Jun 2027 08:46:56.639             2.219           363.687
       227   08 Jun 2027 08:47:34.524   08 Jun 2027 08:47:47.740            13.216          1035.250
       228   08 Jun 2027 08:48:39.199   08 Jun 2027 08:48:47.716             8.517          1034.187
       229   08 Jun 2027 08:49:32.262   08 Jun 2027 08:49:34.213             1.951           888.313
       230   08 Jun 2027 10:19:26.309   08 Jun 2027 10:19:40.619            14.310          5928.719
       231   08 Jun 2027 10:21:28.763   08 Jun 2027 10:21:29.250             0.487           144.219
       232   08 Jun 2027 10:23:00.070   08 Jun 2027 10:23:04.876             4.806          1745.313
       233   08 Jun 2027 10:23:54.876   08 Jun 2027 10:23:57.885             3.009          1196.875
       234   08 Jun 2027 10:24:14.213   08 Jun 2027 10:24:16.685             2.472           249.156
       235   08 Jun 2027 10:25:25.615   08 Jun 2027 10:25:33.403             7.788          2078.937
       236   08 Jun 2027 11:57:21.721   08 Jun 2027 11:57:31.731            10.010          4873.250
       237   08 Jun 2027 11:57:56.474   08 Jun 2027 11:58:01.917             5.443           183.531
       238   08 Jun 2027 11:59:31.863   08 Jun 2027 11:59:33.012             1.149           383.938
       239   09 Jun 2027 04:08:12.630   09 Jun 2027 04:08:27.270            14.640          7320.000
       240   09 Jun 2027 04:09:19.201   09 Jun 2027 04:09:39.950            20.749         10374.500
       241   09 Jun 2027 04:19:56.738   09 Jun 2027 04:20:33.245            36.507         18253.500
       242   09 Jun 2027 05:42:11.454   09 Jun 2027 05:43:17.480            66.026         33013.000
       243   09 Jun 2027 05:44:05.779   09 Jun 2027 05:44:56.589            50.810         25405.000
       244   09 Jun 2027 05:45:01.755   09 Jun 2027 05:45:09.688             7.933          3966.500
       245   09 Jun 2027 05:46:01.799   09 Jun 2027 05:46:26.035            24.236         12118.000
       246   09 Jun 2027 07:17:08.315   09 Jun 2027 07:18:46.779            98.464         49232.000
       247   09 Jun 2027 07:19:15.882   09 Jun 2027 07:19:23.842             7.960          2691.781
       248   09 Jun 2027 07:19:55.121   09 Jun 2027 07:19:58.022             2.901           750.875
       249   09 Jun 2027 07:20:25.576   09 Jun 2027 07:20:29.264             3.688           362.750
       250   09 Jun 2027 07:21:02.462   09 Jun 2027 07:21:02.580             0.118            59.000
       251   09 Jun 2027 07:22:20.268   09 Jun 2027 07:22:23.047             2.779          1389.500
       252   09 Jun 2027 07:22:42.180   09 Jun 2027 07:22:46.507             4.327          2120.719
       253   09 Jun 2027 07:23:02.818   09 Jun 2027 07:23:03.818             1.000           500.000
       254   09 Jun 2027 07:23:56.149   09 Jun 2027 07:24:01.812             5.663          1645.062
       255   09 Jun 2027 07:25:07.269   09 Jun 2027 07:25:11.769             4.500          1206.000
       256   09 Jun 2027 08:54:37.803   09 Jun 2027 08:54:44.935             7.132          2994.156
       257   09 Jun 2027 08:57:26.899   09 Jun 2027 08:57:31.867             4.968          1537.375
       258   09 Jun 2027 08:58:07.201   09 Jun 2027 08:58:11.211             4.010           842.031
       259   09 Jun 2027 08:58:52.613   09 Jun 2027 08:58:56.174             3.561          1193.750
       260   09 Jun 2027 08:59:09.562   09 Jun 2027 08:59:11.180             1.618            67.969
       261   09 Jun 2027 09:00:06.463   09 Jun 2027 09:00:08.399             1.936           675.406
       262   09 Jun 2027 09:00:31.762   09 Jun 2027 09:00:36.363             4.601           539.000
       263   09 Jun 2027 09:00:49.141   09 Jun 2027 09:00:50.414             1.273           105.656
       264   09 Jun 2027 09:01:17.939   09 Jun 2027 09:01:22.744             4.805           468.906
       265   09 Jun 2027 09:01:54.148   09 Jun 2027 09:01:54.945             0.797           111.969
       266   09 Jun 2027 10:31:22.431   09 Jun 2027 10:31:35.195            12.764          6186.375
       267   09 Jun 2027 10:34:18.889   09 Jun 2027 10:34:19.666             0.777           344.312
       268   09 Jun 2027 10:34:22.784   09 Jun 2027 10:34:25.750             2.966            42.000
       269   09 Jun 2027 10:35:01.092   09 Jun 2027 10:35:03.552             2.460           951.375
       270   09 Jun 2027 10:35:28.563   09 Jun 2027 10:35:33.507             4.944           300.875
       271   09 Jun 2027 10:35:38.243   09 Jun 2027 10:35:39.418             1.175            51.469
       272   09 Jun 2027 10:35:42.991   09 Jun 2027 10:35:43.754             0.763           111.656
       273   09 Jun 2027 10:35:51.066   09 Jun 2027 10:35:53.035             1.969           220.563
       274   09 Jun 2027 10:37:08.084   09 Jun 2027 10:37:15.709             7.625          1794.594
       275   09 Jun 2027 10:37:32.959   09 Jun 2027 10:37:35.277             2.318            50.469
       276   10 Jun 2027 03:00:00.000   10 Jun 2027 03:00:16.105            16.105          8052.500
       277   10 Jun 2027 03:01:25.130   10 Jun 2027 03:01:26.243             1.113           556.500
       278   10 Jun 2027 03:02:05.481   10 Jun 2027 03:02:18.689            13.208          6604.000
       279   10 Jun 2027 03:02:23.164   10 Jun 2027 03:02:24.477             1.313           656.500
       280   10 Jun 2027 04:19:46.132   10 Jun 2027 04:20:29.965            43.833         21916.500
       281   10 Jun 2027 04:31:59.016   10 Jun 2027 04:32:29.674            30.658         15329.000
       282   10 Jun 2027 05:53:43.408   10 Jun 2027 05:55:03.113            79.705         39852.500
       283   10 Jun 2027 05:55:51.901   10 Jun 2027 05:56:53.213            61.312         30656.000
       284   10 Jun 2027 05:58:28.554   10 Jun 2027 05:58:37.219             8.665          4332.500
       285   10 Jun 2027 05:59:07.195   10 Jun 2027 05:59:12.182             4.987          2493.500
       286   10 Jun 2027 07:28:37.120   10 Jun 2027 07:29:42.559            65.439         32416.312
       287   10 Jun 2027 07:30:50.380   10 Jun 2027 07:30:51.041             0.661           302.937
       288   10 Jun 2027 07:31:02.484   10 Jun 2027 07:31:03.285             0.801           357.594
       289   10 Jun 2027 07:32:04.064   10 Jun 2027 07:32:09.374             5.310          1448.375
       290   10 Jun 2027 07:32:12.461   10 Jun 2027 07:32:13.160             0.699            63.469
       291   10 Jun 2027 07:32:47.429   10 Jun 2027 07:32:51.844             4.415           939.062
       292   10 Jun 2027 07:33:37.075   10 Jun 2027 07:33:39.863             2.788          1071.937
       293   10 Jun 2027 07:35:08.548   10 Jun 2027 07:35:12.230             3.682          1693.844
       294   10 Jun 2027 07:35:33.696   10 Jun 2027 07:35:35.502             1.806           475.656
       295   10 Jun 2027 07:35:51.951   10 Jun 2027 07:35:56.634             4.683           224.094
       296   10 Jun 2027 07:36:27.713   10 Jun 2027 07:36:32.562             4.849           971.219
       297   10 Jun 2027 07:37:05.643   10 Jun 2027 07:37:08.679             3.036          1033.781
       298   10 Jun 2027 09:06:31.586   10 Jun 2027 09:06:42.285            10.699          5093.188
       299   10 Jun 2027 09:07:31.131   10 Jun 2027 09:07:35.094             3.963          1130.594
       300   10 Jun 2027 09:09:21.951   10 Jun 2027 09:09:25.336             3.385          1415.750
       301   10 Jun 2027 09:10:43.532   10 Jun 2027 09:10:48.346             4.814          2329.063
       302   10 Jun 2027 09:11:42.293   10 Jun 2027 09:11:47.946             5.653           802.906
       303   10 Jun 2027 09:12:05.857   10 Jun 2027 09:12:07.606             1.749           377.875
       304   10 Jun 2027 09:13:09.846   10 Jun 2027 09:13:10.736             0.890           347.563
       305   10 Jun 2027 09:13:32.539   10 Jun 2027 09:13:34.472             1.933           365.813
       306   10 Jun 2027 09:13:36.295   10 Jun 2027 09:13:37.095             0.800             6.875
       307   10 Jun 2027 10:43:15.738   10 Jun 2027 10:43:27.342            11.604          5543.656
       308   10 Jun 2027 10:43:50.450   10 Jun 2027 10:43:54.016             3.566           380.594
       309   10 Jun 2027 10:45:45.634   10 Jun 2027 10:45:54.059             8.425          1527.844
       310   10 Jun 2027 10:46:16.742   10 Jun 2027 10:46:18.285             1.543           476.219
       311   10 Jun 2027 10:47:27.084   10 Jun 2027 10:47:30.096             3.012          1402.844
       312   10 Jun 2027 10:47:48.368   10 Jun 2027 10:47:49.617             1.249           566.344
       313   10 Jun 2027 10:48:44.886   10 Jun 2027 10:48:49.044             4.158          1727.156
       314   10 Jun 2027 10:49:34.606   10 Jun 2027 10:49:49.904            15.298          1416.406
       315   11 Jun 2027 03:07:48.425   11 Jun 2027 03:08:54.204            65.779         32889.500
       316   11 Jun 2027 03:09:48.647   11 Jun 2027 03:09:54.147             5.500          2750.000
       317   11 Jun 2027 03:10:32.384   11 Jun 2027 03:10:48.284            15.900          7950.000
       318   11 Jun 2027 03:11:20.566   11 Jun 2027 03:11:37.907            17.341          8670.500
       319   11 Jun 2027 03:12:56.018   11 Jun 2027 03:12:56.762             0.744           372.000
       320   11 Jun 2027 04:31:41.887   11 Jun 2027 04:32:24.840            42.953         21476.500
       321   11 Jun 2027 04:33:32.412   11 Jun 2027 04:33:43.203            10.791          5395.500
       322   11 Jun 2027 06:07:42.125   11 Jun 2027 06:10:24.010           161.885         78477.313
       323   11 Jun 2027 07:41:30.245   11 Jun 2027 07:41:44.926            14.681          4621.062
       324   11 Jun 2027 07:42:53.667   11 Jun 2027 07:42:58.822             5.155           384.969
       325   11 Jun 2027 07:44:01.480   11 Jun 2027 07:44:03.962             2.482           569.187
       326   11 Jun 2027 07:44:43.602   11 Jun 2027 07:44:45.980             2.378          1188.875
       327   11 Jun 2027 07:45:16.357   11 Jun 2027 07:45:19.240             2.883           838.000
       328   11 Jun 2027 07:46:06.123   11 Jun 2027 07:46:11.550             5.427           837.406
       329   11 Jun 2027 07:46:58.853   11 Jun 2027 07:47:04.316             5.463          1143.156
       330   11 Jun 2027 07:47:55.945   11 Jun 2027 07:48:01.320             5.375          1441.656
       331   11 Jun 2027 07:48:46.580   11 Jun 2027 07:48:49.187             2.607          1226.813
       332   11 Jun 2027 07:49:21.533   11 Jun 2027 07:49:24.681             3.148           865.375
       333   11 Jun 2027 09:18:40.339   11 Jun 2027 09:18:56.788            16.449          6713.156
       334   11 Jun 2027 09:21:26.596   11 Jun 2027 09:21:28.310             1.714           442.187
       335   11 Jun 2027 09:22:19.875   11 Jun 2027 09:22:25.856             5.981           283.469
       336   11 Jun 2027 09:24:01.533   11 Jun 2027 09:24:06.530             4.997          2413.188
       337   11 Jun 2027 09:25:07.471   11 Jun 2027 09:25:13.055             5.584          1850.344
       338   11 Jun 2027 09:25:35.250   11 Jun 2027 09:25:36.945             1.695           427.500
       339   11 Jun 2027 09:25:41.000   11 Jun 2027 09:25:43.657             2.657           126.719
       340   11 Jun 2027 10:55:54.583   11 Jun 2027 10:56:09.166            14.583          6828.219
       341   11 Jun 2027 10:58:31.028   11 Jun 2027 10:58:32.438             1.410           581.656
       342   11 Jun 2027 10:59:13.094   11 Jun 2027 10:59:17.842             4.748           453.969
       343   11 Jun 2027 10:59:30.857   11 Jun 2027 10:59:31.761             0.904           406.719
       344   11 Jun 2027 10:59:48.640   11 Jun 2027 10:59:50.463             1.823           527.469
       345   11 Jun 2027 11:00:38.034   11 Jun 2027 11:00:41.655             3.621          1367.906
       346   11 Jun 2027 11:01:27.055   11 Jun 2027 11:01:29.321             2.266           839.937
       347   12 Jun 2027 03:20:12.726   12 Jun 2027 03:24:12.936           240.210        120105.000
       348   12 Jun 2027 04:43:36.164   12 Jun 2027 04:43:38.293             2.129          1064.500
       349   12 Jun 2027 04:44:10.907   12 Jun 2027 04:44:35.506            24.599         12299.500
       350   12 Jun 2027 06:19:55.397   12 Jun 2027 06:21:13.980            78.583         39291.500
       351   12 Jun 2027 06:21:56.556   12 Jun 2027 06:22:08.863            12.307          2278.188
       352   12 Jun 2027 06:22:30.946   12 Jun 2027 06:22:32.109             1.163           448.125
       353   12 Jun 2027 06:22:43.553   12 Jun 2027 06:22:47.251             3.698           329.281
       354   12 Jun 2027 07:53:57.459   12 Jun 2027 07:54:05.269             7.810          2591.781
       355   12 Jun 2027 07:55:44.851   12 Jun 2027 07:55:50.895             6.044          1499.437
       356   12 Jun 2027 07:55:59.006   12 Jun 2027 07:55:59.657             0.651           197.531
       357   12 Jun 2027 07:56:51.381   12 Jun 2027 07:56:55.475             4.094          1588.344
       358   12 Jun 2027 07:57:43.592   12 Jun 2027 07:57:43.592             0.000             0.000
       359   12 Jun 2027 07:59:10.810   12 Jun 2027 07:59:20.325             9.515          3925.375
       360   12 Jun 2027 07:59:24.630   12 Jun 2027 07:59:32.037             7.407           134.531
       361   12 Jun 2027 08:00:22.212   12 Jun 2027 08:00:23.245             1.033           329.719
       362   12 Jun 2027 08:00:34.849   12 Jun 2027 08:00:36.626             1.777            10.906
       363   12 Jun 2027 08:00:36.754   12 Jun 2027 08:00:38.626             1.872             4.000
       364   12 Jun 2027 08:01:27.887   12 Jun 2027 08:01:33.672             5.785          1504.125
       365   12 Jun 2027 08:01:44.403   12 Jun 2027 08:01:46.139             1.736           182.500
       366   12 Jun 2027 08:01:56.940   12 Jun 2027 08:01:59.288             2.348           138.375
       367   12 Jun 2027 09:31:05.041   12 Jun 2027 09:31:23.602            18.561          6836.062
       368   12 Jun 2027 09:33:38.884   12 Jun 2027 09:33:43.043             4.159           273.781
       369   12 Jun 2027 09:34:07.148   12 Jun 2027 09:34:08.424             1.276           191.375
       370   12 Jun 2027 09:34:44.880   12 Jun 2027 09:34:47.382             2.502           955.719
       371   12 Jun 2027 09:36:01.239   12 Jun 2027 09:36:04.079             2.840          1140.750
       372   12 Jun 2027 09:36:29.737   12 Jun 2027 09:36:33.327             3.590           669.875
       373   12 Jun 2027 09:37:44.229   12 Jun 2027 09:37:46.663             2.434          1071.563
       374   12 Jun 2027 11:08:02.942   12 Jun 2027 11:08:17.618            14.676          6777.188
       375   12 Jun 2027 11:10:28.620   12 Jun 2027 11:10:33.137             4.517          1097.969
       376   12 Jun 2027 11:11:30.471   12 Jun 2027 11:11:33.057             2.586           387.906
       377   12 Jun 2027 11:11:44.472   12 Jun 2027 11:11:48.099             3.627           223.563
       378   12 Jun 2027 11:12:01.755   12 Jun 2027 11:12:03.562             1.807           426.750
       379   12 Jun 2027 11:12:48.002   12 Jun 2027 11:12:54.105             6.103           989.406
       380   13 Jun 2027 03:32:31.224   13 Jun 2027 03:35:01.837           150.613         75306.500
       381   13 Jun 2027 03:35:34.702   13 Jun 2027 03:36:34.135            59.433         29716.500
       382   13 Jun 2027 04:55:51.471   13 Jun 2027 04:56:01.094             9.623          4811.500
       383   13 Jun 2027 04:56:38.042   13 Jun 2027 04:56:42.784             4.742          2371.000
       384   13 Jun 2027 04:57:49.331   13 Jun 2027 04:57:49.331             0.000             0.000
       385   13 Jun 2027 06:32:01.598   13 Jun 2027 06:33:24.292            82.694         40130.093
       386   13 Jun 2027 06:33:56.420   13 Jun 2027 06:33:57.320             0.900           287.469
       387   13 Jun 2027 06:35:17.618   13 Jun 2027 06:35:29.172            11.554          2163.469
       388   13 Jun 2027 08:07:10.168   13 Jun 2027 08:07:14.919             4.751          2249.469
       389   13 Jun 2027 08:07:50.252   13 Jun 2027 08:07:53.610             3.358           128.813
       390   13 Jun 2027 08:08:52.893   13 Jun 2027 08:08:59.917             7.024           920.875
       391   13 Jun 2027 08:10:18.558   13 Jun 2027 08:10:22.408             3.850          1475.156
       392   13 Jun 2027 08:10:53.771   13 Jun 2027 08:10:56.860             3.089           882.406
       393   13 Jun 2027 08:11:23.629   13 Jun 2027 08:11:25.588             1.959           719.687
       394   13 Jun 2027 08:12:21.229   13 Jun 2027 08:12:23.155             1.926           232.000
       395   13 Jun 2027 08:12:32.090   13 Jun 2027 08:12:35.342             3.252           244.875
       396   13 Jun 2027 08:13:09.776   13 Jun 2027 08:13:12.653             2.877          1076.063
       397   13 Jun 2027 08:13:51.625   13 Jun 2027 08:13:56.049             4.424           308.656
       398   13 Jun 2027 09:43:30.674   13 Jun 2027 09:43:43.823            13.149          5074.156
       399   13 Jun 2027 09:46:27.793   13 Jun 2027 09:46:30.781             2.988           683.094
       400   13 Jun 2027 09:46:48.709   13 Jun 2027 09:46:57.091             8.382            70.187
       401   13 Jun 2027 09:47:15.151   13 Jun 2027 09:47:18.189             3.038           564.375
       402   13 Jun 2027 09:47:56.767   13 Jun 2027 09:48:03.486             6.719           648.844
       403   13 Jun 2027 09:48:56.414   13 Jun 2027 09:49:00.019             3.605          1486.906
       404   13 Jun 2027 09:49:15.739   13 Jun 2027 09:49:17.536             1.797           448.813
       405   13 Jun 2027 09:49:41.211   13 Jun 2027 09:49:43.223             2.012           739.844
       406   13 Jun 2027 11:21:04.751   13 Jun 2027 11:21:15.732            10.981          5124.062
       407   13 Jun 2027 11:22:33.335   13 Jun 2027 11:22:36.609             3.274          1452.906
       408   13 Jun 2027 11:23:08.713   13 Jun 2027 11:23:17.531             8.818           914.094
       409   13 Jun 2027 11:23:44.766   13 Jun 2027 11:23:45.998             1.232            96.156
       410   13 Jun 2027 11:24:25.399   13 Jun 2027 11:24:28.747             3.348          1231.281
       411   13 Jun 2027 11:25:14.433   13 Jun 2027 11:25:15.552             1.119           394.594
