uniorb/output/strategy_4/Camera/Camera_KinoSat_111301.txt

KinoSat_111301
-------------------------
    Access    *     Start Time (UTCG)     *     Stop Time (UTCG)  *   Duration (s) *   Data (Mbytes)
         1   01 Jun 2027 04:06:26.890   01 Jun 2027 04:06:57.256            30.366         15183.000
         2   01 Jun 2027 04:07:15.819   01 Jun 2027 04:09:05.450           109.631         54815.500
         3   01 Jun 2027 04:10:05.757   01 Jun 2027 04:10:09.469             3.712          1856.000
         4   01 Jun 2027 05:29:49.379   01 Jun 2027 05:31:29.999           100.620         50310.000
         5   01 Jun 2027 07:06:21.317   01 Jun 2027 07:08:30.301           128.984         64492.000
         6   01 Jun 2027 08:41:31.077   01 Jun 2027 08:43:03.548            92.471         46235.500
         7   01 Jun 2027 08:44:27.937   01 Jun 2027 08:45:31.442            63.505         31752.500
         8   01 Jun 2027 08:47:57.087   01 Jun 2027 08:48:07.736            10.649          5324.500
         9   01 Jun 2027 10:17:56.216   01 Jun 2027 10:20:04.779           128.563         64281.500
        10   01 Jun 2027 10:21:03.701   01 Jun 2027 10:21:20.604            16.903          8451.500
        11   01 Jun 2027 10:21:25.940   01 Jun 2027 10:21:25.940             0.000             0.000
        12   01 Jun 2027 10:22:16.923   01 Jun 2027 10:22:29.395            12.472          6236.000
        13   01 Jun 2027 11:55:09.708   01 Jun 2027 11:57:03.246           113.538         56769.000
        14   01 Jun 2027 11:57:34.446   01 Jun 2027 11:57:43.359             8.913          4456.500
        15   02 Jun 2027 04:18:23.636   02 Jun 2027 04:19:02.456            38.820         19410.000
        16   02 Jun 2027 04:19:52.779   02 Jun 2027 04:20:06.013            13.234          6617.000
        17   02 Jun 2027 04:20:12.677   02 Jun 2027 04:20:14.123             1.446           723.000
        18   02 Jun 2027 04:20:37.372   02 Jun 2027 04:22:00.037            82.665         41332.500
        19   02 Jun 2027 05:42:25.021   02 Jun 2027 05:43:31.677            66.656         33328.000
        20   02 Jun 2027 05:43:57.876   02 Jun 2027 05:44:37.656            39.780         19890.000
        21   02 Jun 2027 07:18:14.267   02 Jun 2027 07:21:24.187           189.920         94960.000
        22   02 Jun 2027 08:53:10.914   02 Jun 2027 08:56:08.953           178.039         89019.500
        23   02 Jun 2027 08:59:34.092   02 Jun 2027 08:59:34.092             0.000             0.000
        24   02 Jun 2027 08:59:48.334   02 Jun 2027 09:00:15.090            26.756         13378.000
        25   02 Jun 2027 10:29:28.919   02 Jun 2027 10:30:28.608            59.689         29545.500
        26   02 Jun 2027 10:31:45.016   02 Jun 2027 10:31:48.672             3.656           366.375
        27   02 Jun 2027 10:32:00.951   02 Jun 2027 10:32:02.565             1.614            95.062
        28   02 Jun 2027 10:32:30.860   02 Jun 2027 10:32:31.513             0.653           138.750
        29   02 Jun 2027 10:32:31.853   02 Jun 2027 10:32:33.215             1.362            10.625
        30   02 Jun 2027 10:32:52.922   02 Jun 2027 10:32:57.927             5.005           594.969
        31   02 Jun 2027 10:34:23.501   02 Jun 2027 10:34:33.805            10.304          1027.750
        32   02 Jun 2027 10:34:43.399   02 Jun 2027 10:34:44.362             0.963           295.875
        33   02 Jun 2027 10:35:01.915   02 Jun 2027 10:35:05.902             3.987           220.250
        34   03 Jun 2027 03:00:00.000   03 Jun 2027 03:00:14.111            14.111          7055.500
        35   03 Jun 2027 04:19:09.919   03 Jun 2027 04:19:40.978            31.059         15529.500
        36   03 Jun 2027 04:19:50.630   03 Jun 2027 04:19:58.385             7.755          3877.500
        37   03 Jun 2027 04:30:20.015   03 Jun 2027 04:32:01.231           101.216         50608.000
        38   03 Jun 2027 04:32:29.279   03 Jun 2027 04:32:46.981            17.702          8851.000
        39   03 Jun 2027 05:53:03.415   03 Jun 2027 05:54:12.697            69.282         34641.000
        40   03 Jun 2027 05:54:43.221   03 Jun 2027 05:54:51.208             7.987          3993.500
        41   03 Jun 2027 05:55:33.440   03 Jun 2027 05:56:05.082            31.642         15821.000
        42   03 Jun 2027 07:28:33.145   03 Jun 2027 07:29:06.384            33.239         16619.500
        43   03 Jun 2027 07:29:58.345   03 Jun 2027 07:30:16.407            18.062          9031.000
        44   03 Jun 2027 07:31:28.638   03 Jun 2027 07:31:36.236             7.598          3556.250
        45   03 Jun 2027 07:31:50.450   03 Jun 2027 07:31:52.968             2.518           272.969
        46   03 Jun 2027 07:33:09.772   03 Jun 2027 07:33:15.080             5.308          1159.281
        47   03 Jun 2027 07:34:13.655   03 Jun 2027 07:34:19.266             5.611          1488.875
        48   03 Jun 2027 07:34:19.824   03 Jun 2027 07:34:20.158             0.334            17.437
        49   03 Jun 2027 09:04:44.105   03 Jun 2027 09:04:50.529             6.424          3003.219
        50   03 Jun 2027 09:05:16.251   03 Jun 2027 09:05:18.691             2.440           310.969
        51   03 Jun 2027 09:07:04.842   03 Jun 2027 09:07:13.176             8.334          2536.719
        52   03 Jun 2027 09:08:21.941   03 Jun 2027 09:08:22.397             0.456           228.000
        53   03 Jun 2027 09:08:54.009   03 Jun 2027 09:09:00.610             6.601          1637.094
        54   03 Jun 2027 09:09:40.305   03 Jun 2027 09:09:43.237             2.932          1157.344
        55   03 Jun 2027 09:10:10.106   03 Jun 2027 09:10:14.561             4.455           307.906
        56   03 Jun 2027 09:10:54.991   03 Jun 2027 09:10:59.139             4.148           932.656
        57   03 Jun 2027 09:11:12.976   03 Jun 2027 09:11:13.455             0.479           109.094
        58   03 Jun 2027 09:11:36.533   03 Jun 2027 09:11:38.374             1.841           222.531
        59   03 Jun 2027 09:12:16.886   03 Jun 2027 09:12:19.788             2.902            35.156
        60   03 Jun 2027 10:41:48.400   03 Jun 2027 10:42:05.126            16.726          8323.437
        61   03 Jun 2027 10:43:30.909   03 Jun 2027 10:43:32.477             1.568            41.625
        62   03 Jun 2027 10:45:04.643   03 Jun 2027 10:45:08.160             3.517          1021.250
        63   03 Jun 2027 10:45:19.697   03 Jun 2027 10:45:21.145             1.448           267.750
        64   03 Jun 2027 10:46:23.925   03 Jun 2027 10:46:26.617             2.692          1344.875
        65   03 Jun 2027 10:47:06.045   03 Jun 2027 10:47:08.851             2.806           886.000
        66   03 Jun 2027 10:47:29.011   03 Jun 2027 10:47:29.865             0.854           110.062
        67   03 Jun 2027 10:47:52.823   03 Jun 2027 10:47:53.359             0.536            14.063
        68   03 Jun 2027 10:47:54.778   03 Jun 2027 10:47:57.685             2.907            44.344
        69   04 Jun 2027 03:05:48.208   04 Jun 2027 03:06:49.701            61.493         30746.500
        70   04 Jun 2027 03:07:51.113   04 Jun 2027 03:07:57.860             6.747          3373.500
        71   04 Jun 2027 03:08:44.435   04 Jun 2027 03:08:52.359             7.924          3962.000
        72   04 Jun 2027 03:09:04.683   04 Jun 2027 03:09:11.426             6.743          3371.500
        73   04 Jun 2027 03:09:50.311   04 Jun 2027 03:09:52.754             2.443          1221.500
        74   04 Jun 2027 03:10:25.322   04 Jun 2027 03:10:40.915            15.593          7796.500
        75   04 Jun 2027 04:30:39.839   04 Jun 2027 04:31:16.225            36.386         18193.000
        76   04 Jun 2027 04:31:41.358   04 Jun 2027 04:31:42.558             1.200           600.000
        77   04 Jun 2027 04:31:59.976   04 Jun 2027 04:32:11.919            11.943          5971.500
        78   04 Jun 2027 04:42:22.945   04 Jun 2027 04:43:36.197            73.252         36626.000
        79   04 Jun 2027 06:04:35.651   04 Jun 2027 06:05:46.663            71.012         35506.000
        80   04 Jun 2027 06:06:36.438   04 Jun 2027 06:06:53.544            17.106          8553.000
        81   04 Jun 2027 06:07:19.603   04 Jun 2027 06:07:19.603             0.000             0.000
        82   04 Jun 2027 06:08:53.138   04 Jun 2027 06:09:11.155            18.017          6671.093
        83   04 Jun 2027 07:39:39.977   04 Jun 2027 07:39:45.568             5.591          2379.813
        84   04 Jun 2027 07:40:58.424   04 Jun 2027 07:41:02.480             4.056          1295.156
        85   04 Jun 2027 07:41:07.815   04 Jun 2027 07:41:08.563             0.748           166.719
        86   04 Jun 2027 07:41:43.074   04 Jun 2027 07:41:44.840             1.766           511.500
        87   04 Jun 2027 07:43:29.355   04 Jun 2027 07:43:35.295             5.940          2762.156
        88   04 Jun 2027 07:44:50.765   04 Jun 2027 07:44:58.220             7.455          2213.531
        89   04 Jun 2027 07:45:27.112   04 Jun 2027 07:45:27.733             0.621           310.500
        90   04 Jun 2027 07:46:25.150   04 Jun 2027 07:46:30.869             5.719          2264.656
        91   04 Jun 2027 07:47:47.600   04 Jun 2027 07:47:47.600             0.000             0.000
        92   04 Jun 2027 09:17:01.369   04 Jun 2027 09:17:08.848             7.479          2920.938
        93   04 Jun 2027 09:17:45.646   04 Jun 2027 09:17:48.383             2.737          1149.937
        94   04 Jun 2027 09:20:10.044   04 Jun 2027 09:20:16.280             6.236          2042.844
        95   04 Jun 2027 09:21:20.368   04 Jun 2027 09:21:27.870             7.502          1635.344
        96   04 Jun 2027 09:22:10.962   04 Jun 2027 09:22:13.793             2.831           952.750
        97   04 Jun 2027 09:23:21.277   04 Jun 2027 09:23:24.801             3.524          1730.000
        98   04 Jun 2027 09:23:44.124   04 Jun 2027 09:23:46.464             2.340           591.813
        99   04 Jun 2027 10:53:50.299   04 Jun 2027 10:54:03.061            12.762          5827.031
       100   04 Jun 2027 10:54:50.302   04 Jun 2027 10:54:54.973             4.671          1336.313
       101   04 Jun 2027 10:56:01.126   04 Jun 2027 10:56:03.406             2.280          1009.844
       102   04 Jun 2027 10:57:27.936   04 Jun 2027 10:57:38.088            10.152          1765.750
       103   04 Jun 2027 10:58:07.645   04 Jun 2027 10:58:11.047             3.402           723.250
       104   04 Jun 2027 10:58:21.022   04 Jun 2027 10:58:21.626             0.604           111.969
       105   04 Jun 2027 10:59:42.513   04 Jun 2027 10:59:47.491             4.978          2041.062
       106   04 Jun 2027 10:59:58.277   04 Jun 2027 11:00:00.223             1.946           172.937
       107   05 Jun 2027 03:17:56.785   05 Jun 2027 03:19:59.727           122.942         61471.000
       108   05 Jun 2027 03:20:50.765   05 Jun 2027 03:20:57.890             7.125          3562.500
       109   05 Jun 2027 03:21:05.937   05 Jun 2027 03:21:23.264            17.327          8663.500
       110   05 Jun 2027 03:21:54.598   05 Jun 2027 03:22:02.459             7.861          3930.500
       111   05 Jun 2027 03:22:45.070   05 Jun 2027 03:23:45.818            60.748         30374.000
       112   05 Jun 2027 04:42:10.095   05 Jun 2027 04:42:28.284            18.189          9094.500
       113   05 Jun 2027 04:44:20.627   05 Jun 2027 04:44:23.385             2.758          1379.000
       114   05 Jun 2027 04:54:23.690   05 Jun 2027 04:54:55.503            31.813         15906.500
       115   05 Jun 2027 06:16:19.958   05 Jun 2027 06:17:28.543            68.585         33771.875
       116   05 Jun 2027 06:18:29.337   05 Jun 2027 06:18:33.276             3.939          1799.969
       117   05 Jun 2027 06:20:06.666   05 Jun 2027 06:20:13.753             7.087          2918.438
       118   05 Jun 2027 06:21:14.775   05 Jun 2027 06:21:18.675             3.900          1885.000
       119   05 Jun 2027 06:21:37.859   05 Jun 2027 06:21:41.109             3.250           346.813
       120   05 Jun 2027 07:51:08.198   05 Jun 2027 07:51:13.256             5.058          1924.437
       121   05 Jun 2027 07:51:26.570   05 Jun 2027 07:51:30.096             3.526           102.781
       122   05 Jun 2027 07:53:05.882   05 Jun 2027 07:53:09.025             3.143           232.313
       123   05 Jun 2027 07:53:32.471   05 Jun 2027 07:53:34.050             1.579           732.687
       124   05 Jun 2027 07:53:36.928   05 Jun 2027 07:53:37.691             0.763            89.938
       125   05 Jun 2027 07:54:35.002   05 Jun 2027 07:54:37.948             2.946          1266.969
       126   05 Jun 2027 07:54:59.257   05 Jun 2027 07:55:00.645             1.388           665.906
       127   05 Jun 2027 07:55:40.572   05 Jun 2027 07:55:44.357             3.785           839.969
       128   05 Jun 2027 07:57:05.318   05 Jun 2027 07:57:09.187             3.869           451.969
       129   05 Jun 2027 07:57:45.683   05 Jun 2027 07:57:49.071             3.388           511.438
       130   05 Jun 2027 07:58:39.022   05 Jun 2027 07:58:42.780             3.758          1495.969
       131   05 Jun 2027 07:59:32.706   05 Jun 2027 07:59:37.455             4.749          1008.781
       132   05 Jun 2027 07:59:49.729   05 Jun 2027 07:59:52.099             2.370            68.563
       133   05 Jun 2027 08:00:01.999   05 Jun 2027 08:00:04.603             2.604           309.375
       134   05 Jun 2027 09:28:57.042   05 Jun 2027 09:29:09.958            12.916          4882.813
       135   05 Jun 2027 09:29:50.177   05 Jun 2027 09:29:53.156             2.979          1219.562
       136   05 Jun 2027 09:30:39.368   05 Jun 2027 09:30:39.545             0.177            55.937
       137   05 Jun 2027 09:31:59.504   05 Jun 2027 09:32:04.179             4.675          1739.625
       138   05 Jun 2027 09:32:33.297   05 Jun 2027 09:32:37.674             4.377           367.156
       139   05 Jun 2027 09:33:10.220   05 Jun 2027 09:33:10.220             0.000             0.000
       140   05 Jun 2027 09:33:59.965   05 Jun 2027 09:34:05.503             5.538          1657.375
       141   05 Jun 2027 09:35:39.782   05 Jun 2027 09:35:47.078             7.296          2313.531
       142   05 Jun 2027 09:36:07.630   05 Jun 2027 09:36:15.193             7.563           527.375
       143   05 Jun 2027 11:05:41.456   05 Jun 2027 11:05:48.340             6.884          3442.000
       144   05 Jun 2027 11:06:06.994   05 Jun 2027 11:06:17.451            10.457          3687.594
       145   05 Jun 2027 11:08:35.418   05 Jun 2027 11:08:37.611             2.193           175.656
       146   05 Jun 2027 11:08:57.106   05 Jun 2027 11:09:00.307             3.201           430.250
       147   05 Jun 2027 11:09:54.500   05 Jun 2027 11:09:59.259             4.759          1374.625
       148   05 Jun 2027 11:10:06.866   05 Jun 2027 11:10:10.703             3.837           237.719
       149   05 Jun 2027 11:10:22.864   05 Jun 2027 11:10:24.821             1.957           241.188
       150   05 Jun 2027 11:10:42.861   05 Jun 2027 11:10:51.415             8.554           305.063
       151   05 Jun 2027 11:11:47.362   05 Jun 2027 11:11:51.842             4.480          1304.031
       152   05 Jun 2027 11:12:03.631   05 Jun 2027 11:12:11.279             7.648           368.406
       153   05 Jun 2027 11:12:19.744   05 Jun 2027 11:12:21.599             1.855            91.531
       154   06 Jun 2027 03:30:07.456   06 Jun 2027 03:32:37.886           150.430         75215.000
       155   06 Jun 2027 03:33:56.968   06 Jun 2027 03:34:05.689             8.721          4360.500
       156   06 Jun 2027 03:34:22.332   06 Jun 2027 03:34:38.513            16.181          8090.500
       157   06 Jun 2027 04:54:09.176   06 Jun 2027 04:54:47.718            38.542         19271.000
       158   06 Jun 2027 06:30:06.000   06 Jun 2027 06:31:38.825            92.825         44698.968
       159   06 Jun 2027 06:32:40.667   06 Jun 2027 06:32:44.588             3.921          1820.188
       160   06 Jun 2027 06:32:58.179   06 Jun 2027 06:33:00.203             2.024           293.781
       161   06 Jun 2027 06:33:11.200   06 Jun 2027 06:33:13.307             2.107           343.656
       162   06 Jun 2027 08:03:56.830   06 Jun 2027 08:04:12.046            15.216          2647.281
       163   06 Jun 2027 08:05:22.632   06 Jun 2027 08:05:25.750             3.118          1052.812
       164   06 Jun 2027 08:06:22.614   06 Jun 2027 08:06:26.183             3.569          1529.937
       165   06 Jun 2027 08:06:30.622   06 Jun 2027 08:06:32.381             1.759           136.750
       166   06 Jun 2027 08:07:29.567   06 Jun 2027 08:07:29.567             0.000             0.000
       167   06 Jun 2027 08:08:36.093   06 Jun 2027 08:08:46.353            10.260          3866.000
       168   06 Jun 2027 08:09:08.406   06 Jun 2027 08:09:08.406             0.000             0.000
       169   06 Jun 2027 08:09:53.774   06 Jun 2027 08:09:58.623             4.849          1982.188
       170   06 Jun 2027 08:10:34.425   06 Jun 2027 08:10:36.956             2.531          1118.813
       171   06 Jun 2027 08:11:01.892   06 Jun 2027 08:11:08.461             6.569           661.094
       172   06 Jun 2027 08:11:43.980   06 Jun 2027 08:11:48.086             4.106          1109.969
       173   06 Jun 2027 09:41:03.616   06 Jun 2027 09:41:17.437            13.821          5913.469
       174   06 Jun 2027 09:43:02.189   06 Jun 2027 09:43:11.283             9.094          2008.375
       175   06 Jun 2027 09:45:35.027   06 Jun 2027 09:45:37.554             2.527           859.344
       176   06 Jun 2027 09:46:14.167   06 Jun 2027 09:46:17.161             2.994           391.844
       177   06 Jun 2027 09:46:28.230   06 Jun 2027 09:46:31.477             3.247           114.969
       178   06 Jun 2027 09:47:24.103   06 Jun 2027 09:47:26.522             2.419          1188.000
       179   06 Jun 2027 09:47:58.007   06 Jun 2027 09:48:00.486             2.479           905.656
       180   06 Jun 2027 11:18:06.160   06 Jun 2027 11:18:19.880            13.720          6501.750
       181   06 Jun 2027 11:18:31.186   06 Jun 2027 11:18:35.523             4.337           105.562
       182   06 Jun 2027 11:20:14.143   06 Jun 2027 11:20:14.934             0.791           252.750
       183   06 Jun 2027 11:20:42.152   06 Jun 2027 11:20:46.317             4.165           477.031
       184   06 Jun 2027 11:21:44.467   06 Jun 2027 11:21:48.331             3.864          1817.188
       185   06 Jun 2027 11:23:03.421   06 Jun 2027 11:23:09.825             6.404          1133.500
       186   06 Jun 2027 11:23:35.276   06 Jun 2027 11:23:37.441             2.165           272.625
       187   06 Jun 2027 11:24:08.458   06 Jun 2027 11:24:13.149             4.691           576.500
       188   07 Jun 2027 03:42:42.201   07 Jun 2027 03:46:09.338           207.137        103568.500
       189   07 Jun 2027 03:47:06.338   07 Jun 2027 03:47:17.662            11.324          5662.000
       190   07 Jun 2027 05:06:03.546   07 Jun 2027 05:06:15.385            11.839          5919.500
       191   07 Jun 2027 05:07:06.895   07 Jun 2027 05:07:18.001            11.106          5553.000
       192   07 Jun 2027 06:42:27.865   07 Jun 2027 06:43:40.539            72.674         36337.000
       193   07 Jun 2027 06:43:44.722   07 Jun 2027 06:43:48.001             3.279           901.093
       194   07 Jun 2027 06:44:27.842   07 Jun 2027 06:44:36.639             8.797          1046.594
       195   07 Jun 2027 06:44:46.142   07 Jun 2027 06:44:47.408             1.266            57.313
       196   07 Jun 2027 06:45:03.454   07 Jun 2027 06:45:05.487             2.033            95.156
       197   07 Jun 2027 08:16:08.350   07 Jun 2027 08:16:14.270             5.920          2438.500
       198   07 Jun 2027 08:17:57.475   07 Jun 2027 08:18:01.296             3.821          1479.188
       199   07 Jun 2027 08:18:24.684   07 Jun 2027 08:18:24.808             0.124            62.000
       200   07 Jun 2027 08:19:17.878   07 Jun 2027 08:19:25.616             7.738          1845.438
       201   07 Jun 2027 08:20:25.391   07 Jun 2027 08:20:36.825            11.434          1766.344
       202   07 Jun 2027 08:21:11.351   07 Jun 2027 08:21:13.999             2.648           694.406
       203   07 Jun 2027 08:22:49.890   07 Jun 2027 08:22:56.741             6.851          2438.563
       204   07 Jun 2027 08:23:02.971   07 Jun 2027 08:23:03.255             0.284           113.312
       205   07 Jun 2027 08:23:14.274   07 Jun 2027 08:23:15.065             0.791           267.031
       206   07 Jun 2027 08:23:54.063   07 Jun 2027 08:23:57.412             3.349           834.313
       207   07 Jun 2027 08:24:24.202   07 Jun 2027 08:24:25.808             1.606           180.719
       208   07 Jun 2027 09:53:29.775   07 Jun 2027 09:53:39.806            10.031          4305.000
       209   07 Jun 2027 09:58:00.372   07 Jun 2027 09:58:04.834             4.462          1558.094
       210   07 Jun 2027 09:58:35.241   07 Jun 2027 09:58:36.800             1.559           408.156
       211   07 Jun 2027 09:59:40.254   07 Jun 2027 09:59:44.331             4.077          1123.500
       212   07 Jun 2027 10:00:02.182   07 Jun 2027 10:00:03.722             1.540           557.844
       213   07 Jun 2027 11:30:26.850   07 Jun 2027 11:30:46.157            19.307          6751.156
       214   07 Jun 2027 11:31:32.805   07 Jun 2027 11:31:35.150             2.345          1017.813
       215   07 Jun 2027 11:32:22.479   07 Jun 2027 11:32:24.404             1.925           384.188
       216   07 Jun 2027 11:33:37.546   07 Jun 2027 11:33:46.824             9.278          1548.125
       217   07 Jun 2027 11:33:57.844   07 Jun 2027 11:34:01.570             3.726            70.250
       218   07 Jun 2027 11:34:28.007   07 Jun 2027 11:34:31.116             3.109           707.125
       219   07 Jun 2027 11:35:47.087   07 Jun 2027 11:35:56.440             9.353          2041.594
       220   07 Jun 2027 11:35:57.208   07 Jun 2027 11:35:59.927             2.719            24.000
       221   08 Jun 2027 03:54:20.014   08 Jun 2027 03:57:55.686           215.672        107836.000
       222   08 Jun 2027 03:58:32.465   08 Jun 2027 03:58:39.698             7.233          3616.500
       223   08 Jun 2027 05:17:50.931   08 Jun 2027 05:18:05.326            14.395          7197.500
       224   08 Jun 2027 05:19:34.997   08 Jun 2027 05:19:40.290             5.293          2646.500
       225   08 Jun 2027 06:54:29.645   08 Jun 2027 06:55:46.663            77.018         37448.344
       226   08 Jun 2027 06:56:10.104   08 Jun 2027 06:56:10.104             0.000             0.000
       227   08 Jun 2027 06:56:17.148   08 Jun 2027 06:56:18.667             1.519           246.312
       228   08 Jun 2027 06:56:38.293   08 Jun 2027 06:56:42.598             4.305           484.375
       229   08 Jun 2027 06:57:14.836   08 Jun 2027 06:57:18.828             3.992           799.719
       230   08 Jun 2027 08:29:24.923   08 Jun 2027 08:29:30.432             5.509          2280.344
       231   08 Jun 2027 08:30:16.724   08 Jun 2027 08:30:17.911             1.187           228.469
       232   08 Jun 2027 08:30:44.851   08 Jun 2027 08:30:48.616             3.765           328.563
       233   08 Jun 2027 08:31:57.839   08 Jun 2027 08:32:00.821             2.982          1197.469
       234   08 Jun 2027 08:33:14.130   08 Jun 2027 08:33:16.854             2.724           845.500
       235   08 Jun 2027 08:33:29.146   08 Jun 2027 08:33:29.864             0.718           171.437
       236   08 Jun 2027 08:35:03.608   08 Jun 2027 08:35:09.513             5.905          2356.125
       237   08 Jun 2027 08:35:28.380   08 Jun 2027 08:35:30.907             2.527           155.125
       238   08 Jun 2027 10:05:37.396   08 Jun 2027 10:05:47.795            10.399          5082.375
       239   08 Jun 2027 10:07:49.949   08 Jun 2027 10:07:51.509             1.560           242.844
       240   08 Jun 2027 10:08:33.783   08 Jun 2027 10:08:37.459             3.676           551.844
       241   08 Jun 2027 10:09:13.610   08 Jun 2027 10:09:15.685             2.075           912.937
       242   08 Jun 2027 10:10:19.328   08 Jun 2027 10:10:21.130             1.802           540.625
       243   08 Jun 2027 10:11:31.195   08 Jun 2027 10:11:39.067             7.872          1557.750
       244   08 Jun 2027 10:12:10.959   08 Jun 2027 10:12:13.807             2.848           996.625
       245   08 Jun 2027 11:43:21.058   08 Jun 2027 11:43:33.379            12.321          5710.187
       246   08 Jun 2027 11:45:33.750   08 Jun 2027 11:45:42.810             9.060          1271.969
       247   08 Jun 2027 11:45:48.749   08 Jun 2027 11:45:50.857             2.108           185.594
       248   08 Jun 2027 11:46:03.393   08 Jun 2027 11:46:05.110             1.717           373.750
       249   08 Jun 2027 11:46:36.877   08 Jun 2027 11:46:44.062             7.185           992.719
       250   08 Jun 2027 11:47:33.270   08 Jun 2027 11:47:39.291             6.021          1537.750
       251   09 Jun 2027 04:06:42.846   09 Jun 2027 04:07:13.826            30.980         15490.000
       252   09 Jun 2027 04:07:32.378   09 Jun 2027 04:10:34.800           182.422         91211.000
       253   09 Jun 2027 05:30:05.392   09 Jun 2027 05:30:09.995             4.603          2301.500
       254   09 Jun 2027 05:30:38.092   09 Jun 2027 05:31:00.767            22.675         11337.500
       255   09 Jun 2027 05:33:05.139   09 Jun 2027 05:33:09.158             4.019          2009.500
       256   09 Jun 2027 07:06:37.167   09 Jun 2027 07:08:00.676            83.509         40539.094
       257   09 Jun 2027 07:08:08.639   09 Jun 2027 07:08:10.086             1.447           231.062
       258   09 Jun 2027 07:08:46.624   09 Jun 2027 07:08:48.200             1.576           601.906
       259   09 Jun 2027 07:09:13.779   09 Jun 2027 07:09:16.448             2.669           799.344
       260   09 Jun 2027 08:41:47.317   09 Jun 2027 08:41:55.120             7.803          2029.687
       261   09 Jun 2027 08:43:08.492   09 Jun 2027 08:43:14.463             5.971          2003.250
       262   09 Jun 2027 08:44:09.058   09 Jun 2027 08:44:15.156             6.098          1612.719
       263   09 Jun 2027 08:44:52.179   09 Jun 2027 08:44:56.654             4.475           891.563
       264   09 Jun 2027 08:45:16.709   09 Jun 2027 08:45:19.775             3.066           390.125
       265   09 Jun 2027 08:47:03.728   09 Jun 2027 08:47:12.072             8.344          2333.906
       266   09 Jun 2027 08:48:22.522   09 Jun 2027 08:48:23.847             1.325           662.500
       267   09 Jun 2027 10:18:11.716   09 Jun 2027 10:18:27.017            15.301          6576.406
       268   09 Jun 2027 10:20:05.754   09 Jun 2027 10:20:06.414             0.660            37.125
       269   09 Jun 2027 10:21:14.232   09 Jun 2027 10:21:16.352             2.120           830.000
       270   09 Jun 2027 10:22:13.087   09 Jun 2027 10:22:17.908             4.821          1403.719
       271   09 Jun 2027 10:23:21.594   09 Jun 2027 10:23:25.237             3.643          1093.063
       272   09 Jun 2027 11:55:27.572   09 Jun 2027 11:55:43.460            15.888          5979.312
       273   09 Jun 2027 11:56:30.165   09 Jun 2027 11:56:36.433             6.268           697.437
       274   09 Jun 2027 11:57:33.128   09 Jun 2027 11:57:37.188             4.060          1119.406
       275   09 Jun 2027 11:57:56.598   09 Jun 2027 11:57:58.223             1.625           217.313
       276   09 Jun 2027 11:58:22.789   09 Jun 2027 11:58:27.180             4.391           548.937
       277   09 Jun 2027 11:59:16.360   09 Jun 2027 11:59:24.314             7.954          1062.469
       278   09 Jun 2027 11:59:48.488   09 Jun 2027 11:59:53.690             5.202           358.000
       279   10 Jun 2027 04:18:39.618   10 Jun 2027 04:19:18.652            39.034         19517.000
       280   10 Jun 2027 04:19:41.684   10 Jun 2027 04:21:30.396           108.712         54356.000
       281   10 Jun 2027 04:21:47.365   10 Jun 2027 04:22:09.820            22.455         11227.500
       282   10 Jun 2027 04:22:14.500   10 Jun 2027 04:22:14.969             0.469           234.500
       283   10 Jun 2027 05:42:07.913   10 Jun 2027 05:42:27.065            19.152          9576.000
       284   10 Jun 2027 05:42:45.650   10 Jun 2027 05:43:05.321            19.671          9835.500
       285   10 Jun 2027 05:43:32.479   10 Jun 2027 05:43:37.282             4.803          2401.500
       286   10 Jun 2027 07:18:30.123   10 Jun 2027 07:20:12.143           102.020         50034.781
       287   10 Jun 2027 07:21:29.336   10 Jun 2027 07:21:35.231             5.895          2180.125
       288   10 Jun 2027 07:22:22.545   10 Jun 2027 07:22:25.216             2.671          1265.844
       289   10 Jun 2027 08:53:26.071   10 Jun 2027 08:53:34.870             8.799          3071.250
       290   10 Jun 2027 08:54:01.709   10 Jun 2027 08:54:02.875             1.166           318.906
       291   10 Jun 2027 08:54:57.414   10 Jun 2027 08:54:59.791             2.377           232.687
       292   10 Jun 2027 08:55:36.101   10 Jun 2027 08:55:38.005             1.904           451.719
       293   10 Jun 2027 08:56:39.669   10 Jun 2027 08:56:41.401             1.732           538.500
       294   10 Jun 2027 08:56:52.490   10 Jun 2027 08:56:53.034             0.544            66.750
       295   10 Jun 2027 08:57:52.392   10 Jun 2027 08:57:54.714             2.322          1041.875
       296   10 Jun 2027 08:58:05.490   10 Jun 2027 08:58:07.595             2.105           242.094
       297   10 Jun 2027 08:58:39.027   10 Jun 2027 08:58:46.654             7.627           169.656
       298   10 Jun 2027 08:58:58.051   10 Jun 2027 08:59:02.898             4.847            58.969
       299   10 Jun 2027 08:59:51.463   10 Jun 2027 08:59:57.354             5.891          1507.219
       300   10 Jun 2027 10:29:45.372   10 Jun 2027 10:29:58.315            12.943          5546.031
       301   10 Jun 2027 10:32:16.746   10 Jun 2027 10:32:17.284             0.538           135.469
       302   10 Jun 2027 10:32:27.818   10 Jun 2027 10:32:29.832             2.014             6.375
       303   10 Jun 2027 10:32:49.423   10 Jun 2027 10:32:49.769             0.346            99.781
       304   10 Jun 2027 10:34:12.023   10 Jun 2027 10:34:23.522            11.499          1858.625
       305   10 Jun 2027 10:34:51.095   10 Jun 2027 10:34:53.883             2.788           334.563
       306   10 Jun 2027 10:35:22.397   10 Jun 2027 10:35:27.489             5.092           727.563
       307   10 Jun 2027 10:35:50.676   10 Jun 2027 10:35:51.783             1.107           246.500
       308   10 Jun 2027 10:36:07.660   10 Jun 2027 10:36:09.549             1.889           138.750
       309   11 Jun 2027 03:00:00.000   11 Jun 2027 03:00:05.047             5.047          2523.500
       310   11 Jun 2027 03:00:15.078   11 Jun 2027 03:00:28.870            13.792          6896.000
       311   11 Jun 2027 04:19:23.592   11 Jun 2027 04:20:15.227            51.635         25817.500
       312   11 Jun 2027 04:30:35.992   11 Jun 2027 04:32:16.853           100.861         50430.500
       313   11 Jun 2027 04:32:44.550   11 Jun 2027 04:33:32.775            48.225         24112.500
       314   11 Jun 2027 05:53:12.676   11 Jun 2027 05:54:25.653            72.977         36488.500
       315   11 Jun 2027 05:57:29.282   11 Jun 2027 05:57:47.411            18.129          9064.500
       316   11 Jun 2027 07:28:48.436   11 Jun 2027 07:29:25.375            36.939         17620.688
       317   11 Jun 2027 07:30:25.773   11 Jun 2027 07:30:29.151             3.378          1207.813
       318   11 Jun 2027 07:31:45.853   11 Jun 2027 07:31:50.548             4.695          2321.781
       319   11 Jun 2027 07:32:05.052   11 Jun 2027 07:32:07.443             2.391           208.094
       320   11 Jun 2027 07:33:43.856   11 Jun 2027 07:33:47.738             3.882          1661.562
       321   11 Jun 2027 07:34:20.157   11 Jun 2027 07:34:22.129             1.972           712.500
       322   11 Jun 2027 07:34:35.098   11 Jun 2027 07:34:35.640             0.542           218.688
       323   11 Jun 2027 09:04:59.510   11 Jun 2027 09:05:04.253             4.743          2267.750
       324   11 Jun 2027 09:07:22.006   11 Jun 2027 09:07:28.166             6.160          2518.031
       325   11 Jun 2027 09:08:33.763   11 Jun 2027 09:08:37.607             3.844           799.781
       326   11 Jun 2027 09:08:47.266   11 Jun 2027 09:08:47.959             0.693           271.438
       327   11 Jun 2027 09:09:45.329   11 Jun 2027 09:09:50.351             5.022          1288.000
       328   11 Jun 2027 09:11:02.013   11 Jun 2027 09:11:06.086             4.073          1989.937
       329   11 Jun 2027 09:11:24.879   11 Jun 2027 09:11:27.236             2.357           306.375
       330   11 Jun 2027 09:12:30.421   11 Jun 2027 09:12:34.708             4.287          1936.469
       331   11 Jun 2027 10:42:05.207   11 Jun 2027 10:42:23.582            18.375          7570.688
       332   11 Jun 2027 10:44:37.430   11 Jun 2027 10:44:48.232            10.802          1597.688
       333   11 Jun 2027 10:45:21.253   11 Jun 2027 10:45:24.738             3.485          1031.906
       334   11 Jun 2027 10:45:35.215   11 Jun 2027 10:45:37.395             2.180           154.844
       335   11 Jun 2027 10:46:39.906   11 Jun 2027 10:46:43.080             3.174          1373.906
       336   11 Jun 2027 10:46:57.112   11 Jun 2027 10:46:57.627             0.515           107.156
       337   11 Jun 2027 10:47:42.367   11 Jun 2027 10:47:44.781             2.414           922.187
       338   11 Jun 2027 10:48:10.229   11 Jun 2027 10:48:18.025             7.796           795.250
       339   12 Jun 2027 03:06:04.283   12 Jun 2027 03:06:47.676            43.393         21696.500
       340   12 Jun 2027 03:07:52.812   12 Jun 2027 03:08:05.736            12.924          6462.000
       341   12 Jun 2027 03:09:51.090   12 Jun 2027 03:09:51.090             0.000             0.000
       342   12 Jun 2027 03:09:57.550   12 Jun 2027 03:10:08.830            11.280          5640.000
       343   12 Jun 2027 03:10:34.296   12 Jun 2027 03:10:42.602             8.306          4153.000
       344   12 Jun 2027 03:11:26.748   12 Jun 2027 03:11:53.304            26.556         13278.000
       345   12 Jun 2027 03:12:50.026   12 Jun 2027 03:13:10.788            20.762         10381.000
       346   12 Jun 2027 04:30:55.568   12 Jun 2027 04:31:27.124            31.556         15778.000
       347   12 Jun 2027 04:32:13.891   12 Jun 2027 04:32:28.629            14.738          7369.000
       348   12 Jun 2027 04:42:38.717   12 Jun 2027 04:43:48.367            69.650         34825.000
       349   12 Jun 2027 06:04:51.868   12 Jun 2027 06:06:01.988            70.120         35060.000
       350   12 Jun 2027 06:06:52.280   12 Jun 2027 06:07:09.311            17.031          8515.500
       351   12 Jun 2027 06:07:34.901   12 Jun 2027 06:07:34.901             0.000             0.000
       352   12 Jun 2027 06:07:47.943   12 Jun 2027 06:07:52.541             4.598          2299.000
       353   12 Jun 2027 06:08:18.882   12 Jun 2027 06:08:18.882             0.000             0.000
       354   12 Jun 2027 06:08:44.666   12 Jun 2027 06:08:55.811            11.145          4479.000
       355   12 Jun 2027 07:39:54.783   12 Jun 2027 07:40:04.830            10.047          4257.531
       356   12 Jun 2027 07:40:51.626   12 Jun 2027 07:40:54.218             2.592           614.250
       357   12 Jun 2027 07:41:24.473   12 Jun 2027 07:41:25.536             1.063           116.906
       358   12 Jun 2027 07:42:15.862   12 Jun 2027 07:42:18.934             3.072          1364.063
       359   12 Jun 2027 07:43:46.543   12 Jun 2027 07:43:51.541             4.998          2328.531
       360   12 Jun 2027 07:45:07.051   12 Jun 2027 07:45:12.988             5.937          2196.125
       361   12 Jun 2027 07:45:43.579   12 Jun 2027 07:45:45.150             1.571           733.281
       362   12 Jun 2027 07:46:43.636   12 Jun 2027 07:46:48.221             4.585          1827.687
       363   12 Jun 2027 07:48:05.840   12 Jun 2027 07:48:10.254             4.414          1418.531
       364   12 Jun 2027 09:17:18.732   12 Jun 2027 09:17:24.495             5.763          2738.687
       365   12 Jun 2027 09:18:03.633   12 Jun 2027 09:18:10.698             7.065          1145.156
       366   12 Jun 2027 09:19:25.778   12 Jun 2027 09:19:28.701             2.923          1076.969
       367   12 Jun 2027 09:20:45.429   12 Jun 2027 09:20:50.882             5.453           613.219
       368   12 Jun 2027 09:21:22.896   12 Jun 2027 09:21:24.323             1.427           676.719
       369   12 Jun 2027 09:21:55.459   12 Jun 2027 09:21:57.442             1.983           608.531
       370   12 Jun 2027 09:22:41.359   12 Jun 2027 09:22:43.937             2.578           400.687
       371   12 Jun 2027 09:22:59.929   12 Jun 2027 09:23:10.129            10.200           499.750
       372   12 Jun 2027 09:23:40.764   12 Jun 2027 09:23:42.149             1.385             6.344
       373   12 Jun 2027 09:24:19.632   12 Jun 2027 09:24:24.218             4.586           624.906
       374   12 Jun 2027 10:54:06.817   12 Jun 2027 10:54:25.374            18.557          8201.719
       375   12 Jun 2027 10:56:47.641   12 Jun 2027 10:56:53.479             5.838            46.875
       376   12 Jun 2027 10:57:44.086   12 Jun 2027 10:57:52.697             8.611          1317.344
       377   12 Jun 2027 10:58:20.036   12 Jun 2027 10:58:21.522             1.486           412.375
       378   12 Jun 2027 10:58:57.730   12 Jun 2027 10:59:00.116             2.386          1057.687
       379   12 Jun 2027 10:59:33.639   12 Jun 2027 10:59:38.016             4.377          1047.594
       380   12 Jun 2027 11:00:11.124   12 Jun 2027 11:00:15.557             4.433           759.219
       381   13 Jun 2027 03:18:04.535   13 Jun 2027 03:20:17.809           133.274         66637.000
       382   13 Jun 2027 03:21:12.894   13 Jun 2027 03:21:51.077            38.183         19091.500
       383   13 Jun 2027 03:22:10.674   13 Jun 2027 03:22:19.670             8.996          4498.000
       384   13 Jun 2027 03:22:59.479   13 Jun 2027 03:23:27.060            27.581         13790.500
       385   13 Jun 2027 03:24:00.465   13 Jun 2027 03:24:11.444            10.979          5489.500
       386   13 Jun 2027 03:24:22.556   13 Jun 2027 03:24:29.004             6.448          3224.000
       387   13 Jun 2027 04:42:26.709   13 Jun 2027 04:42:42.820            16.111          8055.500
       388   13 Jun 2027 04:43:08.126   13 Jun 2027 04:43:20.255            12.129          6064.500
       389   13 Jun 2027 04:54:39.824   13 Jun 2027 04:55:11.509            31.685         15842.500
       390   13 Jun 2027 06:16:35.159   13 Jun 2027 06:17:25.226            50.067         23704.124
       391   13 Jun 2027 06:18:46.498   13 Jun 2027 06:18:50.333             3.835          1917.500
       392   13 Jun 2027 06:19:20.238   13 Jun 2027 06:19:24.530             4.292          1216.875
       393   13 Jun 2027 06:19:49.018   13 Jun 2027 06:19:53.789             4.771           753.031
       394   13 Jun 2027 06:20:23.951   13 Jun 2027 06:20:28.993             5.042           925.094
       395   13 Jun 2027 06:21:31.068   13 Jun 2027 06:21:37.031             5.963          1939.844
       396   13 Jun 2027 06:21:53.109   13 Jun 2027 06:21:54.835             1.726           327.500
       397   13 Jun 2027 07:51:23.297   13 Jun 2027 07:51:29.467             6.170          2019.500
       398   13 Jun 2027 07:51:42.789   13 Jun 2027 07:51:45.513             2.724            57.094
       399   13 Jun 2027 07:53:29.836   13 Jun 2027 07:53:34.011             4.175           219.531
       400   13 Jun 2027 07:54:40.446   13 Jun 2027 07:54:45.105             4.659          2047.844
       401   13 Jun 2027 07:54:54.512   13 Jun 2027 07:54:55.486             0.974           124.344
       402   13 Jun 2027 07:55:31.037   13 Jun 2027 07:55:38.526             7.489           553.219
       403   13 Jun 2027 07:56:59.609   13 Jun 2027 07:57:04.649             5.040          2273.656
       404   13 Jun 2027 07:57:23.293   13 Jun 2027 07:57:24.871             1.578           505.813
       405   13 Jun 2027 07:58:04.171   13 Jun 2027 07:58:04.171             0.000             0.000
       406   13 Jun 2027 07:58:57.702   13 Jun 2027 07:59:02.445             4.743          2205.500
       407   13 Jun 2027 07:59:49.763   13 Jun 2027 07:59:52.091             2.328          1011.062
       408   13 Jun 2027 08:00:06.233   13 Jun 2027 08:00:06.660             0.427           128.937
       409   13 Jun 2027 08:00:17.243   13 Jun 2027 08:00:17.846             0.603           209.625
       410   13 Jun 2027 09:29:13.007   13 Jun 2027 09:29:25.156            12.149          4872.375
       411   13 Jun 2027 09:30:08.388   13 Jun 2027 09:30:08.388             0.000             0.000
       412   13 Jun 2027 09:31:20.890   13 Jun 2027 09:31:32.519            11.629          3488.406
       413   13 Jun 2027 09:32:36.374   13 Jun 2027 09:32:43.898             7.524          1995.469
       414   13 Jun 2027 09:33:29.012   13 Jun 2027 09:33:29.236             0.224           107.094
       415   13 Jun 2027 09:33:29.724   13 Jun 2027 09:33:29.874             0.150             2.500
       416   13 Jun 2027 09:35:52.255   13 Jun 2027 09:35:56.950             4.695          2221.844
       417   13 Jun 2027 09:35:59.425   13 Jun 2027 09:36:00.490             1.065            77.344
       418   13 Jun 2027 09:36:23.191   13 Jun 2027 09:36:32.214             9.023           559.750
       419   13 Jun 2027 11:05:57.428   13 Jun 2027 11:06:03.758             6.330          3165.000
       420   13 Jun 2027 11:06:22.671   13 Jun 2027 11:06:32.612             9.941          2795.063
       421   13 Jun 2027 11:07:11.842   13 Jun 2027 11:07:12.801             0.959           321.250
       422   13 Jun 2027 11:07:41.636   13 Jun 2027 11:07:43.531             1.895           841.688
       423   13 Jun 2027 11:09:25.254   13 Jun 2027 11:09:45.626            20.372           984.406
       424   13 Jun 2027 11:10:00.034   13 Jun 2027 11:10:02.079             2.045           140.250
       425   13 Jun 2027 11:10:21.572   13 Jun 2027 11:10:23.307             1.735           505.594
       426   13 Jun 2027 11:10:51.800   13 Jun 2027 11:10:57.086             5.286           890.406
       427   13 Jun 2027 11:11:33.331   13 Jun 2027 11:11:35.478             2.147          1046.219
       428   13 Jun 2027 11:12:17.886   13 Jun 2027 11:12:20.866             2.980          1109.531
