uniorb/output/strategy_4/Camera/Camera_KinoSat_110905.txt

KinoSat_110905
-------------------------
    Access    *     Start Time (UTCG)     *     Stop Time (UTCG)  *   Duration (s) *   Data (Mbytes)
         1   01 Jun 2027 03:30:50.628   01 Jun 2027 03:31:55.966            65.338         32669.000
         2   01 Jun 2027 03:32:10.499   01 Jun 2027 03:32:13.255             2.756          1378.000
         3   01 Jun 2027 03:32:33.684   01 Jun 2027 03:32:37.358             3.674          1837.000
         4   01 Jun 2027 05:07:28.336   01 Jun 2027 05:09:47.412           139.076         69538.000
         5   01 Jun 2027 05:09:50.519   01 Jun 2027 05:10:00.197             9.678          4839.000
         6   01 Jun 2027 06:42:23.469   01 Jun 2027 06:44:05.726           102.257         51128.500
         7   01 Jun 2027 06:46:19.931   01 Jun 2027 06:46:27.301             7.370          3685.000
         8   01 Jun 2027 06:47:49.283   01 Jun 2027 06:48:06.999            17.716          8858.000
         9   01 Jun 2027 08:18:35.549   01 Jun 2027 08:20:58.491           142.942         71471.000
        10   01 Jun 2027 08:23:50.152   01 Jun 2027 08:23:51.786             1.634           817.000
        11   01 Jun 2027 09:56:18.702   01 Jun 2027 09:58:06.941           108.239         54119.500
        12   01 Jun 2027 09:59:12.263   01 Jun 2027 10:00:22.682            70.419         35209.500
        13   01 Jun 2027 10:00:32.591   01 Jun 2027 10:00:35.448             2.857          1428.500
        14   01 Jun 2027 11:32:22.952   01 Jun 2027 11:34:42.399           139.447         69723.500
        15   01 Jun 2027 11:36:24.573   01 Jun 2027 11:36:37.116            12.543          6271.500
        16   02 Jun 2027 03:43:04.433   02 Jun 2027 03:43:14.467            10.034          5017.000
        17   02 Jun 2027 03:45:13.638   02 Jun 2027 03:45:43.298            29.660         14830.000
        18   02 Jun 2027 05:19:36.339   02 Jun 2027 05:22:26.431           170.092         85046.000
        19   02 Jun 2027 06:54:46.214   02 Jun 2027 06:57:52.166           185.952         92976.000
        20   02 Jun 2027 06:58:00.265   02 Jun 2027 06:58:01.637             1.372           686.000
        21   02 Jun 2027 06:59:46.744   02 Jun 2027 07:00:15.087            28.343         14171.500
        22   02 Jun 2027 07:01:21.704   02 Jun 2027 07:01:22.917             1.213           606.500
        23   02 Jun 2027 08:31:11.434   02 Jun 2027 08:35:12.853           241.419        120709.500
        24   02 Jun 2027 10:08:25.196   02 Jun 2027 10:08:54.239            29.043         14145.781
        25   02 Jun 2027 10:09:31.797   02 Jun 2027 10:09:34.622             2.825          1106.625
        26   02 Jun 2027 10:09:48.874   02 Jun 2027 10:09:50.172             1.298           445.375
        27   02 Jun 2027 10:10:43.729   02 Jun 2027 10:10:47.469             3.740          1327.156
        28   02 Jun 2027 10:11:00.932   02 Jun 2027 10:11:03.063             2.131           265.594
        29   02 Jun 2027 10:11:59.828   02 Jun 2027 10:12:06.012             6.184           346.844
        30   02 Jun 2027 10:12:47.553   02 Jun 2027 10:12:50.766             3.213           848.906
        31   02 Jun 2027 10:12:51.089   02 Jun 2027 10:12:51.338             0.249            10.094
        32   02 Jun 2027 10:12:57.593   02 Jun 2027 10:13:01.234             3.641            81.500
        33   02 Jun 2027 11:44:40.755   02 Jun 2027 11:44:56.225            15.470          6612.063
        34   02 Jun 2027 11:46:41.917   02 Jun 2027 11:46:44.250             2.333           210.781
        35   02 Jun 2027 11:49:12.205   02 Jun 2027 11:49:14.456             2.251           825.062
        36   03 Jun 2027 03:55:39.546   03 Jun 2027 03:55:42.129             2.583          1291.500
        37   03 Jun 2027 03:57:07.827   03 Jun 2027 03:57:14.548             6.721          3360.500
        38   03 Jun 2027 03:57:44.397   03 Jun 2027 03:57:48.716             4.319          2159.500
        39   03 Jun 2027 05:32:00.764   03 Jun 2027 05:34:54.400           173.636         86818.000
        40   03 Jun 2027 05:35:25.640   03 Jun 2027 05:35:31.199             5.559          2779.500
        41   03 Jun 2027 07:06:25.838   03 Jun 2027 07:08:27.309           121.471         60287.750
        42   03 Jun 2027 07:09:20.315   03 Jun 2027 07:09:24.515             4.200          1208.250
        43   03 Jun 2027 07:09:46.417   03 Jun 2027 07:09:46.606             0.189            35.031
        44   03 Jun 2027 07:10:19.950   03 Jun 2027 07:10:25.110             5.160           796.875
        45   03 Jun 2027 07:12:28.414   03 Jun 2027 07:12:37.108             8.694          1728.094
        46   03 Jun 2027 07:13:02.567   03 Jun 2027 07:13:03.988             1.421           682.844
        47   03 Jun 2027 08:42:43.883   03 Jun 2027 08:42:54.111            10.228          4761.188
        48   03 Jun 2027 08:45:09.791   03 Jun 2027 08:45:11.133             1.342           372.563
        49   03 Jun 2027 08:45:57.584   03 Jun 2027 08:46:04.200             6.616           774.875
        50   03 Jun 2027 08:46:36.163   03 Jun 2027 08:46:38.106             1.943           662.719
        51   03 Jun 2027 08:47:17.697   03 Jun 2027 08:47:20.040             2.343           804.031
        52   03 Jun 2027 08:47:46.777   03 Jun 2027 08:47:47.712             0.935           414.844
        53   03 Jun 2027 08:49:01.587   03 Jun 2027 08:49:07.067             5.480          1942.625
        54   03 Jun 2027 10:20:59.774   03 Jun 2027 10:21:12.520            12.746          6321.406
        55   03 Jun 2027 10:21:32.462   03 Jun 2027 10:21:34.493             2.031           623.188
        56   03 Jun 2027 10:22:50.213   03 Jun 2027 10:22:59.820             9.607          2132.750
        57   03 Jun 2027 10:24:30.949   03 Jun 2027 10:24:32.570             1.621           584.156
        58   03 Jun 2027 10:24:50.554   03 Jun 2027 10:24:51.774             1.220           529.719
        59   03 Jun 2027 11:56:19.755   03 Jun 2027 11:56:32.176            12.421          5213.563
        60   04 Jun 2027 04:06:31.448   04 Jun 2027 04:06:37.726             6.278          3139.000
        61   04 Jun 2027 04:06:40.627   04 Jun 2027 04:07:07.200            26.573         13286.500
        62   04 Jun 2027 04:10:13.876   04 Jun 2027 04:10:13.876             0.000             0.000
        63   04 Jun 2027 04:10:44.551   04 Jun 2027 04:10:44.551             0.000             0.000
        64   04 Jun 2027 05:41:47.996   04 Jun 2027 05:42:21.279            33.283         16641.500
        65   04 Jun 2027 05:43:13.162   04 Jun 2027 05:45:37.020           143.858         71929.000
        66   04 Jun 2027 07:17:58.998   04 Jun 2027 07:19:57.485           118.487         59188.312
        67   04 Jun 2027 07:21:01.188   04 Jun 2027 07:21:05.520             4.332          1735.031
        68   04 Jun 2027 07:21:20.849   04 Jun 2027 07:21:21.705             0.856           350.531
        69   04 Jun 2027 07:21:23.362   04 Jun 2027 07:21:26.723             3.361            51.781
        70   04 Jun 2027 07:21:56.487   04 Jun 2027 07:21:57.155             0.668           244.344
        71   04 Jun 2027 07:23:32.252   04 Jun 2027 07:23:38.478             6.226          2142.687
        72   04 Jun 2027 07:24:09.377   04 Jun 2027 07:24:09.377             0.000             0.000
        73   04 Jun 2027 07:24:35.233   04 Jun 2027 07:24:39.675             4.442          1152.094
        74   04 Jun 2027 08:55:03.213   04 Jun 2027 08:55:15.285            12.072          4364.781
        75   04 Jun 2027 08:56:20.169   04 Jun 2027 08:56:25.777             5.608          1166.031
        76   04 Jun 2027 08:57:41.293   04 Jun 2027 08:57:44.951             3.658          1360.594
        77   04 Jun 2027 08:57:53.910   04 Jun 2027 08:57:56.308             2.398           157.219
        78   04 Jun 2027 08:58:29.384   04 Jun 2027 08:58:35.196             5.812           674.375
        79   04 Jun 2027 08:59:09.382   04 Jun 2027 08:59:14.205             4.823          1010.375
        80   04 Jun 2027 08:59:16.990   04 Jun 2027 08:59:20.743             3.753            23.906
        81   04 Jun 2027 08:59:21.764   04 Jun 2027 08:59:22.010             0.246            28.062
        82   04 Jun 2027 08:59:30.586   04 Jun 2027 08:59:31.507             0.921           175.281
        83   04 Jun 2027 08:59:57.583   04 Jun 2027 09:00:00.419             2.836           413.031
        84   04 Jun 2027 09:01:01.297   04 Jun 2027 09:01:03.358             2.061           710.719
        85   04 Jun 2027 09:01:10.916   04 Jun 2027 09:01:12.370             1.454            53.969
        86   04 Jun 2027 10:33:02.413   04 Jun 2027 10:33:13.710            11.297          5554.031
        87   04 Jun 2027 10:34:43.058   04 Jun 2027 10:34:49.233             6.175          2039.625
        88   04 Jun 2027 10:34:56.082   04 Jun 2027 10:34:57.075             0.993           214.031
        89   04 Jun 2027 10:36:18.787   04 Jun 2027 10:36:24.754             5.967          2461.938
        90   04 Jun 2027 10:36:40.118   04 Jun 2027 10:36:42.973             2.855           326.406
        91   04 Jun 2027 10:36:53.042   04 Jun 2027 10:36:55.493             2.451           314.656
        92   05 Jun 2027 04:17:50.384   05 Jun 2027 04:18:41.272            50.888         25444.000
        93   05 Jun 2027 04:21:23.900   05 Jun 2027 04:21:42.586            18.686          9343.000
        94   05 Jun 2027 04:21:48.283   05 Jun 2027 04:21:50.405             2.122          1061.000
        95   05 Jun 2027 04:21:53.968   05 Jun 2027 04:22:14.795            20.827         10413.500
        96   05 Jun 2027 05:52:54.860   05 Jun 2027 05:54:23.547            88.687         44343.500
        97   05 Jun 2027 05:54:59.837   05 Jun 2027 05:55:00.830             0.993           496.500
        98   05 Jun 2027 05:56:11.813   05 Jun 2027 05:56:34.222            22.409         11204.500
        99   05 Jun 2027 05:57:47.233   05 Jun 2027 05:57:56.450             9.217          4608.500
       100   05 Jun 2027 05:58:20.813   05 Jun 2027 05:58:27.588             6.775          3387.500
       101   05 Jun 2027 05:59:32.388   05 Jun 2027 05:59:58.743            26.355         13177.500
       102   05 Jun 2027 06:00:49.572   05 Jun 2027 06:01:10.504            20.932         10466.000
       103   05 Jun 2027 07:30:15.879   05 Jun 2027 07:31:22.320            66.441         31549.938
       104   05 Jun 2027 07:32:10.047   05 Jun 2027 07:32:13.201             3.154           643.469
       105   05 Jun 2027 07:33:01.139   05 Jun 2027 07:33:02.090             0.951           377.250
       106   05 Jun 2027 07:33:15.249   05 Jun 2027 07:33:15.850             0.601            53.125
       107   05 Jun 2027 07:33:58.245   05 Jun 2027 07:34:04.330             6.085           192.781
       108   05 Jun 2027 07:35:30.640   05 Jun 2027 07:35:35.819             5.179          1894.187
       109   05 Jun 2027 07:36:01.132   05 Jun 2027 07:36:07.762             6.630           275.562
       110   05 Jun 2027 07:36:34.128   05 Jun 2027 07:36:38.719             4.591            64.469
       111   05 Jun 2027 07:37:29.197   05 Jun 2027 07:37:30.410             1.213           490.562
       112   05 Jun 2027 09:07:04.991   05 Jun 2027 09:07:18.212            13.221          6546.406
       113   05 Jun 2027 09:09:17.813   05 Jun 2027 09:09:24.781             6.968          1978.562
       114   05 Jun 2027 09:10:38.318   05 Jun 2027 09:10:42.500             4.182          1172.250
       115   05 Jun 2027 09:10:58.856   05 Jun 2027 09:11:00.250             1.394           511.125
       116   05 Jun 2027 09:11:06.390   05 Jun 2027 09:11:09.342             2.952            76.125
       117   05 Jun 2027 09:11:51.982   05 Jun 2027 09:11:55.762             3.780          1047.062
       118   05 Jun 2027 09:12:17.887   05 Jun 2027 09:12:23.061             5.174           592.375
       119   05 Jun 2027 09:13:06.584   05 Jun 2027 09:13:14.067             7.483          1196.812
       120   05 Jun 2027 09:13:21.719   05 Jun 2027 09:13:24.218             2.499           184.687
       121   05 Jun 2027 10:45:01.911   05 Jun 2027 10:45:15.315            13.404          6337.219
       122   05 Jun 2027 10:46:58.905   05 Jun 2027 10:47:14.720            15.815          2577.875
       123   05 Jun 2027 10:48:08.535   05 Jun 2027 10:48:11.323             2.788             4.281
       124   05 Jun 2027 10:48:35.902   05 Jun 2027 10:48:40.399             4.497           347.063
       125   05 Jun 2027 10:48:51.027   05 Jun 2027 10:48:54.893             3.866            87.687
       126   06 Jun 2027 03:07:33.963   06 Jun 2027 03:08:11.422            37.459         18729.500
       127   06 Jun 2027 04:29:34.648   06 Jun 2027 04:30:49.559            74.911         37455.500
       128   06 Jun 2027 04:31:37.211   06 Jun 2027 04:31:50.673            13.462          6731.000
       129   06 Jun 2027 04:33:06.850   06 Jun 2027 04:33:18.783            11.933          5966.500
       130   06 Jun 2027 04:33:27.030   06 Jun 2027 04:33:50.778            23.748         11874.000
       131   06 Jun 2027 06:04:23.074   06 Jun 2027 06:06:09.869           106.795         53397.500
       132   06 Jun 2027 06:07:56.781   06 Jun 2027 06:08:04.448             7.667          3833.500
       133   06 Jun 2027 06:08:12.990   06 Jun 2027 06:08:26.064            13.074          6537.000
       134   06 Jun 2027 06:09:49.059   06 Jun 2027 06:10:11.235            22.176          8438.625
       135   06 Jun 2027 06:10:22.267   06 Jun 2027 06:10:22.267             0.000             0.000
       136   06 Jun 2027 06:10:33.397   06 Jun 2027 06:10:38.161             4.764           435.969
       137   06 Jun 2027 06:11:00.179   06 Jun 2027 06:11:00.179             0.000             0.000
       138   06 Jun 2027 06:11:27.483   06 Jun 2027 06:11:29.980             2.497          1069.875
       139   06 Jun 2027 06:11:50.767   06 Jun 2027 06:11:52.184             1.417           168.406
       140   06 Jun 2027 06:12:54.903   06 Jun 2027 06:12:59.392             4.489          1824.625
       141   06 Jun 2027 07:42:11.646   06 Jun 2027 07:42:14.883             3.237            37.562
       142   06 Jun 2027 07:43:48.912   06 Jun 2027 07:43:53.664             4.752          2111.469
       143   06 Jun 2027 07:44:28.957   06 Jun 2027 07:44:33.979             5.022           496.469
       144   06 Jun 2027 07:45:59.677   06 Jun 2027 07:46:04.484             4.807           116.344
       145   06 Jun 2027 07:47:28.124   06 Jun 2027 07:47:31.688             3.564          1533.062
       146   06 Jun 2027 07:48:03.710   06 Jun 2027 07:48:06.402             2.692           825.938
       147   06 Jun 2027 09:18:56.126   06 Jun 2027 09:19:10.867            14.741          7253.531
       148   06 Jun 2027 09:22:10.928   06 Jun 2027 09:22:13.661             2.733          1050.500
       149   06 Jun 2027 09:22:50.944   06 Jun 2027 09:22:53.382             2.438           321.344
       150   06 Jun 2027 09:23:10.810   06 Jun 2027 09:23:12.542             1.732           411.469
       151   06 Jun 2027 09:23:37.585   06 Jun 2027 09:23:40.592             3.007           711.062
       152   06 Jun 2027 09:24:03.551   06 Jun 2027 09:24:04.701             1.150           400.500
       153   06 Jun 2027 09:24:46.586   06 Jun 2027 09:24:50.683             4.097           856.531
       154   06 Jun 2027 10:57:03.504   06 Jun 2027 10:57:16.926            13.422          6599.750
       155   06 Jun 2027 10:58:56.850   06 Jun 2027 10:59:06.183             9.333          2093.062
       156   06 Jun 2027 10:59:57.191   06 Jun 2027 11:00:09.711            12.520          1594.000
       157   06 Jun 2027 11:00:55.486   06 Jun 2027 11:00:58.621             3.135          1430.469
       158   06 Jun 2027 11:01:02.393   06 Jun 2027 11:01:02.669             0.276            61.188
       159   07 Jun 2027 03:07:23.645   07 Jun 2027 03:07:37.953            14.308          7154.000
       160   07 Jun 2027 04:43:20.496   07 Jun 2027 04:46:40.006           199.510         99755.000
       161   07 Jun 2027 04:46:48.742   07 Jun 2027 04:47:16.543            27.801         13900.500
       162   07 Jun 2027 06:17:11.481   07 Jun 2027 06:18:12.758            61.277         28709.063
       163   07 Jun 2027 06:19:04.121   07 Jun 2027 06:19:07.328             3.207          1596.688
       164   07 Jun 2027 06:19:26.370   07 Jun 2027 06:19:35.759             9.389           545.469
       165   07 Jun 2027 06:20:13.742   07 Jun 2027 06:20:17.349             3.607           850.094
       166   07 Jun 2027 06:21:51.399   07 Jun 2027 06:22:00.971             9.572          2630.469
       167   07 Jun 2027 06:22:24.984   07 Jun 2027 06:22:29.067             4.083           750.406
       168   07 Jun 2027 06:23:15.261   07 Jun 2027 06:23:18.186             2.925          1415.875
       169   07 Jun 2027 06:23:30.728   07 Jun 2027 06:23:37.259             6.531           381.562
       170   07 Jun 2027 06:23:40.609   07 Jun 2027 06:23:40.609             0.000             0.000
       171   07 Jun 2027 06:23:46.866   07 Jun 2027 06:23:47.985             1.119           255.281
       172   07 Jun 2027 06:24:00.277   07 Jun 2027 06:24:05.699             5.422           369.906
       173   07 Jun 2027 06:25:12.370   07 Jun 2027 06:25:15.380             3.010          1393.375
       174   07 Jun 2027 07:54:18.098   07 Jun 2027 07:54:18.380             0.282            40.531
       175   07 Jun 2027 07:56:10.780   07 Jun 2027 07:56:15.955             5.175           722.250
       176   07 Jun 2027 07:56:50.656   07 Jun 2027 07:56:53.571             2.915          1084.406
       177   07 Jun 2027 07:57:37.665   07 Jun 2027 07:57:45.873             8.208           236.500
       178   07 Jun 2027 07:58:44.046   07 Jun 2027 07:58:49.077             5.031          1369.531
       179   07 Jun 2027 07:59:31.845   07 Jun 2027 07:59:32.730             0.885           228.969
       180   07 Jun 2027 09:31:20.381   07 Jun 2027 09:31:31.250            10.869          4757.125
       181   07 Jun 2027 09:34:38.600   07 Jun 2027 09:34:40.801             2.201          1006.125
       182   07 Jun 2027 09:35:29.324   07 Jun 2027 09:35:30.203             0.879           369.812
       183   07 Jun 2027 09:35:46.396   07 Jun 2027 09:35:46.882             0.486            76.906
       184   07 Jun 2027 09:35:57.267   07 Jun 2027 09:35:58.421             1.154           324.531
       185   07 Jun 2027 11:08:17.610   07 Jun 2027 11:08:29.474            11.864          5534.406
       186   07 Jun 2027 11:11:46.299   07 Jun 2027 11:11:50.458             4.159           870.281
       187   07 Jun 2027 11:12:57.093   07 Jun 2027 11:13:02.038             4.945          2082.344
       188   08 Jun 2027 03:19:17.906   08 Jun 2027 03:19:27.086             9.180          4590.000
       189   08 Jun 2027 04:55:42.199   08 Jun 2027 04:59:08.112           205.913        102956.500
       190   08 Jun 2027 06:29:10.041   08 Jun 2027 06:30:29.790            79.749         39390.062
       191   08 Jun 2027 06:31:42.371   08 Jun 2027 06:31:45.161             2.790           545.625
       192   08 Jun 2027 06:32:00.899   08 Jun 2027 06:32:02.578             1.679           262.250
       193   08 Jun 2027 06:32:30.885   08 Jun 2027 06:32:30.885             0.000             0.000
       194   08 Jun 2027 06:33:50.263   08 Jun 2027 06:33:54.110             3.847          1923.500
       195   08 Jun 2027 06:34:39.524   08 Jun 2027 06:34:49.448             9.924          2580.875
       196   08 Jun 2027 06:35:22.158   08 Jun 2027 06:35:22.158             0.000             0.000
       197   08 Jun 2027 06:35:48.005   08 Jun 2027 06:35:50.839             2.834          1158.188
       198   08 Jun 2027 06:36:27.031   08 Jun 2027 06:36:30.978             3.947          1068.750
       199   08 Jun 2027 06:37:26.481   08 Jun 2027 06:37:30.106             3.625          1514.844
       200   08 Jun 2027 08:06:43.913   08 Jun 2027 08:06:46.317             2.404           849.188
       201   08 Jun 2027 08:09:50.138   08 Jun 2027 08:09:51.840             1.702            88.688
       202   08 Jun 2027 08:10:24.844   08 Jun 2027 08:10:26.528             1.684           635.688
       203   08 Jun 2027 08:12:10.026   08 Jun 2027 08:12:18.877             8.851          1611.250
       204   08 Jun 2027 09:43:37.923   08 Jun 2027 09:43:51.473            13.550          6475.094
       205   08 Jun 2027 09:44:21.114   08 Jun 2027 09:44:28.786             7.672           217.563
       206   08 Jun 2027 09:47:20.887   08 Jun 2027 09:47:23.690             2.803          1024.719
       207   08 Jun 2027 09:47:55.954   08 Jun 2027 09:47:59.931             3.977           514.625
       208   08 Jun 2027 09:48:55.962   08 Jun 2027 09:48:59.900             3.938          1409.438
       209   08 Jun 2027 11:20:31.526   08 Jun 2027 11:20:43.117            11.591          5755.781
       210   08 Jun 2027 11:23:25.607   08 Jun 2027 11:23:26.692             1.085           353.500
       211   09 Jun 2027 03:31:05.235   09 Jun 2027 03:31:28.281            23.046         11523.000
       212   09 Jun 2027 05:07:43.700   09 Jun 2027 05:08:15.680            31.980         15990.000
       213   09 Jun 2027 05:10:22.242   09 Jun 2027 05:11:12.316            50.074         25037.000
       214   09 Jun 2027 06:42:38.755   09 Jun 2027 06:46:02.764           204.009        101907.032
       215   09 Jun 2027 06:46:06.424   09 Jun 2027 06:46:08.066             1.642            75.562
       216   09 Jun 2027 06:46:42.587   09 Jun 2027 06:46:44.980             2.393           203.188
       217   09 Jun 2027 06:48:41.822   09 Jun 2027 06:48:51.126             9.304          3233.813
       218   09 Jun 2027 06:49:14.532   09 Jun 2027 06:49:18.467             3.935           731.437
       219   09 Jun 2027 06:49:33.082   09 Jun 2027 06:49:34.197             1.115           167.844
       220   09 Jun 2027 08:18:51.362   09 Jun 2027 08:18:54.483             3.121           634.375
       221   09 Jun 2027 08:24:27.526   09 Jun 2027 08:24:30.283             2.757           711.000
       222   09 Jun 2027 08:24:59.633   09 Jun 2027 08:25:00.739             1.106           139.031
       223   09 Jun 2027 09:56:34.644   09 Jun 2027 09:56:44.198             9.554          4486.438
       224   09 Jun 2027 10:00:03.241   09 Jun 2027 10:00:07.917             4.676          1540.781
       225   09 Jun 2027 11:32:40.967   09 Jun 2027 11:32:57.837            16.870          7041.750
       226   09 Jun 2027 11:36:40.642   09 Jun 2027 11:36:43.428             2.786           941.906
       227   10 Jun 2027 03:43:19.471   10 Jun 2027 03:43:32.219            12.748          6374.000
       228   10 Jun 2027 03:46:26.746   10 Jun 2027 03:46:27.255             0.509           254.500
       229   10 Jun 2027 05:19:51.281   10 Jun 2027 05:22:58.252           186.971         93485.500
       230   10 Jun 2027 06:55:01.331   10 Jun 2027 06:56:44.347           103.016         51336.126
       231   10 Jun 2027 06:57:07.118   10 Jun 2027 06:57:13.544             6.426           657.281
       232   10 Jun 2027 06:57:49.258   10 Jun 2027 06:57:49.258             0.000             0.000
       233   10 Jun 2027 06:58:00.258   10 Jun 2027 06:58:02.081             1.823           463.563
       234   10 Jun 2027 06:58:15.700   10 Jun 2027 06:58:17.270             1.570           212.656
       235   10 Jun 2027 06:59:49.036   10 Jun 2027 06:59:56.607             7.571          2796.406
       236   10 Jun 2027 07:01:04.735   10 Jun 2027 07:01:08.682             3.947          1715.750
       237   10 Jun 2027 07:01:26.321   10 Jun 2027 07:01:27.802             1.481           347.219
       238   10 Jun 2027 08:31:26.564   10 Jun 2027 08:31:31.463             4.899          1718.063
       239   10 Jun 2027 08:33:36.556   10 Jun 2027 08:33:39.734             3.178          1058.500
       240   10 Jun 2027 08:33:57.891   10 Jun 2027 08:33:59.951             2.060           352.531
       241   10 Jun 2027 08:35:28.766   10 Jun 2027 08:35:32.459             3.693          1673.156
       242   10 Jun 2027 08:36:19.603   10 Jun 2027 08:36:21.620             2.017           687.188
       243   10 Jun 2027 08:37:09.656   10 Jun 2027 08:37:12.506             2.850          1340.688
       244   10 Jun 2027 10:08:41.368   10 Jun 2027 10:08:53.792            12.424          4735.000
       245   10 Jun 2027 10:10:16.310   10 Jun 2027 10:10:20.067             3.757           376.813
       246   10 Jun 2027 10:11:02.522   10 Jun 2027 10:11:03.110             0.588            55.469
       247   10 Jun 2027 10:12:13.723   10 Jun 2027 10:12:20.774             7.051          1834.000
       248   10 Jun 2027 10:12:35.731   10 Jun 2027 10:12:38.464             2.733           447.375
       249   10 Jun 2027 10:13:03.385   10 Jun 2027 10:13:06.365             2.980           778.781
       250   10 Jun 2027 10:13:13.962   10 Jun 2027 10:13:16.121             2.159           237.406
       251   10 Jun 2027 11:44:55.811   10 Jun 2027 11:45:07.503            11.692          5238.281
       252   10 Jun 2027 11:46:49.300   10 Jun 2027 11:46:50.527             1.227            93.063
       253   11 Jun 2027 03:55:22.010   11 Jun 2027 03:55:28.358             6.348          3174.000
       254   11 Jun 2027 03:56:12.822   11 Jun 2027 03:56:31.914            19.092          9546.000
       255   11 Jun 2027 03:58:27.990   11 Jun 2027 03:58:27.990             0.000             0.000
       256   11 Jun 2027 05:31:44.232   11 Jun 2027 05:34:05.644           141.412         70706.000
       257   11 Jun 2027 05:34:22.531   11 Jun 2027 05:34:34.264            11.733          5866.500
       258   11 Jun 2027 05:34:44.380   11 Jun 2027 05:35:09.072            24.692         12346.000
       259   11 Jun 2027 07:06:40.340   11 Jun 2027 07:08:39.824           119.484         58544.157
       260   11 Jun 2027 07:09:36.598   11 Jun 2027 07:09:39.085             2.487          1210.406
       261   11 Jun 2027 07:09:50.405   11 Jun 2027 07:09:53.008             2.603           282.500
       262   11 Jun 2027 07:10:03.552   11 Jun 2027 07:10:03.552             0.000             0.000
       263   11 Jun 2027 07:10:36.363   11 Jun 2027 07:10:40.746             4.383          1062.969
       264   11 Jun 2027 07:12:44.336   11 Jun 2027 07:12:54.819            10.483          1736.062
       265   11 Jun 2027 07:13:17.319   11 Jun 2027 07:13:18.720             1.401           630.437
       266   11 Jun 2027 07:13:43.718   11 Jun 2027 07:13:45.448             1.730           378.312
       267   11 Jun 2027 08:42:59.203   11 Jun 2027 08:43:07.990             8.787          4369.031
       268   11 Jun 2027 08:44:02.867   11 Jun 2027 08:44:04.595             1.728           811.656
       269   11 Jun 2027 08:45:15.179   11 Jun 2027 08:45:17.866             2.687           923.594
       270   11 Jun 2027 08:46:17.143   11 Jun 2027 08:46:19.907             2.764           910.250
       271   11 Jun 2027 08:46:51.629   11 Jun 2027 08:46:52.913             1.284           613.063
       272   11 Jun 2027 08:47:10.425   11 Jun 2027 08:47:11.476             1.051           497.531
       273   11 Jun 2027 08:47:48.047   11 Jun 2027 08:47:52.380             4.333           452.219
       274   11 Jun 2027 08:48:14.750   11 Jun 2027 08:48:17.896             3.146           404.438
       275   11 Jun 2027 10:21:14.521   11 Jun 2027 10:21:27.257            12.736          5630.656
       276   11 Jun 2027 10:21:47.938   11 Jun 2027 10:21:51.441             3.503           646.281
       277   11 Jun 2027 10:21:52.731   11 Jun 2027 10:21:57.447             4.716            40.313
       278   11 Jun 2027 10:23:07.187   11 Jun 2027 10:23:15.477             8.290          2179.375
       279   11 Jun 2027 10:24:27.594   11 Jun 2027 10:24:35.906             8.312          2253.656
       280   11 Jun 2027 10:24:49.021   11 Jun 2027 10:24:49.873             0.852             4.094
       281   11 Jun 2027 11:56:34.721   11 Jun 2027 11:56:53.837            19.116          6888.344
       282   12 Jun 2027 04:06:45.793   12 Jun 2027 04:07:22.642            36.849         18424.500
       283   12 Jun 2027 04:10:29.097   12 Jun 2027 04:10:29.097             0.000             0.000
       284   12 Jun 2027 05:42:02.919   12 Jun 2027 05:42:36.739            33.820         16910.000
       285   12 Jun 2027 05:43:28.175   12 Jun 2027 05:44:39.939            71.764         35882.000
       286   12 Jun 2027 05:45:18.384   12 Jun 2027 05:46:06.514            48.130         24065.000
       287   12 Jun 2027 05:47:57.354   12 Jun 2027 05:48:01.728             4.374          2187.000
       288   12 Jun 2027 07:18:13.705   12 Jun 2027 07:20:21.279           127.574         63778.968
       289   12 Jun 2027 07:20:56.413   12 Jun 2027 07:20:59.392             2.979           993.187
       290   12 Jun 2027 07:21:35.859   12 Jun 2027 07:21:37.025             1.166           283.000
       291   12 Jun 2027 07:22:13.179   12 Jun 2027 07:22:13.643             0.464           195.500
       292   12 Jun 2027 07:23:13.374   12 Jun 2027 07:23:15.480             2.106          1035.687
       293   12 Jun 2027 07:24:15.753   12 Jun 2027 07:24:19.943             4.190           870.719
       294   12 Jun 2027 07:24:51.813   12 Jun 2027 07:24:54.550             2.737           823.250
       295   12 Jun 2027 08:55:18.576   12 Jun 2027 08:55:31.380            12.804          5006.313
       296   12 Jun 2027 08:56:35.802   12 Jun 2027 08:56:40.633             4.831          1194.656
       297   12 Jun 2027 08:56:53.609   12 Jun 2027 08:56:54.841             1.232           119.375
       298   12 Jun 2027 08:57:25.786   12 Jun 2027 08:57:29.290             3.504           967.031
       299   12 Jun 2027 08:58:42.294   12 Jun 2027 08:58:51.494             9.200          1679.719
       300   12 Jun 2027 08:59:35.356   12 Jun 2027 08:59:38.022             2.666          1200.563
       301   12 Jun 2027 08:59:45.929   12 Jun 2027 08:59:47.135             1.206           179.625
       302   12 Jun 2027 09:01:24.645   12 Jun 2027 09:01:31.024             6.379          2238.531
       303   12 Jun 2027 09:01:32.644   12 Jun 2027 09:01:33.806             1.162            50.625
       304   12 Jun 2027 10:33:17.592   12 Jun 2027 10:33:31.386            13.794          5884.344
       305   12 Jun 2027 10:35:09.995   12 Jun 2027 10:35:12.013             2.018           618.000
       306   12 Jun 2027 10:35:15.181   12 Jun 2027 10:35:17.840             2.659            67.781
       307   12 Jun 2027 10:35:59.005   12 Jun 2027 10:36:01.775             2.770           735.562
       308   12 Jun 2027 10:36:46.605   12 Jun 2027 10:36:49.256             2.651          1174.406
       309   12 Jun 2027 10:36:57.963   12 Jun 2027 10:36:58.643             0.680            16.156
       310   13 Jun 2027 04:18:05.402   13 Jun 2027 04:18:35.133            29.731         14865.500
       311   13 Jun 2027 04:20:06.102   13 Jun 2027 04:20:29.431            23.329         11664.500
       312   13 Jun 2027 04:21:38.723   13 Jun 2027 04:21:38.723             0.000             0.000
       313   13 Jun 2027 04:21:56.921   13 Jun 2027 04:22:30.003            33.082         16541.000
       314   13 Jun 2027 05:53:09.399   13 Jun 2027 05:54:38.174            88.775         44387.500
       315   13 Jun 2027 05:55:14.194   13 Jun 2027 05:55:15.526             1.332           666.000
       316   13 Jun 2027 05:56:27.705   13 Jun 2027 05:56:47.444            19.739          9869.500
       317   13 Jun 2027 05:56:54.674   13 Jun 2027 05:56:54.879             0.205           102.500
       318   13 Jun 2027 05:58:06.220   13 Jun 2027 05:58:12.590             6.370          3185.000
       319   13 Jun 2027 05:58:45.599   13 Jun 2027 05:59:00.540            14.941          7470.500
       320   13 Jun 2027 05:59:42.728   13 Jun 2027 05:59:59.371            16.643          8321.500
       321   13 Jun 2027 06:00:11.236   13 Jun 2027 06:00:14.014             2.778          1389.000
       322   13 Jun 2027 06:01:04.348   13 Jun 2027 06:01:25.701            21.353         10676.500
       323   13 Jun 2027 07:30:31.688   13 Jun 2027 07:31:41.876            70.188         33966.844
       324   13 Jun 2027 07:33:04.997   13 Jun 2027 07:33:08.316             3.319          1163.937
       325   13 Jun 2027 07:33:28.498   13 Jun 2027 07:33:30.555             2.057           335.813
       326   13 Jun 2027 07:33:31.462   13 Jun 2027 07:33:31.462             0.000             0.000
       327   13 Jun 2027 07:34:10.328   13 Jun 2027 07:34:14.918             4.590          1242.906
       328   13 Jun 2027 07:35:46.241   13 Jun 2027 07:35:52.418             6.177          1860.281
       329   13 Jun 2027 07:36:18.504   13 Jun 2027 07:36:22.190             3.686           310.094
       330   13 Jun 2027 09:07:20.103   13 Jun 2027 09:07:33.620            13.517          6067.656
       331   13 Jun 2027 09:09:34.930   13 Jun 2027 09:09:40.566             5.636          2028.781
       332   13 Jun 2027 09:10:51.012   13 Jun 2027 09:10:53.577             2.565          1051.969
       333   13 Jun 2027 09:11:14.275   13 Jun 2027 09:11:15.489             1.214           416.000
       334   13 Jun 2027 09:11:21.763   13 Jun 2027 09:11:26.484             4.721           106.219
       335   13 Jun 2027 09:12:14.463   13 Jun 2027 09:12:19.437             4.974          1049.594
       336   13 Jun 2027 09:12:42.440   13 Jun 2027 09:12:43.174             0.734           283.063
       337   13 Jun 2027 09:13:32.425   13 Jun 2027 09:13:33.593             1.168           396.094
       338   13 Jun 2027 10:45:17.224   13 Jun 2027 10:45:29.855            12.631          5957.406
       339   13 Jun 2027 10:47:14.055   13 Jun 2027 10:47:19.299             5.244          2560.688
       340   13 Jun 2027 10:48:39.178   13 Jun 2027 10:48:40.411             1.233           526.000
       341   13 Jun 2027 10:49:05.990   13 Jun 2027 10:49:10.754             4.764           468.875
