uniorb/output/strategy_4/Camera/Camera_KinoSat_110602.txt

KinoSat_110602
-------------------------
    Access    *     Start Time (UTCG)     *     Stop Time (UTCG)  *   Duration (s) *   Data (Mbytes)
         1   01 Jun 2027 04:10:56.361   01 Jun 2027 04:11:51.458            55.097         27548.500
         2   01 Jun 2027 04:12:26.956   01 Jun 2027 04:13:05.682            38.726         19363.000
         3   01 Jun 2027 04:13:07.901   01 Jun 2027 04:13:21.893            13.992          6996.000
         4   01 Jun 2027 05:47:21.691   01 Jun 2027 05:49:39.095           137.404         68702.000
         5   01 Jun 2027 05:50:08.280   01 Jun 2027 05:50:22.707            14.427          7213.500
         6   01 Jun 2027 05:51:06.835   01 Jun 2027 05:51:26.787            19.952          9976.000
         7   01 Jun 2027 07:24:27.800   01 Jun 2027 07:25:31.438            63.638         31819.000
         8   01 Jun 2027 07:25:43.799   01 Jun 2027 07:27:15.790            91.991         45995.500
         9   01 Jun 2027 07:28:02.235   01 Jun 2027 07:28:11.523             9.288          4644.000
        10   01 Jun 2027 07:30:42.007   01 Jun 2027 07:30:44.787             2.780          1390.000
        11   01 Jun 2027 09:02:23.002   01 Jun 2027 09:05:35.002           192.000         96000.000
        12   01 Jun 2027 09:06:06.760   01 Jun 2027 09:06:18.323            11.563          5781.500
        13   01 Jun 2027 10:35:28.805   01 Jun 2027 10:37:16.113           107.308         53654.000
        14   01 Jun 2027 10:37:30.385   01 Jun 2027 10:37:48.771            18.386          9193.000
        15   01 Jun 2027 10:37:59.439   01 Jun 2027 10:38:33.909            34.470         17235.000
        16   01 Jun 2027 10:41:30.812   01 Jun 2027 10:41:35.971             5.159          2579.500
        17   02 Jun 2027 04:22:05.932   02 Jun 2027 04:23:43.475            97.543         48771.500
        18   02 Jun 2027 04:23:55.130   02 Jun 2027 04:23:55.130             0.000             0.000
        19   02 Jun 2027 04:24:06.044   02 Jun 2027 04:24:06.290             0.246           123.000
        20   02 Jun 2027 04:24:13.167   02 Jun 2027 04:24:13.502             0.335           167.500
        21   02 Jun 2027 04:24:41.171   02 Jun 2027 04:25:02.295            21.124         10562.000
        22   02 Jun 2027 04:27:14.575   02 Jun 2027 04:27:19.391             4.816          2408.000
        23   02 Jun 2027 04:27:59.213   02 Jun 2027 04:28:04.334             5.121          2560.500
        24   02 Jun 2027 04:28:14.092   02 Jun 2027 04:28:24.477            10.385          5192.500
        25   02 Jun 2027 04:30:05.952   02 Jun 2027 04:30:10.643             4.691          2345.500
        26   02 Jun 2027 04:30:17.692   02 Jun 2027 04:30:32.673            14.981          7490.500
        27   02 Jun 2027 05:59:37.426   02 Jun 2027 06:02:01.667           144.241         72120.500
        28   02 Jun 2027 06:02:11.465   02 Jun 2027 06:02:34.000            22.535         11267.500
        29   02 Jun 2027 06:02:54.803   02 Jun 2027 06:02:54.803             0.000             0.000
        30   02 Jun 2027 06:04:00.768   02 Jun 2027 06:04:21.458            20.690         10345.000
        31   02 Jun 2027 06:05:52.557   02 Jun 2027 06:06:27.446            34.889         17444.500
        32   02 Jun 2027 07:36:23.218   02 Jun 2027 07:36:53.718            30.500         15250.000
        33   02 Jun 2027 07:37:17.596   02 Jun 2027 07:39:31.402           133.806         66903.000
        34   02 Jun 2027 07:40:34.657   02 Jun 2027 07:40:43.926             9.269          4634.500
        35   02 Jun 2027 07:41:19.019   02 Jun 2027 07:41:26.116             7.097          3548.500
        36   02 Jun 2027 07:41:51.402   02 Jun 2027 07:42:34.500            43.098         21549.000
        37   02 Jun 2027 07:42:38.460   02 Jun 2027 07:42:43.898             5.438          2719.000
        38   02 Jun 2027 09:14:22.734   02 Jun 2027 09:16:27.586           124.852         61411.562
        39   02 Jun 2027 09:16:39.837   02 Jun 2027 09:16:41.614             1.777           141.500
        40   02 Jun 2027 09:18:18.742   02 Jun 2027 09:18:19.238             0.496           114.406
        41   02 Jun 2027 10:47:59.392   02 Jun 2027 10:48:03.920             4.528          1830.812
        42   03 Jun 2027 03:00:00.000   03 Jun 2027 03:00:02.969             2.969          1484.500
        43   03 Jun 2027 03:01:28.282   03 Jun 2027 03:01:54.386            26.104         13052.000
        44   03 Jun 2027 03:02:58.425   03 Jun 2027 03:02:58.425             0.000             0.000
        45   03 Jun 2027 04:33:36.579   03 Jun 2027 04:35:12.195            95.616         47808.000
        46   03 Jun 2027 04:35:56.643   03 Jun 2027 04:36:36.340            39.697         19848.500
        47   03 Jun 2027 04:36:48.022   03 Jun 2027 04:36:54.226             6.204          3102.000
        48   03 Jun 2027 04:38:27.268   03 Jun 2027 04:38:37.100             9.832          4916.000
        49   03 Jun 2027 04:38:47.828   03 Jun 2027 04:39:08.249            20.421         10210.500
        50   03 Jun 2027 04:42:01.955   03 Jun 2027 04:42:36.920            34.965         17482.500
        51   03 Jun 2027 06:11:32.215   03 Jun 2027 06:13:02.081            89.866         44484.719
        52   03 Jun 2027 06:13:49.222   03 Jun 2027 06:13:56.103             6.881          1252.312
        53   03 Jun 2027 06:14:06.813   03 Jun 2027 06:14:11.038             4.225           106.813
        54   03 Jun 2027 06:14:39.321   03 Jun 2027 06:14:41.244             1.923           769.469
        55   03 Jun 2027 06:16:02.018   03 Jun 2027 06:16:07.270             5.252          2149.719
        56   03 Jun 2027 06:16:36.758   03 Jun 2027 06:16:36.758             0.000             0.000
        57   03 Jun 2027 06:16:57.906   03 Jun 2027 06:17:03.357             5.451          1467.250
        58   03 Jun 2027 07:48:19.635   03 Jun 2027 07:48:22.341             2.706          1304.281
        59   03 Jun 2027 07:51:38.342   03 Jun 2027 07:51:47.070             8.728           683.313
        60   03 Jun 2027 07:52:09.130   03 Jun 2027 07:52:12.457             3.327           689.375
        61   03 Jun 2027 07:52:56.025   03 Jun 2027 07:52:59.294             3.269           797.219
        62   03 Jun 2027 07:53:38.912   03 Jun 2027 07:53:39.864             0.952           412.469
        63   03 Jun 2027 09:26:10.050   03 Jun 2027 09:26:17.905             7.855          3239.094
        64   03 Jun 2027 11:02:08.619   03 Jun 2027 11:02:10.827             2.208           544.781
        65   04 Jun 2027 03:12:42.173   04 Jun 2027 03:12:55.798            13.625          6812.500
        66   04 Jun 2027 03:13:56.085   04 Jun 2027 03:13:56.085             0.000             0.000
        67   04 Jun 2027 04:46:29.931   04 Jun 2027 04:49:30.820           180.889         90444.500
        68   04 Jun 2027 04:53:45.591   04 Jun 2027 04:54:40.708            55.117         27558.500
        69   04 Jun 2027 04:55:00.643   04 Jun 2027 04:55:01.454             0.811           405.500
        70   04 Jun 2027 06:23:43.862   04 Jun 2027 06:24:41.141            57.279         27101.844
        71   04 Jun 2027 06:26:04.824   04 Jun 2027 06:26:10.858             6.034           337.844
        72   04 Jun 2027 06:26:17.952   04 Jun 2027 06:26:21.249             3.297           221.688
        73   04 Jun 2027 06:27:40.278   04 Jun 2027 06:27:43.636             3.358          1655.469
        74   04 Jun 2027 06:27:59.217   04 Jun 2027 06:28:02.419             3.202           125.281
        75   04 Jun 2027 06:28:07.330   04 Jun 2027 06:28:08.793             1.463            43.156
        76   04 Jun 2027 08:00:56.348   04 Jun 2027 08:00:58.318             1.970           226.000
        77   04 Jun 2027 08:04:43.496   04 Jun 2027 08:04:46.959             3.463           515.312
        78   04 Jun 2027 09:37:39.073   04 Jun 2027 09:37:44.815             5.742          2419.125
        79   04 Jun 2027 09:39:10.094   04 Jun 2027 09:39:18.056             7.962          1831.312
        80   04 Jun 2027 11:12:50.844   04 Jun 2027 11:12:55.020             4.176           526.094
        81   05 Jun 2027 03:24:56.030   05 Jun 2027 03:25:01.734             5.704          2852.000
        82   05 Jun 2027 03:26:14.711   05 Jun 2027 03:26:21.642             6.931          3465.500
        83   05 Jun 2027 04:59:01.132   05 Jun 2027 04:59:21.761            20.629         10314.500
        84   05 Jun 2027 05:00:02.419   05 Jun 2027 05:02:02.628           120.209         60104.500
        85   05 Jun 2027 05:03:28.357   05 Jun 2027 05:04:31.598            63.241         31620.500
        86   05 Jun 2027 05:04:52.171   05 Jun 2027 05:04:59.656             7.485          3742.500
        87   05 Jun 2027 05:05:31.260   05 Jun 2027 05:05:41.609            10.349          5174.500
        88   05 Jun 2027 05:06:37.665   05 Jun 2027 05:06:59.169            21.504         10752.000
        89   05 Jun 2027 06:36:05.349   05 Jun 2027 06:36:56.225            50.876         24371.875
        90   05 Jun 2027 08:13:03.020   05 Jun 2027 08:13:08.410             5.390          1771.125
        91   05 Jun 2027 08:16:24.084   05 Jun 2027 08:16:27.497             3.413           324.188
        92   05 Jun 2027 08:16:50.262   05 Jun 2027 08:16:56.589             6.327           609.438
        93   05 Jun 2027 09:49:48.982   05 Jun 2027 09:49:59.517            10.535          3921.625
        94   05 Jun 2027 11:28:00.523   05 Jun 2027 11:28:04.471             3.948          1020.687
        95   06 Jun 2027 03:37:02.796   06 Jun 2027 03:37:12.365             9.569          4784.500
        96   06 Jun 2027 03:38:07.715   06 Jun 2027 03:38:11.334             3.619          1809.500
        97   06 Jun 2027 03:39:47.011   06 Jun 2027 03:39:47.011             0.000             0.000
        98   06 Jun 2027 03:40:05.981   06 Jun 2027 03:40:19.834            13.853          6926.500
        99   06 Jun 2027 05:12:10.497   06 Jun 2027 05:12:41.602            31.105         15552.500
       100   06 Jun 2027 05:13:30.309   06 Jun 2027 05:14:07.387            37.078         18539.000
       101   06 Jun 2027 05:14:13.661   06 Jun 2027 05:15:12.312            58.651         29325.500
       102   06 Jun 2027 05:16:13.324   06 Jun 2027 05:17:29.869            76.545         38272.500
       103   06 Jun 2027 05:18:36.978   06 Jun 2027 05:18:51.842            14.864          7432.000
       104   06 Jun 2027 05:18:52.632   06 Jun 2027 05:18:59.856             7.224          3612.000
       105   06 Jun 2027 06:48:31.496   06 Jun 2027 06:49:39.862            68.366         33146.156
       106   06 Jun 2027 06:54:53.209   06 Jun 2027 06:54:53.565             0.356            61.625
       107   06 Jun 2027 08:26:04.644   06 Jun 2027 08:26:15.476            10.832          4182.469
       108   06 Jun 2027 08:27:50.811   06 Jun 2027 08:27:52.040             1.229           568.344
       109   06 Jun 2027 08:28:17.936   06 Jun 2027 08:28:20.486             2.550           455.875
       110   06 Jun 2027 08:28:39.416   06 Jun 2027 08:28:40.855             1.439           552.969
       111   06 Jun 2027 08:29:49.232   06 Jun 2027 08:29:50.972             1.740           261.375
       112   06 Jun 2027 10:02:08.447   06 Jun 2027 10:02:21.408            12.961          5517.688
       113   06 Jun 2027 10:04:21.009   06 Jun 2027 10:04:25.715             4.706           553.813
       114   07 Jun 2027 03:49:12.081   07 Jun 2027 03:49:34.136            22.055         11027.500
       115   07 Jun 2027 05:24:22.074   07 Jun 2027 05:27:12.703           170.629         85314.500
       116   07 Jun 2027 05:30:30.823   07 Jun 2027 05:30:48.611            17.788          8894.000
       117   07 Jun 2027 07:00:39.339   07 Jun 2027 07:02:30.197           110.858         54771.344
       118   07 Jun 2027 07:03:29.685   07 Jun 2027 07:03:31.334             1.649            75.719
       119   07 Jun 2027 07:05:05.762   07 Jun 2027 07:05:07.781             2.019          1009.500
       120   07 Jun 2027 07:05:15.375   07 Jun 2027 07:05:19.067             3.692          1311.781
       121   07 Jun 2027 08:38:11.049   07 Jun 2027 08:38:24.913            13.864          4599.062
       122   07 Jun 2027 08:40:05.142   07 Jun 2027 08:40:11.944             6.802           401.219
       123   07 Jun 2027 08:40:22.659   07 Jun 2027 08:40:24.115             1.456           182.469
       124   07 Jun 2027 08:40:46.189   07 Jun 2027 08:40:50.452             4.263           530.688
       125   07 Jun 2027 08:41:32.284   07 Jun 2027 08:41:34.362             2.078           973.813
       126   07 Jun 2027 08:41:45.263   07 Jun 2027 08:41:48.883             3.620           241.719
       127   07 Jun 2027 10:14:11.843   07 Jun 2027 10:14:27.267            15.424          6914.750
       128   07 Jun 2027 10:16:31.555   07 Jun 2027 10:16:33.396             1.841           856.000
       129   08 Jun 2027 04:00:55.893   08 Jun 2027 04:01:22.793            26.900         13450.000
       130   08 Jun 2027 04:02:28.979   08 Jun 2027 04:02:37.193             8.214          4107.000
       131   08 Jun 2027 04:04:38.250   08 Jun 2027 04:04:38.250             0.000             0.000
       132   08 Jun 2027 05:35:49.925   08 Jun 2027 05:38:59.555           189.630         94815.000
       133   08 Jun 2027 05:42:31.313   08 Jun 2027 05:43:08.184            36.871         18435.500
       134   08 Jun 2027 07:12:22.698   08 Jun 2027 07:13:27.597            64.899         29896.469
       135   08 Jun 2027 07:14:50.502   08 Jun 2027 07:14:55.147             4.645          1624.219
       136   08 Jun 2027 07:16:12.866   08 Jun 2027 07:16:20.223             7.357          1366.969
       137   08 Jun 2027 07:17:18.110   08 Jun 2027 07:17:25.971             7.861           488.125
       138   08 Jun 2027 07:17:56.036   08 Jun 2027 07:18:02.825             6.789           792.281
       139   08 Jun 2027 08:50:39.938   08 Jun 2027 08:50:50.640            10.702          4673.063
       140   08 Jun 2027 08:51:03.344   08 Jun 2027 08:51:06.161             2.817            42.875
       141   08 Jun 2027 08:51:52.494   08 Jun 2027 08:51:52.781             0.287            75.625
       142   08 Jun 2027 08:52:36.050   08 Jun 2027 08:52:39.172             3.122           587.438
       143   08 Jun 2027 08:53:07.008   08 Jun 2027 08:53:08.257             1.249           516.469
       144   08 Jun 2027 08:53:35.539   08 Jun 2027 08:53:37.866             2.327           351.875
       145   08 Jun 2027 10:26:01.101   08 Jun 2027 10:26:16.025            14.924          5884.375
       146   09 Jun 2027 04:11:10.343   09 Jun 2027 04:11:44.640            34.297         17148.500
       147   09 Jun 2027 04:12:04.587   09 Jun 2027 04:12:06.106             1.519           759.500
       148   09 Jun 2027 04:12:41.357   09 Jun 2027 04:12:47.209             5.852          2926.000
       149   09 Jun 2027 04:16:25.733   09 Jun 2027 04:16:26.362             0.629           314.500
       150   09 Jun 2027 04:16:41.604   09 Jun 2027 04:16:44.282             2.678          1339.000
       151   09 Jun 2027 04:17:09.777   09 Jun 2027 04:17:13.456             3.679          1839.500
       152   09 Jun 2027 05:47:36.608   09 Jun 2027 05:50:38.125           181.517         90758.500
       153   09 Jun 2027 05:52:14.406   09 Jun 2027 05:52:14.406             0.000             0.000
       154   09 Jun 2027 05:53:03.765   09 Jun 2027 05:53:09.246             5.481          2740.500
       155   09 Jun 2027 05:53:44.318   09 Jun 2027 05:54:06.547            22.229         11114.500
       156   09 Jun 2027 05:54:20.146   09 Jun 2027 05:54:30.861            10.715          5357.500
       157   09 Jun 2027 05:55:08.178   09 Jun 2027 05:55:08.422             0.244           122.000
       158   09 Jun 2027 07:24:43.022   09 Jun 2027 07:25:49.667            66.645         32748.782
       159   09 Jun 2027 07:28:05.836   09 Jun 2027 07:28:12.170             6.334          2361.000
       160   09 Jun 2027 07:28:59.073   09 Jun 2027 07:29:03.154             4.081          1178.937
       161   09 Jun 2027 07:29:26.998   09 Jun 2027 07:29:28.463             1.465           458.281
       162   09 Jun 2027 07:30:46.139   09 Jun 2027 07:30:46.732             0.593           104.469
       163   09 Jun 2027 09:02:37.719   09 Jun 2027 09:02:53.093            15.374          6146.063
       164   09 Jun 2027 09:04:47.129   09 Jun 2027 09:04:49.278             2.149           942.563
       165   09 Jun 2027 09:06:32.670   09 Jun 2027 09:06:33.478             0.808           217.000
       166   09 Jun 2027 10:35:43.754   09 Jun 2027 10:36:02.963            19.209          4721.250
       167   09 Jun 2027 10:40:25.493   09 Jun 2027 10:40:30.856             5.363           594.094
       168   10 Jun 2027 04:22:19.767   10 Jun 2027 04:23:58.308            98.541         49270.500
       169   10 Jun 2027 04:24:56.395   10 Jun 2027 04:24:56.395             0.000             0.000
       170   10 Jun 2027 04:25:42.612   10 Jun 2027 04:25:46.547             3.935          1967.500
       171   10 Jun 2027 04:28:37.314   10 Jun 2027 04:29:14.965            37.651         18825.500
       172   10 Jun 2027 04:30:20.354   10 Jun 2027 04:30:25.462             5.108          2554.000
       173   10 Jun 2027 04:30:32.495   10 Jun 2027 04:30:47.330            14.835          7417.500
       174   10 Jun 2027 05:59:51.911   10 Jun 2027 06:01:56.257           124.346         62173.000
       175   10 Jun 2027 06:02:07.517   10 Jun 2027 06:02:44.406            36.889         18444.500
       176   10 Jun 2027 06:06:17.932   10 Jun 2027 06:06:41.866            23.934         11967.000
       177   10 Jun 2027 07:36:37.970   10 Jun 2027 07:36:52.969            14.999          5613.031
       178   10 Jun 2027 07:40:40.179   10 Jun 2027 07:40:43.566             3.387           954.906
       179   10 Jun 2027 07:40:58.786   10 Jun 2027 07:41:01.453             2.667           376.219
       180   10 Jun 2027 07:41:53.836   10 Jun 2027 07:41:57.110             3.274           597.875
       181   10 Jun 2027 09:14:37.735   10 Jun 2027 09:14:48.841            11.106          5176.844
       182   10 Jun 2027 09:15:22.314   10 Jun 2027 09:15:24.313             1.999           203.063
       183   10 Jun 2027 09:17:40.188   10 Jun 2027 09:17:44.753             4.565          1361.281
       184   10 Jun 2027 09:18:33.703   10 Jun 2027 09:18:34.302             0.599           114.938
       185   10 Jun 2027 10:48:14.042   10 Jun 2027 10:48:22.406             8.364          1812.406
       186   11 Jun 2027 03:00:00.000   11 Jun 2027 03:00:16.050            16.050          8025.000
       187   11 Jun 2027 03:02:56.919   11 Jun 2027 03:03:02.731             5.812          2906.000
       188   11 Jun 2027 03:03:38.940   11 Jun 2027 03:03:49.892            10.952          5476.000
       189   11 Jun 2027 03:04:15.165   11 Jun 2027 03:04:26.789            11.624          5812.000
       190   11 Jun 2027 04:33:50.811   11 Jun 2027 04:36:07.512           136.701         68350.500
       191   11 Jun 2027 04:36:56.265   11 Jun 2027 04:37:00.408             4.143          2071.500
       192   11 Jun 2027 04:38:41.689   11 Jun 2027 04:38:51.849            10.160          5080.000
       193   11 Jun 2027 04:39:02.604   11 Jun 2027 04:39:07.541             4.937          2468.500
       194   11 Jun 2027 04:39:46.562   11 Jun 2027 04:39:51.367             4.805          2402.500
       195   11 Jun 2027 04:40:43.821   11 Jun 2027 04:41:01.303            17.482          8741.000
       196   11 Jun 2027 04:42:16.637   11 Jun 2027 04:42:24.458             7.821          3910.500
       197   11 Jun 2027 04:42:43.271   11 Jun 2027 04:42:59.064            15.793          7896.500
       198   11 Jun 2027 06:11:46.796   11 Jun 2027 06:13:03.247            76.451         38204.656
       199   11 Jun 2027 06:13:29.236   11 Jun 2027 06:13:31.339             2.103           133.531
       200   11 Jun 2027 06:14:19.154   11 Jun 2027 06:14:21.354             2.200           453.063
       201   11 Jun 2027 06:14:32.135   11 Jun 2027 06:14:33.118             0.983           336.906
       202   11 Jun 2027 06:14:54.976   11 Jun 2027 06:14:54.976             0.000             0.000
       203   11 Jun 2027 06:15:08.584   11 Jun 2027 06:15:11.725             3.141           950.937
       204   11 Jun 2027 06:16:22.254   11 Jun 2027 06:16:26.687             4.433           165.469
       205   11 Jun 2027 06:16:52.588   11 Jun 2027 06:16:54.607             2.019           809.406
       206   11 Jun 2027 06:17:34.220   11 Jun 2027 06:17:35.987             1.767           659.875
       207   11 Jun 2027 07:48:34.562   11 Jun 2027 07:48:38.769             4.207           762.281
       208   11 Jun 2027 07:52:05.487   11 Jun 2027 07:52:07.968             2.481           638.781
       209   11 Jun 2027 07:53:25.223   11 Jun 2027 07:53:29.536             4.313          1916.531
       210   11 Jun 2027 07:54:12.051   11 Jun 2027 07:54:13.670             1.619           809.500
       211   11 Jun 2027 07:54:22.545   11 Jun 2027 07:54:24.617             2.072           519.094
       212   11 Jun 2027 09:26:24.838   11 Jun 2027 09:26:31.529             6.691          2950.594
       213   11 Jun 2027 11:02:23.558   11 Jun 2027 11:02:29.149             5.591           887.875
       214   12 Jun 2027 03:12:56.852   12 Jun 2027 03:12:59.736             2.884          1442.000
       215   12 Jun 2027 03:13:12.366   12 Jun 2027 03:13:36.838            24.472         12236.000
       216   12 Jun 2027 04:46:44.360   12 Jun 2027 04:49:56.087           191.727         95863.500
       217   12 Jun 2027 04:53:59.901   12 Jun 2027 04:54:34.163            34.262         17131.000
       218   12 Jun 2027 04:55:15.234   12 Jun 2027 04:55:16.101             0.867           433.500
       219   12 Jun 2027 06:23:58.881   12 Jun 2027 06:24:59.819            60.938         29641.593
       220   12 Jun 2027 06:26:07.616   12 Jun 2027 06:26:15.161             7.545          1511.000
       221   12 Jun 2027 06:26:26.370   12 Jun 2027 06:26:28.063             1.693           181.281
       222   12 Jun 2027 06:27:03.044   12 Jun 2027 06:27:05.133             2.089           864.500
       223   12 Jun 2027 06:28:22.360   12 Jun 2027 06:28:24.471             2.111           257.062
       224   12 Jun 2027 06:28:45.595   12 Jun 2027 06:28:50.462             4.867           633.281
       225   12 Jun 2027 08:01:11.137   12 Jun 2027 08:01:15.206             4.069          1490.281
       226   12 Jun 2027 08:04:14.892   12 Jun 2027 08:04:26.605            11.713          1637.969
       227   12 Jun 2027 08:04:57.092   12 Jun 2027 08:04:59.124             2.032           952.719
       228   12 Jun 2027 09:37:54.014   12 Jun 2027 09:38:00.150             6.136          2621.094
       229   12 Jun 2027 11:13:07.446   12 Jun 2027 11:13:09.106             1.660           204.000
       230   13 Jun 2027 03:25:11.135   13 Jun 2027 03:25:33.910            22.775         11387.500
       231   13 Jun 2027 03:26:52.592   13 Jun 2027 03:26:52.592             0.000             0.000
       232   13 Jun 2027 04:57:30.187   13 Jun 2027 04:58:03.557            33.370         16685.000
       233   13 Jun 2027 04:59:15.759   13 Jun 2027 04:59:34.657            18.898          9449.000
       234   13 Jun 2027 05:00:11.657   13 Jun 2027 05:01:12.329            60.672         30336.000
       235   13 Jun 2027 05:03:49.260   13 Jun 2027 05:05:15.135            85.875         42937.500
       236   13 Jun 2027 05:05:45.148   13 Jun 2027 05:05:56.610            11.462          5731.000
       237   13 Jun 2027 05:06:14.419   13 Jun 2027 05:06:18.902             4.483          2241.500
       238   13 Jun 2027 05:07:00.450   13 Jun 2027 05:07:13.736            13.286          6643.000
       239   13 Jun 2027 06:36:19.838   13 Jun 2027 06:37:24.047            64.209         31644.374
       240   13 Jun 2027 08:13:17.727   13 Jun 2027 08:13:23.849             6.122          1061.469
       241   13 Jun 2027 08:16:52.339   13 Jun 2027 08:16:55.753             3.414           426.219
       242   13 Jun 2027 08:18:05.334   13 Jun 2027 08:18:06.160             0.826           409.813
       243   13 Jun 2027 09:50:03.413   13 Jun 2027 09:50:11.273             7.860          3310.781
       244   13 Jun 2027 09:54:10.590   13 Jun 2027 09:54:14.750             4.160           834.906
       245   13 Jun 2027 11:28:14.988   13 Jun 2027 11:28:17.709             2.721          1015.625
