uniorb/output/strategy_4/Camera/Camera_KinoSat_110808.txt

KinoSat_110808
-------------------------
    Access    *     Start Time (UTCG)     *     Stop Time (UTCG)  *   Duration (s) *   Data (Mbytes)
         1   01 Jun 2027 03:06:20.817   01 Jun 2027 03:07:14.108            53.291         26645.500
         2   01 Jun 2027 03:08:01.172   01 Jun 2027 03:08:01.172             0.000             0.000
         3   01 Jun 2027 04:42:49.844   01 Jun 2027 04:44:58.744           128.900         64450.000
         4   01 Jun 2027 06:17:54.840   01 Jun 2027 06:19:25.482            90.642         45321.000
         5   01 Jun 2027 06:20:44.539   01 Jun 2027 06:20:51.347             6.808          3404.000
         6   01 Jun 2027 06:22:54.263   01 Jun 2027 06:23:22.079            27.816         13908.000
         7   01 Jun 2027 06:23:26.879   01 Jun 2027 06:23:31.559             4.680          2340.000
         8   01 Jun 2027 06:24:10.521   01 Jun 2027 06:24:14.210             3.689          1844.500
         9   01 Jun 2027 06:24:33.069   01 Jun 2027 06:24:37.607             4.538          2269.000
        10   01 Jun 2027 07:54:16.838   01 Jun 2027 07:56:22.469           125.631         62815.500
        11   01 Jun 2027 07:56:53.852   01 Jun 2027 07:57:21.536            27.684         13842.000
        12   01 Jun 2027 09:31:46.999   01 Jun 2027 09:34:18.042           151.043         75521.500
        13   01 Jun 2027 09:35:31.114   01 Jun 2027 09:36:13.132            42.018         21009.000
        14   01 Jun 2027 11:07:51.708   01 Jun 2027 11:10:26.664           154.956         77478.000
        15   01 Jun 2027 11:12:03.800   01 Jun 2027 11:12:06.175             2.375          1187.500
        16   02 Jun 2027 03:18:16.657   02 Jun 2027 03:18:40.664            24.007         12003.500
        17   02 Jun 2027 03:18:59.795   02 Jun 2027 03:19:05.532             5.737          2868.500
        18   02 Jun 2027 03:21:19.933   02 Jun 2027 03:21:19.933             0.000             0.000
        19   02 Jun 2027 04:54:54.384   02 Jun 2027 04:57:34.882           160.498         80249.000
        20   02 Jun 2027 06:30:04.880   02 Jun 2027 06:32:37.172           152.292         76146.000
        21   02 Jun 2027 06:33:18.205   02 Jun 2027 06:34:36.912            78.707         39353.500
        22   02 Jun 2027 06:36:25.448   02 Jun 2027 06:36:41.116            15.668          7834.000
        23   02 Jun 2027 08:06:19.191   02 Jun 2027 08:09:39.950           200.759        100379.500
        24   02 Jun 2027 08:10:12.562   02 Jun 2027 08:10:51.556            38.994         18094.531
        25   02 Jun 2027 09:43:52.610   02 Jun 2027 09:44:22.697            30.087         12653.906
        26   02 Jun 2027 09:45:00.498   02 Jun 2027 09:45:01.804             1.306           272.687
        27   02 Jun 2027 09:47:19.671   02 Jun 2027 09:47:24.250             4.579          2109.719
        28   02 Jun 2027 09:47:27.987   02 Jun 2027 09:47:31.241             3.254            90.812
        29   02 Jun 2027 09:47:51.510   02 Jun 2027 09:47:52.926             1.416            33.094
        30   02 Jun 2027 09:48:04.767   02 Jun 2027 09:48:05.325             0.558           181.469
        31   02 Jun 2027 09:48:22.001   02 Jun 2027 09:48:24.049             2.048           520.344
        32   02 Jun 2027 11:19:53.925   02 Jun 2027 11:20:08.890            14.965          7211.406
        33   02 Jun 2027 11:23:42.333   02 Jun 2027 11:23:47.220             4.887          2283.938
        34   03 Jun 2027 03:30:52.314   03 Jun 2027 03:30:55.851             3.537          1768.500
        35   03 Jun 2027 03:31:10.752   03 Jun 2027 03:31:10.752             0.000             0.000
        36   03 Jun 2027 03:31:46.993   03 Jun 2027 03:31:52.571             5.578          2789.000
        37   03 Jun 2027 03:32:01.143   03 Jun 2027 03:32:16.866            15.723          7861.500
        38   03 Jun 2027 03:33:11.812   03 Jun 2027 03:33:11.812             0.000             0.000
        39   03 Jun 2027 05:06:38.150   03 Jun 2027 05:09:56.303           198.153         99076.500
        40   03 Jun 2027 05:10:45.940   03 Jun 2027 05:10:52.054             6.114          3057.000
        41   03 Jun 2027 06:41:29.091   03 Jun 2027 06:42:56.921            87.830         43876.969
        42   03 Jun 2027 06:44:38.377   03 Jun 2027 06:44:40.365             1.988            47.062
        43   03 Jun 2027 06:44:54.446   03 Jun 2027 06:44:54.446             0.000             0.000
        44   03 Jun 2027 06:45:18.617   03 Jun 2027 06:45:21.745             3.128           825.187
        45   03 Jun 2027 06:46:36.583   03 Jun 2027 06:46:40.440             3.857          1529.656
        46   03 Jun 2027 06:47:30.857   03 Jun 2027 06:47:33.849             2.992          1131.719
        47   03 Jun 2027 06:48:15.297   03 Jun 2027 06:48:19.028             3.731          1131.875
        48   03 Jun 2027 08:18:04.921   03 Jun 2027 08:18:08.247             3.326           781.750
        49   03 Jun 2027 08:19:48.178   03 Jun 2027 08:19:51.705             3.527           474.437
        50   03 Jun 2027 08:24:20.095   03 Jun 2027 08:24:24.017             3.922           882.813
        51   03 Jun 2027 09:56:22.592   03 Jun 2027 09:56:37.261            14.669          7011.656
        52   03 Jun 2027 09:57:47.902   03 Jun 2027 09:57:53.426             5.524          1963.313
        53   03 Jun 2027 09:59:30.171   03 Jun 2027 09:59:36.760             6.589          2336.375
        54   03 Jun 2027 09:59:54.418   03 Jun 2027 09:59:58.890             4.472           551.812
        55   03 Jun 2027 11:29:43.219   03 Jun 2027 11:29:53.026             9.807          4880.875
        56   04 Jun 2027 03:41:31.235   04 Jun 2027 03:41:38.718             7.483          3741.500
        57   04 Jun 2027 03:42:13.413   04 Jun 2027 03:42:27.717            14.304          7152.000
        58   04 Jun 2027 03:43:06.687   04 Jun 2027 03:43:18.048            11.361          5680.500
        59   04 Jun 2027 05:16:50.482   04 Jun 2027 05:17:50.399            59.917         29958.500
        60   04 Jun 2027 05:18:22.783   04 Jun 2027 05:19:55.693            92.910         46455.000
        61   04 Jun 2027 05:20:51.204   04 Jun 2027 05:21:35.352            44.148         22074.000
        62   04 Jun 2027 05:21:53.083   04 Jun 2027 05:22:18.772            25.689         12844.500
        63   04 Jun 2027 06:53:21.912   04 Jun 2027 06:54:28.574            66.662         32773.781
        64   04 Jun 2027 06:55:08.400   04 Jun 2027 06:55:10.183             1.783           575.281
        65   04 Jun 2027 06:56:09.039   04 Jun 2027 06:56:09.489             0.450           212.625
        66   04 Jun 2027 06:56:54.205   04 Jun 2027 06:56:57.779             3.574           729.031
        67   04 Jun 2027 06:57:22.228   04 Jun 2027 06:57:25.195             2.967           764.031
        68   04 Jun 2027 06:58:57.499   04 Jun 2027 06:59:02.649             5.150           684.000
        69   04 Jun 2027 06:59:16.078   04 Jun 2027 06:59:18.514             2.436           127.531
        70   04 Jun 2027 07:00:01.590   04 Jun 2027 07:00:04.159             2.569           879.813
        71   04 Jun 2027 08:30:26.006   04 Jun 2027 08:30:29.175             3.169          1476.969
        72   04 Jun 2027 08:33:21.783   04 Jun 2027 08:33:24.590             2.807          1136.437
        73   04 Jun 2027 08:35:41.326   04 Jun 2027 08:35:42.127             0.801            61.844
        74   04 Jun 2027 08:36:11.227   04 Jun 2027 08:36:11.456             0.229           107.063
        75   04 Jun 2027 10:08:20.288   04 Jun 2027 10:08:35.318            15.030          5399.844
        76   04 Jun 2027 10:09:53.732   04 Jun 2027 10:09:58.771             5.039           324.031
        77   04 Jun 2027 10:11:17.942   04 Jun 2027 10:11:22.240             4.298          2065.813
        78   04 Jun 2027 10:12:02.395   04 Jun 2027 10:12:04.884             2.489           975.344
        79   04 Jun 2027 11:41:32.575   04 Jun 2027 11:41:45.062            12.487          5757.469
        80   05 Jun 2027 03:53:06.966   05 Jun 2027 03:53:20.111            13.145          6572.500
        81   05 Jun 2027 03:55:14.185   05 Jun 2027 03:55:14.284             0.099            49.500
        82   05 Jun 2027 03:56:43.783   05 Jun 2027 03:56:57.850            14.067          7033.500
        83   05 Jun 2027 05:28:00.467   05 Jun 2027 05:30:04.485           124.018         62009.000
        84   05 Jun 2027 05:30:10.256   05 Jun 2027 05:31:10.023            59.767         29883.500
        85   05 Jun 2027 05:36:02.344   05 Jun 2027 05:36:30.830            28.486         14243.000
        86   05 Jun 2027 07:05:34.421   05 Jun 2027 07:07:10.287            95.866         44921.937
        87   05 Jun 2027 07:08:19.324   05 Jun 2027 07:08:25.164             5.840          2120.375
        88   05 Jun 2027 07:08:55.925   05 Jun 2027 07:08:58.044             2.119           538.500
        89   05 Jun 2027 07:10:33.873   05 Jun 2027 07:10:40.744             6.871          2044.969
        90   05 Jun 2027 07:11:30.103   05 Jun 2027 07:11:35.685             5.582          1093.469
        91   05 Jun 2027 07:12:29.569   05 Jun 2027 07:12:32.031             2.462           731.469
        92   05 Jun 2027 08:42:17.087   05 Jun 2027 08:42:28.538            11.451          4398.969
        93   05 Jun 2027 08:44:44.695   05 Jun 2027 08:44:47.494             2.799           919.500
        94   05 Jun 2027 08:45:45.290   05 Jun 2027 08:45:47.596             2.306           393.500
        95   05 Jun 2027 08:46:24.977   05 Jun 2027 08:46:25.680             0.703           223.156
        96   05 Jun 2027 08:47:06.900   05 Jun 2027 08:47:11.998             5.098          1188.625
        97   05 Jun 2027 08:48:14.384   05 Jun 2027 08:48:18.187             3.803          1434.312
        98   05 Jun 2027 08:48:37.166   05 Jun 2027 08:48:39.673             2.507           236.906
        99   05 Jun 2027 10:20:20.125   05 Jun 2027 10:20:31.262            11.137          5273.344
       100   05 Jun 2027 10:23:47.011   05 Jun 2027 10:23:48.571             1.560           438.125
       101   05 Jun 2027 10:24:18.889   05 Jun 2027 10:24:21.764             2.875           632.156
       102   05 Jun 2027 11:53:57.804   05 Jun 2027 11:54:00.784             2.980          1060.156
       103   06 Jun 2027 04:04:35.915   06 Jun 2027 04:05:02.389            26.474         13237.000
       104   06 Jun 2027 04:05:28.403   06 Jun 2027 04:05:30.016             1.613           806.500
       105   06 Jun 2027 04:07:21.084   06 Jun 2027 04:07:33.209            12.125          6062.500
       106   06 Jun 2027 04:09:01.941   06 Jun 2027 04:09:09.213             7.272          3636.000
       107   06 Jun 2027 04:10:33.815   06 Jun 2027 04:10:36.891             3.076          1538.000
       108   06 Jun 2027 05:39:31.185   06 Jun 2027 05:40:34.189            63.004         31502.000
       109   06 Jun 2027 05:41:45.306   06 Jun 2027 05:43:17.713            92.407         46203.500
       110   06 Jun 2027 05:43:49.905   06 Jun 2027 05:44:06.312            16.407          8203.500
       111   06 Jun 2027 05:47:26.439   06 Jun 2027 05:47:39.181            12.742          6371.000
       112   06 Jun 2027 05:48:26.877   06 Jun 2027 05:48:28.980             2.103          1051.500
       113   06 Jun 2027 07:17:28.359   06 Jun 2027 07:19:18.927           110.568         53426.501
       114   06 Jun 2027 07:19:54.107   06 Jun 2027 07:20:02.462             8.355           641.875
       115   06 Jun 2027 07:20:40.787   06 Jun 2027 07:20:40.787             0.000             0.000
       116   06 Jun 2027 07:21:21.329   06 Jun 2027 07:21:27.714             6.385          2159.688
       117   06 Jun 2027 07:22:31.226   06 Jun 2027 07:22:38.096             6.870          1684.188
       118   06 Jun 2027 07:23:02.738   06 Jun 2027 07:23:04.394             1.656           702.312
       119   06 Jun 2027 07:24:05.855   06 Jun 2027 07:24:08.835             2.980           669.906
       120   06 Jun 2027 08:54:22.960   06 Jun 2027 08:54:32.591             9.631          4260.188
       121   06 Jun 2027 08:58:10.665   06 Jun 2027 08:58:14.969             4.304           736.687
       122   06 Jun 2027 08:58:31.276   06 Jun 2027 08:58:38.424             7.148           280.313
       123   06 Jun 2027 08:59:02.447   06 Jun 2027 08:59:05.092             2.645           748.250
       124   06 Jun 2027 09:00:20.087   06 Jun 2027 09:00:29.696             9.609          2125.000
       125   06 Jun 2027 10:32:06.361   06 Jun 2027 10:32:18.062            11.701          5593.906
       126   06 Jun 2027 10:33:46.424   06 Jun 2027 10:33:49.217             2.793          1255.156
       127   06 Jun 2027 10:35:54.537   06 Jun 2027 10:35:59.928             5.391          1407.344
       128   07 Jun 2027 04:18:39.958   07 Jun 2027 04:19:22.614            42.656         21328.000
       129   07 Jun 2027 04:21:25.281   07 Jun 2027 04:21:27.836             2.555          1277.500
       130   07 Jun 2027 04:21:52.303   07 Jun 2027 04:21:55.402             3.099          1549.500
       131   07 Jun 2027 05:52:24.480   07 Jun 2027 05:54:45.901           141.421         70710.500
       132   07 Jun 2027 05:55:04.933   07 Jun 2027 05:55:24.391            19.458          9729.000
       133   07 Jun 2027 05:56:04.844   07 Jun 2027 05:56:12.496             7.652          3826.000
       134   07 Jun 2027 05:58:42.970   07 Jun 2027 05:58:50.428             7.458          3729.000
       135   07 Jun 2027 05:58:57.181   07 Jun 2027 05:58:59.389             2.208          1104.000
       136   07 Jun 2027 05:59:15.897   07 Jun 2027 05:59:36.732            20.835         10417.500
       137   07 Jun 2027 06:00:46.599   07 Jun 2027 06:00:54.741             8.142          4071.000
       138   07 Jun 2027 06:00:57.795   07 Jun 2027 06:00:58.780             0.985           492.500
       139   07 Jun 2027 07:29:49.377   07 Jun 2027 07:30:58.090            68.713         34317.874
       140   07 Jun 2027 07:31:57.753   07 Jun 2027 07:32:00.207             2.454           240.594
       141   07 Jun 2027 07:35:41.120   07 Jun 2027 07:35:44.253             3.133           277.688
       142   07 Jun 2027 09:06:53.032   07 Jun 2027 09:07:08.414            15.382          6757.281
       143   07 Jun 2027 09:08:57.251   07 Jun 2027 09:08:59.162             1.911           544.938
       144   07 Jun 2027 09:10:09.102   07 Jun 2027 09:10:13.320             4.218           984.750
       145   07 Jun 2027 09:11:05.048   07 Jun 2027 09:11:07.425             2.377          1005.094
       146   07 Jun 2027 09:11:20.716   07 Jun 2027 09:11:22.316             1.600           110.406
       147   07 Jun 2027 10:43:38.005   07 Jun 2027 10:43:53.648            15.643          6571.750
       148   07 Jun 2027 10:46:04.430   07 Jun 2027 10:46:08.022             3.592           395.437
       149   07 Jun 2027 10:46:46.001   07 Jun 2027 10:46:49.245             3.244          1186.844
       150   07 Jun 2027 10:46:49.248   07 Jun 2027 10:46:50.903             1.655             0.094
       151   07 Jun 2027 10:48:01.036   07 Jun 2027 10:48:01.962             0.926            15.312
       152   07 Jun 2027 10:48:02.504   07 Jun 2027 10:48:07.852             5.348            16.938
       153   08 Jun 2027 04:30:54.362   08 Jun 2027 04:32:21.655            87.293         43646.500
       154   08 Jun 2027 04:34:23.906   08 Jun 2027 04:34:29.259             5.353          2676.500
       155   08 Jun 2027 06:04:58.408   08 Jun 2027 06:08:10.492           192.084         96042.000
       156   08 Jun 2027 06:08:37.655   08 Jun 2027 06:08:48.529            10.874          2557.187
       157   08 Jun 2027 06:09:41.692   08 Jun 2027 06:09:44.430             2.738          1352.000
       158   08 Jun 2027 06:11:42.193   08 Jun 2027 06:11:47.428             5.235          2617.500
       159   08 Jun 2027 06:12:25.054   08 Jun 2027 06:12:25.054             0.000             0.000
       160   08 Jun 2027 06:12:48.901   08 Jun 2027 06:12:53.528             4.627          2073.313
       161   08 Jun 2027 07:47:43.627   08 Jun 2027 07:47:46.266             2.639           228.281
       162   08 Jun 2027 07:48:27.111   08 Jun 2027 07:48:30.265             3.154          1276.406
       163   08 Jun 2027 09:18:58.668   08 Jun 2027 09:19:13.233            14.565          6223.406
       164   08 Jun 2027 09:23:09.849   08 Jun 2027 09:23:16.099             6.250          1177.500
       165   08 Jun 2027 09:23:27.506   08 Jun 2027 09:23:29.311             1.805           356.469
       166   08 Jun 2027 09:23:51.880   08 Jun 2027 09:23:55.217             3.337           590.750
       167   08 Jun 2027 10:55:45.121   08 Jun 2027 10:55:58.113            12.992          5577.156
       168   08 Jun 2027 10:57:52.329   08 Jun 2027 10:57:55.156             2.827           552.031
       169   09 Jun 2027 03:06:35.808   09 Jun 2027 03:06:54.262            18.454          9227.000
       170   09 Jun 2027 03:09:11.373   09 Jun 2027 03:09:11.373             0.000             0.000
       171   09 Jun 2027 04:43:04.742   09 Jun 2027 04:46:25.779           201.037        100518.500
       172   09 Jun 2027 06:18:10.048   09 Jun 2027 06:19:32.839            82.791         41068.844
       173   09 Jun 2027 06:20:09.854   09 Jun 2027 06:20:11.740             1.886           896.219
       174   09 Jun 2027 06:21:03.461   09 Jun 2027 06:21:03.959             0.498           124.687
       175   09 Jun 2027 06:21:34.696   09 Jun 2027 06:21:38.254             3.558           960.531
       176   09 Jun 2027 06:22:02.596   09 Jun 2027 06:22:04.651             2.055           534.750
       177   09 Jun 2027 06:24:01.041   09 Jun 2027 06:24:06.272             5.231          2152.937
       178   09 Jun 2027 06:24:12.956   09 Jun 2027 06:24:12.956             0.000             0.000
       179   09 Jun 2027 06:24:29.716   09 Jun 2027 06:24:31.251             1.535           529.187
       180   09 Jun 2027 07:54:32.163   09 Jun 2027 07:54:37.158             4.995          1004.844
       181   09 Jun 2027 07:59:33.164   09 Jun 2027 07:59:35.011             1.847           107.625
       182   09 Jun 2027 07:59:57.982   09 Jun 2027 08:00:01.316             3.334            98.813
       183   09 Jun 2027 09:32:01.400   09 Jun 2027 09:32:14.153            12.753          5783.344
       184   09 Jun 2027 09:33:26.628   09 Jun 2027 09:33:30.095             3.467           323.938
       185   09 Jun 2027 09:35:49.998   09 Jun 2027 09:35:53.260             3.262            27.812
       186   09 Jun 2027 09:36:03.679   09 Jun 2027 09:36:05.064             1.385           219.812
       187   09 Jun 2027 11:08:06.776   09 Jun 2027 11:08:18.799            12.023          5696.344
       188   10 Jun 2027 03:18:31.490   10 Jun 2027 03:18:56.493            25.003         12501.500
       189   10 Jun 2027 03:19:18.162   10 Jun 2027 03:19:21.119             2.957          1478.500
       190   10 Jun 2027 04:55:09.088   10 Jun 2027 04:58:34.144           205.056        102528.000
       191   10 Jun 2027 06:30:19.553   10 Jun 2027 06:31:34.686            75.133         37527.906
       192   10 Jun 2027 06:32:56.229   10 Jun 2027 06:32:56.705             0.476           227.688
       193   10 Jun 2027 06:33:06.381   10 Jun 2027 06:33:09.206             2.825           182.406
       194   10 Jun 2027 06:33:18.895   10 Jun 2027 06:33:20.834             1.939           302.781
       195   10 Jun 2027 06:34:52.340   10 Jun 2027 06:34:57.661             5.321          2464.156
       196   10 Jun 2027 06:36:03.002   10 Jun 2027 06:36:07.271             4.269          1695.031
       197   10 Jun 2027 06:36:17.749   10 Jun 2027 06:36:19.403             1.654           327.437
       198   10 Jun 2027 08:06:33.186   10 Jun 2027 08:06:34.621             1.435           225.625
       199   10 Jun 2027 09:44:07.565   10 Jun 2027 09:44:19.440            11.875          4803.281
       200   10 Jun 2027 09:47:37.369   10 Jun 2027 09:47:38.670             1.301            25.187
       201   10 Jun 2027 09:48:14.523   10 Jun 2027 09:48:20.378             5.855           962.000
       202   10 Jun 2027 09:48:21.827   10 Jun 2027 09:48:24.090             2.263            45.281
       203   10 Jun 2027 09:48:31.312   10 Jun 2027 09:48:32.232             0.920           225.687
       204   10 Jun 2027 11:20:08.892   10 Jun 2027 11:20:19.162            10.270          5038.844
       205   10 Jun 2027 11:22:17.864   10 Jun 2027 11:22:19.281             1.417           679.438
       206   11 Jun 2027 03:31:06.879   11 Jun 2027 03:31:12.824             5.945          2972.500
       207   11 Jun 2027 03:32:59.104   11 Jun 2027 03:33:16.807            17.703          8851.500
       208   11 Jun 2027 03:33:26.719   11 Jun 2027 03:33:36.883            10.164          5082.000
       209   11 Jun 2027 05:06:53.180   11 Jun 2027 05:10:19.542           206.362        103181.000
       210   11 Jun 2027 06:41:43.628   11 Jun 2027 06:42:59.824            76.196         37265.969
       211   11 Jun 2027 06:43:46.500   11 Jun 2027 06:43:49.181             2.681           744.906
       212   11 Jun 2027 06:45:08.602   11 Jun 2027 06:45:11.006             2.404           458.969
       213   11 Jun 2027 06:45:34.708   11 Jun 2027 06:45:36.721             2.013           695.281
       214   11 Jun 2027 06:46:51.989   11 Jun 2027 06:46:55.358             3.369          1517.844
       215   11 Jun 2027 06:47:46.663   11 Jun 2027 06:47:52.238             5.575          1091.625
       216   11 Jun 2027 06:48:29.902   11 Jun 2027 06:48:35.775             5.873          1083.031
       217   11 Jun 2027 08:18:19.716   11 Jun 2027 08:18:23.176             3.460           377.188
       218   11 Jun 2027 08:20:03.686   11 Jun 2027 08:20:09.302             5.616           487.562
       219   11 Jun 2027 08:23:55.258   11 Jun 2027 08:23:55.910             0.652           215.656
       220   11 Jun 2027 08:24:35.364   11 Jun 2027 08:24:37.241             1.877           828.656
       221   11 Jun 2027 09:56:37.556   11 Jun 2027 09:56:51.668            14.112          6850.625
       222   11 Jun 2027 09:58:04.527   11 Jun 2027 09:58:08.892             4.365          2005.812
       223   11 Jun 2027 09:59:47.746   11 Jun 2027 09:59:53.259             5.513          2395.219
       224   11 Jun 2027 10:00:31.456   11 Jun 2027 10:00:32.276             0.820           410.000
       225   11 Jun 2027 11:29:57.642   11 Jun 2027 11:30:09.289            11.647          5823.500
       226   11 Jun 2027 11:31:57.247   11 Jun 2027 11:32:00.900             3.653           893.468
       227   12 Jun 2027 03:41:46.013   12 Jun 2027 03:41:55.338             9.325          4662.500
       228   12 Jun 2027 03:42:28.457   12 Jun 2027 03:42:44.465            16.008          8004.000
       229   12 Jun 2027 05:17:03.143   12 Jun 2027 05:18:05.676            62.533         31266.500
       230   12 Jun 2027 05:18:37.106   12 Jun 2027 05:19:16.012            38.906         19453.000
       231   12 Jun 2027 05:19:20.577   12 Jun 2027 05:20:10.333            49.756         24878.000
       232   12 Jun 2027 05:21:06.452   12 Jun 2027 05:21:51.000            44.548         22274.000
       233   12 Jun 2027 05:22:15.817   12 Jun 2027 05:22:30.227            14.410          7205.000
       234   12 Jun 2027 05:23:00.859   12 Jun 2027 05:23:01.699             0.840           420.000
       235   12 Jun 2027 06:53:37.353   12 Jun 2027 06:55:05.691            88.338         44169.000
       236   12 Jun 2027 06:55:25.815   12 Jun 2027 06:55:28.851             3.036          1215.407
       237   12 Jun 2027 06:56:25.257   12 Jun 2027 06:56:28.912             3.655           227.594
       238   12 Jun 2027 06:56:45.706   12 Jun 2027 06:56:49.963             4.257           470.781
       239   12 Jun 2027 06:57:15.791   12 Jun 2027 06:57:20.993             5.202           162.844
       240   12 Jun 2027 06:58:50.991   12 Jun 2027 06:58:58.543             7.552          2267.375
       241   12 Jun 2027 06:59:27.971   12 Jun 2027 06:59:30.480             2.509           418.719
       242   12 Jun 2027 06:59:49.743   12 Jun 2027 06:59:51.946             2.203           536.750
       243   12 Jun 2027 07:01:06.175   12 Jun 2027 07:01:06.745             0.570           285.000
       244   12 Jun 2027 08:30:40.847   12 Jun 2027 08:30:45.575             4.728          1720.969
       245   12 Jun 2027 08:33:37.957   12 Jun 2027 08:33:40.790             2.833          1173.438
       246   12 Jun 2027 08:36:24.984   12 Jun 2027 08:36:27.152             2.168            26.969
       247   12 Jun 2027 10:08:35.121   12 Jun 2027 10:08:46.457            11.336          5534.094
       248   12 Jun 2027 10:09:57.646   12 Jun 2027 10:10:02.063             4.417          1911.750
       249   12 Jun 2027 10:10:26.813   12 Jun 2027 10:10:28.789             1.976           515.500
       250   12 Jun 2027 10:11:36.601   12 Jun 2027 10:11:39.255             2.654            13.750
       251   12 Jun 2027 10:12:19.520   12 Jun 2027 10:12:21.681             2.161          1017.906
       252   12 Jun 2027 11:41:47.958   12 Jun 2027 11:41:59.755            11.797          5651.656
       253   13 Jun 2027 03:53:21.749   13 Jun 2027 03:53:44.074            22.325         11162.500
       254   13 Jun 2027 03:57:13.087   13 Jun 2027 03:57:13.087             0.000             0.000
       255   13 Jun 2027 03:57:38.898   13 Jun 2027 03:57:42.056             3.158          1579.000
       256   13 Jun 2027 05:28:14.800   13 Jun 2027 05:29:14.976            60.176         30088.000
       257   13 Jun 2027 05:30:24.847   13 Jun 2027 05:31:24.872            60.025         30012.500
       258   13 Jun 2027 05:31:46.470   13 Jun 2027 05:32:12.040            25.570         12785.000
       259   13 Jun 2027 05:34:40.852   13 Jun 2027 05:35:29.378            48.526         24263.000
       260   13 Jun 2027 05:36:31.275   13 Jun 2027 05:36:46.005            14.730          7365.000
       261   13 Jun 2027 07:05:49.054   13 Jun 2027 07:07:27.929            98.875         49042.469
       262   13 Jun 2027 07:08:35.403   13 Jun 2027 07:08:37.661             2.258          1129.000
       263   13 Jun 2027 07:08:54.554   13 Jun 2027 07:08:54.554             0.000             0.000
       264   13 Jun 2027 07:09:12.280   13 Jun 2027 07:09:17.217             4.937          2031.781
       265   13 Jun 2027 07:09:44.762   13 Jun 2027 07:09:46.688             1.926           800.406
       266   13 Jun 2027 07:11:11.249   13 Jun 2027 07:11:16.549             5.300           688.344
       267   13 Jun 2027 07:11:46.551   13 Jun 2027 07:11:46.551             0.000             0.000
       268   13 Jun 2027 07:11:56.898   13 Jun 2027 07:12:01.056             4.158          1238.312
       269   13 Jun 2027 08:42:31.889   13 Jun 2027 08:42:39.095             7.206          2776.844
       270   13 Jun 2027 08:45:50.941   13 Jun 2027 08:45:57.847             6.906          1602.500
       271   13 Jun 2027 08:46:20.843   13 Jun 2027 08:46:24.710             3.867           667.094
       272   13 Jun 2027 08:46:40.188   13 Jun 2027 08:46:41.438             1.250           251.375
       273   13 Jun 2027 08:47:22.195   13 Jun 2027 08:47:26.908             4.713          1181.313
       274   13 Jun 2027 08:48:30.658   13 Jun 2027 08:48:35.496             4.838          1500.875
       275   13 Jun 2027 08:48:51.902   13 Jun 2027 08:48:52.453             0.551           214.344
       276   13 Jun 2027 10:20:34.954   13 Jun 2027 10:20:47.106            12.152          5398.781
       277   13 Jun 2027 10:21:21.502   13 Jun 2027 10:21:23.716             2.214           758.500
       278   13 Jun 2027 10:23:48.756   13 Jun 2027 10:23:50.761             2.005           248.719
       279   13 Jun 2027 10:23:51.339   13 Jun 2027 10:23:55.791             4.452            18.062
       280   13 Jun 2027 10:24:10.183   13 Jun 2027 10:24:14.147             3.964           251.594
       281   13 Jun 2027 10:24:34.174   13 Jun 2027 10:24:37.715             3.541           625.844
       282   13 Jun 2027 11:54:15.906   13 Jun 2027 11:54:16.934             1.028           513.219
