uniorb/output/strategy_4/Camera/Camera_KinoSat_112005.txt

KinoSat_112005
-------------------------
    Access    *     Start Time (UTCG)     *     Stop Time (UTCG)  *   Duration (s) *   Data (Mbytes)
         1   01 Jun 2027 03:00:00.000   01 Jun 2027 03:00:01.643             1.643           821.500
         2   01 Jun 2027 03:00:09.650   01 Jun 2027 03:00:44.932            35.282         17641.000
         3   01 Jun 2027 03:01:52.018   01 Jun 2027 03:02:13.812            21.794         10897.000
         4   01 Jun 2027 03:03:48.677   01 Jun 2027 03:03:51.308             2.631          1315.500
         5   01 Jun 2027 03:04:06.675   01 Jun 2027 03:04:13.353             6.678          3339.000
         6   01 Jun 2027 04:33:43.470   01 Jun 2027 04:35:17.263            93.793         46896.500
         7   01 Jun 2027 04:36:48.528   01 Jun 2027 04:37:19.215            30.687         15343.500
         8   01 Jun 2027 06:12:40.501   01 Jun 2027 06:14:50.738           130.237         65118.500
         9   01 Jun 2027 06:15:36.845   01 Jun 2027 06:15:52.386            15.541          7770.500
        10   01 Jun 2027 06:16:32.459   01 Jun 2027 06:16:33.877             1.418           709.000
        11   01 Jun 2027 06:19:28.685   01 Jun 2027 06:19:41.386            12.701          6350.500
        12   01 Jun 2027 07:36:49.311   01 Jun 2027 07:38:09.367            80.056         40028.000
        13   01 Jun 2027 07:38:15.024   01 Jun 2027 07:38:57.762            42.738         21369.000
        14   01 Jun 2027 07:39:01.379   01 Jun 2027 07:39:01.379             0.000             0.000
        15   01 Jun 2027 07:49:07.092   01 Jun 2027 07:49:26.066            18.974          9487.000
        16   01 Jun 2027 09:11:05.021   01 Jun 2027 09:12:23.162            78.141         39070.500
        17   01 Jun 2027 09:13:08.365   01 Jun 2027 09:13:57.384            49.019         24509.500
        18   01 Jun 2027 09:14:58.932   01 Jun 2027 09:15:27.548            28.616         14308.000
        19   01 Jun 2027 09:16:10.896   01 Jun 2027 09:16:14.105             3.209          1604.500
        20   01 Jun 2027 10:45:57.120   01 Jun 2027 10:46:55.714            58.594         29297.000
        21   01 Jun 2027 10:47:50.025   01 Jun 2027 10:48:03.893            13.868          6934.000
        22   02 Jun 2027 03:08:50.618   02 Jun 2027 03:09:04.438            13.820          6910.000
        23   02 Jun 2027 03:11:04.252   02 Jun 2027 03:11:04.252             0.000             0.000
        24   02 Jun 2027 03:11:07.239   02 Jun 2027 03:11:22.358            15.119          7559.500
        25   02 Jun 2027 03:11:41.120   02 Jun 2027 03:12:37.989            56.869         28434.500
        26   02 Jun 2027 03:12:48.564   02 Jun 2027 03:12:52.482             3.918          1959.000
        27   02 Jun 2027 03:13:16.699   02 Jun 2027 03:13:40.263            23.564         11782.000
        28   02 Jun 2027 03:15:46.641   02 Jun 2027 03:16:00.169            13.528          6764.000
        29   02 Jun 2027 04:46:28.302   02 Jun 2027 04:46:51.988            23.686         11843.000
        30   02 Jun 2027 04:46:55.194   02 Jun 2027 04:48:10.758            75.564         37782.000
        31   02 Jun 2027 04:48:17.439   02 Jun 2027 04:49:05.351            47.912         23956.000
        32   02 Jun 2027 04:51:22.304   02 Jun 2027 04:52:02.495            40.191         20095.500
        33   02 Jun 2027 06:24:51.019   02 Jun 2027 06:28:07.203           196.184         98092.000
        34   02 Jun 2027 06:28:29.128   02 Jun 2027 06:28:35.953             6.825          3412.500
        35   02 Jun 2027 06:30:03.486   02 Jun 2027 06:30:05.601             2.115          1057.500
        36   02 Jun 2027 07:48:54.517   02 Jun 2027 07:50:11.038            76.521         38260.500
        37   02 Jun 2027 09:22:40.575   02 Jun 2027 09:24:49.497           128.922         64461.000
        38   02 Jun 2027 09:25:25.904   02 Jun 2027 09:25:31.129             5.225          2612.500
        39   02 Jun 2027 10:58:41.240   02 Jun 2027 10:59:24.752            43.512         19426.499
        40   02 Jun 2027 11:01:11.262   02 Jun 2027 11:01:14.783             3.521          1672.750
        41   02 Jun 2027 11:04:52.915   02 Jun 2027 11:05:08.020            15.105          6541.688
        42   03 Jun 2027 03:20:50.632   03 Jun 2027 03:21:13.375            22.743         11371.500
        43   03 Jun 2027 03:23:08.419   03 Jun 2027 03:26:12.221           183.802         91901.000
        44   03 Jun 2027 05:00:39.804   03 Jun 2027 05:00:43.447             3.643          1821.500
        45   03 Jun 2027 05:00:44.529   03 Jun 2027 05:01:35.305            50.776         25388.000
        46   03 Jun 2027 05:03:43.594   03 Jun 2027 05:04:16.823            33.229         16614.500
        47   03 Jun 2027 06:37:25.761   03 Jun 2027 06:38:43.521            77.760         38590.813
        48   03 Jun 2027 06:40:04.142   03 Jun 2027 06:40:08.169             4.027          1012.938
        49   03 Jun 2027 06:40:15.020   03 Jun 2027 06:40:15.826             0.806            80.813
        50   03 Jun 2027 06:40:35.181   03 Jun 2027 06:40:37.789             2.608           173.094
        51   03 Jun 2027 06:40:48.874   03 Jun 2027 06:40:50.105             1.231           221.156
        52   03 Jun 2027 06:42:01.240   03 Jun 2027 06:42:04.747             3.507          1383.969
        53   03 Jun 2027 08:00:49.573   03 Jun 2027 08:01:03.569            13.996          6466.281
        54   03 Jun 2027 08:02:12.557   03 Jun 2027 08:02:16.380             3.823          1510.687
        55   03 Jun 2027 08:02:47.917   03 Jun 2027 08:02:53.112             5.195           241.438
        56   03 Jun 2027 08:03:04.197   03 Jun 2027 08:03:04.939             0.742           155.531
        57   03 Jun 2027 09:37:08.683   03 Jun 2027 09:37:16.708             8.025          2313.375
        58   03 Jun 2027 09:37:53.483   03 Jun 2027 09:37:55.524             2.041           662.188
        59   03 Jun 2027 09:38:11.951   03 Jun 2027 09:38:13.086             1.135           372.469
        60   03 Jun 2027 09:39:27.689   03 Jun 2027 09:39:30.757             3.068          1249.344
        61   03 Jun 2027 11:12:49.903   03 Jun 2027 11:13:08.337            18.434          8715.906
        62   03 Jun 2027 11:14:10.016   03 Jun 2027 11:14:20.139            10.123          1624.562
        63   03 Jun 2027 11:15:38.741   03 Jun 2027 11:15:39.769             1.028           385.250
        64   03 Jun 2027 11:16:02.775   03 Jun 2027 11:16:04.485             1.710           718.938
        65   03 Jun 2027 11:16:37.982   03 Jun 2027 11:16:40.915             2.933           647.937
        66   03 Jun 2027 11:18:21.222   03 Jun 2027 11:18:27.701             6.479          3134.594
        67   03 Jun 2027 11:18:47.487   03 Jun 2027 11:18:48.875             1.388           273.125
        68   04 Jun 2027 03:32:58.475   04 Jun 2027 03:33:09.256            10.781          5390.500
        69   04 Jun 2027 03:33:16.980   04 Jun 2027 03:33:20.157             3.177          1588.500
        70   04 Jun 2027 03:34:35.899   04 Jun 2027 03:37:15.171           159.272         79636.000
        71   04 Jun 2027 03:37:36.732   04 Jun 2027 03:38:53.203            76.471         38235.500
        72   04 Jun 2027 03:40:14.175   04 Jun 2027 03:40:29.951            15.776          7888.000
        73   04 Jun 2027 05:13:10.432   04 Jun 2027 05:13:37.771            27.339         13669.500
        74   04 Jun 2027 05:14:29.331   04 Jun 2027 05:15:25.842            56.511         27701.812
        75   04 Jun 2027 05:15:41.810   04 Jun 2027 05:15:42.978             1.168           415.625
        76   04 Jun 2027 05:16:41.912   04 Jun 2027 05:16:45.613             3.701          1272.281
        77   04 Jun 2027 05:16:58.597   04 Jun 2027 05:17:01.537             2.940           405.750
        78   04 Jun 2027 06:49:04.040   04 Jun 2027 06:49:34.949            30.909         12133.937
        79   04 Jun 2027 06:49:46.568   04 Jun 2027 06:49:51.798             5.230           246.938
        80   04 Jun 2027 06:50:03.125   04 Jun 2027 06:50:03.386             0.261           108.750
        81   04 Jun 2027 06:50:32.892   04 Jun 2027 06:50:34.645             1.753           437.031
        82   04 Jun 2027 06:50:49.985   04 Jun 2027 06:50:51.972             1.987           102.844
        83   04 Jun 2027 06:51:09.259   04 Jun 2027 06:51:12.052             2.793            81.938
        84   04 Jun 2027 06:52:35.374   04 Jun 2027 06:52:38.305             2.931           353.687
        85   04 Jun 2027 06:52:44.059   04 Jun 2027 06:52:47.288             3.229           179.812
        86   04 Jun 2027 08:12:41.192   04 Jun 2027 08:12:52.704            11.512          5243.531
        87   04 Jun 2027 08:14:13.860   04 Jun 2027 08:14:13.860             0.000             0.000
        88   04 Jun 2027 08:15:13.095   04 Jun 2027 08:15:22.413             9.318          3673.406
        89   04 Jun 2027 09:49:10.698   04 Jun 2027 09:49:22.393            11.695          3738.156
        90   04 Jun 2027 09:50:29.774   04 Jun 2027 09:50:32.398             2.624          1227.719
        91   04 Jun 2027 09:51:03.072   04 Jun 2027 09:51:06.104             3.032           809.406
        92   04 Jun 2027 09:52:13.996   04 Jun 2027 09:52:18.184             4.188          2081.094
        93   04 Jun 2027 11:23:32.786   04 Jun 2027 11:23:56.321            23.535          7715.500
        94   04 Jun 2027 11:25:10.455   04 Jun 2027 11:25:17.504             7.049          1404.688
        95   04 Jun 2027 11:28:24.201   04 Jun 2027 11:28:35.603            11.402          5529.812
        96   04 Jun 2027 11:30:00.454   04 Jun 2027 11:30:04.559             4.105          1789.875
        97   04 Jun 2027 11:30:19.773   04 Jun 2027 11:30:26.850             7.077           450.719
        98   04 Jun 2027 11:30:38.800   04 Jun 2027 11:30:42.195             3.395           321.031
        99   05 Jun 2027 03:45:00.303   05 Jun 2027 03:45:43.860            43.557         21778.500
       100   05 Jun 2027 03:46:04.142   05 Jun 2027 03:48:12.869           128.727         64363.500
       101   05 Jun 2027 03:49:42.961   05 Jun 2027 03:49:53.776            10.815          5407.500
       102   05 Jun 2027 03:50:17.151   05 Jun 2027 03:50:42.345            25.194         12597.000
       103   05 Jun 2027 03:50:55.708   05 Jun 2027 03:50:59.562             3.854          1927.000
       104   05 Jun 2027 05:23:08.780   05 Jun 2027 05:24:10.041            61.261         30630.500
       105   05 Jun 2027 05:24:17.920   05 Jun 2027 05:25:42.976            85.056         41538.313
       106   05 Jun 2027 05:26:52.570   05 Jun 2027 05:26:58.240             5.670          1873.094
       107   05 Jun 2027 05:27:11.031   05 Jun 2027 05:27:11.462             0.431           215.500
       108   05 Jun 2027 05:27:41.442   05 Jun 2027 05:27:42.324             0.882           441.000
       109   05 Jun 2027 07:01:27.210   05 Jun 2027 07:01:44.403            17.193          6342.062
       110   05 Jun 2027 07:02:57.662   05 Jun 2027 07:03:04.757             7.095          1358.563
       111   05 Jun 2027 07:04:35.649   05 Jun 2027 07:04:38.431             2.782          1287.312
       112   05 Jun 2027 07:04:51.293   05 Jun 2027 07:04:52.751             1.458           156.531
       113   05 Jun 2027 08:24:50.484   05 Jun 2027 08:25:02.491            12.007          5315.625
       114   05 Jun 2027 08:25:51.568   05 Jun 2027 08:25:54.855             3.287          1508.813
       115   05 Jun 2027 08:26:23.625   05 Jun 2027 08:26:31.698             8.073           891.344
       116   05 Jun 2027 08:27:46.208   05 Jun 2027 08:27:51.094             4.886          2328.437
       117   05 Jun 2027 10:01:21.118   05 Jun 2027 10:01:28.720             7.602          3344.344
       118   05 Jun 2027 10:03:10.086   05 Jun 2027 10:03:11.483             1.397           181.031
       119   05 Jun 2027 10:04:18.515   05 Jun 2027 10:04:23.615             5.100          1776.875
       120   05 Jun 2027 11:36:41.716   05 Jun 2027 11:36:53.428            11.712          5444.844
       121   05 Jun 2027 11:39:59.635   05 Jun 2027 11:40:07.644             8.009          3398.531
       122   05 Jun 2027 11:41:00.488   05 Jun 2027 11:41:02.607             2.119           950.469
       123   05 Jun 2027 11:41:07.740   05 Jun 2027 11:41:11.565             3.825            79.531
       124   05 Jun 2027 11:42:47.152   05 Jun 2027 11:42:50.935             3.783          1421.937
       125   05 Jun 2027 11:43:05.451   05 Jun 2027 11:43:07.364             1.913            42.188
       126   06 Jun 2027 03:56:58.268   06 Jun 2027 04:00:39.315           221.047        110523.500
       127   06 Jun 2027 04:01:24.098   06 Jun 2027 04:01:26.082             1.984           992.000
       128   06 Jun 2027 05:35:14.561   06 Jun 2027 05:35:21.833             7.272          3636.000
       129   06 Jun 2027 05:36:15.589   06 Jun 2027 05:37:45.866            90.277         45138.500
       130   06 Jun 2027 05:38:07.239   06 Jun 2027 05:38:31.735            24.496         12248.000
       131   06 Jun 2027 05:39:03.019   06 Jun 2027 05:39:04.387             1.368           684.000
       132   06 Jun 2027 05:43:18.365   06 Jun 2027 05:43:40.333            21.968         10953.969
       133   06 Jun 2027 05:44:06.479   06 Jun 2027 05:44:08.845             2.366           536.813
       134   06 Jun 2027 07:13:24.243   06 Jun 2027 07:13:41.016            16.773          8190.500
       135   06 Jun 2027 07:14:27.253   06 Jun 2027 07:14:29.918             2.665          1056.000
       136   06 Jun 2027 07:14:31.060   06 Jun 2027 07:14:32.589             1.529            35.687
       137   06 Jun 2027 07:15:18.915   06 Jun 2027 07:15:20.891             1.976           739.219
       138   06 Jun 2027 07:16:33.935   06 Jun 2027 07:16:36.299             2.364           845.656
       139   06 Jun 2027 07:16:39.276   06 Jun 2027 07:16:39.738             0.462            17.281
       140   06 Jun 2027 08:37:30.694   06 Jun 2027 08:37:51.180            20.486          9441.656
       141   06 Jun 2027 08:38:04.011   06 Jun 2027 08:38:05.684             1.673           193.906
       142   06 Jun 2027 08:39:46.658   06 Jun 2027 08:39:51.357             4.699          2349.500
       143   06 Jun 2027 10:13:16.160   06 Jun 2027 10:13:23.613             7.453          2747.375
       144   06 Jun 2027 10:15:01.070   06 Jun 2027 10:15:07.437             6.367          2203.125
       145   06 Jun 2027 10:15:44.473   06 Jun 2027 10:15:50.809             6.336            23.969
       146   06 Jun 2027 11:48:33.284   06 Jun 2027 11:48:52.547            19.263          9217.719
       147   06 Jun 2027 11:51:18.096   06 Jun 2027 11:51:22.263             4.167          2083.500
       148   06 Jun 2027 11:54:51.868   06 Jun 2027 11:55:09.839            17.971          8962.063
       149   07 Jun 2027 04:09:36.028   07 Jun 2027 04:11:58.245           142.217         71108.500
       150   07 Jun 2027 04:13:18.989   07 Jun 2027 04:13:22.832             3.843          1921.500
       151   07 Jun 2027 05:48:19.485   07 Jun 2027 05:51:09.583           170.098         85049.000
       152   07 Jun 2027 05:54:51.119   07 Jun 2027 05:55:42.093            50.974         24961.688
       153   07 Jun 2027 07:14:18.169   07 Jun 2027 07:14:43.166            24.997         10621.063
       154   07 Jun 2027 07:25:20.832   07 Jun 2027 07:25:27.587             6.755          3268.250
       155   07 Jun 2027 07:26:56.462   07 Jun 2027 07:27:00.941             4.479           886.469
       156   07 Jun 2027 07:27:27.486   07 Jun 2027 07:27:27.738             0.252            34.969
       157   07 Jun 2027 07:28:26.469   07 Jun 2027 07:28:29.685             3.216           471.813
       158   07 Jun 2027 08:48:19.491   07 Jun 2027 08:48:36.349            16.858          7414.438
       159   07 Jun 2027 08:49:34.299   07 Jun 2027 08:49:34.859             0.560           271.000
       160   07 Jun 2027 08:50:32.773   07 Jun 2027 08:50:35.174             2.401          1014.656
       161   07 Jun 2027 10:23:46.489   07 Jun 2027 10:23:55.642             9.153          4561.750
       162   07 Jun 2027 10:25:49.602   07 Jun 2027 10:25:55.808             6.206          3051.188
       163   07 Jun 2027 10:28:09.551   07 Jun 2027 10:28:15.796             6.245          2522.875
       164   07 Jun 2027 10:28:40.695   07 Jun 2027 10:28:41.782             1.087           278.750
       165   07 Jun 2027 11:59:46.914   07 Jun 2027 11:59:55.857             8.943          3881.000
       166   08 Jun 2027 04:21:43.043   08 Jun 2027 04:23:18.012            94.969         47484.500
       167   08 Jun 2027 04:24:19.635   08 Jun 2027 04:24:33.140            13.505          6752.500
       168   08 Jun 2027 06:00:49.320   08 Jun 2027 06:03:54.910           185.590         92795.000
       169   08 Jun 2027 06:04:15.873   08 Jun 2027 06:05:04.791            48.918         23765.969
       170   08 Jun 2027 06:05:31.313   08 Jun 2027 06:05:34.941             3.628           811.844
       171   08 Jun 2027 06:06:12.847   08 Jun 2027 06:06:15.825             2.978           880.375
       172   08 Jun 2027 06:06:29.788   08 Jun 2027 06:06:31.042             1.254           329.781
       173   08 Jun 2027 07:25:41.021   08 Jun 2027 07:25:52.923            11.902          5526.062
       174   08 Jun 2027 07:27:08.583   08 Jun 2027 07:27:11.098             2.515          1257.500
       175   08 Jun 2027 07:37:23.639   08 Jun 2027 07:37:30.207             6.568          2651.625
       176   08 Jun 2027 07:38:06.850   08 Jun 2027 07:38:09.030             2.180           713.313
       177   08 Jun 2027 08:59:36.276   08 Jun 2027 09:00:02.885            26.609         13061.031
       178   08 Jun 2027 09:00:30.968   08 Jun 2027 09:00:32.713             1.745           820.937
       179   08 Jun 2027 09:01:37.959   08 Jun 2027 09:01:40.557             2.598          1095.781
       180   08 Jun 2027 09:02:37.078   08 Jun 2027 09:02:40.879             3.801          1078.719
       181   08 Jun 2027 10:34:43.281   08 Jun 2027 10:34:57.160            13.879          3604.094
       182   08 Jun 2027 10:35:45.923   08 Jun 2027 10:35:47.873             1.950           721.688
       183   08 Jun 2027 10:37:47.788   08 Jun 2027 10:37:55.817             8.029          3747.344
       184   08 Jun 2027 10:39:36.991   08 Jun 2027 10:39:43.271             6.280          2037.875
       185   08 Jun 2027 10:40:40.583   08 Jun 2027 10:40:41.628             1.045            30.250
       186   08 Jun 2027 10:41:25.157   08 Jun 2027 10:41:28.585             3.428           930.063
       187   09 Jun 2027 03:00:00.000   09 Jun 2027 03:00:27.845            27.845         13922.500
       188   09 Jun 2027 03:01:55.048   09 Jun 2027 03:02:06.697            11.649          5824.500
       189   09 Jun 2027 03:02:13.190   09 Jun 2027 03:02:27.958            14.768          7384.000
       190   09 Jun 2027 04:34:02.403   09 Jun 2027 04:35:12.409            70.006         35003.000
       191   09 Jun 2027 04:35:13.510   09 Jun 2027 04:36:11.146            57.636         28818.000
       192   09 Jun 2027 04:36:59.830   09 Jun 2027 04:37:04.603             4.773          2386.500
       193   09 Jun 2027 06:12:50.019   09 Jun 2027 06:15:57.383           187.364         93595.563
       194   09 Jun 2027 06:16:28.978   09 Jun 2027 06:16:31.523             2.545           470.438
       195   09 Jun 2027 06:17:23.252   09 Jun 2027 06:17:28.641             5.389           803.531
       196   09 Jun 2027 06:18:20.844   09 Jun 2027 06:18:27.144             6.300           731.469
       197   09 Jun 2027 07:37:08.972   09 Jun 2027 07:37:23.150            14.178          6269.625
       198   09 Jun 2027 07:37:46.579   09 Jun 2027 07:37:49.878             3.299           163.063
       199   09 Jun 2027 07:38:00.762   09 Jun 2027 07:38:02.112             1.350           340.125
       200   09 Jun 2027 07:38:19.025   09 Jun 2027 07:38:19.833             0.808           329.375
       201   09 Jun 2027 07:38:33.060   09 Jun 2027 07:38:37.790             4.730           183.125
       202   09 Jun 2027 07:39:14.304   09 Jun 2027 07:39:16.636             2.332           887.437
       203   09 Jun 2027 07:49:25.272   09 Jun 2027 07:49:29.052             3.780          1414.437
       204   09 Jun 2027 09:11:22.199   09 Jun 2027 09:11:44.466            22.267          8787.000
       205   09 Jun 2027 09:13:25.288   09 Jun 2027 09:13:29.167             3.879          1877.281
       206   09 Jun 2027 09:14:04.525   09 Jun 2027 09:14:14.951            10.426          1049.531
       207   09 Jun 2027 09:14:51.420   09 Jun 2027 09:14:54.103             2.683          1139.656
       208   09 Jun 2027 10:46:12.697   09 Jun 2027 10:46:23.505            10.808          4706.156
       209   09 Jun 2027 10:48:09.997   09 Jun 2027 10:48:14.496             4.499          1815.719
       210   09 Jun 2027 10:49:44.942   09 Jun 2027 10:49:49.721             4.779          2262.813
       211   09 Jun 2027 10:50:18.403   09 Jun 2027 10:50:18.403             0.000             0.000
       212   09 Jun 2027 10:53:13.271   09 Jun 2027 10:53:28.330            15.059          5829.812
       213   09 Jun 2027 10:53:35.781   09 Jun 2027 10:53:37.901             2.120           209.531
       214   09 Jun 2027 10:54:30.428   09 Jun 2027 10:54:33.067             2.639          1250.687
       215   09 Jun 2027 10:54:57.449   09 Jun 2027 10:54:59.599             2.150           539.812
       216   10 Jun 2027 03:09:09.146   10 Jun 2027 03:09:20.265            11.119          5559.500
       217   10 Jun 2027 03:11:19.089   10 Jun 2027 03:11:23.582             4.493          2246.500
       218   10 Jun 2027 03:11:56.052   10 Jun 2027 03:13:22.737            86.685         43342.500
       219   10 Jun 2027 03:13:35.093   10 Jun 2027 03:14:42.766            67.673         33836.500
       220   10 Jun 2027 03:14:59.424   10 Jun 2027 03:15:16.556            17.132          8566.000
       221   10 Jun 2027 03:16:43.029   10 Jun 2027 03:16:52.129             9.100          4550.000
       222   10 Jun 2027 04:46:46.829   10 Jun 2027 04:48:05.546            78.717         39358.500
       223   10 Jun 2027 04:49:12.566   10 Jun 2027 04:49:13.315             0.749           374.500
       224   10 Jun 2027 04:50:10.682   10 Jun 2027 04:51:00.133            49.451         24725.500
       225   10 Jun 2027 04:51:08.891   10 Jun 2027 04:51:10.759             1.868           934.000
       226   10 Jun 2027 06:25:10.010   10 Jun 2027 06:25:50.594            40.584         19878.344
       227   10 Jun 2027 06:26:20.800   10 Jun 2027 06:26:25.081             4.281           299.094
       228   10 Jun 2027 06:27:04.447   10 Jun 2027 06:27:07.034             2.587          1186.187
       229   10 Jun 2027 06:28:04.484   10 Jun 2027 06:28:11.477             6.993          1783.375
       230   10 Jun 2027 06:28:37.801   10 Jun 2027 06:28:39.226             1.425           588.531
       231   10 Jun 2027 06:28:51.279   10 Jun 2027 06:28:54.221             2.942            24.563
       232   10 Jun 2027 06:29:14.253   10 Jun 2027 06:29:19.691             5.438           518.500
       233   10 Jun 2027 06:30:19.093   10 Jun 2027 06:30:22.698             3.605          1074.750
       234   10 Jun 2027 07:49:12.140   10 Jun 2027 07:49:18.001             5.861          2812.469
       235   10 Jun 2027 07:50:22.724   10 Jun 2027 07:50:28.860             6.136          1135.000
       236   10 Jun 2027 07:50:37.086   10 Jun 2027 07:50:39.682             2.596           257.063
       237   10 Jun 2027 07:51:01.888   10 Jun 2027 07:51:04.592             2.704           693.938
       238   10 Jun 2027 07:51:10.819   10 Jun 2027 07:51:14.017             3.198           194.594
       239   10 Jun 2027 09:25:09.412   10 Jun 2027 09:25:21.774            12.362          6104.063
       240   10 Jun 2027 09:25:51.938   10 Jun 2027 09:26:00.812             8.874           942.625
       241   10 Jun 2027 09:26:55.612   10 Jun 2027 09:26:58.380             2.768          1319.469
       242   10 Jun 2027 09:28:10.410   10 Jun 2027 09:28:18.167             7.757           893.531
       243   10 Jun 2027 09:28:35.985   10 Jun 2027 09:28:37.250             1.265           269.625
       244   10 Jun 2027 10:58:58.997   10 Jun 2027 10:59:04.411             5.414          2420.656
       245   10 Jun 2027 11:01:40.823   10 Jun 2027 11:01:40.823             0.000             0.000
       246   10 Jun 2027 11:05:34.558   10 Jun 2027 11:05:55.102            20.544          9264.906
       247   11 Jun 2027 03:21:08.600   11 Jun 2027 03:21:36.672            28.072         14036.000
       248   11 Jun 2027 03:23:23.353   11 Jun 2027 03:25:31.258           127.905         63952.500
       249   11 Jun 2027 03:27:17.301   11 Jun 2027 03:28:22.547            65.246         32623.000
       250   11 Jun 2027 05:00:54.140   11 Jun 2027 05:01:00.071             5.931          2965.500
       251   11 Jun 2027 05:01:02.183   11 Jun 2027 05:01:29.490            27.307         13653.500
       252   11 Jun 2027 05:01:49.980   11 Jun 2027 05:02:06.446            16.466          8233.000
       253   11 Jun 2027 05:03:15.107   11 Jun 2027 05:04:22.962            67.855         32916.437
       254   11 Jun 2027 06:37:43.783   11 Jun 2027 06:38:13.770            29.987         14515.719
       255   11 Jun 2027 06:40:27.350   11 Jun 2027 06:40:30.237             2.887          1304.438
       256   11 Jun 2027 06:40:51.769   11 Jun 2027 06:40:52.644             0.875           236.813
       257   11 Jun 2027 06:41:04.403   11 Jun 2027 06:41:05.737             1.334           139.875
       258   11 Jun 2027 06:41:31.834   11 Jun 2027 06:41:32.865             1.031            93.875
       259   11 Jun 2027 08:01:06.478   11 Jun 2027 08:01:20.157            13.679          6811.156
       260   11 Jun 2027 08:02:07.150   11 Jun 2027 08:02:08.255             1.105           532.937
       261   11 Jun 2027 08:03:02.927   11 Jun 2027 08:03:02.927             0.000             0.000
       262   11 Jun 2027 08:03:03.591   11 Jun 2027 08:03:08.235             4.644          1038.469
       263   11 Jun 2027 09:37:28.469   11 Jun 2027 09:37:33.720             5.251          2521.813
       264   11 Jun 2027 09:38:22.958   11 Jun 2027 09:38:26.942             3.984           939.656
       265   11 Jun 2027 09:39:06.293   11 Jun 2027 09:39:08.649             2.356          1105.281
       266   11 Jun 2027 09:40:28.594   11 Jun 2027 09:40:34.057             5.463          1574.063
       267   11 Jun 2027 11:13:10.676   11 Jun 2027 11:13:28.077            17.401          8184.500
       268   11 Jun 2027 11:14:32.975   11 Jun 2027 11:14:36.744             3.769          1808.156
       269   11 Jun 2027 11:15:24.538   11 Jun 2027 11:15:26.038             1.500           241.312
       270   11 Jun 2027 11:17:14.247   11 Jun 2027 11:17:17.071             2.824           594.250
       271   11 Jun 2027 11:17:49.104   11 Jun 2027 11:17:57.499             8.395           927.187
       272   11 Jun 2027 11:18:18.143   11 Jun 2027 11:18:23.118             4.975           645.125
       273   11 Jun 2027 11:18:42.702   11 Jun 2027 11:18:42.929             0.227           113.500
       274   11 Jun 2027 11:19:27.674   11 Jun 2027 11:19:29.012             1.338           669.000
       275   12 Jun 2027 03:33:16.918   12 Jun 2027 03:33:31.591            14.673          7336.500
       276   12 Jun 2027 03:34:50.884   12 Jun 2027 03:36:21.693            90.809         45404.500
       277   12 Jun 2027 03:36:45.493   12 Jun 2027 03:37:07.443            21.950         10975.000
       278   12 Jun 2027 03:37:58.023   12 Jun 2027 03:38:00.757             2.734          1367.000
       279   12 Jun 2027 03:39:21.300   12 Jun 2027 03:40:44.168            82.868         41434.000
       280   12 Jun 2027 05:11:17.986   12 Jun 2027 05:11:21.046             3.060          1530.000
       281   12 Jun 2027 05:12:31.923   12 Jun 2027 05:13:52.433            80.510         40255.000
       282   12 Jun 2027 05:14:47.698   12 Jun 2027 05:15:13.612            25.914         12957.000
       283   12 Jun 2027 05:16:19.510   12 Jun 2027 05:16:31.635            12.125          6062.500
       284   12 Jun 2027 05:17:07.987   12 Jun 2027 05:17:31.356            23.369         11541.843
       285   12 Jun 2027 06:49:58.960   12 Jun 2027 06:50:23.376            24.416         11469.375
       286   12 Jun 2027 06:51:03.454   12 Jun 2027 06:51:07.103             3.649           830.500
       287   12 Jun 2027 06:52:16.302   12 Jun 2027 06:52:20.237             3.935           989.500
       288   12 Jun 2027 06:53:08.704   12 Jun 2027 06:53:11.729             3.025          1113.531
       289   12 Jun 2027 08:12:57.475   12 Jun 2027 08:13:09.571            12.096          5361.937
       290   12 Jun 2027 08:14:31.644   12 Jun 2027 08:14:31.644             0.000             0.000
       291   12 Jun 2027 08:15:32.069   12 Jun 2027 08:15:40.345             8.276          3776.469
       292   12 Jun 2027 09:49:30.901   12 Jun 2027 09:49:38.875             7.974          1407.906
       293   12 Jun 2027 09:50:48.843   12 Jun 2027 09:50:51.756             2.913          1269.531
       294   12 Jun 2027 09:51:27.000   12 Jun 2027 09:51:27.567             0.567           159.188
       295   12 Jun 2027 09:52:32.368   12 Jun 2027 09:52:46.193            13.825          1848.625
       296   12 Jun 2027 11:24:04.917   12 Jun 2027 11:24:15.858            10.941          4692.188
       297   12 Jun 2027 11:25:27.326   12 Jun 2027 11:25:31.792             4.466          1371.844
       298   12 Jun 2027 11:28:39.929   12 Jun 2027 11:28:50.667            10.738          5356.469
       299   12 Jun 2027 11:29:06.887   12 Jun 2027 11:29:08.252             1.365           506.875
       300   12 Jun 2027 11:29:20.141   12 Jun 2027 11:29:22.952             2.811           277.719
       301   12 Jun 2027 11:29:44.242   12 Jun 2027 11:29:45.900             1.658           273.188
       302   12 Jun 2027 11:30:21.391   12 Jun 2027 11:30:22.878             1.487           166.094
       303   12 Jun 2027 11:30:41.287   12 Jun 2027 11:30:41.287             0.000             0.000
       304   12 Jun 2027 11:31:23.262   12 Jun 2027 11:31:23.638             0.376           188.000
       305   13 Jun 2027 03:45:18.773   13 Jun 2027 03:46:00.694            41.921         20960.500
       306   13 Jun 2027 03:46:19.246   13 Jun 2027 03:47:36.413            77.167         38583.500
       307   13 Jun 2027 03:48:20.631   13 Jun 2027 03:48:41.044            20.413         10206.500
       308   13 Jun 2027 03:49:01.234   13 Jun 2027 03:49:14.421            13.187          6593.500
       309   13 Jun 2027 03:49:34.977   13 Jun 2027 03:49:45.820            10.843          5421.500
       310   13 Jun 2027 03:51:28.679   13 Jun 2027 03:51:43.613            14.934          7467.000
       311   13 Jun 2027 05:23:26.885   13 Jun 2027 05:24:28.973            62.088         31044.000
       312   13 Jun 2027 05:24:35.482   13 Jun 2027 05:26:01.933            86.451         42360.469
       313   13 Jun 2027 05:27:08.374   13 Jun 2027 05:27:12.833             4.459          1927.875
       314   13 Jun 2027 05:27:16.151   13 Jun 2027 05:27:16.451             0.300            30.687
       315   13 Jun 2027 07:01:45.255   13 Jun 2027 07:02:05.961            20.706          8558.500
       316   13 Jun 2027 07:02:44.796   13 Jun 2027 07:02:45.994             1.198           466.656
       317   13 Jun 2027 07:04:42.554   13 Jun 2027 07:04:43.559             1.005           275.562
       318   13 Jun 2027 07:05:04.399   13 Jun 2027 07:05:05.948             1.549           395.219
       319   13 Jun 2027 07:05:06.178   13 Jun 2027 07:05:07.778             1.600             7.187
       320   13 Jun 2027 08:25:08.282   13 Jun 2027 08:25:19.724            11.442          5583.719
       321   13 Jun 2027 08:26:13.042   13 Jun 2027 08:26:16.550             3.508           791.250
       322   13 Jun 2027 08:27:52.061   13 Jun 2027 08:27:57.071             5.010          2481.437
       323   13 Jun 2027 08:28:04.870   13 Jun 2027 08:28:04.870             0.000             0.000
       324   13 Jun 2027 10:01:39.999   13 Jun 2027 10:01:49.520             9.521          2824.000
       325   13 Jun 2027 10:03:23.716   13 Jun 2027 10:03:37.904            14.188          2350.188
       326   13 Jun 2027 10:04:38.759   13 Jun 2027 10:04:43.006             4.247          1812.219
       327   13 Jun 2027 11:37:16.731   13 Jun 2027 11:37:32.077            15.346          6314.406
       328   13 Jun 2027 11:43:02.469   13 Jun 2027 11:43:20.456            17.987          8501.781
       329   13 Jun 2027 11:43:23.996   13 Jun 2027 11:43:26.214             2.218           110.625
