uniorb/output/strategy_4/Camera/Camera_KinoSat_111610.txt

KinoSat_111610
-------------------------
    Access    *     Start Time (UTCG)     *     Stop Time (UTCG)  *   Duration (s) *   Data (Mbytes)
         1   01 Jun 2027 04:03:31.289   01 Jun 2027 04:05:45.563           134.274         67137.000
         2   01 Jun 2027 04:06:12.655   01 Jun 2027 04:06:38.900            26.245         13122.500
         3   01 Jun 2027 04:07:49.107   01 Jun 2027 04:07:52.285             3.178          1589.000
         4   01 Jun 2027 04:08:23.080   01 Jun 2027 04:08:24.765             1.685           842.500
         5   01 Jun 2027 04:10:28.513   01 Jun 2027 04:11:10.145            41.632         20816.000
         6   01 Jun 2027 05:29:36.785   01 Jun 2027 05:30:07.253            30.468         15234.000
         7   01 Jun 2027 05:40:34.272   01 Jun 2027 05:41:45.792            71.520         35760.000
         8   01 Jun 2027 05:42:08.944   01 Jun 2027 05:42:10.189             1.245           622.500
         9   01 Jun 2027 07:03:53.483   01 Jun 2027 07:05:18.145            84.662         42331.000
        10   01 Jun 2027 07:06:01.618   01 Jun 2027 07:06:16.657            15.039          7519.500
        11   01 Jun 2027 07:06:27.467   01 Jun 2027 07:06:34.804             7.337          3668.500
        12   01 Jun 2027 08:40:16.055   01 Jun 2027 08:41:22.447            66.392         33196.000
        13   01 Jun 2027 08:42:58.779   01 Jun 2027 08:43:31.105            32.326         16163.000
        14   01 Jun 2027 10:15:01.393   01 Jun 2027 10:16:59.064           117.671         58835.500
        15   01 Jun 2027 10:17:54.240   01 Jun 2027 10:18:16.805            22.565         11282.500
        16   01 Jun 2027 10:21:54.994   01 Jun 2027 10:22:34.018            39.024         19512.000
        17   01 Jun 2027 11:51:50.840   01 Jun 2027 11:53:36.328           105.488         52744.000
        18   01 Jun 2027 11:57:15.617   01 Jun 2027 11:57:37.058            21.441         10720.500
        19   02 Jun 2027 04:15:54.666   02 Jun 2027 04:17:22.085            87.419         43709.500
        20   02 Jun 2027 04:18:52.735   02 Jun 2027 04:19:16.666            23.931         11965.500
        21   02 Jun 2027 04:20:14.123   02 Jun 2027 04:20:34.056            19.933          9966.500
        22   02 Jun 2027 04:22:44.116   02 Jun 2027 04:22:59.603            15.487          7743.500
        23   02 Jun 2027 05:40:55.561   02 Jun 2027 05:42:11.919            76.358         38179.000
        24   02 Jun 2027 05:52:35.638   02 Jun 2027 05:53:56.384            80.746         40373.000
        25   02 Jun 2027 07:14:51.668   02 Jun 2027 07:16:07.496            75.828         37914.000
        26   02 Jun 2027 07:16:48.722   02 Jun 2027 07:18:03.627            74.905         37452.500
        27   02 Jun 2027 08:50:03.850   02 Jun 2027 08:51:28.866            85.016         42508.000
        28   02 Jun 2027 08:52:00.073   02 Jun 2027 08:53:36.506            96.433         48216.500
        29   02 Jun 2027 08:55:50.865   02 Jun 2027 08:55:58.902             8.037          4018.500
        30   02 Jun 2027 10:27:08.556   02 Jun 2027 10:28:37.626            89.070         42989.908
        31   02 Jun 2027 10:29:14.014   02 Jun 2027 10:29:20.742             6.728           873.594
        32   02 Jun 2027 10:30:39.754   02 Jun 2027 10:30:42.789             3.035           673.625
        33   02 Jun 2027 10:31:36.704   02 Jun 2027 10:31:44.753             8.049          1675.875
        34   02 Jun 2027 10:32:48.370   02 Jun 2027 10:32:48.370             0.000             0.000
        35   02 Jun 2027 10:33:40.365   02 Jun 2027 10:33:49.002             8.637          3185.000
        36   02 Jun 2027 10:34:23.501   02 Jun 2027 10:34:33.805            10.304          1027.750
        37   03 Jun 2027 04:28:13.067   03 Jun 2027 04:30:03.453           110.386         55193.000
        38   03 Jun 2027 04:30:17.959   03 Jun 2027 04:30:26.500             8.541          4270.500
        39   03 Jun 2027 04:31:18.344   03 Jun 2027 04:31:20.048             1.704           852.000
        40   03 Jun 2027 04:33:07.168   03 Jun 2027 04:33:46.339            39.171         19585.500
        41   03 Jun 2027 05:52:17.822   03 Jun 2027 05:53:00.635            42.813         21406.500
        42   03 Jun 2027 05:54:12.697   03 Jun 2027 05:54:34.188            21.491         10745.500
        43   03 Jun 2027 06:04:32.753   03 Jun 2027 06:05:12.419            39.666         19833.000
        44   03 Jun 2027 07:26:33.496   03 Jun 2027 07:27:41.640            68.144         34072.000
        45   03 Jun 2027 07:28:43.114   03 Jun 2027 07:28:54.337            11.223          4319.031
        46   03 Jun 2027 07:29:35.842   03 Jun 2027 07:29:38.237             2.395          1149.563
        47   03 Jun 2027 07:30:16.407   03 Jun 2027 07:30:16.407             0.000             0.000
        48   03 Jun 2027 07:31:28.638   03 Jun 2027 07:31:35.061             6.423          2531.406
        49   03 Jun 2027 07:31:50.450   03 Jun 2027 07:31:52.968             2.518           272.969
        50   03 Jun 2027 09:01:31.436   03 Jun 2027 09:01:38.129             6.693          2577.469
        51   03 Jun 2027 09:03:01.794   03 Jun 2027 09:03:03.515             1.721           126.469
        52   03 Jun 2027 09:03:10.711   03 Jun 2027 09:03:10.711             0.000             0.000
        53   03 Jun 2027 09:03:25.248   03 Jun 2027 09:03:26.960             1.712           636.937
        54   03 Jun 2027 09:05:24.308   03 Jun 2027 09:05:29.905             5.597          2640.188
        55   03 Jun 2027 09:07:04.842   03 Jun 2027 09:07:13.176             8.334          2536.719
        56   03 Jun 2027 09:07:48.148   03 Jun 2027 09:07:49.191             1.043           189.813
        57   03 Jun 2027 09:08:17.873   03 Jun 2027 09:08:21.941             4.068           869.219
        58   03 Jun 2027 09:08:54.009   03 Jun 2027 09:09:00.610             6.601           987.875
        59   03 Jun 2027 09:09:43.319   03 Jun 2027 09:09:46.068             2.749          1157.344
        60   03 Jun 2027 10:39:10.835   03 Jun 2027 10:39:19.760             8.925          3548.281
        61   03 Jun 2027 10:41:19.147   03 Jun 2027 10:41:21.706             2.559           628.844
        62   03 Jun 2027 10:42:45.430   03 Jun 2027 10:42:48.011             2.581           989.813
        63   03 Jun 2027 10:43:11.380   03 Jun 2027 10:43:13.250             1.870           417.437
        64   03 Jun 2027 10:43:30.909   03 Jun 2027 10:43:32.477             1.568            41.625
        65   03 Jun 2027 10:44:31.963   03 Jun 2027 10:44:35.180             3.217           408.594
        66   03 Jun 2027 10:45:11.129   03 Jun 2027 10:45:19.500             8.371          1019.625
        67   03 Jun 2027 10:45:45.260   03 Jun 2027 10:45:50.866             5.606           798.844
        68   04 Jun 2027 03:01:29.821   04 Jun 2027 03:01:31.281             1.460           730.000
        69   04 Jun 2027 03:01:56.986   04 Jun 2027 03:02:16.174            19.188          9594.000
        70   04 Jun 2027 03:02:22.639   04 Jun 2027 03:02:23.371             0.732           366.000
        71   04 Jun 2027 03:02:25.430   04 Jun 2027 03:02:37.183            11.753          5876.500
        72   04 Jun 2027 03:03:10.915   04 Jun 2027 03:03:12.566             1.651           825.500
        73   04 Jun 2027 03:03:38.637   04 Jun 2027 03:03:46.166             7.529          3764.500
        74   04 Jun 2027 03:03:58.911   04 Jun 2027 03:04:05.115             6.204          3102.000
        75   04 Jun 2027 03:04:11.737   04 Jun 2027 03:04:24.876            13.139          6569.500
        76   04 Jun 2027 03:05:14.934   04 Jun 2027 03:05:29.961            15.027          7513.500
        77   04 Jun 2027 03:05:53.932   04 Jun 2027 03:05:55.364             1.432           716.000
        78   04 Jun 2027 04:40:18.072   04 Jun 2027 04:42:08.712           110.640         55320.000
        79   04 Jun 2027 04:42:34.620   04 Jun 2027 04:44:09.487            94.867         47433.500
        80   04 Jun 2027 04:44:30.844   04 Jun 2027 04:44:51.251            20.407         10203.500
        81   04 Jun 2027 04:45:19.120   04 Jun 2027 04:45:35.332            16.212          6720.093
        82   04 Jun 2027 06:04:25.065   04 Jun 2027 06:04:56.631            31.566         15783.000
        83   04 Jun 2027 07:38:13.086   04 Jun 2027 07:38:28.501            15.415          7705.250
        84   04 Jun 2027 07:39:20.340   04 Jun 2027 07:39:22.063             1.723           697.594
        85   04 Jun 2027 07:40:12.021   04 Jun 2027 07:40:13.882             1.861           905.250
        86   04 Jun 2027 07:40:58.424   04 Jun 2027 07:41:02.480             4.056          1295.156
        87   04 Jun 2027 07:41:07.815   04 Jun 2027 07:41:08.563             0.748           166.719
        88   04 Jun 2027 07:41:32.145   04 Jun 2027 07:41:35.998             3.853           511.500
        89   04 Jun 2027 07:42:38.132   04 Jun 2027 07:42:41.795             3.663          1699.000
        90   04 Jun 2027 07:43:11.231   04 Jun 2027 07:43:12.506             1.275           608.187
        91   04 Jun 2027 09:13:05.375   04 Jun 2027 09:13:10.606             5.231          2495.469
        92   04 Jun 2027 09:16:44.477   04 Jun 2027 09:16:46.193             1.716           827.625
        93   04 Jun 2027 09:17:45.646   04 Jun 2027 09:17:48.383             2.737          1149.937
        94   04 Jun 2027 09:18:05.658   04 Jun 2027 09:18:07.206             1.548           168.031
        95   04 Jun 2027 09:19:10.181   04 Jun 2027 09:19:14.335             4.154          1083.156
        96   04 Jun 2027 09:20:30.694   04 Jun 2027 09:20:35.661             4.967           702.562
        97   04 Jun 2027 09:21:05.069   04 Jun 2027 09:21:09.201             4.132           694.531
        98   04 Jun 2027 09:22:05.455   04 Jun 2027 09:22:10.697             5.242          1612.563
        99   04 Jun 2027 10:51:13.347   04 Jun 2027 10:51:25.834            12.487          5793.563
       100   04 Jun 2027 10:54:04.291   04 Jun 2027 10:54:12.953             8.662          3312.125
       101   04 Jun 2027 10:55:25.561   04 Jun 2027 10:55:27.196             1.635           593.469
       102   04 Jun 2027 10:56:01.126   04 Jun 2027 10:56:03.406             2.280          1009.844
       103   04 Jun 2027 10:56:14.775   04 Jun 2027 10:56:16.961             2.186           313.562
       104   04 Jun 2027 10:56:31.432   04 Jun 2027 10:56:38.898             7.466           116.313
       105   04 Jun 2027 10:56:46.899   04 Jun 2027 10:56:54.145             7.246           136.375
       106   04 Jun 2027 10:57:42.648   04 Jun 2027 10:57:44.142             1.494           673.906
       107   04 Jun 2027 10:58:07.645   04 Jun 2027 10:58:11.047             3.402           727.844
       108   04 Jun 2027 10:58:21.022   04 Jun 2027 10:58:21.626             0.604           111.969
       109   05 Jun 2027 03:14:29.337   05 Jun 2027 03:15:24.180            54.843         27421.500
       110   05 Jun 2027 03:15:32.825   05 Jun 2027 03:16:09.770            36.945         18472.500
       111   05 Jun 2027 03:16:13.353   05 Jun 2027 03:16:14.475             1.122           561.000
       112   05 Jun 2027 03:16:14.962   05 Jun 2027 03:16:17.388             2.426          1213.000
       113   05 Jun 2027 03:19:22.270   05 Jun 2027 03:19:45.859            23.589         11794.500
       114   05 Jun 2027 04:52:54.854   05 Jun 2027 04:55:59.053           184.199         91008.969
       115   05 Jun 2027 06:16:20.448   05 Jun 2027 06:16:38.485            18.037          6743.188
       116   05 Jun 2027 06:17:31.738   05 Jun 2027 06:17:34.934             3.196          1271.375
       117   05 Jun 2027 06:18:06.588   05 Jun 2027 06:18:06.588             0.000             0.000
       118   05 Jun 2027 06:18:29.337   05 Jun 2027 06:18:33.276             3.939          1610.719
       119   05 Jun 2027 07:52:35.379   05 Jun 2027 07:52:41.399             6.020          3010.000
       120   05 Jun 2027 07:53:13.466   05 Jun 2027 07:53:19.083             5.617          1732.781
       121   05 Jun 2027 07:53:54.459   05 Jun 2027 07:53:56.330             1.871           687.125
       122   05 Jun 2027 07:55:29.699   05 Jun 2027 07:55:35.934             6.235          2117.906
       123   05 Jun 2027 09:26:07.908   05 Jun 2027 09:26:14.530             6.622          3152.094
       124   05 Jun 2027 09:27:58.259   05 Jun 2027 09:28:01.042             2.783           499.969
       125   05 Jun 2027 09:28:39.276   05 Jun 2027 09:28:40.857             1.581           164.000
       126   05 Jun 2027 09:29:11.151   05 Jun 2027 09:29:16.254             5.103           891.375
       127   05 Jun 2027 09:30:43.826   05 Jun 2027 09:30:50.312             6.486          2477.344
       128   05 Jun 2027 09:31:59.504   05 Jun 2027 09:32:04.179             4.675          1739.625
       129   05 Jun 2027 09:33:59.965   05 Jun 2027 09:34:05.503             5.538          1670.656
       130   05 Jun 2027 11:03:40.491   05 Jun 2027 11:03:49.682             9.191          4202.156
       131   05 Jun 2027 11:07:34.721   05 Jun 2027 11:07:41.989             7.268          3564.281
       132   05 Jun 2027 11:08:35.418   05 Jun 2027 11:08:37.611             2.193           175.656
       133   05 Jun 2027 11:09:54.500   05 Jun 2027 11:09:59.259             4.759          1374.625
       134   05 Jun 2027 11:10:06.866   05 Jun 2027 11:10:10.703             3.837           237.719
       135   06 Jun 2027 03:26:30.534   06 Jun 2027 03:26:58.629            28.095         14047.500
       136   06 Jun 2027 03:27:01.206   06 Jun 2027 03:30:12.823           191.617         95808.500
       137   06 Jun 2027 05:04:33.408   06 Jun 2027 05:06:08.801            95.393         47635.219
       138   06 Jun 2027 05:07:06.661   06 Jun 2027 05:07:11.226             4.565          1715.281
       139   06 Jun 2027 05:07:36.454   06 Jun 2027 05:07:41.565             5.111           759.187
       140   06 Jun 2027 05:08:02.053   06 Jun 2027 05:08:03.738             1.685           640.250
       141   06 Jun 2027 06:28:12.473   06 Jun 2027 06:28:25.036            12.563          5672.844
       142   06 Jun 2027 06:30:09.762   06 Jun 2027 06:30:16.459             6.697          2727.500
       143   06 Jun 2027 08:04:39.668   06 Jun 2027 08:04:47.726             8.058          3746.187
       144   06 Jun 2027 08:05:25.750   06 Jun 2027 08:05:27.158             1.408           497.687
       145   06 Jun 2027 08:06:32.381   06 Jun 2027 08:06:36.243             3.862          1765.750
       146   06 Jun 2027 08:07:43.712   06 Jun 2027 08:07:51.198             7.486           868.562
       147   06 Jun 2027 09:36:54.505   06 Jun 2027 09:36:57.383             2.878          1439.000
       148   06 Jun 2027 09:38:47.212   06 Jun 2027 09:38:49.365             2.153           528.062
       149   06 Jun 2027 09:40:53.334   06 Jun 2027 09:40:56.271             2.937           619.687
       150   06 Jun 2027 09:41:57.360   06 Jun 2027 09:42:00.839             3.479          1380.844
       151   06 Jun 2027 09:43:45.106   06 Jun 2027 09:43:48.859             3.753          1341.156
       152   06 Jun 2027 09:44:47.832   06 Jun 2027 09:44:51.759             3.927          1701.906
       153   06 Jun 2027 09:45:10.662   06 Jun 2027 09:45:12.804             2.142           590.719
       154   06 Jun 2027 09:46:01.628   06 Jun 2027 09:46:06.874             5.246           831.281
       155   06 Jun 2027 11:15:45.690   06 Jun 2027 11:15:55.320             9.630          4271.938
       156   06 Jun 2027 11:17:50.884   06 Jun 2027 11:17:55.434             4.550          1450.125
       157   06 Jun 2027 11:18:21.466   06 Jun 2027 11:18:23.941             2.475           667.437
       158   06 Jun 2027 11:18:57.711   06 Jun 2027 11:19:04.328             6.617           934.219
       159   06 Jun 2027 11:20:26.887   06 Jun 2027 11:20:30.860             3.973          1868.750
       160   06 Jun 2027 11:20:39.702   06 Jun 2027 11:20:42.152             2.450           223.469
       161   06 Jun 2027 11:20:46.317   06 Jun 2027 11:20:47.854             1.537           130.156
       162   06 Jun 2027 11:21:46.086   06 Jun 2027 11:21:49.877             3.791          1746.406
       163   06 Jun 2027 11:22:06.066   06 Jun 2027 11:22:08.566             2.500           486.313
       164   07 Jun 2027 03:38:38.531   07 Jun 2027 03:39:39.007            60.476         30238.000
       165   07 Jun 2027 03:39:47.590   07 Jun 2027 03:41:38.658           111.068         55534.000
       166   07 Jun 2027 03:43:33.810   07 Jun 2027 03:44:07.924            34.114         17057.000
       167   07 Jun 2027 03:44:55.053   07 Jun 2027 03:44:58.115             3.062          1531.000
       168   07 Jun 2027 05:17:00.852   07 Jun 2027 05:17:24.584            23.732         11866.000
       169   07 Jun 2027 05:17:52.717   07 Jun 2027 05:18:58.380            65.663         32637.750
       170   07 Jun 2027 05:19:27.661   07 Jun 2027 05:19:33.513             5.852           812.313
       171   07 Jun 2027 05:20:28.130   07 Jun 2027 05:20:31.072             2.942          1458.031
       172   07 Jun 2027 06:40:20.720   07 Jun 2027 06:40:30.487             9.767          4145.406
       173   07 Jun 2027 06:41:33.841   07 Jun 2027 06:41:40.835             6.994          1979.813
       174   07 Jun 2027 06:42:40.163   07 Jun 2027 06:42:51.524            11.361          1854.000
       175   07 Jun 2027 06:43:13.952   07 Jun 2027 06:43:15.837             1.885           518.500
       176   07 Jun 2027 08:16:50.118   07 Jun 2027 08:16:57.523             7.405          1805.594
       177   07 Jun 2027 08:17:37.580   07 Jun 2027 08:17:41.501             3.921          1012.187
       178   07 Jun 2027 08:18:45.166   07 Jun 2027 08:18:52.305             7.139          1670.656
       179   07 Jun 2027 08:19:34.486   07 Jun 2027 08:19:36.485             1.999           519.000
       180   07 Jun 2027 09:52:01.206   07 Jun 2027 09:52:10.027             8.821          4304.125
       181   07 Jun 2027 09:53:14.861   07 Jun 2027 09:53:14.861             0.000             0.000
       182   07 Jun 2027 09:53:16.166   07 Jun 2027 09:53:16.442             0.276            49.625
       183   07 Jun 2027 09:55:40.830   07 Jun 2027 09:55:44.772             3.942          1927.531
       184   07 Jun 2027 09:56:24.890   07 Jun 2027 09:56:27.822             2.932           721.219
       185   07 Jun 2027 09:57:10.513   07 Jun 2027 09:57:14.679             4.166           907.687
       186   07 Jun 2027 09:58:22.180   07 Jun 2027 09:58:23.673             1.493           681.500
       187   07 Jun 2027 11:28:20.768   07 Jun 2027 11:28:33.368            12.600          5413.937
       188   07 Jun 2027 11:30:13.224   07 Jun 2027 11:30:16.296             3.072          1262.562
       189   07 Jun 2027 11:31:00.235   07 Jun 2027 11:31:08.859             8.624          1201.375
       190   07 Jun 2027 11:32:10.297   07 Jun 2027 11:32:18.294             7.997           678.844
       191   07 Jun 2027 11:33:04.151   07 Jun 2027 11:33:06.192             2.041           815.000
       192   07 Jun 2027 11:33:30.955   07 Jun 2027 11:33:32.355             1.400            47.156
       193   08 Jun 2027 03:50:43.280   08 Jun 2027 03:50:59.783            16.503          8251.500
       194   08 Jun 2027 03:51:45.901   08 Jun 2027 03:54:55.768           189.867         94933.500
       195   08 Jun 2027 03:55:26.205   08 Jun 2027 03:55:26.651             0.446           223.000
       196   08 Jun 2027 03:58:58.841   08 Jun 2027 03:59:31.601            32.760         16380.000
       197   08 Jun 2027 05:28:54.705   08 Jun 2027 05:29:32.209            37.504         18752.000
       198   08 Jun 2027 05:30:02.328   08 Jun 2027 05:31:17.471            75.143         35719.375
       199   08 Jun 2027 06:53:03.567   08 Jun 2027 06:53:16.364            12.797          6014.656
       200   08 Jun 2027 06:53:35.195   08 Jun 2027 06:53:42.581             7.386           581.531
       201   08 Jun 2027 06:54:55.842   08 Jun 2027 06:54:57.842             2.000          1000.000
       202   08 Jun 2027 06:55:17.109   08 Jun 2027 06:55:21.494             4.385          1891.500
       203   08 Jun 2027 08:28:47.018   08 Jun 2027 08:28:54.246             7.228          2327.500
       204   08 Jun 2027 08:29:39.128   08 Jun 2027 08:29:44.328             5.200          1272.594
       205   08 Jun 2027 08:30:16.724   08 Jun 2027 08:30:17.911             1.187           228.469
       206   08 Jun 2027 08:30:33.887   08 Jun 2027 08:30:34.337             0.450           219.437
       207   08 Jun 2027 08:30:44.851   08 Jun 2027 08:30:48.616             3.765           328.563
       208   08 Jun 2027 08:31:14.007   08 Jun 2027 08:31:16.647             2.640           426.000
       209   08 Jun 2027 08:31:57.839   08 Jun 2027 08:32:00.821             2.982          1197.469
       210   08 Jun 2027 10:03:45.252   08 Jun 2027 10:03:50.848             5.596          2587.406
       211   08 Jun 2027 10:05:16.163   08 Jun 2027 10:05:22.832             6.669          2073.156
       212   08 Jun 2027 10:06:20.136   08 Jun 2027 10:06:23.140             3.004          1164.375
       213   08 Jun 2027 10:06:55.775   08 Jun 2027 10:06:58.222             2.447            80.031
       214   08 Jun 2027 10:08:10.888   08 Jun 2027 10:08:15.236             4.348           897.188
       215   08 Jun 2027 10:08:33.783   08 Jun 2027 10:08:37.459             3.676           551.844
       216   08 Jun 2027 10:09:13.610   08 Jun 2027 10:09:15.685             2.075           912.937
       217   08 Jun 2027 10:10:18.442   08 Jun 2027 10:10:22.112             3.670          1814.094
       218   08 Jun 2027 10:10:41.347   08 Jun 2027 10:10:43.731             2.384           601.094
       219   08 Jun 2027 11:39:56.509   08 Jun 2027 11:40:09.206            12.697          5643.156
       220   08 Jun 2027 11:42:01.758   08 Jun 2027 11:42:06.917             5.159          1545.938
       221   08 Jun 2027 11:42:28.007   08 Jun 2027 11:42:30.644             2.637           659.062
       222   08 Jun 2027 11:43:44.254   08 Jun 2027 11:43:48.055             3.801          1391.219
       223   08 Jun 2027 11:44:09.812   08 Jun 2027 11:44:11.348             1.536           596.937
       224   08 Jun 2027 11:44:37.744   08 Jun 2027 11:44:41.983             4.239           824.875
       225   08 Jun 2027 11:45:19.968   08 Jun 2027 11:45:25.934             5.966           860.219
       226   09 Jun 2027 04:03:48.673   09 Jun 2027 04:07:05.551           196.878         98439.000
       227   09 Jun 2027 04:08:21.130   09 Jun 2027 04:08:21.130             0.000             0.000
       228   09 Jun 2027 04:08:39.249   09 Jun 2027 04:08:54.161            14.912          7456.000
       229   09 Jun 2027 05:29:50.816   09 Jun 2027 05:30:09.995            19.179          9589.500
       230   09 Jun 2027 05:40:50.926   09 Jun 2027 05:42:34.320           103.394         51697.000
       231   09 Jun 2027 05:42:45.918   09 Jun 2027 05:43:03.161            17.243          8520.688
       232   09 Jun 2027 05:43:32.743   09 Jun 2027 05:43:34.694             1.951           523.063
       233   09 Jun 2027 07:04:09.178   09 Jun 2027 07:04:26.452            17.274          6498.469
       234   09 Jun 2027 07:04:47.697   09 Jun 2027 07:04:48.880             1.183            95.406
       235   09 Jun 2027 07:04:52.132   09 Jun 2027 07:04:54.164             2.032            61.562
       236   09 Jun 2027 07:05:10.572   09 Jun 2027 07:05:10.943             0.371            42.313
       237   09 Jun 2027 07:05:44.250   09 Jun 2027 07:05:44.433             0.183            91.500
       238   09 Jun 2027 07:06:19.406   09 Jun 2027 07:06:25.683             6.277          1792.281
       239   09 Jun 2027 07:06:42.131   09 Jun 2027 07:06:46.684             4.553           290.438
       240   09 Jun 2027 08:39:23.225   09 Jun 2027 08:39:28.311             5.086          2543.000
       241   09 Jun 2027 08:40:32.170   09 Jun 2027 08:40:35.011             2.841          1144.094
       242   09 Jun 2027 08:42:56.781   09 Jun 2027 08:43:05.799             9.018          3995.781
       243   09 Jun 2027 08:43:17.451   09 Jun 2027 08:43:18.146             0.695           279.969
       244   09 Jun 2027 08:43:25.140   09 Jun 2027 08:43:30.792             5.652           218.562
       245   09 Jun 2027 10:15:18.451   09 Jun 2027 10:15:27.797             9.346          3360.312
       246   09 Jun 2027 10:15:47.033   09 Jun 2027 10:15:48.708             1.675           156.750
       247   09 Jun 2027 10:17:17.026   09 Jun 2027 10:17:23.127             6.101          2663.719
       248   09 Jun 2027 10:18:50.490   09 Jun 2027 10:18:56.863             6.373          1143.031
       249   09 Jun 2027 10:21:07.360   09 Jun 2027 10:21:16.352             8.992          3911.906
       250   09 Jun 2027 10:22:13.087   09 Jun 2027 10:22:17.908             4.821          1403.719
       251   09 Jun 2027 11:52:11.049   09 Jun 2027 11:52:22.866            11.817          5629.781
       252   09 Jun 2027 11:52:37.419   09 Jun 2027 11:52:38.542             1.123           410.594
       253   09 Jun 2027 11:52:53.912   09 Jun 2027 11:52:54.607             0.695           326.969
       254   09 Jun 2027 11:53:37.481   09 Jun 2027 11:53:48.951            11.470           115.344
       255   09 Jun 2027 11:53:59.772   09 Jun 2027 11:54:02.888             3.116           205.437
       256   09 Jun 2027 11:54:58.144   09 Jun 2027 11:55:02.748             4.604           863.688
       257   09 Jun 2027 11:55:11.831   09 Jun 2027 11:55:12.689             0.858           283.844
       258   09 Jun 2027 11:56:07.356   09 Jun 2027 11:56:10.018             2.662           453.844
       259   09 Jun 2027 11:56:38.771   09 Jun 2027 11:56:45.992             7.221           816.156
       260   09 Jun 2027 11:57:09.220   09 Jun 2027 11:57:13.052             3.832           725.875
       261   09 Jun 2027 11:58:10.412   09 Jun 2027 11:58:14.213             3.801          1780.031
       262   09 Jun 2027 11:58:17.855   09 Jun 2027 11:58:19.656             1.801            98.594
       263   10 Jun 2027 04:16:12.847   10 Jun 2027 04:18:35.067           142.220         71110.000
       264   10 Jun 2027 04:21:30.396   10 Jun 2027 04:21:30.396             0.000             0.000
       265   10 Jun 2027 04:21:47.365   10 Jun 2027 04:22:03.960            16.595          8297.500
       266   10 Jun 2027 04:23:01.961   10 Jun 2027 04:23:13.450            11.489          5744.500
       267   10 Jun 2027 05:41:11.523   10 Jun 2027 05:41:16.150             4.627          2313.500
       268   10 Jun 2027 05:42:14.741   10 Jun 2027 05:42:27.065            12.324          6162.000
       269   10 Jun 2027 05:52:52.951   10 Jun 2027 05:54:12.588            79.637         39818.500
       270   10 Jun 2027 07:15:07.446   10 Jun 2027 07:16:19.730            72.284         35951.781
       271   10 Jun 2027 07:17:05.821   10 Jun 2027 07:17:08.887             3.066           892.406
       272   10 Jun 2027 07:18:57.199   10 Jun 2027 07:19:05.700             8.501          3227.531
       273   10 Jun 2027 07:19:44.017   10 Jun 2027 07:19:44.847             0.830           415.000
       274   10 Jun 2027 08:50:17.534   10 Jun 2027 08:50:27.283             9.749          4866.000
       275   10 Jun 2027 08:50:36.677   10 Jun 2027 08:50:38.893             2.216            45.031
       276   10 Jun 2027 08:52:35.346   10 Jun 2027 08:52:44.121             8.775          3639.156
       277   10 Jun 2027 08:53:51.504   10 Jun 2027 08:53:57.256             5.752          1382.437
       278   10 Jun 2027 08:55:21.646   10 Jun 2027 08:55:27.962             6.316          2498.031
       279   10 Jun 2027 08:55:38.609   10 Jun 2027 08:55:39.232             0.623           255.500
       280   10 Jun 2027 08:56:03.399   10 Jun 2027 08:56:04.349             0.950           313.000
       281   10 Jun 2027 08:56:22.437   10 Jun 2027 08:56:24.438             2.001           426.969
       282   10 Jun 2027 08:56:38.494   10 Jun 2027 08:56:39.669             1.175           439.250
       283   10 Jun 2027 10:27:25.738   10 Jun 2027 10:27:38.431            12.693          3577.250
       284   10 Jun 2027 10:28:07.473   10 Jun 2027 10:28:09.331             1.858           139.000
       285   10 Jun 2027 10:29:30.475   10 Jun 2027 10:29:35.823             5.348           864.406
       286   10 Jun 2027 10:30:49.939   10 Jun 2027 10:30:52.273             2.334           207.563
       287   10 Jun 2027 10:32:20.838   10 Jun 2027 10:32:27.236             6.398          2676.500
       288   10 Jun 2027 10:32:47.835   10 Jun 2027 10:32:49.423             1.588           638.656
       289   10 Jun 2027 10:33:56.007   10 Jun 2027 10:34:00.498             4.491          1566.656
       290   10 Jun 2027 10:34:23.522   10 Jun 2027 10:34:25.509             1.987           701.375
       291   11 Jun 2027 04:28:31.311   11 Jun 2027 04:30:35.754           124.443         62221.500
       292   11 Jun 2027 04:30:42.231   11 Jun 2027 04:30:52.937            10.706          5353.000
       293   11 Jun 2027 04:33:21.734   11 Jun 2027 04:33:34.615            12.881          6440.500
       294   11 Jun 2027 04:34:05.654   11 Jun 2027 04:34:16.064            10.410          5205.000
       295   11 Jun 2027 04:35:15.456   11 Jun 2027 04:35:29.827            14.371          7185.500
       296   11 Jun 2027 05:52:36.855   11 Jun 2027 05:53:07.748            30.893         15446.500
       297   11 Jun 2027 05:53:45.533   11 Jun 2027 05:53:53.647             8.114          4057.000
       298   11 Jun 2027 05:54:25.653   11 Jun 2027 05:54:28.019             2.366          1183.000
       299   11 Jun 2027 06:04:49.904   11 Jun 2027 06:05:28.377            38.473         19236.500
       300   11 Jun 2027 07:26:52.446   11 Jun 2027 07:28:04.041            71.595         35797.500
       301   11 Jun 2027 07:29:01.347   11 Jun 2027 07:29:07.887             6.540          2349.187
       302   11 Jun 2027 07:29:22.926   11 Jun 2027 07:29:25.375             2.449           175.438
       303   11 Jun 2027 07:29:48.299   11 Jun 2027 07:29:48.299             0.000             0.000
       304   11 Jun 2027 07:31:45.853   11 Jun 2027 07:31:54.513             8.660          4166.281
       305   11 Jun 2027 07:32:05.052   11 Jun 2027 07:32:07.443             2.391           208.094
       306   11 Jun 2027 09:01:44.909   11 Jun 2027 09:01:49.955             5.046          2507.469
       307   11 Jun 2027 09:05:42.254   11 Jun 2027 09:05:51.092             8.838          4232.594
       308   11 Jun 2027 09:07:22.006   11 Jun 2027 09:07:28.166             6.160          2518.031
       309   11 Jun 2027 09:08:40.558   11 Jun 2027 09:08:42.931             2.373          1012.125
       310   11 Jun 2027 09:09:04.113   11 Jun 2027 09:09:06.713             2.600           526.469
       311   11 Jun 2027 09:09:21.130   11 Jun 2027 09:09:31.816            10.686           267.812
       312   11 Jun 2027 09:10:17.946   11 Jun 2027 09:10:20.597             2.651          1019.281
       313   11 Jun 2027 10:39:27.519   11 Jun 2027 10:39:36.371             8.852          4264.281
       314   11 Jun 2027 10:41:13.563   11 Jun 2027 10:41:14.818             1.255           259.250
       315   11 Jun 2027 10:42:33.563   11 Jun 2027 10:42:39.147             5.584          2389.125
       316   11 Jun 2027 10:43:46.080   11 Jun 2027 10:43:50.866             4.786          1346.250
       317   11 Jun 2027 10:44:34.955   11 Jun 2027 10:44:37.017             2.062           260.844
       318   11 Jun 2027 10:44:48.232   11 Jun 2027 10:44:49.879             1.647           337.563
       319   11 Jun 2027 10:45:08.490   11 Jun 2027 10:45:11.743             3.253           414.594
       320   11 Jun 2027 10:45:43.702   11 Jun 2027 10:45:47.193             3.491           701.531
       321   11 Jun 2027 10:46:39.906   11 Jun 2027 10:46:43.080             3.174          1373.906
       322   12 Jun 2027 03:02:14.817   12 Jun 2027 03:02:39.984            25.167         12583.500
       323   12 Jun 2027 03:02:42.378   12 Jun 2027 03:02:51.683             9.305          4652.500
       324   12 Jun 2027 03:03:27.164   12 Jun 2027 03:03:34.794             7.630          3815.000
       325   12 Jun 2027 03:04:49.867   12 Jun 2027 03:04:49.867             0.000             0.000
       326   12 Jun 2027 03:05:51.685   12 Jun 2027 03:06:08.433            16.748          8374.000
       327   12 Jun 2027 03:07:15.675   12 Jun 2027 03:07:18.879             3.204          1602.000
       328   12 Jun 2027 04:40:37.246   12 Jun 2027 04:43:25.059           167.813         83906.500
       329   12 Jun 2027 04:44:27.659   12 Jun 2027 04:45:07.835            40.176         20088.000
       330   12 Jun 2027 04:45:35.167   12 Jun 2027 04:46:14.550            39.383         19691.500
       331   12 Jun 2027 06:04:41.770   12 Jun 2027 06:05:12.304            30.534         15267.000
       332   12 Jun 2027 07:38:28.170   12 Jun 2027 07:38:44.518            16.348          8035.375
       333   12 Jun 2027 07:40:00.587   12 Jun 2027 07:40:04.830             4.243          1815.625
       334   12 Jun 2027 07:41:16.845   12 Jun 2027 07:41:20.732             3.887          1454.906
       335   12 Jun 2027 07:41:24.473   12 Jun 2027 07:41:25.536             1.063           116.906
       336   12 Jun 2027 07:41:50.233   12 Jun 2027 07:41:51.496             1.263           563.156
       337   12 Jun 2027 07:42:53.711   12 Jun 2027 07:43:02.944             9.233          1661.781
       338   12 Jun 2027 07:43:28.595   12 Jun 2027 07:43:31.067             2.472           639.000
       339   12 Jun 2027 07:43:56.775   12 Jun 2027 07:44:07.918            11.143           379.938
       340   12 Jun 2027 09:14:28.565   12 Jun 2027 09:14:34.595             6.030          2744.437
       341   12 Jun 2027 09:16:36.256   12 Jun 2027 09:16:38.359             2.103          1022.844
       342   12 Jun 2027 09:17:26.988   12 Jun 2027 09:17:33.537             6.549           819.688
       343   12 Jun 2027 09:19:09.825   12 Jun 2027 09:19:17.794             7.969          2726.500
       344   12 Jun 2027 09:20:25.806   12 Jun 2027 09:20:31.893             6.087          2000.625
       345   12 Jun 2027 09:21:35.986   12 Jun 2027 09:21:40.108             4.122          1605.031
       346   12 Jun 2027 09:22:43.937   12 Jun 2027 09:22:48.100             4.163          1154.938
       347   12 Jun 2027 10:51:31.137   12 Jun 2027 10:51:44.679            13.542          5811.344
       348   12 Jun 2027 10:52:35.201   12 Jun 2027 10:52:35.201             0.000             0.000
       349   12 Jun 2027 10:53:16.130   12 Jun 2027 10:53:22.764             6.634          2020.219
       350   12 Jun 2027 10:53:53.050   12 Jun 2027 10:53:57.928             4.878           265.156
       351   12 Jun 2027 10:55:44.401   12 Jun 2027 10:55:49.776             5.375          2629.687
       352   12 Jun 2027 10:56:30.344   12 Jun 2027 10:56:31.858             1.514           308.000
       353   12 Jun 2027 10:57:03.428   12 Jun 2027 10:57:07.951             4.523           615.469
       354   12 Jun 2027 10:57:57.882   12 Jun 2027 10:58:00.675             2.793           674.813
       355   12 Jun 2027 10:58:23.884   12 Jun 2027 10:58:26.596             2.712           708.312
       356   12 Jun 2027 10:58:27.502   12 Jun 2027 10:58:29.233             1.731            28.312
       357   12 Jun 2027 10:58:36.782   12 Jun 2027 10:58:37.924             1.142           118.594
       358   13 Jun 2027 03:14:47.609   13 Jun 2027 03:15:39.277            51.668         25834.000
       359   13 Jun 2027 03:15:49.322   13 Jun 2027 03:16:31.325            42.003         21001.500
       360   13 Jun 2027 03:16:31.903   13 Jun 2027 03:16:52.417            20.514         10257.000
       361   13 Jun 2027 03:17:17.686   13 Jun 2027 03:17:24.037             6.351          3175.500
       362   13 Jun 2027 03:19:41.949   13 Jun 2027 03:19:58.437            16.488          8244.000
       363   13 Jun 2027 04:53:11.628   13 Jun 2027 04:56:03.914           172.286         85115.562
       364   13 Jun 2027 04:56:53.885   13 Jun 2027 04:56:57.849             3.964          1561.594
       365   13 Jun 2027 06:16:36.719   13 Jun 2027 06:16:50.074            13.355          6402.438
       366   13 Jun 2027 06:18:22.937   13 Jun 2027 06:18:28.655             5.718          2403.500
       367   13 Jun 2027 06:18:50.333   13 Jun 2027 06:18:51.216             0.883           119.844
       368   13 Jun 2027 07:52:55.753   13 Jun 2027 07:53:09.804            14.051          6660.813
       369   13 Jun 2027 07:53:24.128   13 Jun 2027 07:53:24.128             0.000             0.000
       370   13 Jun 2027 07:53:25.656   13 Jun 2027 07:53:27.376             1.720           328.813
       371   13 Jun 2027 07:53:34.915   13 Jun 2027 07:53:34.915             0.000             0.000
       372   13 Jun 2027 07:53:51.316   13 Jun 2027 07:53:51.316             0.000             0.000
       373   13 Jun 2027 07:54:40.446   13 Jun 2027 07:54:45.105             4.659          2206.563
       374   13 Jun 2027 07:54:54.512   13 Jun 2027 07:54:55.486             0.974           124.344
       375   13 Jun 2027 07:55:31.037   13 Jun 2027 07:55:38.526             7.489           553.219
       376   13 Jun 2027 09:26:25.553   13 Jun 2027 09:26:32.973             7.420          2649.219
       377   13 Jun 2027 09:28:55.453   13 Jun 2027 09:28:55.753             0.300            91.469
       378   13 Jun 2027 09:29:29.261   13 Jun 2027 09:29:31.129             1.868           864.406
       379   13 Jun 2027 09:31:20.890   13 Jun 2027 09:31:26.720             5.830          2265.688
       380   13 Jun 2027 09:32:36.374   13 Jun 2027 09:32:43.898             7.524          1995.469
       381   13 Jun 2027 09:33:25.585   13 Jun 2027 09:33:25.585             0.000             0.000
       382   13 Jun 2027 09:33:29.012   13 Jun 2027 09:33:29.236             0.224           112.000
       383   13 Jun 2027 09:33:40.691   13 Jun 2027 09:33:48.163             7.472           393.438
       384   13 Jun 2027 09:34:56.795   13 Jun 2027 09:34:58.075             1.280           640.000
       385   13 Jun 2027 11:03:57.347   13 Jun 2027 11:04:08.908            11.561          5723.594
       386   13 Jun 2027 11:05:56.989   13 Jun 2027 11:06:00.642             3.653          1207.781
       387   13 Jun 2027 11:07:39.554   13 Jun 2027 11:07:46.127             6.573          2725.594
       388   13 Jun 2027 11:08:53.753   13 Jun 2027 11:08:54.755             1.002           244.156
       389   13 Jun 2027 11:10:10.995   13 Jun 2027 11:10:14.990             3.995          1429.406
