uniorb/output/strategy_4/Camera/Camera_KinoSat_110704.txt

KinoSat_110704
-------------------------
    Access    *     Start Time (UTCG)     *     Stop Time (UTCG)  *   Duration (s) *   Data (Mbytes)
         1   01 Jun 2027 03:49:16.363   01 Jun 2027 03:50:49.847            93.484         46742.000
         2   01 Jun 2027 03:51:00.027   01 Jun 2027 03:51:08.349             8.322          4161.000
         3   01 Jun 2027 03:51:24.088   01 Jun 2027 03:51:24.088             0.000             0.000
         4   01 Jun 2027 03:51:54.597   01 Jun 2027 03:52:00.395             5.798          2899.000
         5   01 Jun 2027 05:22:49.878   01 Jun 2027 05:24:59.593           129.715         64857.500
         6   01 Jun 2027 05:25:39.051   01 Jun 2027 05:25:40.504             1.453           726.500
         7   01 Jun 2027 05:27:19.929   01 Jun 2027 05:27:19.929             0.000             0.000
         8   01 Jun 2027 05:28:24.151   01 Jun 2027 05:28:25.867             1.716           858.000
         9   01 Jun 2027 05:29:34.787   01 Jun 2027 05:29:44.999            10.212          5106.000
        10   01 Jun 2027 05:30:45.352   01 Jun 2027 05:30:54.886             9.534          4767.000
        11   01 Jun 2027 05:31:22.350   01 Jun 2027 05:31:23.507             1.157           578.500
        12   01 Jun 2027 07:00:16.642   01 Jun 2027 07:00:39.866            23.224         11612.000
        13   01 Jun 2027 07:00:50.615   01 Jun 2027 07:02:20.829            90.214         45107.000
        14   01 Jun 2027 07:03:34.982   01 Jun 2027 07:03:41.125             6.143          3071.500
        15   01 Jun 2027 07:04:22.722   01 Jun 2027 07:04:44.148            21.426         10713.000
        16   01 Jun 2027 08:37:17.175   01 Jun 2027 08:39:29.122           131.947         65973.500
        17   01 Jun 2027 08:39:55.471   01 Jun 2027 08:40:24.481            29.010         14505.000
        18   01 Jun 2027 08:40:28.340   01 Jun 2027 08:40:31.795             3.455          1727.500
        19   01 Jun 2027 08:41:44.790   01 Jun 2027 08:41:46.721             1.931           965.500
        20   01 Jun 2027 08:42:24.675   01 Jun 2027 08:42:27.127             2.452          1226.000
        21   01 Jun 2027 10:14:11.273   01 Jun 2027 10:16:51.767           160.494         80247.000
        22   01 Jun 2027 11:51:20.254   01 Jun 2027 11:52:51.863            91.609         45804.500
        23   01 Jun 2027 11:53:38.545   01 Jun 2027 11:53:43.722             5.177          2588.500
        24   02 Jun 2027 04:01:22.045   02 Jun 2027 04:01:49.074            27.029         13514.500
        25   02 Jun 2027 04:03:46.665   02 Jun 2027 04:03:53.312             6.647          3323.500
        26   02 Jun 2027 04:03:58.593   02 Jun 2027 04:03:58.593             0.000             0.000
        27   02 Jun 2027 05:33:33.222   02 Jun 2027 05:33:41.137             7.915          3957.500
        28   02 Jun 2027 05:35:28.661   02 Jun 2027 05:38:11.614           162.953         81476.500
        29   02 Jun 2027 05:39:27.706   02 Jun 2027 05:39:35.209             7.503          3751.500
        30   02 Jun 2027 05:39:43.553   02 Jun 2027 05:39:43.553             0.000             0.000
        31   02 Jun 2027 05:40:39.795   02 Jun 2027 05:40:54.326            14.531          7265.500
        32   02 Jun 2027 07:12:26.489   02 Jun 2027 07:16:08.735           222.246        111123.000
        33   02 Jun 2027 08:49:41.383   02 Jun 2027 08:52:42.189           180.806         90403.000
        34   02 Jun 2027 08:53:22.379   02 Jun 2027 08:53:52.045            29.666         14833.000
        35   02 Jun 2027 08:53:54.370   02 Jun 2027 08:54:23.174            28.804         14402.000
        36   02 Jun 2027 10:26:11.518   02 Jun 2027 10:26:46.079            34.561         17256.843
        37   02 Jun 2027 10:28:25.440   02 Jun 2027 10:28:28.070             2.630           425.969
        38   02 Jun 2027 10:29:42.820   02 Jun 2027 10:29:46.084             3.264           328.969
        39   02 Jun 2027 10:30:28.608   02 Jun 2027 10:30:35.670             7.062           848.469
        40   03 Jun 2027 04:13:30.864   03 Jun 2027 04:13:59.484            28.620         14310.000
        41   03 Jun 2027 04:14:13.519   03 Jun 2027 04:14:23.647            10.128          5064.000
        42   03 Jun 2027 04:16:30.235   03 Jun 2027 04:16:49.751            19.516          9758.000
        43   03 Jun 2027 05:48:41.263   03 Jun 2027 05:50:08.230            86.967         43483.500
        44   03 Jun 2027 05:50:46.807   03 Jun 2027 05:51:21.584            34.777         17388.500
        45   03 Jun 2027 05:53:57.188   03 Jun 2027 05:54:38.581            41.393         20696.500
        46   03 Jun 2027 05:55:16.982   03 Jun 2027 05:55:19.774             2.792          1396.000
        47   03 Jun 2027 07:25:00.606   03 Jun 2027 07:26:52.177           111.571         54496.719
        48   03 Jun 2027 07:28:22.934   03 Jun 2027 07:28:25.725             2.791          1305.688
        49   03 Jun 2027 07:28:49.019   03 Jun 2027 07:28:50.191             1.172           459.156
        50   03 Jun 2027 07:30:50.002   03 Jun 2027 07:30:57.810             7.808          1944.406
        51   03 Jun 2027 09:02:24.563   03 Jun 2027 09:02:40.733            16.170          7736.313
        52   03 Jun 2027 09:03:40.706   03 Jun 2027 09:03:43.326             2.620           411.500
        53   03 Jun 2027 09:05:43.732   03 Jun 2027 09:05:51.507             7.775          1923.063
        54   03 Jun 2027 09:06:12.081   03 Jun 2027 09:06:16.369             4.288           365.563
        55   03 Jun 2027 09:06:50.818   03 Jun 2027 09:06:53.552             2.734           452.938
        56   03 Jun 2027 10:38:36.582   03 Jun 2027 10:38:52.524            15.942          7849.125
        57   04 Jun 2027 04:25:32.363   04 Jun 2027 04:27:03.443            91.080         45540.000
        58   04 Jun 2027 04:27:10.888   04 Jun 2027 04:27:18.827             7.939          3969.500
        59   04 Jun 2027 04:28:32.713   04 Jun 2027 04:28:40.446             7.733          3866.500
        60   04 Jun 2027 06:00:45.042   04 Jun 2027 06:03:52.920           187.878         93939.000
        61   04 Jun 2027 06:05:43.517   04 Jun 2027 06:05:51.117             7.600          3800.000
        62   04 Jun 2027 06:07:22.773   04 Jun 2027 06:07:25.022             2.249          1124.500
        63   04 Jun 2027 07:36:39.992   04 Jun 2027 07:36:59.440            19.448          9541.624
        64   04 Jun 2027 07:38:50.477   04 Jun 2027 07:38:53.206             2.729            75.844
        65   04 Jun 2027 07:39:19.482   04 Jun 2027 07:39:20.340             0.858           396.875
        66   04 Jun 2027 07:39:48.286   04 Jun 2027 07:39:50.638             2.352           320.719
        67   04 Jun 2027 07:40:11.806   04 Jun 2027 07:40:13.882             2.076           506.656
        68   04 Jun 2027 07:41:08.563   04 Jun 2027 07:41:15.777             7.214           414.469
        69   04 Jun 2027 07:42:33.928   04 Jun 2027 07:42:36.202             2.274            28.969
        70   04 Jun 2027 09:14:37.049   04 Jun 2027 09:14:49.639            12.590          5339.938
        71   04 Jun 2027 09:15:26.829   04 Jun 2027 09:15:27.901             1.072           123.344
        72   04 Jun 2027 09:16:46.193   04 Jun 2027 09:16:59.150            12.957          1618.875
        73   04 Jun 2027 09:17:56.272   04 Jun 2027 09:17:58.036             1.764           820.750
        74   04 Jun 2027 09:18:14.937   04 Jun 2027 09:18:20.166             5.229           345.250
        75   04 Jun 2027 10:50:30.349   04 Jun 2027 10:50:43.315            12.966          5508.250
        76   04 Jun 2027 10:52:02.434   04 Jun 2027 10:52:03.220             0.786           160.969
        77   05 Jun 2027 03:01:30.601   05 Jun 2027 03:01:36.507             5.906          2953.000
        78   05 Jun 2027 03:02:09.910   05 Jun 2027 03:02:12.802             2.892          1446.000
        79   05 Jun 2027 03:02:47.321   05 Jun 2027 03:02:47.321             0.000             0.000
        80   05 Jun 2027 03:02:55.417   05 Jun 2027 03:02:58.319             2.902          1451.000
        81   05 Jun 2027 03:03:35.903   05 Jun 2027 03:03:35.951             0.048            24.000
        82   05 Jun 2027 03:03:59.228   05 Jun 2027 03:04:21.639            22.411         11205.500
        83   05 Jun 2027 04:37:15.569   05 Jun 2027 04:38:42.361            86.792         43396.000
        84   05 Jun 2027 04:39:02.320   05 Jun 2027 04:40:13.117            70.797         35398.500
        85   05 Jun 2027 06:11:59.407   05 Jun 2027 06:13:59.067           119.660         59122.844
        86   05 Jun 2027 06:14:40.146   05 Jun 2027 06:14:42.437             2.291          1073.062
        87   05 Jun 2027 06:15:02.780   05 Jun 2027 06:15:03.375             0.595            83.125
        88   05 Jun 2027 06:16:58.778   05 Jun 2027 06:17:08.460             9.682          3500.031
        89   05 Jun 2027 06:17:56.439   05 Jun 2027 06:17:57.019             0.580           290.000
        90   05 Jun 2027 06:18:48.539   05 Jun 2027 06:18:55.159             6.620          2819.344
        91   05 Jun 2027 07:48:47.243   05 Jun 2027 07:48:49.890             2.647           342.406
        92   05 Jun 2027 07:52:44.891   05 Jun 2027 07:52:48.312             3.421           360.469
        93   05 Jun 2027 09:27:02.389   05 Jun 2027 09:27:17.089            14.700          6211.438
        94   05 Jun 2027 09:27:17.289   05 Jun 2027 09:27:18.331             1.042             6.250
        95   05 Jun 2027 09:29:41.152   05 Jun 2027 09:29:49.260             8.108          1712.437
        96   05 Jun 2027 09:30:17.899   05 Jun 2027 09:30:19.399             1.500           669.406
        97   05 Jun 2027 11:00:19.749   05 Jun 2027 11:00:34.255            14.506          6309.750
        98   05 Jun 2027 11:07:44.367   05 Jun 2027 11:07:50.201             5.834          1771.000
        99   06 Jun 2027 03:12:06.314   06 Jun 2027 03:12:20.593            14.279          7139.500
       100   06 Jun 2027 03:13:47.374   06 Jun 2027 03:13:50.231             2.857          1428.500
       101   06 Jun 2027 04:47:10.129   06 Jun 2027 04:48:27.628            77.499         38749.500
       102   06 Jun 2027 04:48:59.983   06 Jun 2027 04:51:03.443           123.460         61730.000
       103   06 Jun 2027 06:24:07.606   06 Jun 2027 06:25:38.898            91.292         45268.781
       104   06 Jun 2027 06:26:42.865   06 Jun 2027 06:26:46.056             3.191           174.031
       105   06 Jun 2027 06:27:08.944   06 Jun 2027 06:27:10.058             1.114           137.812
       106   06 Jun 2027 06:27:37.949   06 Jun 2027 06:27:41.346             3.397           602.375
       107   06 Jun 2027 06:30:31.636   06 Jun 2027 06:30:38.550             6.914          2870.594
       108   06 Jun 2027 08:01:06.070   06 Jun 2027 08:01:07.203             1.133           214.219
       109   06 Jun 2027 08:03:27.675   06 Jun 2027 08:03:32.837             5.162           259.281
       110   06 Jun 2027 08:04:19.543   06 Jun 2027 08:04:23.042             3.499           712.531
       111   06 Jun 2027 08:05:15.350   06 Jun 2027 08:05:18.346             2.996          1012.438
       112   06 Jun 2027 08:05:33.606   06 Jun 2027 08:05:35.877             2.271           342.938
       113   06 Jun 2027 08:06:46.588   06 Jun 2027 08:06:52.380             5.792           749.187
       114   06 Jun 2027 09:39:00.509   06 Jun 2027 09:39:12.496            11.987          5818.156
       115   06 Jun 2027 09:40:15.263   06 Jun 2027 09:40:18.369             3.106           256.688
       116   06 Jun 2027 09:41:40.547   06 Jun 2027 09:41:44.280             3.733          1712.000
       117   06 Jun 2027 09:42:20.353   06 Jun 2027 09:42:23.944             3.591           926.281
       118   06 Jun 2027 09:42:39.460   06 Jun 2027 09:42:40.100             0.640           190.031
       119   06 Jun 2027 11:12:19.471   06 Jun 2027 11:12:29.406             9.935          3906.219
       120   07 Jun 2027 03:23:36.151   07 Jun 2027 03:23:53.824            17.673          8836.500
       121   07 Jun 2027 03:27:37.649   07 Jun 2027 03:27:37.649             0.000             0.000
       122   07 Jun 2027 03:27:50.656   07 Jun 2027 03:28:00.996            10.340          5170.000
       123   07 Jun 2027 04:58:35.124   07 Jun 2027 05:02:14.679           219.555        109777.500
       124   07 Jun 2027 05:05:51.751   07 Jun 2027 05:06:02.668            10.917          5458.500
       125   07 Jun 2027 06:36:11.326   07 Jun 2027 06:37:20.842            69.516         33225.562
       126   07 Jun 2027 06:38:18.848   07 Jun 2027 06:38:24.803             5.955          1635.187
       127   07 Jun 2027 06:38:56.438   07 Jun 2027 06:39:00.308             3.870           538.750
       128   07 Jun 2027 06:39:43.127   07 Jun 2027 06:39:51.084             7.957          1012.656
       129   07 Jun 2027 06:41:04.224   07 Jun 2027 06:41:13.141             8.917           189.187
       130   07 Jun 2027 06:41:45.960   07 Jun 2027 06:41:49.212             3.252           997.687
       131   07 Jun 2027 06:42:18.174   07 Jun 2027 06:42:20.236             2.062           483.125
       132   07 Jun 2027 08:12:55.325   07 Jun 2027 08:13:04.568             9.243           316.531
       133   07 Jun 2027 08:14:57.634   07 Jun 2027 08:15:04.440             6.806            69.656
       134   07 Jun 2027 08:15:49.021   07 Jun 2027 08:15:55.297             6.276           950.844
       135   07 Jun 2027 08:16:16.446   07 Jun 2027 08:16:18.502             2.056           660.906
       136   07 Jun 2027 08:16:29.595   07 Jun 2027 08:16:33.384             3.789           346.656
       137   07 Jun 2027 08:17:10.743   07 Jun 2027 08:17:12.371             1.628           814.000
       138   07 Jun 2027 08:17:39.140   07 Jun 2027 08:17:41.501             2.361           848.969
       139   07 Jun 2027 08:18:05.194   07 Jun 2027 08:18:07.510             2.316           214.594
       140   07 Jun 2027 08:19:16.155   07 Jun 2027 08:19:25.616             9.461          1458.625
       141   07 Jun 2027 09:50:59.913   07 Jun 2027 09:51:08.742             8.829          2552.625
       142   07 Jun 2027 09:52:44.295   07 Jun 2027 09:52:50.781             6.486           994.219
       143   07 Jun 2027 09:54:03.014   07 Jun 2027 09:54:05.080             2.066           122.375
       144   07 Jun 2027 09:54:22.278   07 Jun 2027 09:54:25.201             2.923           226.219
       145   07 Jun 2027 09:54:57.458   07 Jun 2027 09:54:59.546             2.088           470.281
       146   07 Jun 2027 09:55:08.916   07 Jun 2027 09:55:09.106             0.190            95.000
       147   07 Jun 2027 11:24:45.136   07 Jun 2027 11:24:47.763             2.627            80.500
       148   08 Jun 2027 03:35:12.323   08 Jun 2027 03:35:16.337             4.014          2007.000
       149   08 Jun 2027 03:35:20.401   08 Jun 2027 03:35:35.306            14.905          7452.500
       150   08 Jun 2027 03:41:08.426   08 Jun 2027 03:41:11.412             2.986          1493.000
       151   08 Jun 2027 05:10:05.716   08 Jun 2027 05:13:34.148           208.432        104216.000
       152   08 Jun 2027 05:15:29.602   08 Jun 2027 05:15:34.692             5.090          2545.000
       153   08 Jun 2027 05:19:02.347   08 Jun 2027 05:19:38.777            36.430         18215.000
       154   08 Jun 2027 06:48:09.859   08 Jun 2027 06:49:01.972            52.113         25774.781
       155   08 Jun 2027 06:49:29.478   08 Jun 2027 06:49:33.179             3.701           618.625
       156   08 Jun 2027 06:50:11.485   08 Jun 2027 06:50:14.755             3.270           345.313
       157   08 Jun 2027 06:50:59.874   08 Jun 2027 06:51:00.833             0.959           444.875
       158   08 Jun 2027 06:51:50.966   08 Jun 2027 06:51:54.132             3.166          1211.375
       159   08 Jun 2027 06:52:55.685   08 Jun 2027 06:53:01.828             6.143          1842.750
       160   08 Jun 2027 06:53:16.586   08 Jun 2027 06:53:17.593             1.007           402.781
       161   08 Jun 2027 06:53:43.902   08 Jun 2027 06:53:45.530             1.628           272.094
       162   08 Jun 2027 08:25:03.036   08 Jun 2027 08:25:12.883             9.847          4087.813
       163   08 Jun 2027 08:27:34.589   08 Jun 2027 08:27:39.625             5.036          1773.750
       164   08 Jun 2027 08:28:12.841   08 Jun 2027 08:28:15.522             2.681             9.125
       165   08 Jun 2027 08:29:21.579   08 Jun 2027 08:29:24.026             2.447           837.719
       166   08 Jun 2027 08:29:39.982   08 Jun 2027 08:29:41.601             1.619           217.406
       167   08 Jun 2027 08:31:09.815   08 Jun 2027 08:31:14.007             4.192          1074.250
       168   08 Jun 2027 10:02:13.088   08 Jun 2027 10:02:21.509             8.421          4095.906
       169   08 Jun 2027 10:04:17.383   08 Jun 2027 10:04:23.343             5.960          1832.625
       170   08 Jun 2027 10:05:28.975   08 Jun 2027 10:05:31.565             2.590           384.594
       171   08 Jun 2027 10:06:06.570   08 Jun 2027 10:06:08.737             2.167           970.438
       172   08 Jun 2027 10:06:49.002   08 Jun 2027 10:06:52.203             3.201           969.625
       173   08 Jun 2027 11:36:59.976   08 Jun 2027 11:37:02.209             2.233           603.531
       174   09 Jun 2027 03:49:31.142   09 Jun 2027 03:49:42.256            11.114          5557.000
       175   09 Jun 2027 03:50:05.810   09 Jun 2027 03:50:21.023            15.213          7606.500
       176   09 Jun 2027 05:23:04.559   09 Jun 2027 05:25:57.503           172.944         86472.000
       177   09 Jun 2027 05:26:21.487   09 Jun 2027 05:26:39.333            17.846          8923.000
       178   09 Jun 2027 05:30:15.779   09 Jun 2027 05:30:19.153             3.374          1687.000
       179   09 Jun 2027 05:31:17.447   09 Jun 2027 05:31:38.218            20.771         10385.500
       180   09 Jun 2027 07:00:31.836   09 Jun 2027 07:01:58.369            86.533         42186.094
       181   09 Jun 2027 07:04:44.644   09 Jun 2027 07:04:50.971             6.327          2853.813
       182   09 Jun 2027 07:06:02.797   09 Jun 2027 07:06:09.553             6.756          2003.531
       183   09 Jun 2027 07:06:31.707   09 Jun 2027 07:06:32.232             0.525           188.250
       184   09 Jun 2027 07:06:32.837   09 Jun 2027 07:06:33.855             1.018             5.250
       185   09 Jun 2027 08:37:31.770   09 Jun 2027 08:37:43.670            11.900          4118.938
       186   09 Jun 2027 08:40:18.966   09 Jun 2027 08:40:21.050             2.084           618.469
       187   09 Jun 2027 08:41:11.823   09 Jun 2027 08:41:13.359             1.536           478.750
       188   09 Jun 2027 08:42:40.566   09 Jun 2027 08:42:44.204             3.638          1185.313
       189   09 Jun 2027 10:14:25.753   09 Jun 2027 10:14:37.929            12.176          5574.375
       190   09 Jun 2027 11:51:35.048   09 Jun 2027 11:51:42.406             7.358           351.625
       191   10 Jun 2027 04:01:36.592   10 Jun 2027 04:01:43.712             7.120          3560.000
       192   10 Jun 2027 04:03:41.588   10 Jun 2027 04:03:45.901             4.313          2156.500
       193   10 Jun 2027 04:04:40.099   10 Jun 2027 04:04:43.013             2.914          1457.000
       194   10 Jun 2027 04:04:54.950   10 Jun 2027 04:05:10.761            15.811          7905.500
       195   10 Jun 2027 05:33:47.298   10 Jun 2027 05:33:55.880             8.582          4291.000
       196   10 Jun 2027 05:35:43.433   10 Jun 2027 05:38:26.789           163.356         81678.000
       197   10 Jun 2027 05:43:05.321   10 Jun 2027 05:43:05.321             0.000             0.000
       198   10 Jun 2027 05:43:15.336   10 Jun 2027 05:43:21.212             5.876          2938.000
       199   10 Jun 2027 07:12:41.375   10 Jun 2027 07:14:54.056           132.681         63386.562
       200   10 Jun 2027 07:15:52.994   10 Jun 2027 07:15:55.652             2.658           668.937
       201   10 Jun 2027 07:16:22.752   10 Jun 2027 07:16:26.529             3.777           705.469
       202   10 Jun 2027 07:17:04.972   10 Jun 2027 07:17:08.887             3.915          1201.344
       203   10 Jun 2027 07:18:19.297   10 Jun 2027 07:18:23.831             4.534          2023.063
       204   10 Jun 2027 07:19:08.311   10 Jun 2027 07:19:16.932             8.621           844.438
       205   10 Jun 2027 07:19:20.495   10 Jun 2027 07:19:23.132             2.637             1.938
       206   10 Jun 2027 08:49:58.336   10 Jun 2027 08:50:06.511             8.175          4018.719
       207   10 Jun 2027 08:54:33.155   10 Jun 2027 08:54:37.090             3.935          1003.531
       208   10 Jun 2027 08:54:44.915   10 Jun 2027 08:54:46.848             1.933           201.406
       209   10 Jun 2027 10:26:26.754   10 Jun 2027 10:26:39.655            12.901          6446.000
       210   10 Jun 2027 10:28:40.169   10 Jun 2027 10:28:43.236             3.067           400.719
       211   10 Jun 2027 10:30:24.356   10 Jun 2027 10:30:24.713             0.357           156.000
       212   10 Jun 2027 10:30:58.698   10 Jun 2027 10:31:00.304             1.606           426.938
       213   11 Jun 2027 04:13:45.711   11 Jun 2027 04:14:06.528            20.817         10408.500
       214   11 Jun 2027 04:15:43.115   11 Jun 2027 04:15:45.766             2.651          1325.500
       215   11 Jun 2027 04:16:00.776   11 Jun 2027 04:16:14.814            14.038          7019.000
       216   11 Jun 2027 05:48:56.312   11 Jun 2027 05:51:16.925           140.613         70306.500
       217   11 Jun 2027 05:51:33.907   11 Jun 2027 05:51:36.185             2.278          1139.000
       218   11 Jun 2027 05:54:11.828   11 Jun 2027 05:54:46.294            34.466         17233.000
       219   11 Jun 2027 05:55:02.113   11 Jun 2027 05:55:07.435             5.322          2661.000
       220   11 Jun 2027 05:55:18.470   11 Jun 2027 05:55:34.545            16.075          8037.500
       221   11 Jun 2027 07:25:15.432   11 Jun 2027 07:26:43.015            87.583         42403.375
       222   11 Jun 2027 07:27:43.537   11 Jun 2027 07:27:47.853             4.316           266.906
       223   11 Jun 2027 07:28:13.501   11 Jun 2027 07:28:15.794             2.293           281.719
       224   11 Jun 2027 07:28:41.918   11 Jun 2027 07:28:45.980             4.062           246.406
       225   11 Jun 2027 07:29:48.028   11 Jun 2027 07:29:52.472             4.444          1515.312
       226   11 Jun 2027 07:30:11.224   11 Jun 2027 07:30:11.946             0.722           270.156
       227   11 Jun 2027 07:30:23.683   11 Jun 2027 07:30:25.516             1.833           153.656
       228   11 Jun 2027 09:02:39.099   11 Jun 2027 09:02:50.623            11.524          5575.156
       229   11 Jun 2027 09:03:06.032   11 Jun 2027 09:03:15.742             9.710            97.344
       230   11 Jun 2027 09:03:42.437   11 Jun 2027 09:03:42.660             0.223            27.563
       231   11 Jun 2027 09:04:57.378   11 Jun 2027 09:04:58.518             1.140           543.094
       232   11 Jun 2027 09:06:15.766   11 Jun 2027 09:06:19.149             3.383           419.750
       233   11 Jun 2027 09:06:51.139   11 Jun 2027 09:06:59.278             8.139           760.781
       234   11 Jun 2027 10:38:51.546   11 Jun 2027 10:39:02.790            11.244          5071.500
       235   12 Jun 2027 04:25:46.682   12 Jun 2027 04:27:14.406            87.724         43862.000
       236   12 Jun 2027 04:27:36.165   12 Jun 2027 04:27:44.686             8.521          4260.500
       237   12 Jun 2027 04:27:59.458   12 Jun 2027 04:27:59.458             0.000             0.000
       238   12 Jun 2027 04:28:14.235   12 Jun 2027 04:28:31.222            16.987          8493.500
       239   12 Jun 2027 06:00:59.450   12 Jun 2027 06:04:05.769           186.319         93159.500
       240   12 Jun 2027 06:05:14.779   12 Jun 2027 06:05:22.276             7.497          3748.500
       241   12 Jun 2027 06:06:21.652   12 Jun 2027 06:06:24.246             2.594          1297.000
       242   12 Jun 2027 06:07:37.575   12 Jun 2027 06:07:39.988             2.413          1206.500
       243   12 Jun 2027 07:36:54.563   12 Jun 2027 07:37:12.815            18.252          8174.969
       244   12 Jun 2027 07:38:13.725   12 Jun 2027 07:38:14.172             0.447            21.531
       245   12 Jun 2027 07:39:28.419   12 Jun 2027 07:39:32.347             3.928          1916.719
       246   12 Jun 2027 07:40:04.851   12 Jun 2027 07:40:07.543             2.692           343.906
       247   12 Jun 2027 07:40:26.820   12 Jun 2027 07:40:30.273             3.453           515.625
       248   12 Jun 2027 07:41:10.118   12 Jun 2027 07:41:11.487             1.369           471.781
       249   12 Jun 2027 07:42:16.315   12 Jun 2027 07:42:19.739             3.424          1586.844
       250   12 Jun 2027 07:42:46.593   12 Jun 2027 07:42:47.662             1.069           380.000
       251   12 Jun 2027 07:42:49.282   12 Jun 2027 07:42:52.036             2.754            50.625
       252   12 Jun 2027 09:14:52.485   12 Jun 2027 09:15:04.785            12.300          5138.250
       253   12 Jun 2027 09:17:01.036   12 Jun 2027 09:17:14.313            13.277          1572.469
       254   12 Jun 2027 09:18:18.813   12 Jun 2027 09:18:21.089             2.276           982.562
       255   12 Jun 2027 09:18:29.988   12 Jun 2027 09:18:35.639             5.651           278.094
       256   12 Jun 2027 10:50:45.081   12 Jun 2027 10:51:02.719            17.638          7645.188
       257   12 Jun 2027 10:52:17.070   12 Jun 2027 10:52:18.949             1.879            60.187
       258   13 Jun 2027 03:01:07.307   13 Jun 2027 03:01:18.463            11.156          5578.000
       259   13 Jun 2027 03:02:48.642   13 Jun 2027 03:03:01.948            13.306          6653.000
       260   13 Jun 2027 04:37:30.225   13 Jun 2027 04:39:51.668           141.443         70721.500
       261   13 Jun 2027 04:41:02.957   13 Jun 2027 04:41:24.213            21.256         10628.000
       262   13 Jun 2027 06:12:14.118   13 Jun 2027 06:14:21.163           127.045         61779.813
       263   13 Jun 2027 06:14:55.946   13 Jun 2027 06:15:01.519             5.573          1086.969
       264   13 Jun 2027 06:15:51.066   13 Jun 2027 06:15:53.721             2.655           877.562
       265   13 Jun 2027 06:18:12.060   13 Jun 2027 06:18:12.880             0.820           410.000
       266   13 Jun 2027 06:19:04.003   13 Jun 2027 06:19:10.911             6.908          2985.719
       267   13 Jun 2027 07:49:02.338   13 Jun 2027 07:49:05.064             2.726           385.563
       268   13 Jun 2027 07:50:22.719   13 Jun 2027 07:50:31.584             8.865           265.375
       269   13 Jun 2027 07:51:15.863   13 Jun 2027 07:51:18.435             2.572           714.469
       270   13 Jun 2027 07:52:38.463   13 Jun 2027 07:52:41.679             3.216           865.312
       271   13 Jun 2027 07:53:00.217   13 Jun 2027 07:53:03.229             3.012           373.281
       272   13 Jun 2027 07:53:50.169   13 Jun 2027 07:53:52.127             1.958           712.281
       273   13 Jun 2027 07:54:18.023   13 Jun 2027 07:54:20.356             2.333           715.938
       274   13 Jun 2027 09:27:16.990   13 Jun 2027 09:27:31.841            14.851          6174.688
       275   13 Jun 2027 09:29:01.182   13 Jun 2027 09:29:05.584             4.402          1370.312
       276   13 Jun 2027 09:30:11.502   13 Jun 2027 09:30:15.686             4.184           409.656
       277   13 Jun 2027 11:00:34.167   13 Jun 2027 11:00:45.535            11.368          5477.344
