uniorb/output/strategy_4/Camera/Camera_KinoSat_111006.txt

KinoSat_111006
-------------------------
    Access    *     Start Time (UTCG)     *     Stop Time (UTCG)  *   Duration (s) *   Data (Mbytes)
         1   01 Jun 2027 03:17:34.896   01 Jun 2027 03:18:32.992            58.096         29048.000
         2   01 Jun 2027 03:29:48.508   01 Jun 2027 03:30:47.351            58.843         29421.500
         3   01 Jun 2027 04:52:03.419   01 Jun 2027 04:53:08.487            65.068         32534.000
         4   01 Jun 2027 04:56:21.434   01 Jun 2027 04:56:34.675            13.241          6620.500
         5   01 Jun 2027 04:56:44.653   01 Jun 2027 04:56:44.653             0.000             0.000
         6   01 Jun 2027 06:26:56.244   01 Jun 2027 06:28:58.284           122.040         61020.000
         7   01 Jun 2027 06:30:43.963   01 Jun 2027 06:30:51.988             8.025          4012.500
         8   01 Jun 2027 06:33:30.428   01 Jun 2027 06:33:30.428             0.000             0.000
         9   01 Jun 2027 06:34:20.227   01 Jun 2027 06:34:22.763             2.536          1268.000
        10   01 Jun 2027 06:34:59.329   01 Jun 2027 06:35:14.215            14.886          7443.000
        11   01 Jun 2027 08:04:30.741   01 Jun 2027 08:06:53.604           142.863         71431.500
        12   01 Jun 2027 08:07:28.922   01 Jun 2027 08:07:40.538            11.616          5808.000
        13   01 Jun 2027 08:11:38.722   01 Jun 2027 08:11:52.829            14.107          7053.500
        14   01 Jun 2027 09:41:13.547   01 Jun 2027 09:43:46.533           152.986         76493.000
        15   01 Jun 2027 09:44:51.587   01 Jun 2027 09:45:03.162            11.575          5787.500
        16   01 Jun 2027 09:47:34.275   01 Jun 2027 09:47:45.778            11.503          5751.500
        17   01 Jun 2027 11:19:17.841   01 Jun 2027 11:21:42.168           144.327         72163.500
        18   01 Jun 2027 11:22:27.343   01 Jun 2027 11:22:37.847            10.504          5252.000
        19   01 Jun 2027 11:23:11.574   01 Jun 2027 11:23:17.691             6.117          3058.500
        20   02 Jun 2027 03:29:40.755   02 Jun 2027 03:29:57.860            17.105          8552.500
        21   02 Jun 2027 03:30:42.111   02 Jun 2027 03:30:42.111             0.000             0.000
        22   02 Jun 2027 03:31:33.310   02 Jun 2027 03:31:34.810             1.500           750.000
        23   02 Jun 2027 03:42:03.077   02 Jun 2027 03:42:21.945            18.868          9434.000
        24   02 Jun 2027 05:03:31.896   02 Jun 2027 05:06:17.787           165.891         82945.500
        25   02 Jun 2027 05:07:38.395   02 Jun 2027 05:07:38.395             0.000             0.000
        26   02 Jun 2027 05:08:02.206   02 Jun 2027 05:08:05.258             3.052          1526.000
        27   02 Jun 2027 05:08:06.952   02 Jun 2027 05:08:17.158            10.206          5103.000
        28   02 Jun 2027 05:08:52.417   02 Jun 2027 05:08:52.417             0.000             0.000
        29   02 Jun 2027 06:38:26.303   02 Jun 2027 06:42:12.384           226.081        113040.500
        30   02 Jun 2027 08:16:25.560   02 Jun 2027 08:20:19.741           234.181        117090.500
        31   02 Jun 2027 08:22:09.506   02 Jun 2027 08:22:19.246             9.740          4870.000
        32   02 Jun 2027 09:53:21.941   02 Jun 2027 09:53:45.777            23.836         11658.061
        33   02 Jun 2027 09:54:15.652   02 Jun 2027 09:54:18.028             2.376           219.344
        34   02 Jun 2027 09:55:20.999   02 Jun 2027 09:55:24.933             3.934          1885.156
        35   02 Jun 2027 09:56:38.022   02 Jun 2027 09:56:41.567             3.545          1203.750
        36   02 Jun 2027 09:57:31.115   02 Jun 2027 09:57:34.317             3.202           694.438
        37   02 Jun 2027 09:57:50.417   02 Jun 2027 09:57:50.934             0.517            87.625
        38   02 Jun 2027 09:57:57.125   02 Jun 2027 09:57:57.688             0.563            70.812
        39   02 Jun 2027 09:58:06.749   02 Jun 2027 09:58:07.825             1.076            38.000
        40   02 Jun 2027 09:58:23.081   02 Jun 2027 09:58:23.790             0.709           150.125
        41   02 Jun 2027 09:59:28.231   02 Jun 2027 09:59:37.096             8.865          1761.688
        42   02 Jun 2027 11:30:55.189   02 Jun 2027 11:31:14.136            18.947          5661.219
        43   02 Jun 2027 11:31:18.845   02 Jun 2027 11:31:21.823             2.978           102.125
        44   02 Jun 2027 11:32:06.889   02 Jun 2027 11:32:10.495             3.606           912.812
        45   02 Jun 2027 11:33:10.296   02 Jun 2027 11:33:11.438             1.142           215.000
        46   02 Jun 2027 11:33:46.709   02 Jun 2027 11:33:48.451             1.742           253.344
        47   02 Jun 2027 11:34:16.687   02 Jun 2027 11:34:19.038             2.351           660.281
        48   02 Jun 2027 11:35:22.885   02 Jun 2027 11:35:25.418             2.533          1266.500
        49   03 Jun 2027 03:41:36.861   03 Jun 2027 03:41:58.715            21.854         10927.000
        50   03 Jun 2027 05:17:49.828   03 Jun 2027 05:21:07.729           197.901         98950.500
        51   03 Jun 2027 06:51:21.275   03 Jun 2027 06:52:56.758            95.483         46839.874
        52   03 Jun 2027 06:53:32.463   03 Jun 2027 06:53:41.822             9.359            76.813
        53   03 Jun 2027 06:53:53.927   03 Jun 2027 06:53:54.567             0.640           266.437
        54   03 Jun 2027 06:54:41.230   03 Jun 2027 06:54:46.503             5.273          1265.344
        55   03 Jun 2027 06:56:10.323   03 Jun 2027 06:56:17.169             6.846          2332.375
        56   03 Jun 2027 06:56:31.229   03 Jun 2027 06:56:31.229             0.000             0.000
        57   03 Jun 2027 06:56:50.022   03 Jun 2027 06:56:52.614             2.592           663.125
        58   03 Jun 2027 06:57:31.627   03 Jun 2027 06:57:31.627             0.000             0.000
        59   03 Jun 2027 06:58:02.601   03 Jun 2027 06:58:08.335             5.734          2187.094
        60   03 Jun 2027 06:58:59.853   03 Jun 2027 06:59:05.247             5.394          1469.594
        61   03 Jun 2027 06:59:36.583   03 Jun 2027 06:59:40.545             3.962           900.188
        62   03 Jun 2027 06:59:53.778   03 Jun 2027 06:59:55.131             1.353           413.531
        63   03 Jun 2027 08:28:47.298   03 Jun 2027 08:28:51.751             4.453          1513.750
        64   03 Jun 2027 08:30:38.826   03 Jun 2027 08:30:40.405             1.579           650.063
        65   03 Jun 2027 08:31:13.922   03 Jun 2027 08:31:15.260             1.338           429.469
        66   03 Jun 2027 08:32:39.488   03 Jun 2027 08:32:41.386             1.898           698.625
        67   03 Jun 2027 08:33:55.127   03 Jun 2027 08:33:57.263             2.136           449.656
        68   03 Jun 2027 08:34:46.343   03 Jun 2027 08:34:48.389             2.046           927.781
        69   03 Jun 2027 08:35:18.747   03 Jun 2027 08:35:21.942             3.195           948.687
        70   03 Jun 2027 10:05:50.909   03 Jun 2027 10:06:04.784            13.875          6586.812
        71   03 Jun 2027 10:07:46.511   03 Jun 2027 10:07:49.921             3.410           611.312
        72   03 Jun 2027 10:09:20.011   03 Jun 2027 10:09:23.811             3.800           653.156
        73   03 Jun 2027 10:09:30.822   03 Jun 2027 10:09:32.857             2.035           146.281
        74   03 Jun 2027 10:09:40.431   03 Jun 2027 10:09:41.670             1.239           112.344
        75   03 Jun 2027 10:10:08.285   03 Jun 2027 10:10:11.858             3.573           709.406
        76   03 Jun 2027 10:10:30.131   03 Jun 2027 10:10:31.852             1.721           418.969
        77   03 Jun 2027 10:11:08.138   03 Jun 2027 10:11:11.180             3.042           704.125
        78   03 Jun 2027 10:11:20.744   03 Jun 2027 10:11:26.440             5.696           298.875
        79   03 Jun 2027 11:42:37.127   03 Jun 2027 11:42:48.905            11.778          4760.656
        80   03 Jun 2027 11:44:13.702   03 Jun 2027 11:44:16.771             3.069           348.063
        81   03 Jun 2027 11:45:24.069   03 Jun 2027 11:45:26.295             2.226           582.281
        82   03 Jun 2027 11:45:49.273   03 Jun 2027 11:45:51.833             2.560           506.844
        83   03 Jun 2027 11:46:15.359   03 Jun 2027 11:46:23.738             8.379           627.594
        84   03 Jun 2027 11:47:05.847   03 Jun 2027 11:47:09.912             4.065          1315.906
        85   03 Jun 2027 11:47:16.290   03 Jun 2027 11:47:20.085             3.795           119.469
        86   04 Jun 2027 03:53:28.627   04 Jun 2027 03:53:33.977             5.350          2675.000
        87   04 Jun 2027 03:55:06.799   04 Jun 2027 03:55:09.074             2.275          1137.500
        88   04 Jun 2027 05:29:52.945   04 Jun 2027 05:32:08.937           135.992         67996.000
        89   04 Jun 2027 05:32:49.132   04 Jun 2027 05:33:17.847            28.715         14357.500
        90   04 Jun 2027 05:33:25.469   04 Jun 2027 05:33:27.193             1.724           862.000
        91   04 Jun 2027 07:02:04.634   04 Jun 2027 07:02:15.644            11.010          5505.000
        92   04 Jun 2027 07:03:58.607   04 Jun 2027 07:05:48.601           109.994         54853.782
        93   04 Jun 2027 07:05:59.194   04 Jun 2027 07:06:01.547             2.353           292.250
        94   04 Jun 2027 07:06:29.968   04 Jun 2027 07:06:33.966             3.998           768.813
        95   04 Jun 2027 07:07:01.350   04 Jun 2027 07:07:04.386             3.036           833.937
        96   04 Jun 2027 07:08:53.534   04 Jun 2027 07:09:04.940            11.406          2783.344
        97   04 Jun 2027 07:09:21.443   04 Jun 2027 07:09:24.253             2.810           515.719
        98   04 Jun 2027 07:10:16.631   04 Jun 2027 07:10:28.375            11.744          1473.750
        99   04 Jun 2027 07:10:41.548   04 Jun 2027 07:10:42.746             1.198           357.187
       100   04 Jun 2027 07:11:25.647   04 Jun 2027 07:11:28.125             2.478           833.156
       101   04 Jun 2027 07:11:43.628   04 Jun 2027 07:11:43.637             0.009             4.500
       102   04 Jun 2027 07:11:50.847   04 Jun 2027 07:11:52.738             1.891           678.375
       103   04 Jun 2027 08:40:58.888   04 Jun 2027 08:41:09.947            11.059          3725.750
       104   04 Jun 2027 08:42:42.737   04 Jun 2027 08:42:45.189             2.452           239.594
       105   04 Jun 2027 08:43:55.305   04 Jun 2027 08:43:57.232             1.927           365.125
       106   04 Jun 2027 08:44:02.738   04 Jun 2027 08:44:06.887             4.149           172.063
       107   04 Jun 2027 08:46:46.992   04 Jun 2027 08:46:51.937             4.945          2074.219
       108   04 Jun 2027 08:47:02.421   04 Jun 2027 08:47:05.955             3.534           327.625
       109   04 Jun 2027 08:47:28.998   04 Jun 2027 08:47:39.269            10.271            97.469
       110   04 Jun 2027 10:17:59.834   04 Jun 2027 10:18:14.413            14.579          6303.438
       111   04 Jun 2027 10:21:29.808   04 Jun 2027 10:21:32.734             2.926           427.531
       112   04 Jun 2027 10:21:48.396   04 Jun 2027 10:21:50.450             2.054           487.719
       113   04 Jun 2027 10:21:56.238   04 Jun 2027 10:21:57.715             1.477           132.438
       114   04 Jun 2027 10:22:46.312   04 Jun 2027 10:22:50.267             3.955          1008.719
       115   04 Jun 2027 11:54:41.733   04 Jun 2027 11:54:57.983            16.250          7509.750
       116   04 Jun 2027 11:58:13.729   04 Jun 2027 11:58:16.385             2.656           894.750
       117   04 Jun 2027 11:59:12.098   04 Jun 2027 11:59:15.666             3.568           126.969
       118   04 Jun 2027 11:59:36.246   04 Jun 2027 11:59:38.467             2.221           426.469
       119   05 Jun 2027 04:05:33.847   05 Jun 2027 04:06:22.582            48.735         24367.500
       120   05 Jun 2027 05:42:02.881   05 Jun 2027 05:44:54.309           171.428         85714.000
       121   05 Jun 2027 07:17:10.256   05 Jun 2027 07:18:49.360            99.104         49476.125
       122   05 Jun 2027 07:20:17.441   05 Jun 2027 07:20:21.740             4.299          2117.312
       123   05 Jun 2027 07:21:03.484   05 Jun 2027 07:21:03.484             0.000             0.000
       124   05 Jun 2027 07:22:15.056   05 Jun 2027 07:22:27.072            12.016          3078.531
       125   05 Jun 2027 07:23:12.522   05 Jun 2027 07:23:16.935             4.413          1224.969
       126   05 Jun 2027 07:23:40.347   05 Jun 2027 07:23:42.827             2.480           579.125
       127   05 Jun 2027 08:53:31.528   05 Jun 2027 08:53:43.788            12.260          5811.125
       128   05 Jun 2027 08:55:54.108   05 Jun 2027 08:55:55.477             1.369           488.500
       129   05 Jun 2027 08:58:07.058   05 Jun 2027 08:58:08.602             1.544           427.187
       130   05 Jun 2027 08:58:48.739   05 Jun 2027 08:58:54.670             5.931           129.031
       131   05 Jun 2027 10:30:58.045   05 Jun 2027 10:31:14.774            16.729          5876.250
       132   05 Jun 2027 10:33:27.417   05 Jun 2027 10:33:31.240             3.823          1199.906
       133   05 Jun 2027 10:34:15.108   05 Jun 2027 10:34:20.966             5.858          1279.063
       134   05 Jun 2027 10:34:59.437   05 Jun 2027 10:35:01.981             2.544          1141.563
       135   06 Jun 2027 04:17:37.104   06 Jun 2027 04:18:25.187            48.083         24041.500
       136   06 Jun 2027 04:20:22.321   06 Jun 2027 04:20:37.224            14.903          7451.500
       137   06 Jun 2027 05:54:06.048   06 Jun 2027 05:55:58.350           112.302         56151.000
       138   06 Jun 2027 05:56:48.800   06 Jun 2027 05:57:30.937            42.137         21068.500
       139   06 Jun 2027 07:29:17.171   06 Jun 2027 07:30:41.380            84.209         40862.531
       140   06 Jun 2027 07:31:20.826   06 Jun 2027 07:31:24.923             4.097          1232.687
       141   06 Jun 2027 07:32:02.789   06 Jun 2027 07:32:04.773             1.984           852.875
       142   06 Jun 2027 07:32:38.913   06 Jun 2027 07:32:40.774             1.861           885.875
       143   06 Jun 2027 07:34:14.994   06 Jun 2027 07:34:24.634             9.640          2204.500
       144   06 Jun 2027 07:34:43.310   06 Jun 2027 07:34:45.924             2.614           222.625
       145   06 Jun 2027 09:05:14.004   06 Jun 2027 09:05:26.530            12.526          5166.562
       146   06 Jun 2027 09:08:45.464   06 Jun 2027 09:08:47.201             1.737           406.594
       147   06 Jun 2027 09:09:58.449   06 Jun 2027 09:10:02.674             4.225          2040.125
       148   06 Jun 2027 09:10:39.145   06 Jun 2027 09:10:40.853             1.708           148.563
       149   06 Jun 2027 09:10:54.033   06 Jun 2027 09:10:55.463             1.430           405.594
       150   06 Jun 2027 10:43:04.875   06 Jun 2027 10:43:20.031            15.156          6474.250
       151   06 Jun 2027 10:46:13.308   06 Jun 2027 10:46:18.183             4.875          1199.188
       152   06 Jun 2027 10:46:46.928   06 Jun 2027 10:46:50.133             3.205           370.469
       153   06 Jun 2027 10:47:21.698   06 Jun 2027 10:47:22.736             1.038           505.156
       154   07 Jun 2027 03:06:06.509   07 Jun 2027 03:06:49.561            43.052         21526.000
       155   07 Jun 2027 03:07:33.082   07 Jun 2027 03:07:42.063             8.981          4490.500
       156   07 Jun 2027 03:08:17.016   07 Jun 2027 03:08:46.826            29.810         14905.000
       157   07 Jun 2027 04:30:03.784   07 Jun 2027 04:30:47.516            43.732         21866.000
       158   07 Jun 2027 04:31:33.512   07 Jun 2027 04:32:06.922            33.410         16705.000
       159   07 Jun 2027 06:05:50.362   07 Jun 2027 06:08:25.757           155.395         77697.500
       160   07 Jun 2027 07:40:33.391   07 Jun 2027 07:40:47.939            14.548          5681.906
       161   07 Jun 2027 07:41:16.663   07 Jun 2027 07:41:18.493             1.830           718.781
       162   07 Jun 2027 07:42:33.203   07 Jun 2027 07:42:39.468             6.265          2199.469
       163   07 Jun 2027 07:43:40.296   07 Jun 2027 07:43:45.804             5.508          1900.875
       164   07 Jun 2027 07:43:57.943   07 Jun 2027 07:43:59.948             2.005           149.125
       165   07 Jun 2027 07:44:41.035   07 Jun 2027 07:44:41.789             0.754           177.406
       166   07 Jun 2027 07:46:14.312   07 Jun 2027 07:46:19.119             4.807          2074.531
       167   07 Jun 2027 07:47:44.681   07 Jun 2027 07:47:53.278             8.597          2167.625
       168   07 Jun 2027 09:17:18.876   07 Jun 2027 09:17:29.341            10.465          4987.094
       169   07 Jun 2027 09:21:04.667   07 Jun 2027 09:21:06.027             1.360           130.156
       170   07 Jun 2027 09:21:43.756   07 Jun 2027 09:21:46.721             2.965           883.938
       171   07 Jun 2027 09:22:02.722   07 Jun 2027 09:22:07.564             4.842           420.281
       172   07 Jun 2027 09:22:36.486   07 Jun 2027 09:22:38.410             1.924           758.625
       173   07 Jun 2027 09:23:41.087   07 Jun 2027 09:23:41.132             0.045            22.500
       174   07 Jun 2027 10:55:35.182   07 Jun 2027 10:55:44.705             9.523          4743.625
       175   07 Jun 2027 10:55:49.687   07 Jun 2027 10:55:50.700             1.013           132.813
       176   07 Jun 2027 10:57:36.659   07 Jun 2027 10:57:40.060             3.401           740.719
       177   07 Jun 2027 10:58:50.732   07 Jun 2027 10:59:02.752            12.020          2208.500
       178   07 Jun 2027 10:59:12.009   07 Jun 2027 10:59:14.110             2.101           212.031
       179   07 Jun 2027 10:59:24.255   07 Jun 2027 10:59:27.010             2.755           317.031
       180   08 Jun 2027 03:06:29.423   08 Jun 2027 03:06:45.313            15.890          7945.000
       181   08 Jun 2027 03:07:49.465   08 Jun 2027 03:07:49.465             0.000             0.000
       182   08 Jun 2027 03:18:04.632   08 Jun 2027 03:19:42.409            97.777         48888.500
       183   08 Jun 2027 04:40:41.620   08 Jun 2027 04:41:40.150            58.530         29265.000
       184   08 Jun 2027 04:42:19.242   08 Jun 2027 04:42:49.321            30.079         15039.500
       185   08 Jun 2027 04:43:37.514   08 Jun 2027 04:44:03.691            26.177         13088.500
       186   08 Jun 2027 06:15:50.932   08 Jun 2027 06:17:04.835            73.903         36951.500
       187   08 Jun 2027 06:17:33.514   08 Jun 2027 06:17:38.306             4.792          2319.250
       188   08 Jun 2027 06:17:59.902   08 Jun 2027 06:18:06.769             6.867           358.875
       189   08 Jun 2027 06:18:39.659   08 Jun 2027 06:18:41.100             1.441           161.187
       190   08 Jun 2027 06:19:09.636   08 Jun 2027 06:19:12.026             2.390           891.750
       191   08 Jun 2027 06:19:50.103   08 Jun 2027 06:19:50.103             0.000             0.000
       192   08 Jun 2027 06:20:18.663   08 Jun 2027 06:20:23.064             4.401          1972.687
       193   08 Jun 2027 06:20:39.359   08 Jun 2027 06:20:40.378             1.019           401.688
       194   08 Jun 2027 06:21:47.946   08 Jun 2027 06:21:49.618             1.672           836.000
       195   08 Jun 2027 06:22:08.865   08 Jun 2027 06:22:10.401             1.536           768.000
       196   08 Jun 2027 07:52:38.192   08 Jun 2027 07:52:44.610             6.418          2089.249
       197   08 Jun 2027 07:54:33.384   08 Jun 2027 07:54:38.568             5.184          2198.406
       198   08 Jun 2027 07:55:20.728   08 Jun 2027 07:55:20.928             0.200            72.312
       199   08 Jun 2027 07:55:44.286   08 Jun 2027 07:55:45.936             1.650           241.687
       200   08 Jun 2027 07:55:52.131   08 Jun 2027 07:55:59.174             7.043            22.062
       201   08 Jun 2027 07:57:30.143   08 Jun 2027 07:57:31.710             1.567           644.531
       202   08 Jun 2027 07:58:34.480   08 Jun 2027 07:58:39.019             4.539          1842.500
       203   08 Jun 2027 07:59:12.963   08 Jun 2027 07:59:14.918             1.955           958.875
       204   08 Jun 2027 08:00:04.005   08 Jun 2027 08:00:04.481             0.476           165.687
       205   08 Jun 2027 09:29:39.233   08 Jun 2027 09:29:50.941            11.708          5313.875
       206   08 Jun 2027 09:32:08.028   08 Jun 2027 09:32:11.020             2.992           205.375
       207   08 Jun 2027 09:33:32.763   08 Jun 2027 09:33:35.773             3.010           378.188
       208   08 Jun 2027 09:33:53.263   08 Jun 2027 09:33:56.952             3.689           546.563
       209   08 Jun 2027 09:34:06.235   08 Jun 2027 09:34:09.321             3.086           215.656
       210   08 Jun 2027 09:34:29.416   08 Jun 2027 09:34:30.584             1.168           177.813
       211   08 Jun 2027 09:35:17.701   08 Jun 2027 09:35:21.603             3.902          1272.188
       212   08 Jun 2027 09:35:47.631   08 Jun 2027 09:35:47.737             0.106            53.000
       213   08 Jun 2027 11:07:32.802   08 Jun 2027 11:07:47.868            15.066          6748.281
       214   08 Jun 2027 11:08:18.250   08 Jun 2027 11:08:22.183             3.933           919.500
       215   08 Jun 2027 11:09:08.958   08 Jun 2027 11:09:10.110             1.152           450.656
       216   08 Jun 2027 11:09:37.452   08 Jun 2027 11:09:45.277             7.825           700.500
       217   08 Jun 2027 11:10:52.789   08 Jun 2027 11:10:57.652             4.863          2102.719
       218   08 Jun 2027 11:11:10.174   08 Jun 2027 11:11:11.659             1.485           391.313
       219   08 Jun 2027 11:11:23.135   08 Jun 2027 11:11:25.369             2.234           222.937
       220   09 Jun 2027 03:17:50.003   09 Jun 2027 03:18:32.385            42.382         21191.000
       221   09 Jun 2027 03:30:03.728   09 Jun 2027 03:31:02.144            58.416         29208.000
       222   09 Jun 2027 04:52:17.552   09 Jun 2027 04:53:25.473            67.921         33960.500
       223   09 Jun 2027 04:54:13.760   09 Jun 2027 04:55:00.551            46.791         23395.500
       224   09 Jun 2027 04:55:30.122   09 Jun 2027 04:55:44.120            13.998          6999.000
       225   09 Jun 2027 04:56:30.280   09 Jun 2027 04:56:34.986             4.706          2353.000
       226   09 Jun 2027 04:57:12.975   09 Jun 2027 04:57:32.662            19.687          9843.500
       227   09 Jun 2027 06:27:10.981   09 Jun 2027 06:28:12.499            61.518         29659.844
       228   09 Jun 2027 06:28:23.618   09 Jun 2027 06:28:24.940             1.322           125.219
       229   09 Jun 2027 06:28:28.611   09 Jun 2027 06:28:32.580             3.969           114.719
       230   09 Jun 2027 06:28:48.942   09 Jun 2027 06:28:50.647             1.705           325.844
       231   09 Jun 2027 06:29:22.684   09 Jun 2027 06:29:30.384             7.700           925.844
       232   09 Jun 2027 06:29:55.072   09 Jun 2027 06:29:57.284             2.212           534.031
       233   09 Jun 2027 06:30:31.475   09 Jun 2027 06:30:32.457             0.982           176.094
       234   09 Jun 2027 06:30:42.768   09 Jun 2027 06:30:47.598             4.830            77.906
       235   09 Jun 2027 06:31:07.945   09 Jun 2027 06:31:11.272             3.327           635.844
       236   09 Jun 2027 06:32:23.124   09 Jun 2027 06:32:26.800             3.676          1838.000
       237   09 Jun 2027 06:32:42.445   09 Jun 2027 06:32:47.878             5.433           708.344
       238   09 Jun 2027 06:32:56.699   09 Jun 2027 06:32:57.716             1.017            82.969
       239   09 Jun 2027 06:33:59.707   09 Jun 2027 06:34:02.120             2.413          1206.500
       240   09 Jun 2027 06:34:38.682   09 Jun 2027 06:34:42.777             4.095          1582.625
       241   09 Jun 2027 08:04:45.633   09 Jun 2027 08:04:53.744             8.111          2435.656
       242   09 Jun 2027 08:06:32.988   09 Jun 2027 08:06:39.447             6.459          2101.531
       243   09 Jun 2027 08:07:37.638   09 Jun 2027 08:07:42.573             4.935          1457.844
       244   09 Jun 2027 08:09:06.214   09 Jun 2027 08:09:08.602             2.388           147.531
       245   09 Jun 2027 08:09:31.117   09 Jun 2027 08:09:35.718             4.601           427.375
       246   09 Jun 2027 08:10:35.477   09 Jun 2027 08:10:41.215             5.738          1719.469
       247   09 Jun 2027 08:10:53.339   09 Jun 2027 08:10:55.425             2.086           262.281
       248   09 Jun 2027 08:11:53.656   09 Jun 2027 08:12:00.035             6.379          1720.969
       249   09 Jun 2027 09:41:28.655   09 Jun 2027 09:41:40.514            11.859          5090.531
       250   09 Jun 2027 09:42:38.188   09 Jun 2027 09:42:39.394             1.206           582.813
       251   09 Jun 2027 09:44:25.327   09 Jun 2027 09:44:31.639             6.312           488.969
       252   09 Jun 2027 09:45:17.609   09 Jun 2027 09:45:22.069             4.460           356.781
       253   09 Jun 2027 09:45:37.472   09 Jun 2027 09:45:39.465             1.993            29.906
       254   09 Jun 2027 09:45:58.378   09 Jun 2027 09:46:00.276             1.898           367.063
       255   09 Jun 2027 09:46:39.232   09 Jun 2027 09:46:49.176             9.944           945.563
       256   09 Jun 2027 09:47:08.784   09 Jun 2027 09:47:11.834             3.050           612.750
       257   09 Jun 2027 09:47:28.489   09 Jun 2027 09:47:31.345             2.856           177.906
       258   09 Jun 2027 11:19:32.483   09 Jun 2027 11:19:45.812            13.329          5776.438
       259   09 Jun 2027 11:20:20.448   09 Jun 2027 11:20:24.831             4.383            38.594
       260   09 Jun 2027 11:21:50.416   09 Jun 2027 11:21:53.421             3.005           556.656
       261   09 Jun 2027 11:22:53.850   09 Jun 2027 11:22:55.098             1.248           341.187
       262   09 Jun 2027 11:23:33.745   09 Jun 2027 11:23:37.982             4.237          1173.594
       263   10 Jun 2027 03:29:55.630   10 Jun 2027 03:30:12.820            17.190          8595.000
       264   10 Jun 2027 03:42:18.939   10 Jun 2027 03:42:36.669            17.730          8865.000
       265   10 Jun 2027 05:03:46.489   10 Jun 2027 05:07:05.746           199.257         99628.500
       266   10 Jun 2027 05:07:51.078   10 Jun 2027 05:07:51.078             0.000             0.000
       267   10 Jun 2027 05:08:48.844   10 Jun 2027 05:08:50.657             1.813           906.500
       268   10 Jun 2027 05:09:12.270   10 Jun 2027 05:09:28.231            15.961          7980.500
       269   10 Jun 2027 06:38:40.840   10 Jun 2027 06:39:43.083            62.243         31006.156
       270   10 Jun 2027 06:40:39.498   10 Jun 2027 06:40:42.765             3.267          1531.906
       271   10 Jun 2027 06:41:15.190   10 Jun 2027 06:41:16.113             0.923           461.500
       272   10 Jun 2027 06:41:23.115   10 Jun 2027 06:41:25.012             1.897           348.156
       273   10 Jun 2027 06:42:12.654   10 Jun 2027 06:42:17.248             4.594          1205.688
       274   10 Jun 2027 06:42:33.226   10 Jun 2027 06:42:34.233             1.007           186.344
       275   10 Jun 2027 06:42:46.004   10 Jun 2027 06:42:47.617             1.613           108.344
       276   10 Jun 2027 06:43:49.803   10 Jun 2027 06:43:53.387             3.584          1624.812
       277   10 Jun 2027 06:44:45.434   10 Jun 2027 06:44:48.132             2.698           589.719
       278   10 Jun 2027 06:45:21.235   10 Jun 2027 06:45:22.686             1.451           401.469
       279   10 Jun 2027 06:45:31.004   10 Jun 2027 06:45:34.025             3.021           185.781
       280   10 Jun 2027 06:45:55.437   10 Jun 2027 06:45:57.147             1.710           669.125
       281   10 Jun 2027 06:46:28.464   10 Jun 2027 06:46:29.921             1.457           679.156
       282   10 Jun 2027 06:47:37.247   10 Jun 2027 06:47:41.578             4.331          1868.750
       283   10 Jun 2027 06:47:49.864   10 Jun 2027 06:47:52.019             2.155           168.250
       284   10 Jun 2027 08:16:40.860   10 Jun 2027 08:16:45.095             4.235          1016.406
       285   10 Jun 2027 08:18:31.908   10 Jun 2027 08:18:37.773             5.865          2808.500
       286   10 Jun 2027 08:20:36.919   10 Jun 2027 08:20:43.714             6.795          1988.563
       287   10 Jun 2027 08:21:34.351   10 Jun 2027 08:21:38.043             3.692          1067.469
       288   10 Jun 2027 08:22:46.575   10 Jun 2027 08:22:59.217            12.642          1537.188
       289   10 Jun 2027 08:23:16.633   10 Jun 2027 08:23:19.515             2.882           544.250
       290   10 Jun 2027 08:23:53.281   10 Jun 2027 08:24:00.069             6.788           549.938
       291   10 Jun 2027 09:53:36.153   10 Jun 2027 09:53:48.770            12.617          5427.594
       292   10 Jun 2027 09:54:52.694   10 Jun 2027 09:54:56.258             3.564           916.250
       293   10 Jun 2027 09:57:24.792   10 Jun 2027 09:57:28.541             3.749          1015.281
       294   10 Jun 2027 09:58:03.519   10 Jun 2027 09:58:05.207             1.688           435.656
       295   10 Jun 2027 09:58:10.912   10 Jun 2027 09:58:12.415             1.503           178.281
       296   10 Jun 2027 09:58:47.901   10 Jun 2027 09:58:50.413             2.512           902.594
       297   10 Jun 2027 09:59:20.156   10 Jun 2027 09:59:21.058             0.902           379.750
       298   10 Jun 2027 09:59:59.377   10 Jun 2027 10:00:01.471             2.094           844.687
       299   10 Jun 2027 11:31:09.984   10 Jun 2027 11:31:21.209            11.225          5607.125
       300   10 Jun 2027 11:31:37.314   10 Jun 2027 11:31:38.209             0.895           181.375
       301   10 Jun 2027 11:31:54.070   10 Jun 2027 11:31:54.515             0.445           144.156
       302   10 Jun 2027 11:32:39.372   10 Jun 2027 11:32:41.554             2.182           945.781
       303   10 Jun 2027 11:33:25.771   10 Jun 2027 11:33:26.245             0.474           205.906
       304   10 Jun 2027 11:33:54.833   10 Jun 2027 11:33:59.327             4.494           779.437
       305   10 Jun 2027 11:34:32.260   10 Jun 2027 11:34:33.776             1.516           703.281
       306   10 Jun 2027 11:35:38.891   10 Jun 2027 11:35:40.568             1.677           838.500
       307   11 Jun 2027 03:41:52.032   11 Jun 2027 03:42:13.282            21.250         10625.000
       308   11 Jun 2027 05:18:04.379   11 Jun 2027 05:21:13.917           189.538         94769.000
       309   11 Jun 2027 06:51:36.835   11 Jun 2027 06:53:13.011            96.176         47813.156
       310   11 Jun 2027 06:53:48.410   11 Jun 2027 06:53:48.918             0.508            84.000
       311   11 Jun 2027 06:54:09.587   11 Jun 2027 06:54:10.163             0.576           249.938
       312   11 Jun 2027 06:54:57.453   11 Jun 2027 06:55:01.182             3.729          1238.281
       313   11 Jun 2027 06:56:25.706   11 Jun 2027 06:56:32.468             6.762          2307.375
       314   11 Jun 2027 06:57:05.959   11 Jun 2027 06:57:05.959             0.000             0.000
       315   11 Jun 2027 06:57:25.031   11 Jun 2027 06:57:27.923             2.892          1250.063
       316   11 Jun 2027 06:58:19.650   11 Jun 2027 06:58:23.624             3.974           913.437
       317   11 Jun 2027 06:58:44.575   11 Jun 2027 06:58:44.575             0.000             0.000
       318   11 Jun 2027 06:59:13.821   11 Jun 2027 06:59:19.400             5.579          1377.875
       319   11 Jun 2027 08:29:02.859   11 Jun 2027 08:29:07.401             4.542          1820.094
       320   11 Jun 2027 08:33:37.981   11 Jun 2027 08:33:40.759             2.778            81.781
       321   11 Jun 2027 08:34:58.383   11 Jun 2027 08:35:02.854             4.471          2178.594
       322   11 Jun 2027 08:35:33.476   11 Jun 2027 08:35:40.759             7.283           951.844
       323   11 Jun 2027 10:06:05.345   11 Jun 2027 10:06:08.292             2.947          1473.500
       324   11 Jun 2027 10:06:23.760   11 Jun 2027 10:06:34.983            11.223          4457.813
       325   11 Jun 2027 10:08:01.489   11 Jun 2027 10:08:06.095             4.606           560.656
       326   11 Jun 2027 10:09:29.306   11 Jun 2027 10:09:32.958             3.652           587.281
       327   11 Jun 2027 10:09:42.661   11 Jun 2027 10:09:46.335             3.674            41.406
       328   11 Jun 2027 10:09:53.047   11 Jun 2027 10:09:53.958             0.911           209.750
       329   11 Jun 2027 10:09:58.594   11 Jun 2027 10:09:59.889             1.295           144.875
       330   11 Jun 2027 10:10:23.601   11 Jun 2027 10:10:27.228             3.627           727.188
       331   11 Jun 2027 10:10:50.528   11 Jun 2027 10:10:53.232             2.704           554.562
       332   11 Jun 2027 10:11:24.476   11 Jun 2027 10:11:26.508             2.032           742.875
       333   11 Jun 2027 10:11:36.938   11 Jun 2027 10:11:44.088             7.150           325.938
       334   11 Jun 2027 11:42:53.317   11 Jun 2027 11:43:05.145            11.828          4776.406
       335   11 Jun 2027 11:44:18.700   11 Jun 2027 11:44:20.423             1.723           713.312
       336   11 Jun 2027 11:45:22.980   11 Jun 2027 11:45:32.061             9.081          1653.406
       337   11 Jun 2027 11:46:11.074   11 Jun 2027 11:46:13.207             2.133           384.719
       338   12 Jun 2027 03:53:43.360   12 Jun 2027 03:53:48.660             5.300          2650.000
       339   12 Jun 2027 03:55:13.026   12 Jun 2027 03:55:16.409             3.383          1691.500
       340   12 Jun 2027 05:30:10.428   12 Jun 2027 05:33:27.300           196.872         98436.000
       341   12 Jun 2027 07:02:20.005   12 Jun 2027 07:02:29.480             9.475          4737.500
       342   12 Jun 2027 07:04:15.598   12 Jun 2027 07:05:47.737            92.139         43977.156
       343   12 Jun 2027 07:06:05.899   12 Jun 2027 07:06:07.234             1.335           412.500
       344   12 Jun 2027 07:06:21.200   12 Jun 2027 07:06:23.094             1.894           225.562
       345   12 Jun 2027 07:07:40.260   12 Jun 2027 07:07:42.702             2.442          1221.000
       346   12 Jun 2027 07:09:10.446   12 Jun 2027 07:09:21.360            10.914          3682.063
       347   12 Jun 2027 07:09:35.879   12 Jun 2027 07:09:39.872             3.993           453.719
       348   12 Jun 2027 07:10:30.561   12 Jun 2027 07:10:35.744             5.183          1356.688
       349   12 Jun 2027 07:10:57.520   12 Jun 2027 07:11:02.720             5.200           302.500
       350   12 Jun 2027 07:11:57.905   12 Jun 2027 07:12:00.150             2.245          1122.500
       351   12 Jun 2027 08:41:13.974   12 Jun 2027 08:41:26.442            12.468          5020.062
       352   12 Jun 2027 08:45:25.255   12 Jun 2027 08:45:27.307             2.052           913.875
       353   12 Jun 2027 08:45:54.655   12 Jun 2027 08:45:56.420             1.765           547.656
       354   12 Jun 2027 08:46:07.143   12 Jun 2027 08:46:10.026             2.883           104.656
       355   12 Jun 2027 08:47:09.039   12 Jun 2027 08:47:15.833             6.794          1300.656
       356   12 Jun 2027 10:18:18.974   12 Jun 2027 10:18:33.341            14.367          5840.094
       357   12 Jun 2027 10:20:28.516   12 Jun 2027 10:20:32.973             4.457          1003.813
       358   12 Jun 2027 10:21:31.294   12 Jun 2027 10:21:32.488             1.194            14.719
       359   12 Jun 2027 10:22:03.661   12 Jun 2027 10:22:06.159             2.498           480.688
       360   12 Jun 2027 10:22:12.200   12 Jun 2027 10:22:12.992             0.792            62.688
       361   12 Jun 2027 10:23:04.995   12 Jun 2027 10:23:07.955             2.960          1111.313
       362   12 Jun 2027 10:23:13.046   12 Jun 2027 10:23:14.302             1.256            22.094
       363   12 Jun 2027 11:54:56.852   12 Jun 2027 11:55:12.326            15.474          7301.531
       364   12 Jun 2027 11:55:31.568   12 Jun 2027 11:55:38.845             7.277           468.500
       365   12 Jun 2027 11:56:40.217   12 Jun 2027 11:56:44.066             3.849          1348.500
       366   12 Jun 2027 11:57:43.074   12 Jun 2027 11:57:43.611             0.537           127.750
       367   12 Jun 2027 11:58:30.297   12 Jun 2027 11:58:33.988             3.691           878.156
       368   12 Jun 2027 11:59:27.051   12 Jun 2027 11:59:32.556             5.505            82.375
       369   12 Jun 2027 11:59:54.135   12 Jun 2027 11:59:55.968             1.833           487.813
       370   13 Jun 2027 04:05:49.392   13 Jun 2027 04:06:39.035            49.643         24821.500
       371   13 Jun 2027 05:42:18.043   13 Jun 2027 05:44:46.975           148.932         74466.000
       372   13 Jun 2027 05:45:03.824   13 Jun 2027 05:45:03.824             0.000             0.000
       373   13 Jun 2027 05:45:09.201   13 Jun 2027 05:45:17.369             8.168          4084.000
       374   13 Jun 2027 07:17:25.800   13 Jun 2027 07:19:16.726           110.926         54997.469
       375   13 Jun 2027 07:20:21.626   13 Jun 2027 07:20:25.500             3.874          1734.719
       376   13 Jun 2027 07:21:09.568   13 Jun 2027 07:21:17.951             8.383          1120.531
       377   13 Jun 2027 07:22:31.036   13 Jun 2027 07:22:36.512             5.476          2218.500
       378   13 Jun 2027 07:23:28.620   13 Jun 2027 07:23:32.372             3.752          1174.531
       379   13 Jun 2027 07:23:55.246   13 Jun 2027 07:23:59.320             4.074           589.156
       380   13 Jun 2027 08:53:47.470   13 Jun 2027 08:53:58.660            11.190          4863.844
       381   13 Jun 2027 08:58:21.767   13 Jun 2027 08:58:23.736             1.969           379.219
       382   13 Jun 2027 08:59:03.608   13 Jun 2027 08:59:09.834             6.226           137.437
       383   13 Jun 2027 10:31:12.921   13 Jun 2027 10:31:30.186            17.265          6088.187
       384   13 Jun 2027 10:33:05.297   13 Jun 2027 10:33:07.231             1.934           615.094
       385   13 Jun 2027 10:33:53.189   13 Jun 2027 10:33:55.150             1.961           750.812
       386   13 Jun 2027 10:34:15.222   13 Jun 2027 10:34:16.685             1.463           503.719
       387   13 Jun 2027 10:34:38.388   13 Jun 2027 10:34:39.730             1.342           247.719
       388   13 Jun 2027 10:35:18.503   13 Jun 2027 10:35:27.111             8.608            19.125
       389   13 Jun 2027 10:35:36.073   13 Jun 2027 10:35:37.483             1.410           280.063
