uniorb/output/strategy_4/Camera/Camera_KinoSat_111605.txt

KinoSat_111605
-------------------------
    Access    *     Start Time (UTCG)     *     Stop Time (UTCG)  *   Duration (s) *   Data (Mbytes)
         1   01 Jun 2027 03:13:58.604   01 Jun 2027 03:14:00.134             1.530           765.000
         2   01 Jun 2027 03:14:20.222   01 Jun 2027 03:15:18.621            58.399         29199.500
         3   01 Jun 2027 03:15:24.468   01 Jun 2027 03:16:04.417            39.949         19974.500
         4   01 Jun 2027 03:16:13.615   01 Jun 2027 03:16:23.561             9.946          4973.000
         5   01 Jun 2027 03:19:04.748   01 Jun 2027 03:19:08.447             3.699          1849.500
         6   01 Jun 2027 03:19:50.787   01 Jun 2027 03:19:54.205             3.418          1709.000
         7   01 Jun 2027 04:52:46.086   01 Jun 2027 04:54:11.507            85.421         42710.500
         8   01 Jun 2027 04:54:20.563   01 Jun 2027 04:54:22.449             1.886           943.000
         9   01 Jun 2027 04:54:30.903   01 Jun 2027 04:54:34.886             3.983          1991.500
        10   01 Jun 2027 04:54:56.023   01 Jun 2027 04:55:02.198             6.175          3087.500
        11   01 Jun 2027 04:55:32.250   01 Jun 2027 04:55:44.599            12.349          6174.500
        12   01 Jun 2027 04:57:20.278   01 Jun 2027 04:57:27.842             7.564          3782.000
        13   01 Jun 2027 06:16:12.830   01 Jun 2027 06:17:23.410            70.580         35290.000
        14   01 Jun 2027 06:18:24.744   01 Jun 2027 06:18:32.871             8.127          4063.500
        15   01 Jun 2027 07:52:26.242   01 Jun 2027 07:54:52.210           145.968         72984.000
        16   01 Jun 2027 09:25:59.217   01 Jun 2027 09:27:36.622            97.405         48702.500
        17   01 Jun 2027 09:28:24.781   01 Jun 2027 09:28:31.183             6.402          3201.000
        18   01 Jun 2027 09:30:55.302   01 Jun 2027 09:30:55.302             0.000             0.000
        19   01 Jun 2027 09:32:57.604   01 Jun 2027 09:33:03.087             5.483          2741.500
        20   01 Jun 2027 09:33:33.180   01 Jun 2027 09:33:50.726            17.546          8773.000
        21   01 Jun 2027 09:34:31.888   01 Jun 2027 09:34:32.928             1.040           520.000
        22   01 Jun 2027 11:03:31.764   01 Jun 2027 11:05:25.908           114.144         57072.000
        23   01 Jun 2027 11:07:31.222   01 Jun 2027 11:08:21.722            50.500         25250.000
        24   01 Jun 2027 11:08:26.240   01 Jun 2027 11:09:27.529            61.289         30644.500
        25   02 Jun 2027 03:26:22.197   02 Jun 2027 03:26:28.320             6.123          3061.500
        26   02 Jun 2027 03:27:01.946   02 Jun 2027 03:29:11.660           129.714         64857.000
        27   02 Jun 2027 03:30:51.234   02 Jun 2027 03:31:13.005            21.771         10885.500
        28   02 Jun 2027 03:31:52.452   02 Jun 2027 03:31:52.452             0.000             0.000
        29   02 Jun 2027 03:32:07.890   02 Jun 2027 03:32:29.828            21.938         10969.000
        30   02 Jun 2027 05:04:24.920   02 Jun 2027 05:09:13.771           288.851        144425.500
        31   02 Jun 2027 06:28:03.997   02 Jun 2027 06:28:35.032            31.035         15517.500
        32   02 Jun 2027 08:04:31.243   02 Jun 2027 08:07:21.009           169.766         84883.000
        33   02 Jun 2027 09:36:39.526   02 Jun 2027 09:36:49.523             9.997          4998.500
        34   02 Jun 2027 09:38:38.184   02 Jun 2027 09:39:32.807            54.623         26383.844
        35   02 Jun 2027 09:40:24.204   02 Jun 2027 09:40:25.470             1.266             4.469
        36   02 Jun 2027 09:41:04.130   02 Jun 2027 09:41:10.115             5.985           630.281
        37   02 Jun 2027 09:42:53.695   02 Jun 2027 09:43:02.381             8.686          2058.188
        38   02 Jun 2027 09:44:58.651   02 Jun 2027 09:45:04.386             5.735          2537.938
        39   02 Jun 2027 09:45:51.977   02 Jun 2027 09:45:58.760             6.783           825.594
        40   02 Jun 2027 09:46:27.603   02 Jun 2027 09:46:27.744             0.141            70.500
        41   02 Jun 2027 11:15:36.654   02 Jun 2027 11:15:47.719            11.065          4865.312
        42   02 Jun 2027 11:18:19.690   02 Jun 2027 11:18:21.756             2.066          1007.438
        43   02 Jun 2027 11:19:18.513   02 Jun 2027 11:19:22.124             3.611           921.844
        44   02 Jun 2027 11:19:38.412   02 Jun 2027 11:19:39.469             1.057           509.000
        45   02 Jun 2027 11:20:00.772   02 Jun 2027 11:20:02.811             2.039            92.406
        46   02 Jun 2027 11:20:24.841   02 Jun 2027 11:20:29.782             4.941           640.344
        47   02 Jun 2027 11:20:42.099   02 Jun 2027 11:20:47.159             5.060           340.438
        48   02 Jun 2027 11:21:09.413   02 Jun 2027 11:21:20.505            11.092           186.031
        49   02 Jun 2027 11:21:35.809   02 Jun 2027 11:21:36.631             0.822           217.531
        50   02 Jun 2027 11:22:01.449   02 Jun 2027 11:22:03.779             2.330           746.156
        51   03 Jun 2027 03:38:30.055   03 Jun 2027 03:39:30.594            60.539         30269.500
        52   03 Jun 2027 03:39:39.109   03 Jun 2027 03:41:18.225            99.116         49558.000
        53   03 Jun 2027 03:41:53.299   03 Jun 2027 03:42:01.573             8.274          4137.000
        54   03 Jun 2027 03:42:29.294   03 Jun 2027 03:43:07.751            38.457         19228.500
        55   03 Jun 2027 03:43:56.173   03 Jun 2027 03:43:59.157             2.984          1492.000
        56   03 Jun 2027 05:17:44.705   03 Jun 2027 05:19:20.502            95.797         47300.469
        57   03 Jun 2027 05:20:20.749   03 Jun 2027 05:20:25.067             4.318          1882.719
        58   03 Jun 2027 06:40:12.361   03 Jun 2027 06:40:21.098             8.737          3873.125
        59   03 Jun 2027 06:41:25.534   03 Jun 2027 06:41:31.796             6.262          1951.156
        60   03 Jun 2027 06:42:12.039   03 Jun 2027 06:42:14.988             2.949          1257.594
        61   03 Jun 2027 08:16:41.272   03 Jun 2027 08:16:50.396             9.124          3495.656
        62   03 Jun 2027 08:17:50.795   03 Jun 2027 08:17:54.294             3.499          1678.188
        63   03 Jun 2027 08:18:16.181   03 Jun 2027 08:18:16.979             0.798           247.938
        64   03 Jun 2027 08:19:09.226   03 Jun 2027 08:19:16.256             7.030          1632.719
        65   03 Jun 2027 08:20:17.621   03 Jun 2027 08:20:19.327             1.706           853.000
        66   03 Jun 2027 09:51:52.436   03 Jun 2027 09:52:02.063             9.627          3354.438
        67   03 Jun 2027 09:53:04.938   03 Jun 2027 09:53:06.653             1.715           857.500
        68   03 Jun 2027 09:53:57.952   03 Jun 2027 09:54:02.874             4.922          2312.531
        69   03 Jun 2027 09:55:32.854   03 Jun 2027 09:55:39.986             7.132          1923.469
        70   03 Jun 2027 09:56:19.224   03 Jun 2027 09:56:22.592             3.368           773.906
        71   03 Jun 2027 09:56:33.237   03 Jun 2027 09:56:34.572             1.335           272.312
        72   03 Jun 2027 09:57:58.015   03 Jun 2027 09:58:04.653             6.638          1837.438
        73   03 Jun 2027 09:58:26.570   03 Jun 2027 09:58:28.781             2.211           376.750
        74   03 Jun 2027 11:28:11.488   03 Jun 2027 11:28:23.539            12.051          4744.062
        75   03 Jun 2027 11:30:51.571   03 Jun 2027 11:31:00.427             8.856          1205.719
        76   03 Jun 2027 11:32:03.226   03 Jun 2027 11:32:10.949             7.723          1222.219
        77   03 Jun 2027 11:33:16.956   03 Jun 2027 11:33:21.403             4.447          2062.719
        78   03 Jun 2027 11:33:22.908   03 Jun 2027 11:33:23.222             0.314            47.031
        79   04 Jun 2027 03:50:34.899   04 Jun 2027 03:50:52.971            18.072          9036.000
        80   04 Jun 2027 03:51:37.637   04 Jun 2027 03:54:31.947           174.310         87155.000
        81   04 Jun 2027 03:55:17.759   04 Jun 2027 03:55:49.098            31.339         15669.500
        82   04 Jun 2027 03:58:52.153   04 Jun 2027 03:59:19.598            27.445         13722.500
        83   04 Jun 2027 05:28:46.585   04 Jun 2027 05:29:23.640            37.055         18527.500
        84   04 Jun 2027 05:29:52.644   04 Jun 2027 05:30:27.853            35.209         17478.907
        85   04 Jun 2027 05:31:35.693   04 Jun 2027 05:31:38.843             3.150          1456.469
        86   04 Jun 2027 06:52:55.054   04 Jun 2027 06:53:05.620            10.566          4646.188
        87   04 Jun 2027 06:54:48.101   04 Jun 2027 06:54:55.761             7.660          2560.469
        88   04 Jun 2027 06:55:19.954   04 Jun 2027 06:55:19.954             0.000             0.000
        89   04 Jun 2027 08:28:39.158   04 Jun 2027 08:28:46.801             7.643          2048.875
        90   04 Jun 2027 08:30:17.219   04 Jun 2027 08:30:22.785             5.566          2713.719
        91   04 Jun 2027 08:30:36.133   04 Jun 2027 08:30:41.599             5.466           325.719
        92   04 Jun 2027 08:31:18.947   04 Jun 2027 08:31:23.771             4.824           879.469
        93   04 Jun 2027 10:03:42.988   04 Jun 2027 10:03:51.071             8.083          2448.875
        94   04 Jun 2027 10:05:07.158   04 Jun 2027 10:05:12.359             5.201          2035.875
        95   04 Jun 2027 10:05:53.174   04 Jun 2027 10:05:57.666             4.492           623.844
        96   04 Jun 2027 10:06:46.186   04 Jun 2027 10:06:49.946             3.760          1110.187
        97   04 Jun 2027 10:07:39.492   04 Jun 2027 10:07:43.289             3.797           673.500
        98   04 Jun 2027 10:08:25.759   04 Jun 2027 10:08:28.447             2.688           549.156
        99   04 Jun 2027 10:10:13.761   04 Jun 2027 10:10:19.503             5.742          2329.344
       100   04 Jun 2027 11:39:48.554   04 Jun 2027 11:39:58.162             9.608          4597.656
       101   04 Jun 2027 11:41:04.923   04 Jun 2027 11:41:07.527             2.604           806.938
       102   04 Jun 2027 11:41:39.791   04 Jun 2027 11:41:45.062             5.271           953.188
       103   04 Jun 2027 11:42:03.632   04 Jun 2027 11:42:03.836             0.204            94.938
       104   04 Jun 2027 11:42:46.508   04 Jun 2027 11:42:48.733             2.225           839.906
       105   04 Jun 2027 11:42:56.088   04 Jun 2027 11:42:57.784             1.696            86.937
       106   04 Jun 2027 11:43:33.203   04 Jun 2027 11:43:35.810             2.607           795.063
       107   04 Jun 2027 11:43:56.474   04 Jun 2027 11:43:57.782             1.308           645.750
       108   04 Jun 2027 11:44:02.577   04 Jun 2027 11:44:05.147             2.570             4.813
       109   04 Jun 2027 11:44:43.992   04 Jun 2027 11:44:48.381             4.389          1114.063
       110   04 Jun 2027 11:45:12.704   04 Jun 2027 11:45:18.192             5.488           366.688
       111   05 Jun 2027 04:03:40.036   05 Jun 2027 04:07:15.018           214.982        107491.000
       112   05 Jun 2027 04:08:46.098   05 Jun 2027 04:09:09.938            23.840         11920.000
       113   05 Jun 2027 04:09:52.884   05 Jun 2027 04:09:54.627             1.743           871.500
       114   05 Jun 2027 05:30:01.706   05 Jun 2027 05:30:15.952            14.246          7123.000
       115   05 Jun 2027 05:40:42.600   05 Jun 2027 05:42:15.826            93.226         45812.656
       116   05 Jun 2027 05:43:07.118   05 Jun 2027 05:43:09.766             2.648           823.281
       117   05 Jun 2027 05:43:49.283   05 Jun 2027 05:43:51.863             2.580           744.219
       118   05 Jun 2027 07:04:01.359   05 Jun 2027 07:04:14.626            13.267          3961.938
       119   05 Jun 2027 07:05:26.430   05 Jun 2027 07:05:34.421             7.991          1806.469
       120   05 Jun 2027 07:06:10.511   05 Jun 2027 07:06:13.818             3.307          1097.625
       121   05 Jun 2027 07:07:34.965   05 Jun 2027 07:07:34.965             0.000             0.000
       122   05 Jun 2027 08:39:16.858   05 Jun 2027 08:39:19.036             2.178          1089.000
       123   05 Jun 2027 08:40:40.992   05 Jun 2027 08:40:48.885             7.893          3856.375
       124   05 Jun 2027 08:41:09.707   05 Jun 2027 08:41:10.272             0.565           280.344
       125   05 Jun 2027 08:42:29.560   05 Jun 2027 08:42:34.384             4.824          1815.813
       126   05 Jun 2027 08:43:12.378   05 Jun 2027 08:43:15.868             3.490           792.969
       127   05 Jun 2027 08:43:38.378   05 Jun 2027 08:43:42.257             3.879           678.125
       128   05 Jun 2027 10:15:09.862   05 Jun 2027 10:15:18.976             9.114          4389.062
       129   05 Jun 2027 10:17:42.869   05 Jun 2027 10:17:50.815             7.946          3709.219
       130   05 Jun 2027 10:18:26.414   05 Jun 2027 10:18:28.962             2.548           698.125
       131   05 Jun 2027 10:20:58.569   05 Jun 2027 10:21:08.210             9.641          4263.063
       132   05 Jun 2027 10:22:38.007   05 Jun 2027 10:22:42.649             4.642          1016.531
       133   05 Jun 2027 11:51:59.937   05 Jun 2027 11:52:13.834            13.897          6505.094
       134   05 Jun 2027 11:53:30.041   05 Jun 2027 11:53:32.949             2.908           136.719
       135   05 Jun 2027 11:54:02.525   05 Jun 2027 11:54:10.031             7.506           440.031
       136   05 Jun 2027 11:55:44.802   05 Jun 2027 11:55:50.166             5.364          2142.406
       137   05 Jun 2027 11:56:20.629   05 Jun 2027 11:56:23.040             2.411           827.156
       138   05 Jun 2027 11:57:01.414   05 Jun 2027 11:57:05.219             3.805           706.875
       139   05 Jun 2027 11:58:01.260   05 Jun 2027 11:58:06.543             5.283          1751.281
       140   05 Jun 2027 11:58:09.669   05 Jun 2027 11:58:12.831             3.162            97.688
       141   06 Jun 2027 04:16:03.736   06 Jun 2027 04:18:41.475           157.739         78869.500
       142   06 Jun 2027 04:19:09.472   06 Jun 2027 04:19:11.753             2.281          1140.500
       143   06 Jun 2027 04:20:58.036   06 Jun 2027 04:21:22.067            24.031         12015.500
       144   06 Jun 2027 04:21:55.929   06 Jun 2027 04:22:06.872            10.943          5471.500
       145   06 Jun 2027 05:41:03.507   06 Jun 2027 05:41:35.589            32.082         16041.000
       146   06 Jun 2027 05:52:44.281   06 Jun 2027 05:54:04.584            80.303         40151.500
       147   06 Jun 2027 07:14:59.531   06 Jun 2027 07:15:18.915            19.384          9121.312
       148   06 Jun 2027 07:15:44.586   06 Jun 2027 07:15:47.455             2.869           676.000
       149   06 Jun 2027 07:16:57.202   06 Jun 2027 07:17:00.884             3.682          1575.563
       150   06 Jun 2027 07:17:12.714   06 Jun 2027 07:17:14.074             1.360           247.625
       151   06 Jun 2027 07:18:12.606   06 Jun 2027 07:18:12.606             0.000             0.000
       152   06 Jun 2027 07:18:34.779   06 Jun 2027 07:18:43.953             9.174          2142.250
       153   06 Jun 2027 07:19:14.435   06 Jun 2027 07:19:18.927             4.492           783.125
       154   06 Jun 2027 08:50:11.496   06 Jun 2027 08:50:18.637             7.141          2277.938
       155   06 Jun 2027 08:50:28.887   06 Jun 2027 08:50:28.981             0.094            47.000
       156   06 Jun 2027 08:51:35.701   06 Jun 2027 08:51:36.599             0.898           449.000
       157   06 Jun 2027 08:52:08.230   06 Jun 2027 08:52:11.876             3.646          1667.188
       158   06 Jun 2027 08:53:12.639   06 Jun 2027 08:53:18.376             5.737          1898.844
       159   06 Jun 2027 08:54:50.845   06 Jun 2027 08:55:07.153            16.308          2447.313
       160   06 Jun 2027 08:55:27.172   06 Jun 2027 08:55:28.801             1.629           441.500
       161   06 Jun 2027 08:56:14.266   06 Jun 2027 08:56:15.703             1.437           451.469
       162   06 Jun 2027 08:56:31.678   06 Jun 2027 08:56:32.866             1.188           499.219
       163   06 Jun 2027 10:27:16.889   06 Jun 2027 10:27:23.802             6.913          2133.156
       164   06 Jun 2027 10:29:22.242   06 Jun 2027 10:29:28.503             6.261           868.844
       165   06 Jun 2027 10:30:45.428   06 Jun 2027 10:30:48.540             3.112           324.500
       166   06 Jun 2027 10:30:50.180   06 Jun 2027 10:30:50.563             0.383            50.188
       167   06 Jun 2027 10:32:06.286   06 Jun 2027 10:32:07.813             1.527           669.906
       168   06 Jun 2027 10:33:48.190   06 Jun 2027 10:33:56.340             8.150          3080.344
       169   06 Jun 2027 10:34:31.944   06 Jun 2027 10:34:41.287             9.343          1054.875
       170   07 Jun 2027 04:28:22.638   07 Jun 2027 04:31:24.647           182.009         91004.500
       171   07 Jun 2027 04:31:58.914   07 Jun 2027 04:32:08.305             9.391          4695.500
       172   07 Jun 2027 04:35:06.599   07 Jun 2027 04:35:21.023            14.424          7212.000
       173   07 Jun 2027 05:52:27.747   07 Jun 2027 05:53:04.117            36.370         18185.000
       174   07 Jun 2027 05:54:20.359   07 Jun 2027 05:54:20.359             0.000             0.000
       175   07 Jun 2027 05:54:24.777   07 Jun 2027 05:54:43.023            18.246          9123.000
       176   07 Jun 2027 06:04:41.272   07 Jun 2027 06:05:20.415            39.143         19571.500
       177   07 Jun 2027 07:26:43.136   07 Jun 2027 07:27:20.733            37.597         15324.063
       178   07 Jun 2027 07:28:47.456   07 Jun 2027 07:28:50.490             3.034          1508.625
       179   07 Jun 2027 07:29:39.253   07 Jun 2027 07:29:44.158             4.905          1469.500
       180   07 Jun 2027 07:30:48.067   07 Jun 2027 07:30:58.090            10.023          1997.156
       181   07 Jun 2027 07:31:15.755   07 Jun 2027 07:31:16.634             0.879            85.375
       182   07 Jun 2027 07:31:50.054   07 Jun 2027 07:31:52.568             2.514          1024.750
       183   07 Jun 2027 09:01:37.804   07 Jun 2027 09:01:46.798             8.994          3431.906
       184   07 Jun 2027 09:04:07.305   07 Jun 2027 09:04:12.032             4.727          1516.937
       185   07 Jun 2027 09:04:56.416   07 Jun 2027 09:04:59.751             3.335          1324.156
       186   07 Jun 2027 09:05:23.599   07 Jun 2027 09:05:25.327             1.728           256.750
       187   07 Jun 2027 09:05:54.355   07 Jun 2027 09:05:58.945             4.590           658.531
       188   07 Jun 2027 09:07:52.010   07 Jun 2027 09:07:55.364             3.354          1362.375
       189   07 Jun 2027 09:09:20.900   07 Jun 2027 09:09:23.715             2.815          1407.500
       190   07 Jun 2027 09:09:51.620   07 Jun 2027 09:09:54.515             2.895          1175.313
       191   07 Jun 2027 10:39:19.076   07 Jun 2027 10:39:28.064             8.988          4362.781
       192   07 Jun 2027 10:42:25.423   07 Jun 2027 10:42:30.412             4.989          2413.531
       193   07 Jun 2027 10:43:21.666   07 Jun 2027 10:43:24.841             3.175           428.906
       194   07 Jun 2027 10:43:38.604   07 Jun 2027 10:43:40.038             1.434            24.250
       195   07 Jun 2027 10:43:58.633   07 Jun 2027 10:44:00.598             1.965           298.000
       196   07 Jun 2027 10:44:26.952   07 Jun 2027 10:44:28.162             1.210           282.844
       197   07 Jun 2027 10:44:40.099   07 Jun 2027 10:44:42.532             2.433           373.031
       198   07 Jun 2027 10:45:00.121   07 Jun 2027 10:45:01.378             1.257           389.844
       199   07 Jun 2027 10:45:48.417   07 Jun 2027 10:45:51.776             3.359          1108.406
       200   07 Jun 2027 10:46:46.001   07 Jun 2027 10:46:46.172             0.171            85.500
       201   08 Jun 2027 03:01:44.608   08 Jun 2027 03:01:46.242             1.634           817.000
       202   08 Jun 2027 03:02:06.059   08 Jun 2027 03:02:30.973            24.914         12457.000
       203   08 Jun 2027 03:02:53.383   08 Jun 2027 03:02:53.383             0.000             0.000
       204   08 Jun 2027 03:03:23.687   08 Jun 2027 03:03:36.801            13.114          6557.000
       205   08 Jun 2027 03:04:05.795   08 Jun 2027 03:04:06.303             0.508           254.000
       206   08 Jun 2027 03:04:11.549   08 Jun 2027 03:04:14.063             2.514          1257.000
       207   08 Jun 2027 03:04:20.185   08 Jun 2027 03:04:20.893             0.708           354.000
       208   08 Jun 2027 03:06:59.497   08 Jun 2027 03:07:05.274             5.777          2888.500
       209   08 Jun 2027 03:07:26.902   08 Jun 2027 03:07:35.317             8.415          4207.500
       210   08 Jun 2027 04:40:27.118   08 Jun 2027 04:43:17.716           170.598         85299.000
       211   08 Jun 2027 04:44:18.573   08 Jun 2027 04:44:59.544            40.971         20485.500
       212   08 Jun 2027 04:45:27.335   08 Jun 2027 04:46:00.449            33.114         16095.594
       213   08 Jun 2027 06:04:33.463   08 Jun 2027 06:05:04.791            31.328         15664.000
       214   08 Jun 2027 07:38:20.673   08 Jun 2027 07:38:36.220            15.547          7433.938
       215   08 Jun 2027 07:39:51.821   08 Jun 2027 07:39:56.569             4.748          1784.969
       216   08 Jun 2027 07:40:24.519   08 Jun 2027 07:40:25.996             1.477           324.625
       217   08 Jun 2027 07:41:07.634   08 Jun 2027 07:41:11.607             3.973          1301.188
       218   08 Jun 2027 07:41:16.146   08 Jun 2027 07:41:17.051             0.905           141.844
       219   08 Jun 2027 07:41:41.190   08 Jun 2027 07:41:43.735             2.545           537.312
       220   08 Jun 2027 07:42:45.923   08 Jun 2027 07:42:49.490             3.567          1680.375
       221   08 Jun 2027 07:43:19.910   08 Jun 2027 07:43:22.130             2.220           623.531
       222   08 Jun 2027 07:43:48.355   08 Jun 2027 07:44:00.681            12.326           342.156
       223   08 Jun 2027 09:13:12.656   08 Jun 2027 09:13:19.939             7.283          3277.250
       224   08 Jun 2027 09:17:33.628   08 Jun 2027 09:17:40.783             7.155          2658.219
       225   08 Jun 2027 09:19:13.233   08 Jun 2027 09:19:19.010             5.777          2456.125
       226   08 Jun 2027 09:20:36.219   08 Jun 2027 09:20:37.958             1.739           571.688
       227   08 Jun 2027 09:21:22.613   08 Jun 2027 09:21:26.236             3.623          1300.375
       228   08 Jun 2027 09:22:19.752   08 Jun 2027 09:22:22.015             2.263           993.344
       229   08 Jun 2027 10:51:22.223   08 Jun 2027 10:51:35.229            13.006          5326.062
       230   08 Jun 2027 10:54:12.276   08 Jun 2027 10:54:21.089             8.813          4126.500
       231   08 Jun 2027 10:55:33.918   08 Jun 2027 10:55:34.299             0.381           190.500
       232   08 Jun 2027 10:56:11.045   08 Jun 2027 10:56:14.500             3.455          1567.250
       233   08 Jun 2027 10:56:18.574   08 Jun 2027 10:56:20.040             1.466            28.500
       234   08 Jun 2027 10:56:55.020   08 Jun 2027 10:57:01.051             6.031           603.844
       235   08 Jun 2027 10:57:50.266   08 Jun 2027 10:57:52.329             2.063           674.437
       236   08 Jun 2027 10:57:52.943   08 Jun 2027 10:57:55.156             2.213             4.906
       237   08 Jun 2027 10:58:25.212   08 Jun 2027 10:58:28.901             3.689           419.062
       238   08 Jun 2027 10:58:45.126   08 Jun 2027 10:58:47.146             2.020           507.031
       239   09 Jun 2027 03:14:38.253   09 Jun 2027 03:15:31.339            53.086         26543.000
       240   09 Jun 2027 03:15:41.099   09 Jun 2027 03:16:22.922            41.823         20911.500
       241   09 Jun 2027 03:16:23.493   09 Jun 2027 03:16:44.983            21.490         10745.000
       242   09 Jun 2027 03:17:10.750   09 Jun 2027 03:17:16.403             5.653          2826.500
       243   09 Jun 2027 03:17:41.960   09 Jun 2027 03:17:59.094            17.134          8567.000
       244   09 Jun 2027 03:19:28.851   09 Jun 2027 03:19:53.622            24.771         12385.500
       245   09 Jun 2027 04:53:03.152   09 Jun 2027 04:55:23.854           140.702         69060.937
       246   09 Jun 2027 04:55:56.822   09 Jun 2027 04:55:57.964             1.142           220.031
       247   09 Jun 2027 06:16:28.566   09 Jun 2027 06:16:42.044            13.478          6141.281
       248   09 Jun 2027 06:17:40.061   09 Jun 2027 06:17:40.061             0.000             0.000
       249   09 Jun 2027 06:18:14.762   09 Jun 2027 06:18:20.844             6.082          2381.875
       250   09 Jun 2027 06:18:41.805   09 Jun 2027 06:18:42.133             0.328           121.500
       251   09 Jun 2027 07:52:44.154   09 Jun 2027 07:53:02.383            18.229          6933.437
       252   09 Jun 2027 07:53:15.007   09 Jun 2027 07:53:17.342             2.335           256.750
       253   09 Jun 2027 07:53:40.729   09 Jun 2027 07:53:42.704             1.975           730.844
       254   09 Jun 2027 07:54:31.185   09 Jun 2027 07:54:37.158             5.973          1503.031
       255   09 Jun 2027 07:54:46.229   09 Jun 2027 07:54:46.919             0.690           108.125
       256   09 Jun 2027 07:55:22.367   09 Jun 2027 07:55:31.189             8.822           502.062
       257   09 Jun 2027 09:26:16.541   09 Jun 2027 09:26:25.204             8.663          3988.813
       258   09 Jun 2027 09:27:47.803   09 Jun 2027 09:27:51.297             3.494           574.188
       259   09 Jun 2027 09:28:43.275   09 Jun 2027 09:28:46.624             3.349          1116.625
       260   09 Jun 2027 09:29:59.281   09 Jun 2027 09:30:03.889             4.608          2247.313
       261   09 Jun 2027 09:31:24.665   09 Jun 2027 09:31:26.210             1.545           739.094
       262   09 Jun 2027 09:33:15.400   09 Jun 2027 09:33:19.614             4.214          2107.000
       263   09 Jun 2027 09:34:09.207   09 Jun 2027 09:34:13.231             4.024          1571.000
       264   09 Jun 2027 11:03:48.986   09 Jun 2027 11:04:02.863            13.877          6515.687
       265   09 Jun 2027 11:04:59.364   09 Jun 2027 11:05:02.069             2.705           865.094
       266   09 Jun 2027 11:07:37.592   09 Jun 2027 11:07:48.337            10.745          3173.250
       267   09 Jun 2027 11:08:17.793   09 Jun 2027 11:08:18.799             1.006           265.031
       268   09 Jun 2027 11:08:46.125   09 Jun 2027 11:08:50.124             3.999           844.219
       269   09 Jun 2027 11:09:05.029   09 Jun 2027 11:09:11.375             6.346           432.875
       270   09 Jun 2027 11:10:02.747   09 Jun 2027 11:10:07.124             4.377          1401.906
       271   09 Jun 2027 11:10:16.112   09 Jun 2027 11:10:18.505             2.393            68.063
       272   09 Jun 2027 11:10:29.964   09 Jun 2027 11:10:31.336             1.372           204.531
       273   10 Jun 2027 03:26:38.875   10 Jun 2027 03:27:07.005            28.130         14065.000
       274   10 Jun 2027 03:27:09.240   10 Jun 2027 03:28:09.605            60.365         30182.500
       275   10 Jun 2027 03:28:53.993   10 Jun 2027 03:30:44.793           110.800         55400.000
       276   10 Jun 2027 03:32:24.876   10 Jun 2027 03:32:24.876             0.000             0.000
       277   10 Jun 2027 05:04:41.923   10 Jun 2027 05:06:19.903            97.980         48990.000
       278   10 Jun 2027 05:07:03.382   10 Jun 2027 05:07:13.549            10.167          2394.937
       279   10 Jun 2027 05:07:44.405   10 Jun 2027 05:07:49.552             5.147           681.687
       280   10 Jun 2027 05:08:09.178   10 Jun 2027 05:08:11.321             2.143           593.844
       281   10 Jun 2027 05:08:54.240   10 Jun 2027 05:08:59.120             4.880           367.187
       282   10 Jun 2027 06:28:20.428   10 Jun 2027 06:28:27.207             6.779          3389.500
       283   10 Jun 2027 06:28:49.929   10 Jun 2027 06:28:49.929             0.000             0.000
       284   10 Jun 2027 06:29:41.227   10 Jun 2027 06:29:44.777             3.550          1775.000
       285   10 Jun 2027 06:29:58.340   10 Jun 2027 06:30:04.808             6.468          2201.844
       286   10 Jun 2027 06:30:32.840   10 Jun 2027 06:30:32.840             0.000             0.000
       287   10 Jun 2027 08:04:48.239   10 Jun 2027 08:04:55.480             7.241          3620.500
       288   10 Jun 2027 08:05:23.819   10 Jun 2027 08:05:27.273             3.454          1115.281
       289   10 Jun 2027 08:06:41.740   10 Jun 2027 08:06:46.410             4.670          1776.000
       290   10 Jun 2027 08:07:52.301   10 Jun 2027 08:07:52.301             0.000             0.000
       291   10 Jun 2027 09:38:56.283   10 Jun 2027 09:39:05.601             9.318          2933.531
       292   10 Jun 2027 09:40:40.255   10 Jun 2027 09:40:47.381             7.126          2210.187
       293   10 Jun 2027 09:41:22.210   10 Jun 2027 09:41:25.844             3.634           609.344
       294   10 Jun 2027 09:42:08.031   10 Jun 2027 09:42:08.359             0.328            45.250
       295   10 Jun 2027 09:43:52.769   10 Jun 2027 09:43:56.759             3.990          1315.219
       296   10 Jun 2027 09:44:59.482   10 Jun 2027 09:45:00.608             1.126           420.875
       297   10 Jun 2027 09:45:46.047   10 Jun 2027 09:45:51.615             5.568           878.000
       298   10 Jun 2027 09:46:23.538   10 Jun 2027 09:46:24.828             1.290           382.937
       299   10 Jun 2027 09:46:44.109   10 Jun 2027 09:46:44.123             0.014             7.000
       300   10 Jun 2027 11:15:54.883   10 Jun 2027 11:16:08.064            13.181          6120.094
       301   10 Jun 2027 11:18:47.947   10 Jun 2027 11:18:50.248             2.301           324.563
       302   10 Jun 2027 11:19:35.663   10 Jun 2027 11:19:39.198             3.535           914.344
       303   10 Jun 2027 11:20:13.590   10 Jun 2027 11:20:17.127             3.537           597.125
       304   10 Jun 2027 11:20:19.162   10 Jun 2027 11:20:20.769             1.607            27.844
       305   10 Jun 2027 11:20:51.279   10 Jun 2027 11:20:53.547             2.268           511.219
       306   10 Jun 2027 11:21:52.840   10 Jun 2027 11:21:57.721             4.881          1852.906
       307   10 Jun 2027 11:22:14.985   10 Jun 2027 11:22:17.506             2.521           504.312
       308   11 Jun 2027 03:38:47.043   11 Jun 2027 03:39:47.313            60.270         30135.000
       309   11 Jun 2027 03:39:56.100   11 Jun 2027 03:42:16.181           140.081         70040.500
       310   11 Jun 2027 03:45:03.259   11 Jun 2027 03:45:07.743             4.484          2242.000
       311   11 Jun 2027 05:17:07.576   11 Jun 2027 05:17:33.624            26.048         13024.000
       312   11 Jun 2027 05:18:00.722   11 Jun 2027 05:19:07.349            66.627         32694.656
       313   11 Jun 2027 05:19:34.817   11 Jun 2027 05:19:37.537             2.720           750.562
       314   11 Jun 2027 05:20:35.507   11 Jun 2027 05:20:38.714             3.207          1402.562
       315   11 Jun 2027 06:40:29.073   11 Jun 2027 06:40:37.872             8.799          4399.500
       316   11 Jun 2027 06:41:42.143   11 Jun 2027 06:41:46.343             4.200          2045.594
       317   11 Jun 2027 06:42:48.645   11 Jun 2027 06:42:48.645             0.000             0.000
       318   11 Jun 2027 06:43:07.660   11 Jun 2027 06:43:15.684             8.024          2430.875
       319   11 Jun 2027 08:16:59.108   11 Jun 2027 08:17:04.645             5.537          1837.094
       320   11 Jun 2027 08:18:01.201   11 Jun 2027 08:18:05.686             4.485          1497.406
       321   11 Jun 2027 08:18:25.188   11 Jun 2027 08:18:26.634             1.446           599.875
       322   11 Jun 2027 08:18:33.439   11 Jun 2027 08:18:33.439             0.000             0.000
       323   11 Jun 2027 08:19:26.528   11 Jun 2027 08:19:36.621            10.093          1691.969
       324   11 Jun 2027 08:20:33.161   11 Jun 2027 08:20:35.801             2.640          1320.000
       325   11 Jun 2027 09:52:09.449   11 Jun 2027 09:52:17.990             8.541          3604.750
       326   11 Jun 2027 09:53:23.883   11 Jun 2027 09:53:28.302             4.419          1662.937
       327   11 Jun 2027 09:55:48.804   11 Jun 2027 09:55:54.479             5.675          1931.625
       328   11 Jun 2027 09:56:30.609   11 Jun 2027 09:56:35.068             4.459           670.281
       329   11 Jun 2027 09:57:18.536   11 Jun 2027 09:57:23.153             4.617           901.312
       330   11 Jun 2027 09:58:29.843   11 Jun 2027 09:58:31.401             1.558           703.531
       331   11 Jun 2027 11:28:31.122   11 Jun 2027 11:28:41.604            10.482          4842.531
       332   11 Jun 2027 11:30:25.152   11 Jun 2027 11:30:30.595             5.443           114.281
       333   11 Jun 2027 11:31:08.896   11 Jun 2027 11:31:17.289             8.393          1196.906
       334   11 Jun 2027 11:32:17.132   11 Jun 2027 11:32:20.553             3.421          1113.625
       335   11 Jun 2027 11:32:57.094   11 Jun 2027 11:33:01.191             4.097           832.062
       336   11 Jun 2027 11:33:13.926   11 Jun 2027 11:33:19.421             5.495            51.094
       337   11 Jun 2027 11:33:39.003   11 Jun 2027 11:33:39.645             0.642            47.375
       338   12 Jun 2027 03:50:51.750   12 Jun 2027 03:51:06.891            15.141          7570.500
       339   12 Jun 2027 03:51:54.269   12 Jun 2027 03:55:35.534           221.265        110632.500
       340   12 Jun 2027 03:59:05.534   12 Jun 2027 03:59:29.223            23.689         11844.500
       341   12 Jun 2027 05:29:03.023   12 Jun 2027 05:29:40.818            37.795         18897.500
       342   12 Jun 2027 05:30:10.616   12 Jun 2027 05:30:59.790            49.174         23863.594
       343   12 Jun 2027 05:31:53.011   12 Jun 2027 05:31:57.532             4.521          1548.562
       344   12 Jun 2027 05:32:37.890   12 Jun 2027 05:32:38.081             0.191            95.500
       345   12 Jun 2027 06:53:12.087   12 Jun 2027 06:53:24.556            12.469          4902.187
       346   12 Jun 2027 06:55:05.691   12 Jun 2027 06:55:12.039             6.348          3148.125
       347   12 Jun 2027 06:55:37.435   12 Jun 2027 06:55:39.331             1.896           452.688
       348   12 Jun 2027 08:28:55.019   12 Jun 2027 08:29:01.690             6.671          2880.281
       349   12 Jun 2027 08:29:48.144   12 Jun 2027 08:29:48.144             0.000             0.000
       350   12 Jun 2027 08:30:36.512   12 Jun 2027 08:30:42.964             6.452          2815.219
       351   12 Jun 2027 08:30:53.569   12 Jun 2027 08:30:55.632             2.063           331.406
       352   12 Jun 2027 08:31:35.946   12 Jun 2027 08:31:38.603             2.657           812.406
       353   12 Jun 2027 10:03:52.476   12 Jun 2027 10:03:58.211             5.735          2387.063
       354   12 Jun 2027 10:05:25.164   12 Jun 2027 10:05:30.489             5.325          2110.531
       355   12 Jun 2027 10:06:12.985   12 Jun 2027 10:06:14.592             1.607           638.750
       356   12 Jun 2027 10:07:00.220   12 Jun 2027 10:07:03.495             3.275           956.562
       357   12 Jun 2027 10:09:16.867   12 Jun 2027 10:09:27.576            10.709          4146.656
       358   12 Jun 2027 10:10:26.079   12 Jun 2027 10:10:29.968             3.889          1828.219
       359   12 Jun 2027 11:40:04.624   12 Jun 2027 11:40:15.189            10.565          4944.813
       360   12 Jun 2027 11:41:19.645   12 Jun 2027 11:41:22.378             2.733           755.250
       361   12 Jun 2027 11:41:54.747   12 Jun 2027 11:41:59.755             5.008           912.562
       362   12 Jun 2027 11:42:46.483   12 Jun 2027 11:42:49.273             2.790           893.250
       363   12 Jun 2027 11:43:07.798   12 Jun 2027 11:43:10.564             2.766           546.188
       364   12 Jun 2027 11:43:25.886   12 Jun 2027 11:43:27.759             1.873           478.812
       365   12 Jun 2027 11:44:24.214   12 Jun 2027 11:44:31.891             7.677          1043.375
       366   12 Jun 2027 11:45:28.145   12 Jun 2027 11:45:33.681             5.536           867.437
       367   12 Jun 2027 11:45:59.542   12 Jun 2027 11:46:02.815             3.273           558.531
       368   12 Jun 2027 11:46:14.065   12 Jun 2027 11:46:15.462             1.397           351.563
       369   13 Jun 2027 04:03:57.200   13 Jun 2027 04:07:12.832           195.632         97816.000
       370   13 Jun 2027 04:08:29.637   13 Jun 2027 04:09:02.720            33.083         16541.500
       371   13 Jun 2027 05:30:01.690   13 Jun 2027 05:30:11.961            10.271          5135.500
       372   13 Jun 2027 05:40:59.252   13 Jun 2027 05:42:37.027            97.775         48237.563
       373   13 Jun 2027 05:43:24.885   13 Jun 2027 05:43:28.981             4.096           891.187
       374   13 Jun 2027 05:44:05.257   13 Jun 2027 05:44:09.390             4.133           788.781
       375   13 Jun 2027 07:03:59.214   13 Jun 2027 07:04:04.712             5.498          2749.000
       376   13 Jun 2027 07:04:46.509   13 Jun 2027 07:04:51.752             5.243          2570.438
       377   13 Jun 2027 07:04:58.273   13 Jun 2027 07:04:58.902             0.629            82.875
       378   13 Jun 2027 07:05:16.985   13 Jun 2027 07:05:18.925             1.940           541.219
       379   13 Jun 2027 07:05:27.299   13 Jun 2027 07:05:31.448             4.149           237.594
       380   13 Jun 2027 07:06:57.912   13 Jun 2027 07:07:05.657             7.745          2341.375
       381   13 Jun 2027 07:07:28.877   13 Jun 2027 07:07:31.832             2.955           725.625
       382   13 Jun 2027 08:39:31.020   13 Jun 2027 08:39:37.164             6.144          3072.000
       383   13 Jun 2027 08:40:56.832   13 Jun 2027 08:41:02.283             5.451          2079.032
       384   13 Jun 2027 08:41:27.906   13 Jun 2027 08:41:29.157             1.251           334.000
       385   13 Jun 2027 08:43:06.562   13 Jun 2027 08:43:13.174             6.612          2409.344
       386   13 Jun 2027 08:43:26.217   13 Jun 2027 08:43:27.836             1.619           278.344
       387   13 Jun 2027 08:43:33.597   13 Jun 2027 08:43:38.188             4.591           180.031
       388   13 Jun 2027 10:15:26.130   13 Jun 2027 10:15:35.698             9.568          3410.281
       389   13 Jun 2027 10:17:26.003   13 Jun 2027 10:17:32.134             6.131          2706.688
       390   13 Jun 2027 10:18:23.756   13 Jun 2027 10:18:26.451             2.695           976.719
       391   13 Jun 2027 10:18:58.823   13 Jun 2027 10:18:59.768             0.945           411.813
       392   13 Jun 2027 10:21:16.147   13 Jun 2027 10:21:25.271             9.124          3863.938
       393   13 Jun 2027 10:22:20.694   13 Jun 2027 10:22:25.381             4.687          1386.063
       394   13 Jun 2027 11:52:26.163   13 Jun 2027 11:52:40.177            14.014          6585.813
       395   13 Jun 2027 11:53:03.148   13 Jun 2027 11:53:07.207             4.059           361.312
       396   13 Jun 2027 11:53:44.918   13 Jun 2027 11:53:57.615            12.697            93.875
       397   13 Jun 2027 11:54:09.156   13 Jun 2027 11:54:11.301             2.145           245.063
       398   13 Jun 2027 11:54:53.279   13 Jun 2027 11:54:57.608             4.329           265.469
       399   13 Jun 2027 11:56:09.731   13 Jun 2027 11:56:14.727             4.996          1978.719
       400   13 Jun 2027 11:56:21.432   13 Jun 2027 11:56:23.221             1.789           209.531
       401   13 Jun 2027 11:56:53.183   13 Jun 2027 11:56:58.342             5.159           470.438
       402   13 Jun 2027 11:57:41.887   13 Jun 2027 11:57:45.004             3.117          1111.437
       403   13 Jun 2027 11:57:57.238   13 Jun 2027 11:58:00.110             2.872           353.188
       404   13 Jun 2027 11:58:14.194   13 Jun 2027 11:58:14.994             0.800           289.000
       405   13 Jun 2027 11:58:22.853   13 Jun 2027 11:58:24.078             1.225           102.844
