uniorb/output/strategy_4/Camera/Camera_KinoSat_111509.txt

KinoSat_111509
-------------------------
    Access    *     Start Time (UTCG)     *     Stop Time (UTCG)  *   Duration (s) *   Data (Mbytes)
         1   01 Jun 2027 04:17:36.339   01 Jun 2027 04:19:51.911           135.572         67786.000
         2   01 Jun 2027 04:21:20.732   01 Jun 2027 04:21:32.252            11.520          5760.000
         3   01 Jun 2027 04:21:42.107   01 Jun 2027 04:21:43.728             1.621           810.500
         4   01 Jun 2027 04:23:09.819   01 Jun 2027 04:23:29.032            19.213          9606.500
         5   01 Jun 2027 05:41:40.023   01 Jun 2027 05:42:45.793            65.770         32885.000
         6   01 Jun 2027 05:43:02.277   01 Jun 2027 05:43:15.714            13.437          6718.500
         7   01 Jun 2027 07:17:37.194   01 Jun 2027 07:20:09.308           152.114         76057.000
         8   01 Jun 2027 08:51:26.986   01 Jun 2027 08:53:36.469           129.483         64741.500
         9   01 Jun 2027 08:53:54.050   01 Jun 2027 08:53:54.050             0.000             0.000
        10   01 Jun 2027 08:56:20.886   01 Jun 2027 08:57:24.745            63.859         31929.500
        11   01 Jun 2027 10:28:30.188   01 Jun 2027 10:29:14.481            44.293         22146.500
        12   01 Jun 2027 10:30:22.967   01 Jun 2027 10:30:22.967             0.000             0.000
        13   01 Jun 2027 10:32:53.153   01 Jun 2027 10:33:18.807            25.654         12827.000
        14   01 Jun 2027 10:33:56.325   01 Jun 2027 10:34:47.256            50.931         25465.500
        15   01 Jun 2027 10:35:00.128   01 Jun 2027 10:35:23.307            23.179         11589.500
        16   02 Jun 2027 04:30:10.283   02 Jun 2027 04:32:16.477           126.194         63097.000
        17   02 Jun 2027 04:32:45.402   02 Jun 2027 04:33:30.093            44.691         22345.500
        18   02 Jun 2027 04:33:56.877   02 Jun 2027 04:34:04.934             8.057          4028.500
        19   02 Jun 2027 05:53:34.566   02 Jun 2027 05:54:17.096            42.530         21265.000
        20   02 Jun 2027 05:55:49.176   02 Jun 2027 05:55:58.003             8.827          4413.500
        21   02 Jun 2027 07:29:55.044   02 Jun 2027 07:33:22.955           207.911        103955.500
        22   02 Jun 2027 09:03:25.239   02 Jun 2027 09:06:14.203           168.964         84482.000
        23   02 Jun 2027 09:06:37.085   02 Jun 2027 09:06:49.429            12.344          6172.000
        24   02 Jun 2027 09:09:44.971   02 Jun 2027 09:09:52.097             7.126          3563.000
        25   02 Jun 2027 09:10:31.376   02 Jun 2027 09:10:33.544             2.168          1084.000
        26   02 Jun 2027 09:11:20.815   02 Jun 2027 09:11:56.382            35.567         17783.500
        27   02 Jun 2027 10:40:56.334   02 Jun 2027 10:41:24.158            27.824         12966.656
        28   02 Jun 2027 10:41:51.803   02 Jun 2027 10:41:53.443             1.640           227.156
        29   02 Jun 2027 10:42:27.235   02 Jun 2027 10:42:31.922             4.687           638.906
        30   02 Jun 2027 10:42:58.333   02 Jun 2027 10:43:02.772             4.439           825.344
        31   02 Jun 2027 10:44:23.419   02 Jun 2027 10:44:30.362             6.943          1759.969
        32   02 Jun 2027 10:45:27.049   02 Jun 2027 10:45:30.375             3.326          1467.344
        33   02 Jun 2027 10:45:58.723   02 Jun 2027 10:46:02.553             3.830           408.625
        34   02 Jun 2027 10:46:06.666   02 Jun 2027 10:46:10.903             4.237           128.531
        35   02 Jun 2027 10:47:10.735   02 Jun 2027 10:47:13.908             3.173          1346.906
        36   02 Jun 2027 10:47:29.554   02 Jun 2027 10:47:31.122             1.568           477.094
        37   02 Jun 2027 10:47:32.152   02 Jun 2027 10:47:35.771             3.619             4.125
        38   03 Jun 2027 03:03:45.643   03 Jun 2027 03:04:23.617            37.974         18987.000
        39   03 Jun 2027 03:04:33.504   03 Jun 2027 03:04:33.504             0.000             0.000
        40   03 Jun 2027 03:05:26.980   03 Jun 2027 03:05:31.429             4.449          2224.500
        41   03 Jun 2027 03:05:51.494   03 Jun 2027 03:06:06.443            14.949          7474.500
        42   03 Jun 2027 03:07:50.633   03 Jun 2027 03:07:53.831             3.198          1599.000
        43   03 Jun 2027 03:08:39.447   03 Jun 2027 03:08:59.746            20.299         10149.500
        44   03 Jun 2027 03:09:52.295   03 Jun 2027 03:10:01.114             8.819          4409.500
        45   03 Jun 2027 04:41:49.062   03 Jun 2027 04:43:43.182           114.120         57060.000
        46   03 Jun 2027 04:44:11.876   03 Jun 2027 04:44:41.494            29.618         14809.000
        47   03 Jun 2027 04:45:45.717   03 Jun 2027 04:46:04.804            19.087          9543.500
        48   03 Jun 2027 06:05:25.453   03 Jun 2027 06:06:26.954            61.501         30750.500
        49   03 Jun 2027 07:41:57.089   03 Jun 2027 07:42:16.211            19.122          9321.219
        50   03 Jun 2027 07:42:33.970   03 Jun 2027 07:42:34.797             0.827           295.781
        51   03 Jun 2027 07:42:55.255   03 Jun 2027 07:42:56.328             1.073           536.500
        52   03 Jun 2027 07:43:56.821   03 Jun 2027 07:44:03.393             6.572          1965.813
        53   03 Jun 2027 07:44:32.527   03 Jun 2027 07:44:34.318             1.791           169.188
        54   03 Jun 2027 07:45:21.125   03 Jun 2027 07:45:21.125             0.000             0.000
        55   03 Jun 2027 09:16:24.656   03 Jun 2027 09:16:33.252             8.596          2982.250
        56   03 Jun 2027 09:17:46.222   03 Jun 2027 09:17:51.174             4.952          2099.250
        57   03 Jun 2027 09:18:12.640   03 Jun 2027 09:18:14.755             2.115           603.406
        58   03 Jun 2027 09:19:21.005   03 Jun 2027 09:19:23.993             2.988          1314.125
        59   03 Jun 2027 09:20:18.055   03 Jun 2027 09:20:21.520             3.465          1329.719
        60   03 Jun 2027 09:21:47.921   03 Jun 2027 09:21:52.475             4.554          1664.187
        61   03 Jun 2027 09:22:04.546   03 Jun 2027 09:22:05.529             0.983           309.562
        62   03 Jun 2027 09:22:40.431   03 Jun 2027 09:22:41.170             0.739           367.906
        63   03 Jun 2027 09:23:24.636   03 Jun 2027 09:23:26.734             2.098           961.156
        64   03 Jun 2027 09:23:50.305   03 Jun 2027 09:23:50.793             0.488           244.000
        65   03 Jun 2027 10:53:04.422   03 Jun 2027 10:53:15.433            11.011          3780.219
        66   03 Jun 2027 10:55:14.982   03 Jun 2027 10:55:16.754             1.772           301.313
        67   03 Jun 2027 10:57:42.479   03 Jun 2027 10:57:46.321             3.842          1864.281
        68   03 Jun 2027 10:57:52.890   03 Jun 2027 10:57:53.473             0.583           205.281
        69   03 Jun 2027 10:58:15.149   03 Jun 2027 10:58:17.154             2.005           608.344
        70   03 Jun 2027 10:59:05.923   03 Jun 2027 10:59:08.810             2.887           821.813
        71   03 Jun 2027 10:59:17.015   03 Jun 2027 10:59:19.593             2.578           194.500
        72   04 Jun 2027 03:15:54.001   04 Jun 2027 03:16:53.667            59.666         29833.000
        73   04 Jun 2027 03:17:03.242   04 Jun 2027 03:18:21.360            78.118         39059.000
        74   04 Jun 2027 03:18:40.717   04 Jun 2027 03:19:03.869            23.152         11576.000
        75   04 Jun 2027 03:20:12.716   04 Jun 2027 03:20:45.489            32.773         16386.500
        76   04 Jun 2027 03:21:23.656   04 Jun 2027 03:21:27.264             3.608          1804.000
        77   04 Jun 2027 03:21:36.353   04 Jun 2027 03:21:48.416            12.063          6031.500
        78   04 Jun 2027 04:54:13.055   04 Jun 2027 04:54:41.861            28.806         14403.000
        79   04 Jun 2027 04:55:01.596   04 Jun 2027 04:56:04.997            63.401         30664.594
        80   04 Jun 2027 04:56:59.121   04 Jun 2027 04:57:01.735             2.614          1165.469
        81   04 Jun 2027 04:57:15.653   04 Jun 2027 04:57:17.243             1.590           316.469
        82   04 Jun 2027 06:17:35.633   04 Jun 2027 06:17:46.087            10.454          3724.406
        83   04 Jun 2027 06:18:49.013   04 Jun 2027 06:18:55.853             6.840          1762.594
        84   04 Jun 2027 06:19:17.851   04 Jun 2027 06:19:20.048             2.197           504.344
        85   04 Jun 2027 06:20:18.780   04 Jun 2027 06:20:19.997             1.217           608.500
        86   04 Jun 2027 06:20:26.659   04 Jun 2027 06:20:30.808             4.149           866.375
        87   04 Jun 2027 07:54:06.812   04 Jun 2027 07:54:13.716             6.904          2602.563
        88   04 Jun 2027 07:55:03.233   04 Jun 2027 07:55:10.787             7.554          1370.344
        89   04 Jun 2027 07:55:20.154   04 Jun 2027 07:55:21.266             1.112           263.781
        90   04 Jun 2027 07:55:35.888   04 Jun 2027 07:55:36.667             0.779           238.625
        91   04 Jun 2027 07:56:34.392   04 Jun 2027 07:56:37.918             3.526          1583.844
        92   04 Jun 2027 07:57:25.196   04 Jun 2027 07:57:28.248             3.052          1262.219
        93   04 Jun 2027 09:29:16.357   04 Jun 2027 09:29:24.133             7.776          3328.687
        94   04 Jun 2027 09:30:35.134   04 Jun 2027 09:30:40.467             5.333          1838.062
        95   04 Jun 2027 09:31:31.642   04 Jun 2027 09:31:35.197             3.555          1599.219
        96   04 Jun 2027 09:32:36.793   04 Jun 2027 09:32:41.523             4.730           673.656
        97   04 Jun 2027 09:34:29.357   04 Jun 2027 09:34:47.966            18.609          2756.219
        98   04 Jun 2027 09:34:58.112   04 Jun 2027 09:34:59.967             1.855           271.000
        99   04 Jun 2027 09:35:46.144   04 Jun 2027 09:35:49.368             3.224          1108.562
       100   04 Jun 2027 11:05:39.407   04 Jun 2027 11:05:48.087             8.680          4185.375
       101   04 Jun 2027 11:06:29.073   04 Jun 2027 11:06:36.683             7.610           544.281
       102   04 Jun 2027 11:07:37.110   04 Jun 2027 11:07:39.759             2.649           495.594
       103   04 Jun 2027 11:07:48.556   04 Jun 2027 11:07:56.758             8.202           213.594
       104   04 Jun 2027 11:08:16.788   04 Jun 2027 11:08:27.628            10.840           625.937
       105   04 Jun 2027 11:09:07.151   04 Jun 2027 11:09:08.955             1.804           707.125
       106   04 Jun 2027 11:09:37.778   04 Jun 2027 11:09:39.851             2.073           673.438
       107   04 Jun 2027 11:09:54.199   04 Jun 2027 11:09:57.273             3.074            78.156
       108   04 Jun 2027 11:10:47.936   04 Jun 2027 11:10:50.389             2.453          1161.938
       109   04 Jun 2027 11:11:02.287   04 Jun 2027 11:11:03.573             1.286           371.813
       110   04 Jun 2027 11:11:15.497   04 Jun 2027 11:11:17.583             2.086           240.281
       111   04 Jun 2027 11:11:30.432   04 Jun 2027 11:11:36.394             5.962           386.875
       112   05 Jun 2027 03:27:58.842   05 Jun 2027 03:28:11.245            12.403          6201.500
       113   05 Jun 2027 03:29:00.946   05 Jun 2027 03:31:27.958           147.012         73506.000
       114   05 Jun 2027 03:31:46.542   05 Jun 2027 03:32:09.031            22.489         11244.500
       115   05 Jun 2027 03:32:34.646   05 Jun 2027 03:32:51.088            16.442          8221.000
       116   05 Jun 2027 03:33:17.732   05 Jun 2027 03:33:18.617             0.885           442.500
       117   05 Jun 2027 03:34:02.018   05 Jun 2027 03:34:08.135             6.117          3058.500
       118   05 Jun 2027 03:35:35.196   05 Jun 2027 03:35:46.013            10.817          5408.500
       119   05 Jun 2027 05:06:09.637   05 Jun 2027 05:06:48.005            38.368         19184.000
       120   05 Jun 2027 05:07:16.422   05 Jun 2027 05:08:09.698            53.276         25951.781
       121   05 Jun 2027 05:09:00.863   05 Jun 2027 05:09:05.193             4.330          1598.156
       122   05 Jun 2027 05:09:15.755   05 Jun 2027 05:09:16.480             0.725            99.969
       123   05 Jun 2027 06:30:15.637   05 Jun 2027 06:30:24.021             8.384          3789.187
       124   05 Jun 2027 06:30:32.070   05 Jun 2027 06:30:32.958             0.888           251.531
       125   05 Jun 2027 06:30:40.903   05 Jun 2027 06:30:42.029             1.126           223.094
       126   05 Jun 2027 06:32:15.507   05 Jun 2027 06:32:19.085             3.578          1789.000
       127   05 Jun 2027 06:32:33.895   05 Jun 2027 06:32:37.430             3.535          1360.281
       128   05 Jun 2027 08:06:00.843   05 Jun 2027 08:06:07.270             6.427          2880.031
       129   05 Jun 2027 08:07:04.667   05 Jun 2027 08:07:10.979             6.312          1638.094
       130   05 Jun 2027 08:07:35.174   05 Jun 2027 08:07:35.605             0.431           188.344
       131   05 Jun 2027 08:08:26.013   05 Jun 2027 08:08:28.872             2.859          1215.938
       132   05 Jun 2027 08:09:14.162   05 Jun 2027 08:09:19.916             5.754          1194.719
       133   05 Jun 2027 08:09:31.337   05 Jun 2027 08:09:31.337             0.000             0.000
       134   05 Jun 2027 09:40:58.458   05 Jun 2027 09:41:12.632            14.174          2852.906
       135   05 Jun 2027 09:42:41.583   05 Jun 2027 09:42:47.569             5.986          2460.875
       136   05 Jun 2027 09:43:45.213   05 Jun 2027 09:43:48.139             2.926          1313.625
       137   05 Jun 2027 09:44:16.757   05 Jun 2027 09:44:23.599             6.842           493.344
       138   05 Jun 2027 09:47:35.687   05 Jun 2027 09:47:48.576            12.889          4764.844
       139   05 Jun 2027 11:17:11.382   05 Jun 2027 11:17:23.575            12.193          4901.312
       140   05 Jun 2027 11:18:26.423   05 Jun 2027 11:18:31.227             4.804           355.406
       141   05 Jun 2027 11:18:44.465   05 Jun 2027 11:18:52.800             8.335            55.281
       142   05 Jun 2027 11:19:21.061   05 Jun 2027 11:19:22.930             1.869            61.187
       143   05 Jun 2027 11:20:20.824   05 Jun 2027 11:20:22.574             1.750           842.312
       144   05 Jun 2027 11:21:09.233   05 Jun 2027 11:21:11.417             2.184          1001.375
       145   05 Jun 2027 11:21:41.811   05 Jun 2027 11:21:46.134             4.323           527.719
       146   05 Jun 2027 11:22:35.138   05 Jun 2027 11:22:42.225             7.087          1284.781
       147   05 Jun 2027 11:23:09.811   05 Jun 2027 11:23:12.211             2.400           748.812
       148   05 Jun 2027 11:23:30.264   05 Jun 2027 11:23:34.436             4.172           349.656
       149   06 Jun 2027 03:41:04.151   06 Jun 2027 03:44:43.227           219.076        109538.000
       150   06 Jun 2027 03:47:41.952   06 Jun 2027 03:47:42.191             0.239           119.500
       151   06 Jun 2027 05:07:17.970   06 Jun 2027 05:07:26.964             8.994          4497.000
       152   06 Jun 2027 05:18:05.935   06 Jun 2027 05:19:29.115            83.180         41147.188
       153   06 Jun 2027 05:20:27.251   06 Jun 2027 05:20:28.661             1.410           378.375
       154   06 Jun 2027 05:20:45.927   06 Jun 2027 05:20:52.636             6.709           343.156
       155   06 Jun 2027 05:21:20.442   06 Jun 2027 05:21:22.515             2.073           539.656
       156   06 Jun 2027 06:41:03.571   06 Jun 2027 06:41:14.472            10.901          4681.875
       157   06 Jun 2027 06:42:04.633   06 Jun 2027 06:42:09.661             5.028          1202.719
       158   06 Jun 2027 06:42:25.473   06 Jun 2027 06:42:26.084             0.611           176.500
       159   06 Jun 2027 06:42:36.998   06 Jun 2027 06:42:40.321             3.323            82.938
       160   06 Jun 2027 06:43:41.014   06 Jun 2027 06:43:44.284             3.270          1604.094
       161   06 Jun 2027 06:45:12.644   06 Jun 2027 06:45:17.169             4.525          1979.531
       162   06 Jun 2027 08:16:30.273   06 Jun 2027 08:16:37.683             7.410          1852.969
       163   06 Jun 2027 08:18:02.287   06 Jun 2027 08:18:07.129             4.842          1893.375
       164   06 Jun 2027 08:18:44.978   06 Jun 2027 08:18:49.031             4.053           661.219
       165   06 Jun 2027 08:20:17.466   06 Jun 2027 08:20:23.326             5.860          2237.344
       166   06 Jun 2027 08:20:37.094   06 Jun 2027 08:20:39.065             1.971           273.906
       167   06 Jun 2027 08:21:39.633   06 Jun 2027 08:21:43.796             4.163          1841.594
       168   06 Jun 2027 08:21:59.431   06 Jun 2027 08:22:00.937             1.506           130.812
       169   06 Jun 2027 09:52:31.515   06 Jun 2027 09:52:41.946            10.431          3057.656
       170   06 Jun 2027 09:54:40.166   06 Jun 2027 09:54:45.688             5.522          2619.500
       171   06 Jun 2027 09:56:05.609   06 Jun 2027 09:56:08.180             2.571           116.125
       172   06 Jun 2027 09:56:45.165   06 Jun 2027 09:56:47.624             2.459          1155.781
       173   06 Jun 2027 09:58:28.194   06 Jun 2027 09:58:36.145             7.951          2511.594
       174   06 Jun 2027 09:59:35.733   06 Jun 2027 09:59:39.633             3.900          1745.406
       175   06 Jun 2027 10:00:02.375   06 Jun 2027 10:00:06.325             3.950           537.469
       176   06 Jun 2027 11:29:33.571   06 Jun 2027 11:29:43.520             9.949          4899.250
       177   06 Jun 2027 11:31:07.696   06 Jun 2027 11:31:10.584             2.888           193.719
       178   06 Jun 2027 11:32:18.938   06 Jun 2027 11:32:23.201             4.263          2060.969
       179   06 Jun 2027 11:33:11.752   06 Jun 2027 11:33:17.229             5.477          1217.969
       180   06 Jun 2027 11:33:31.189   06 Jun 2027 11:33:32.462             1.273           411.094
       181   06 Jun 2027 11:33:55.212   06 Jun 2027 11:33:55.821             0.609           290.469
       182   06 Jun 2027 11:34:24.471   06 Jun 2027 11:34:26.409             1.938           681.625
       183   06 Jun 2027 11:35:30.889   06 Jun 2027 11:35:35.144             4.255          1968.094
       184   07 Jun 2027 03:53:30.923   07 Jun 2027 03:55:54.376           143.453         71726.500
       185   07 Jun 2027 03:55:56.609   07 Jun 2027 03:55:59.414             2.805          1402.500
       186   07 Jun 2027 03:56:05.216   07 Jun 2027 03:56:32.356            27.140         13570.000
       187   07 Jun 2027 03:56:40.556   07 Jun 2027 03:56:58.695            18.139          9069.500
       188   07 Jun 2027 03:58:47.461   07 Jun 2027 03:59:04.989            17.528          8764.000
       189   07 Jun 2027 05:18:25.619   07 Jun 2027 05:18:31.753             6.134          3067.000
       190   07 Jun 2027 05:30:08.688   07 Jun 2027 05:31:25.518            76.830         38415.000
       191   07 Jun 2027 06:52:21.091   07 Jun 2027 06:52:41.501            20.410         10205.000
       192   07 Jun 2027 06:52:58.491   07 Jun 2027 06:53:05.423             6.932          2019.125
       193   07 Jun 2027 06:54:49.343   07 Jun 2027 06:54:53.843             4.500          1431.469
       194   07 Jun 2027 06:56:18.014   07 Jun 2027 06:56:24.818             6.804          2319.844
       195   07 Jun 2027 06:56:57.989   07 Jun 2027 06:57:00.596             2.607           658.687
       196   07 Jun 2027 08:27:27.740   07 Jun 2027 08:27:33.376             5.636          2518.031
       197   07 Jun 2027 08:29:29.924   07 Jun 2027 08:29:36.096             6.172          1969.375
       198   07 Jun 2027 08:30:10.035   07 Jun 2027 08:30:15.953             5.918           688.937
       199   07 Jun 2027 08:30:27.389   07 Jun 2027 08:30:28.508             1.119           170.062
       200   07 Jun 2027 08:31:07.578   07 Jun 2027 08:31:12.061             4.483           618.188
       201   07 Jun 2027 08:32:37.003   07 Jun 2027 08:32:43.821             6.818          1558.219
       202   07 Jun 2027 08:33:05.565   07 Jun 2027 08:33:07.271             1.706           435.719
       203   07 Jun 2027 08:33:40.149   07 Jun 2027 08:33:41.412             1.263           611.375
       204   07 Jun 2027 08:35:26.408   07 Jun 2027 08:35:30.565             4.157          2078.500
       205   07 Jun 2027 10:04:42.582   07 Jun 2027 10:04:50.476             7.894          2225.437
       206   07 Jun 2027 10:08:11.537   07 Jun 2027 10:08:13.450             1.913           421.562
       207   07 Jun 2027 10:09:07.151   07 Jun 2027 10:09:12.963             5.812          1646.406
       208   07 Jun 2027 10:09:47.884   07 Jun 2027 10:09:50.767             2.883          1024.719
       209   07 Jun 2027 10:10:04.013   07 Jun 2027 10:10:06.300             2.287           391.156
       210   07 Jun 2027 10:10:39.322   07 Jun 2027 10:10:40.343             1.021           510.500
       211   07 Jun 2027 10:10:50.494   07 Jun 2027 10:10:52.880             2.386           537.281
       212   07 Jun 2027 10:11:16.308   07 Jun 2027 10:11:18.753             2.445           723.562
       213   07 Jun 2027 10:11:28.842   07 Jun 2027 10:11:35.265             6.423           312.438
       214   07 Jun 2027 11:41:37.421   07 Jun 2027 11:41:49.013            11.592          5751.969
       215   07 Jun 2027 11:42:26.294   07 Jun 2027 11:42:29.844             3.550          1068.937
       216   07 Jun 2027 11:43:13.740   07 Jun 2027 11:43:18.142             4.402           522.375
       217   07 Jun 2027 11:44:10.632   07 Jun 2027 11:44:13.061             2.429           716.844
       218   07 Jun 2027 11:45:10.471   07 Jun 2027 11:45:10.548             0.077            38.500
       219   07 Jun 2027 11:45:29.002   07 Jun 2027 11:45:33.701             4.699          2159.719
       220   07 Jun 2027 11:45:57.828   07 Jun 2027 11:45:59.223             1.395           546.219
       221   07 Jun 2027 11:46:23.557   07 Jun 2027 11:46:25.088             1.531           637.000
       222   07 Jun 2027 11:47:14.040   07 Jun 2027 11:47:17.491             3.451          1324.250
       223   07 Jun 2027 11:47:24.359   07 Jun 2027 11:47:27.079             2.720           137.625
       224   07 Jun 2027 11:47:33.392   07 Jun 2027 11:47:35.521             2.129            74.500
       225   08 Jun 2027 04:05:43.309   08 Jun 2027 04:07:18.474            95.165         47582.500
       226   08 Jun 2027 04:07:34.862   08 Jun 2027 04:08:51.606            76.744         38372.000
       227   08 Jun 2027 04:09:34.804   08 Jun 2027 04:09:40.420             5.616          2808.000
       228   08 Jun 2027 04:10:31.763   08 Jun 2027 04:10:53.665            21.902         10951.000
       229   08 Jun 2027 04:12:31.816   08 Jun 2027 04:12:42.729            10.913          5456.500
       230   08 Jun 2027 05:29:54.106   08 Jun 2027 05:30:39.047            44.941         22470.500
       231   08 Jun 2027 05:42:09.820   08 Jun 2027 05:42:42.134            32.314         16157.000
       232   08 Jun 2027 07:04:06.848   08 Jun 2027 07:04:53.830            46.982         23491.000
       233   08 Jun 2027 07:06:09.612   08 Jun 2027 07:06:13.283             3.671          1736.251
       234   08 Jun 2027 07:06:38.152   08 Jun 2027 07:06:41.365             3.213           777.156
       235   08 Jun 2027 07:07:09.503   08 Jun 2027 07:07:09.503             0.000             0.000
       236   08 Jun 2027 07:08:16.433   08 Jun 2027 07:08:26.224             9.791          2898.781
       237   08 Jun 2027 07:08:42.510   08 Jun 2027 07:08:43.126             0.616            54.313
       238   08 Jun 2027 08:38:57.104   08 Jun 2027 08:39:08.644            11.540          3911.562
       239   08 Jun 2027 08:40:37.701   08 Jun 2027 08:40:42.505             4.804          1711.594
       240   08 Jun 2027 08:40:54.844   08 Jun 2027 08:40:57.863             3.019           385.594
       241   08 Jun 2027 08:41:26.099   08 Jun 2027 08:41:31.890             5.791           816.031
       242   08 Jun 2027 08:42:19.099   08 Jun 2027 08:42:24.818             5.719          1196.438
       243   08 Jun 2027 08:42:50.417   08 Jun 2027 08:42:51.287             0.870           180.031
       244   08 Jun 2027 08:44:38.065   08 Jun 2027 08:44:46.927             8.862          2348.219
       245   08 Jun 2027 08:46:03.035   08 Jun 2027 08:46:03.035             0.000             0.000
       246   08 Jun 2027 08:47:14.571   08 Jun 2027 08:47:21.801             7.230          3158.187
       247   08 Jun 2027 10:16:43.622   08 Jun 2027 10:16:52.444             8.822          4106.312
       248   08 Jun 2027 10:19:47.829   08 Jun 2027 10:19:52.051             4.222          2063.625
       249   08 Jun 2027 10:21:00.953   08 Jun 2027 10:21:00.988             0.035            12.469
       250   08 Jun 2027 10:21:38.189   08 Jun 2027 10:21:40.535             2.346           453.312
       251   08 Jun 2027 10:22:07.264   08 Jun 2027 10:22:08.738             1.474           279.969
       252   08 Jun 2027 10:22:46.165   08 Jun 2027 10:22:51.616             5.451           703.000
       253   08 Jun 2027 10:23:32.958   08 Jun 2027 10:23:37.517             4.559          1165.625
       254   08 Jun 2027 10:23:53.024   08 Jun 2027 10:23:54.196             1.172           371.344
       255   08 Jun 2027 11:53:28.928   08 Jun 2027 11:53:42.472            13.544          5617.469
       256   08 Jun 2027 11:53:55.153   08 Jun 2027 11:53:58.865             3.712           339.812
       257   08 Jun 2027 11:55:07.250   08 Jun 2027 11:55:13.776             6.526          1141.875
       258   08 Jun 2027 11:55:30.497   08 Jun 2027 11:55:32.442             1.945           203.937
       259   08 Jun 2027 11:56:19.498   08 Jun 2027 11:56:22.544             3.046          1253.781
       260   08 Jun 2027 11:57:30.541   08 Jun 2027 11:57:34.289             3.748          1121.125
       261   08 Jun 2027 11:57:53.649   08 Jun 2027 11:57:55.454             1.805           283.094
       262   08 Jun 2027 11:58:25.188   08 Jun 2027 11:58:36.790            11.602           897.313
       263   08 Jun 2027 11:59:33.012   08 Jun 2027 11:59:39.250             6.238           799.813
       264   09 Jun 2027 04:17:53.541   09 Jun 2027 04:19:36.575           103.034         51517.000
       265   09 Jun 2027 04:21:24.507   09 Jun 2027 04:21:26.962             2.455          1227.500
       266   09 Jun 2027 04:21:58.290   09 Jun 2027 04:22:22.029            23.739         11869.500
       267   09 Jun 2027 05:41:56.413   09 Jun 2027 05:43:31.593            95.180         47590.000
       268   09 Jun 2027 07:17:53.980   09 Jun 2027 07:19:31.093            97.113         48310.313
       269   09 Jun 2027 07:19:55.121   09 Jun 2027 07:19:58.022             2.901           750.875
       270   09 Jun 2027 07:20:25.576   09 Jun 2027 07:20:25.576             0.000             0.000
       271   09 Jun 2027 07:20:45.068   09 Jun 2027 07:20:47.382             2.314           971.875
       272   09 Jun 2027 08:51:43.349   09 Jun 2027 08:51:49.564             6.215          2518.281
       273   09 Jun 2027 08:54:52.814   09 Jun 2027 08:54:58.568             5.754          1180.094
       274   09 Jun 2027 08:56:37.703   09 Jun 2027 08:56:44.728             7.025          2248.813
       275   09 Jun 2027 08:57:40.256   09 Jun 2027 08:57:45.711             5.455           417.406
       276   09 Jun 2027 08:58:14.118   09 Jun 2027 08:58:14.118             0.000             0.000
       277   09 Jun 2027 08:58:51.878   09 Jun 2027 08:58:56.174             4.296          1719.844
       278   09 Jun 2027 10:28:47.749   09 Jun 2027 10:29:09.053            21.304          5482.938
       279   09 Jun 2027 10:31:33.845   09 Jun 2027 10:31:37.269             3.424          1667.281
       280   09 Jun 2027 10:32:57.068   09 Jun 2027 10:32:59.812             2.744           602.781
       281   09 Jun 2027 10:33:21.465   09 Jun 2027 10:33:23.672             2.207           145.094
       282   09 Jun 2027 10:33:41.913   09 Jun 2027 10:33:44.603             2.690           181.437
       283   09 Jun 2027 10:34:09.935   09 Jun 2027 10:34:17.374             7.439           767.344
       284   09 Jun 2027 10:35:18.935   09 Jun 2027 10:35:23.320             4.385          1876.437
       285   09 Jun 2027 10:35:39.418   09 Jun 2027 10:35:41.167             1.749           503.063
       286   10 Jun 2027 04:30:27.945   10 Jun 2027 04:32:47.139           139.194         69597.000
       287   10 Jun 2027 04:33:32.848   10 Jun 2027 04:34:43.453            70.605         35302.500
       288   10 Jun 2027 05:53:50.537   10 Jun 2027 05:54:31.880            41.343         20671.500
       289   10 Jun 2027 07:30:13.054   10 Jun 2027 07:31:27.209            74.155         36865.250
       290   10 Jun 2027 07:31:43.585   10 Jun 2027 07:31:48.098             4.513           452.469
       291   10 Jun 2027 07:33:02.773   10 Jun 2027 07:33:07.778             5.005          1834.656
       292   10 Jun 2027 09:03:41.623   10 Jun 2027 09:03:46.243             4.620          2192.594
       293   10 Jun 2027 09:05:35.559   10 Jun 2027 09:05:40.039             4.480          1228.063
       294   10 Jun 2027 09:06:54.952   10 Jun 2027 09:07:04.341             9.389          1420.437
       295   10 Jun 2027 09:08:14.121   10 Jun 2027 09:08:19.599             5.478          2096.562
       296   10 Jun 2027 09:09:21.951   10 Jun 2027 09:09:25.336             3.385          1415.750
       297   10 Jun 2027 09:10:43.532   10 Jun 2027 09:10:48.346             4.814          2329.063
       298   10 Jun 2027 09:11:04.224   10 Jun 2027 09:11:05.251             1.027           462.156
       299   10 Jun 2027 09:12:11.191   10 Jun 2027 09:12:12.902             1.711           855.500
       300   10 Jun 2027 10:41:15.075   10 Jun 2027 10:41:27.025            11.950          5571.250
       301   10 Jun 2027 10:42:22.605   10 Jun 2027 10:42:27.392             4.787           403.844
       302   10 Jun 2027 10:44:56.743   10 Jun 2027 10:45:01.523             4.780           885.406
       303   10 Jun 2027 10:45:40.612   10 Jun 2027 10:45:42.048             1.436           681.594
       304   10 Jun 2027 10:46:08.020   10 Jun 2027 10:46:09.885             1.865           726.563
       305   10 Jun 2027 10:46:18.374   10 Jun 2027 10:46:20.218             1.844           103.563
       306   10 Jun 2027 10:47:20.534   10 Jun 2027 10:47:24.571             4.037          1833.687
       307   10 Jun 2027 10:47:33.434   10 Jun 2027 10:47:34.985             1.551           198.438
       308   11 Jun 2027 03:04:02.168   11 Jun 2027 03:04:08.408             6.240          3120.000
       309   11 Jun 2027 03:04:32.149   11 Jun 2027 03:05:18.564            46.415         23207.500
       310   11 Jun 2027 03:06:46.322   11 Jun 2027 03:06:53.534             7.212          3606.000
       311   11 Jun 2027 03:07:31.130   11 Jun 2027 03:07:33.459             2.329          1164.500
       312   11 Jun 2027 03:08:24.471   11 Jun 2027 03:08:41.030            16.559          8279.500
       313   11 Jun 2027 03:09:55.486   11 Jun 2027 03:09:56.478             0.992           496.000
       314   11 Jun 2027 03:10:05.814   11 Jun 2027 03:10:18.605            12.791          6395.500
       315   11 Jun 2027 04:42:06.057   11 Jun 2027 04:43:58.057           112.000         56000.000
       316   11 Jun 2027 04:44:30.889   11 Jun 2027 04:45:40.009            69.120         34560.000
       317   11 Jun 2027 04:46:00.364   11 Jun 2027 04:46:09.286             8.922          4461.000
       318   11 Jun 2027 06:05:40.576   11 Jun 2027 06:06:17.966            37.390         18310.718
       319   11 Jun 2027 07:42:14.949   11 Jun 2027 07:42:27.085            12.136          5333.031
       320   11 Jun 2027 07:42:52.154   11 Jun 2027 07:42:53.667             1.513           363.719
       321   11 Jun 2027 07:43:11.692   11 Jun 2027 07:43:13.464             1.772           563.281
       322   11 Jun 2027 07:43:19.446   11 Jun 2027 07:43:20.555             1.109           147.188
       323   11 Jun 2027 07:44:01.480   11 Jun 2027 07:44:03.962             2.482           569.187
       324   11 Jun 2027 07:44:43.602   11 Jun 2027 07:44:45.980             2.378          1188.875
       325   11 Jun 2027 07:45:16.357   11 Jun 2027 07:45:19.240             2.883           838.000
       326   11 Jun 2027 09:16:48.931   11 Jun 2027 09:16:56.171             7.240          3091.531
       327   11 Jun 2027 09:18:11.677   11 Jun 2027 09:18:13.825             2.148           302.125
       328   11 Jun 2027 09:18:56.788   11 Jun 2027 09:19:05.934             9.146           806.281
       329   11 Jun 2027 09:19:55.273   11 Jun 2027 09:19:59.181             3.908           501.969
       330   11 Jun 2027 09:21:13.578   11 Jun 2027 09:21:17.909             4.331          1213.281
       331   11 Jun 2027 09:22:46.478   11 Jun 2027 09:22:52.964             6.486          2722.812
       332   11 Jun 2027 09:23:37.740   11 Jun 2027 09:23:40.462             2.722           793.969
       333   11 Jun 2027 09:23:53.959   11 Jun 2027 09:23:55.757             1.798           277.594
       334   11 Jun 2027 10:53:21.520   11 Jun 2027 10:53:30.055             8.535          3953.594
       335   11 Jun 2027 10:55:20.294   11 Jun 2027 10:55:26.899             6.605          1814.719
       336   11 Jun 2027 10:56:01.218   11 Jun 2027 10:56:03.332             2.114           918.500
       337   11 Jun 2027 10:56:59.670   11 Jun 2027 10:57:09.632             9.962           880.281
       338   11 Jun 2027 10:57:45.269   11 Jun 2027 10:57:48.702             3.433           763.406
       339   11 Jun 2027 10:58:14.132   11 Jun 2027 10:58:15.470             1.338           495.844
       340   11 Jun 2027 10:59:17.842   11 Jun 2027 10:59:22.294             4.452          1710.438
       341   11 Jun 2027 10:59:31.761   11 Jun 2027 10:59:32.586             0.825           295.844
       342   11 Jun 2027 10:59:42.371   11 Jun 2027 10:59:43.698             1.327           305.781
       343   12 Jun 2027 03:16:10.739   12 Jun 2027 03:17:10.523            59.784         29892.000
       344   12 Jun 2027 03:17:19.950   12 Jun 2027 03:18:33.843            73.893         36946.500
       345   12 Jun 2027 03:18:42.670   12 Jun 2027 03:19:10.870            28.200         14100.000
       346   12 Jun 2027 03:19:44.696   12 Jun 2027 03:19:52.900             8.204          4102.000
       347   12 Jun 2027 03:21:04.800   12 Jun 2027 03:21:38.315            33.515         16757.500
       348   12 Jun 2027 03:21:48.622   12 Jun 2027 03:21:52.072             3.450          1725.000
       349   12 Jun 2027 04:54:29.240   12 Jun 2027 04:54:59.735            30.495         15247.500
       350   12 Jun 2027 04:55:18.253   12 Jun 2027 04:56:27.710            69.457         32874.500
       351   12 Jun 2027 04:57:16.099   12 Jun 2027 04:57:18.494             2.395          1137.313
       352   12 Jun 2027 04:57:35.523   12 Jun 2027 04:57:37.448             1.925           449.188
       353   12 Jun 2027 04:58:09.507   12 Jun 2027 04:58:10.692             1.185           378.188
       354   12 Jun 2027 06:17:52.078   12 Jun 2027 06:18:00.983             8.905          4185.156
       355   12 Jun 2027 06:19:05.311   12 Jun 2027 06:19:10.306             4.995          1816.375
       356   12 Jun 2027 06:19:33.077   12 Jun 2027 06:19:35.137             2.060           484.938
       357   12 Jun 2027 06:20:34.228   12 Jun 2027 06:20:38.613             4.385          1307.844
       358   12 Jun 2027 07:54:23.872   12 Jun 2027 07:54:31.499             7.627          2281.000
       359   12 Jun 2027 07:54:56.869   12 Jun 2027 07:55:03.530             6.661           479.781
       360   12 Jun 2027 07:55:38.767   12 Jun 2027 07:55:40.050             1.283           553.781
       361   12 Jun 2027 07:55:52.685   12 Jun 2027 07:55:53.398             0.713           244.812
       362   12 Jun 2027 07:56:00.554   12 Jun 2027 07:56:06.748             6.194            48.375
       363   12 Jun 2027 07:57:05.198   12 Jun 2027 07:57:12.932             7.734          1136.531
       364   12 Jun 2027 09:29:33.186   12 Jun 2027 09:29:44.483            11.297          3728.687
       365   12 Jun 2027 09:30:53.840   12 Jun 2027 09:30:58.265             4.425          1934.531
       366   12 Jun 2027 09:31:50.080   12 Jun 2027 09:31:57.611             7.531          1619.219
       367   12 Jun 2027 09:32:51.494   12 Jun 2027 09:32:57.086             5.592           613.750
       368   12 Jun 2027 09:34:46.788   12 Jun 2027 09:35:02.547            15.759          2738.625
       369   12 Jun 2027 09:35:37.027   12 Jun 2027 09:35:39.412             2.385           740.844
       370   12 Jun 2027 09:35:50.994   12 Jun 2027 09:35:54.654             3.660           232.094
       371   12 Jun 2027 09:36:08.301   12 Jun 2027 09:36:09.839             1.538           220.687
       372   12 Jun 2027 11:05:57.592   12 Jun 2027 11:06:09.249            11.657          4268.344
       373   12 Jun 2027 11:07:52.805   12 Jun 2027 11:07:55.955             3.150           522.813
       374   12 Jun 2027 11:08:17.696   12 Jun 2027 11:08:20.989             3.293           568.406
       375   12 Jun 2027 11:09:01.796   12 Jun 2027 11:09:04.356             2.560          1111.500
       376   12 Jun 2027 11:09:41.942   12 Jun 2027 11:09:46.071             4.129           777.875
       377   12 Jun 2027 11:10:06.368   12 Jun 2027 11:10:11.021             4.653           634.281
       378   12 Jun 2027 11:11:03.414   12 Jun 2027 11:11:08.664             5.250          1087.313
       379   12 Jun 2027 11:11:55.209   12 Jun 2027 11:12:01.755             6.546          1359.219
       380   13 Jun 2027 03:28:15.826   13 Jun 2027 03:28:25.646             9.820          4910.000
       381   13 Jun 2027 03:29:17.461   13 Jun 2027 03:32:14.140           176.679         88339.500
       382   13 Jun 2027 03:32:30.261   13 Jun 2027 03:33:08.549            38.288         19144.000
       383   13 Jun 2027 03:34:05.661   13 Jun 2027 03:34:15.658             9.997          4998.500
       384   13 Jun 2027 03:36:03.784   13 Jun 2027 03:36:07.181             3.397          1698.500
       385   13 Jun 2027 05:06:26.073   13 Jun 2027 05:07:04.956            38.883         19441.500
       386   13 Jun 2027 05:07:29.764   13 Jun 2027 05:08:10.373            40.609         20304.500
       387   13 Jun 2027 05:08:24.990   13 Jun 2027 05:08:29.693             4.703           929.656
       388   13 Jun 2027 05:09:17.871   13 Jun 2027 05:09:20.090             2.219           946.500
       389   13 Jun 2027 05:09:30.299   13 Jun 2027 05:09:31.035             0.736            65.656
       390   13 Jun 2027 06:30:28.508   13 Jun 2027 06:30:36.921             8.413          3952.562
       391   13 Jun 2027 06:30:48.473   13 Jun 2027 06:30:50.202             1.729           298.344
       392   13 Jun 2027 06:30:54.272   13 Jun 2027 06:30:56.315             2.043            78.250
       393   13 Jun 2027 06:31:26.210   13 Jun 2027 06:31:28.063             1.853           637.313
       394   13 Jun 2027 06:32:30.737   13 Jun 2027 06:32:30.737             0.000             0.000
       395   13 Jun 2027 06:33:02.379   13 Jun 2027 06:33:04.581             2.202          1101.000
       396   13 Jun 2027 08:06:16.926   13 Jun 2027 08:06:26.385             9.459          1519.906
       397   13 Jun 2027 08:07:22.460   13 Jun 2027 08:07:26.895             4.435          1701.062
       398   13 Jun 2027 08:07:50.252   13 Jun 2027 08:07:53.610             3.358           128.813
       399   13 Jun 2027 08:08:44.858   13 Jun 2027 08:08:50.147             5.289          1216.219
       400   13 Jun 2027 08:09:31.353   13 Jun 2027 08:09:37.156             5.803          1201.875
       401   13 Jun 2027 09:41:14.097   13 Jun 2027 09:41:26.344            12.247          2930.719
       402   13 Jun 2027 09:42:59.340   13 Jun 2027 09:43:06.218             6.878          2535.031
       403   13 Jun 2027 09:43:43.823   13 Jun 2027 09:43:45.977             2.154           680.062
       404   13 Jun 2027 09:44:16.450   13 Jun 2027 09:44:18.387             1.937           392.219
       405   13 Jun 2027 09:45:21.443   13 Jun 2027 09:45:24.827             3.384          1679.156
       406   13 Jun 2027 09:45:45.328   13 Jun 2027 09:45:47.354             2.026           640.656
       407   13 Jun 2027 09:46:04.981   13 Jun 2027 09:46:05.934             0.953           281.344
       408   13 Jun 2027 09:46:27.684   13 Jun 2027 09:46:28.418             0.734           292.812
       409   13 Jun 2027 09:47:15.620   13 Jun 2027 09:47:19.072             3.452          1475.063
       410   13 Jun 2027 09:47:36.004   13 Jun 2027 09:47:39.300             3.296           157.938
       411   13 Jun 2027 11:17:30.265   13 Jun 2027 11:17:41.147            10.882          5353.094
       412   13 Jun 2027 11:19:37.253   13 Jun 2027 11:19:41.150             3.897          1759.500
       413   13 Jun 2027 11:20:10.471   13 Jun 2027 11:20:16.912             6.441           380.250
       414   13 Jun 2027 11:21:13.260   13 Jun 2027 11:21:15.732             2.472          1187.563
       415   13 Jun 2027 11:21:46.842   13 Jun 2027 11:21:59.017            12.175           971.938
       416   13 Jun 2027 11:22:45.232   13 Jun 2027 11:22:50.726             5.494          1444.219
       417   13 Jun 2027 11:23:03.865   13 Jun 2027 11:23:07.460             3.595           399.563
