uniorb/output/strategy_4/Camera/Camera_KinoSat_111009.txt

KinoSat_111009
-------------------------
    Access    *     Start Time (UTCG)     *     Stop Time (UTCG)  *   Duration (s) *   Data (Mbytes)
         1   01 Jun 2027 03:01:09.997   01 Jun 2027 03:01:48.909            38.912         19456.000
         2   01 Jun 2027 03:02:19.613   01 Jun 2027 03:02:19.613             0.000             0.000
         3   01 Jun 2027 03:03:02.562   01 Jun 2027 03:03:09.986             7.424          3712.000
         4   01 Jun 2027 03:03:53.053   01 Jun 2027 03:04:28.110            35.057         17528.500
         5   01 Jun 2027 04:25:04.788   01 Jun 2027 04:25:48.191            43.403         21701.500
         6   01 Jun 2027 04:26:34.203   01 Jun 2027 04:27:01.433            27.230         13615.000
         7   01 Jun 2027 04:27:17.176   01 Jun 2027 04:27:23.924             6.748          3374.000
         8   01 Jun 2027 06:00:59.739   01 Jun 2027 06:03:05.936           126.197         63098.500
         9   01 Jun 2027 06:03:55.751   01 Jun 2027 06:04:00.113             4.362          2181.000
        10   01 Jun 2027 07:35:54.972   01 Jun 2027 07:38:08.875           133.903         66951.500
        11   01 Jun 2027 07:38:57.762   01 Jun 2027 07:39:01.379             3.617          1808.500
        12   01 Jun 2027 07:41:37.861   01 Jun 2027 07:41:59.187            21.326         10663.000
        13   01 Jun 2027 07:42:33.051   01 Jun 2027 07:42:41.061             8.010          4005.000
        14   01 Jun 2027 09:12:15.311   01 Jun 2027 09:15:08.923           173.612         86806.000
        15   01 Jun 2027 09:16:00.759   01 Jun 2027 09:16:32.803            32.044         16022.000
        16   01 Jun 2027 09:17:33.888   01 Jun 2027 09:17:38.248             4.360          2180.000
        17   01 Jun 2027 10:50:31.908   01 Jun 2027 10:53:11.101           159.193         79596.500
        18   01 Jun 2027 10:53:21.375   01 Jun 2027 10:53:21.762             0.387           193.500
        19   01 Jun 2027 10:53:28.817   01 Jun 2027 10:53:35.064             6.247          3123.500
        20   02 Jun 2027 03:01:50.849   02 Jun 2027 03:02:10.894            20.045         10022.500
        21   02 Jun 2027 03:13:06.298   02 Jun 2027 03:14:47.183           100.885         50442.500
        22   02 Jun 2027 03:15:41.506   02 Jun 2027 03:15:53.446            11.940          5970.000
        23   02 Jun 2027 03:15:54.631   02 Jun 2027 03:15:56.897             2.266          1133.000
        24   02 Jun 2027 04:35:42.295   02 Jun 2027 04:36:00.075            17.780          8890.000
        25   02 Jun 2027 04:37:24.794   02 Jun 2027 04:37:30.192             5.398          2699.000
        26   02 Jun 2027 04:38:24.308   02 Jun 2027 04:38:27.312             3.004          1502.000
        27   02 Jun 2027 04:39:50.097   02 Jun 2027 04:40:07.261            17.164          8582.000
        28   02 Jun 2027 06:11:17.253   02 Jun 2027 06:11:59.446            42.193         21096.500
        29   02 Jun 2027 06:12:43.737   02 Jun 2027 06:15:44.200           180.463         90231.500
        30   02 Jun 2027 07:47:29.203   02 Jun 2027 07:50:23.151           173.948         86974.000
        31   02 Jun 2027 07:52:11.374   02 Jun 2027 07:52:11.374             0.000             0.000
        32   02 Jun 2027 07:53:40.512   02 Jun 2027 07:54:17.391            36.879         18439.500
        33   02 Jun 2027 07:54:20.750   02 Jun 2027 07:55:03.861            43.111         21555.500
        34   02 Jun 2027 09:24:35.513   02 Jun 2027 09:26:02.701            87.188         42757.564
        35   02 Jun 2027 09:28:11.866   02 Jun 2027 09:28:16.251             4.385          1954.125
        36   02 Jun 2027 09:28:17.080   02 Jun 2027 09:28:21.113             4.033            25.906
        37   02 Jun 2027 09:29:15.133   02 Jun 2027 09:29:18.044             2.911          1192.875
        38   02 Jun 2027 09:30:19.774   02 Jun 2027 09:30:22.895             3.121          1560.500
        39   02 Jun 2027 09:30:27.245   02 Jun 2027 09:30:31.297             4.052           221.125
        40   02 Jun 2027 09:30:56.438   02 Jun 2027 09:30:57.786             1.348           613.844
        41   02 Jun 2027 11:02:33.641   02 Jun 2027 11:02:48.004            14.363          6048.469
        42   02 Jun 2027 11:03:22.085   02 Jun 2027 11:03:24.537             2.452           829.000
        43   02 Jun 2027 11:04:15.159   02 Jun 2027 11:04:16.813             1.654           589.188
        44   02 Jun 2027 11:04:43.305   02 Jun 2027 11:04:45.784             2.479           232.625
        45   02 Jun 2027 11:05:08.930   02 Jun 2027 11:05:12.026             3.096           176.438
        46   02 Jun 2027 11:06:09.729   02 Jun 2027 11:06:15.766             6.037          1166.969
        47   02 Jun 2027 11:06:26.556   02 Jun 2027 11:06:29.364             2.808           337.188
        48   03 Jun 2027 03:13:25.190   03 Jun 2027 03:13:32.848             7.658          3829.000
        49   03 Jun 2027 03:14:32.447   03 Jun 2027 03:14:58.996            26.549         13274.500
        50   03 Jun 2027 03:25:09.340   03 Jun 2027 03:26:19.050            69.710         34855.000
        51   03 Jun 2027 04:47:23.225   03 Jun 2027 04:48:31.088            67.863         33931.500
        52   03 Jun 2027 04:49:21.538   03 Jun 2027 04:50:02.609            41.071         20535.500
        53   03 Jun 2027 04:50:26.613   03 Jun 2027 04:50:42.689            16.076          8038.000
        54   03 Jun 2027 04:50:45.602   03 Jun 2027 04:50:54.822             9.220          4610.000
        55   03 Jun 2027 04:51:30.409   03 Jun 2027 04:51:30.409             0.000             0.000
        56   03 Jun 2027 06:22:23.985   03 Jun 2027 06:23:40.691            76.706         38115.062
        57   03 Jun 2027 06:24:49.879   03 Jun 2027 06:24:59.148             9.269          2141.688
        58   03 Jun 2027 06:25:32.610   03 Jun 2027 06:25:34.368             1.758           873.938
        59   03 Jun 2027 06:25:39.820   03 Jun 2027 06:25:40.902             1.082           170.375
        60   03 Jun 2027 06:26:09.197   03 Jun 2027 06:26:12.356             3.159           884.219
        61   03 Jun 2027 06:27:26.426   03 Jun 2027 06:27:27.933             1.507           753.500
        62   03 Jun 2027 06:27:41.248   03 Jun 2027 06:27:46.257             5.009          1861.063
        63   03 Jun 2027 06:28:06.542   03 Jun 2027 06:28:08.875             2.333           584.875
        64   03 Jun 2027 06:29:13.361   03 Jun 2027 06:29:18.191             4.830          1226.500
        65   03 Jun 2027 06:29:26.891   03 Jun 2027 06:29:28.457             1.566           177.313
        66   03 Jun 2027 07:59:49.158   03 Jun 2027 07:59:57.409             8.251          3163.281
        67   03 Jun 2027 08:00:24.405   03 Jun 2027 08:00:28.714             4.309           843.625
        68   03 Jun 2027 08:04:18.937   03 Jun 2027 08:04:21.662             2.725          1093.000
        69   03 Jun 2027 08:05:23.816   03 Jun 2027 08:05:23.816             0.000             0.000
        70   03 Jun 2027 08:05:43.539   03 Jun 2027 08:05:45.824             2.285           967.844
        71   03 Jun 2027 08:07:03.311   03 Jun 2027 08:07:08.012             4.701          2314.125
        72   03 Jun 2027 09:36:36.654   03 Jun 2027 09:36:53.545            16.891          6167.781
        73   03 Jun 2027 09:37:55.524   03 Jun 2027 09:37:59.239             3.715           223.656
        74   03 Jun 2027 09:39:08.781   03 Jun 2027 09:39:14.961             6.180            77.375
        75   03 Jun 2027 09:40:27.409   03 Jun 2027 09:40:29.436             2.027           817.375
        76   03 Jun 2027 09:40:32.137   03 Jun 2027 09:40:32.759             0.622            84.406
        77   03 Jun 2027 09:41:08.693   03 Jun 2027 09:41:12.004             3.311           757.000
        78   03 Jun 2027 09:42:25.671   03 Jun 2027 09:42:30.621             4.950          1857.625
        79   03 Jun 2027 09:42:52.713   03 Jun 2027 09:42:53.252             0.539            93.406
        80   03 Jun 2027 11:14:33.964   03 Jun 2027 11:14:45.854            11.890          4728.375
        81   03 Jun 2027 11:15:35.426   03 Jun 2027 11:15:37.995             2.569           505.469
        82   03 Jun 2027 11:16:17.248   03 Jun 2027 11:16:20.716             3.468           895.031
        83   03 Jun 2027 11:16:48.455   03 Jun 2027 11:16:57.474             9.019           432.437
        84   03 Jun 2027 11:17:47.419   03 Jun 2027 11:17:52.161             4.742           676.719
        85   03 Jun 2027 11:18:27.701   03 Jun 2027 11:18:30.544             2.843           311.937
        86   04 Jun 2027 03:24:57.260   04 Jun 2027 03:25:27.380            30.120         15060.000
        87   04 Jun 2027 03:37:09.860   04 Jun 2027 03:37:41.608            31.748         15874.000
        88   04 Jun 2027 04:59:04.226   04 Jun 2027 05:00:17.810            73.584         36792.000
        89   04 Jun 2027 05:01:07.309   04 Jun 2027 05:03:10.624           123.315         61657.500
        90   04 Jun 2027 06:33:52.762   04 Jun 2027 06:34:51.996            59.234         29270.063
        91   04 Jun 2027 06:35:40.138   04 Jun 2027 06:35:42.534             2.396          1149.156
        92   04 Jun 2027 06:36:05.296   04 Jun 2027 06:36:06.047             0.751           328.063
        93   04 Jun 2027 06:36:59.857   04 Jun 2027 06:37:03.004             3.147          1245.313
        94   04 Jun 2027 06:37:30.685   04 Jun 2027 06:37:31.567             0.882           381.156
        95   04 Jun 2027 06:37:44.089   04 Jun 2027 06:37:44.089             0.000             0.000
        96   04 Jun 2027 06:38:08.862   04 Jun 2027 06:38:10.630             1.768           833.812
        97   04 Jun 2027 06:39:20.980   04 Jun 2027 06:39:27.937             6.957          1971.687
        98   04 Jun 2027 06:39:44.283   04 Jun 2027 06:39:46.173             1.890           510.812
        99   04 Jun 2027 06:40:57.811   04 Jun 2027 06:41:00.765             2.954          1253.625
       100   04 Jun 2027 06:41:12.667   04 Jun 2027 06:41:14.527             1.860           371.937
       101   04 Jun 2027 06:41:39.535   04 Jun 2027 06:41:39.535             0.000             0.000
       102   04 Jun 2027 06:42:40.817   04 Jun 2027 06:42:45.358             4.541          2020.687
       103   04 Jun 2027 08:11:59.544   04 Jun 2027 08:12:02.702             3.158           866.188
       104   04 Jun 2027 08:13:33.091   04 Jun 2027 08:13:43.933            10.842          2018.250
       105   04 Jun 2027 08:14:34.781   04 Jun 2027 08:14:37.608             2.827          1330.313
       106   04 Jun 2027 08:16:29.258   04 Jun 2027 08:16:34.237             4.979          1374.156
       107   04 Jun 2027 08:17:39.208   04 Jun 2027 08:17:41.469             2.261           921.375
       108   04 Jun 2027 08:18:25.140   04 Jun 2027 08:18:31.120             5.980           487.219
       109   04 Jun 2027 09:48:27.834   04 Jun 2027 09:48:46.485            18.651          7579.031
       110   04 Jun 2027 09:48:59.029   04 Jun 2027 09:49:00.770             1.741           249.219
       111   04 Jun 2027 09:51:07.149   04 Jun 2027 09:51:12.989             5.840          2303.625
       112   04 Jun 2027 09:52:05.479   04 Jun 2027 09:52:13.996             8.517          1610.625
       113   04 Jun 2027 09:52:43.652   04 Jun 2027 09:52:45.381             1.729           413.656
       114   04 Jun 2027 09:53:10.986   04 Jun 2027 09:53:11.989             1.003           464.500
       115   04 Jun 2027 09:53:21.811   04 Jun 2027 09:53:22.839             1.028           189.063
       116   04 Jun 2027 09:53:48.562   04 Jun 2027 09:53:57.089             8.527           803.844
       117   04 Jun 2027 09:54:47.385   04 Jun 2027 09:54:48.790             1.405           663.031
       118   04 Jun 2027 11:26:36.384   04 Jun 2027 11:26:51.215            14.831          6179.063
       119   04 Jun 2027 11:28:39.184   04 Jun 2027 11:28:42.453             3.269           620.625
       120   04 Jun 2027 11:29:24.465   04 Jun 2027 11:29:26.479             2.014           980.375
       121   04 Jun 2027 11:29:42.661   04 Jun 2027 11:29:54.564            11.903           108.500
       122   04 Jun 2027 11:30:05.350   04 Jun 2027 11:30:07.560             2.210           153.000
       123   04 Jun 2027 11:30:28.527   04 Jun 2027 11:30:32.084             3.557           273.563
       124   05 Jun 2027 03:36:54.968   05 Jun 2027 03:37:28.035            33.067         16533.500
       125   05 Jun 2027 05:12:52.226   05 Jun 2027 05:15:35.166           162.940         81470.000
       126   05 Jun 2027 05:15:39.565   05 Jun 2027 05:15:42.595             3.030          1515.000
       127   05 Jun 2027 05:16:13.352   05 Jun 2027 05:16:13.352             0.000             0.000
       128   05 Jun 2027 05:16:38.599   05 Jun 2027 05:16:48.030             9.431          4715.500
       129   05 Jun 2027 06:46:40.871   05 Jun 2027 06:48:27.089           106.218         52242.281
       130   05 Jun 2027 06:48:50.414   05 Jun 2027 06:48:52.768             2.354           713.094
       131   05 Jun 2027 06:49:58.294   05 Jun 2027 06:50:04.020             5.726          1511.969
       132   05 Jun 2027 06:51:09.399   05 Jun 2027 06:51:13.470             4.071          1825.375
       133   05 Jun 2027 06:52:09.253   05 Jun 2027 06:52:09.253             0.000             0.000
       134   05 Jun 2027 06:52:37.380   05 Jun 2027 06:52:43.583             6.203          2622.187
       135   05 Jun 2027 06:54:12.619   05 Jun 2027 06:54:17.758             5.139          2482.781
       136   05 Jun 2027 08:23:50.286   05 Jun 2027 08:23:57.464             7.178          1535.281
       137   05 Jun 2027 08:25:31.573   05 Jun 2027 08:25:35.597             4.024          1241.531
       138   05 Jun 2027 08:27:46.208   05 Jun 2027 08:27:51.094             4.886          2328.437
       139   05 Jun 2027 08:29:09.207   05 Jun 2027 08:29:11.132             1.925           934.656
       140   05 Jun 2027 08:29:36.268   05 Jun 2027 08:29:40.321             4.053           642.469
       141   05 Jun 2027 08:30:27.810   05 Jun 2027 08:30:29.362             1.552            74.656
       142   05 Jun 2027 08:30:43.413   05 Jun 2027 08:30:45.692             2.279           300.937
       143   05 Jun 2027 10:00:53.109   05 Jun 2027 10:01:03.317            10.208          4553.031
       144   05 Jun 2027 10:02:32.304   05 Jun 2027 10:02:33.597             1.293           454.594
       145   05 Jun 2027 10:02:42.093   05 Jun 2027 10:02:42.690             0.597           265.500
       146   05 Jun 2027 10:03:33.726   05 Jun 2027 10:03:35.969             2.243           410.344
       147   05 Jun 2027 10:04:17.633   05 Jun 2027 10:04:20.137             2.504           981.094
       148   05 Jun 2027 10:04:54.333   05 Jun 2027 10:04:56.803             2.470          1031.719
       149   05 Jun 2027 10:05:01.802   05 Jun 2027 10:05:06.106             4.304           147.719
       150   05 Jun 2027 10:05:21.204   05 Jun 2027 10:05:23.283             2.079           273.125
       151   05 Jun 2027 10:05:47.804   05 Jun 2027 10:05:51.144             3.340           501.125
       152   05 Jun 2027 10:06:35.821   05 Jun 2027 10:06:39.716             3.895           889.562
       153   05 Jun 2027 11:37:48.517   05 Jun 2027 11:38:02.071            13.554          5007.500
       154   05 Jun 2027 11:40:28.975   05 Jun 2027 11:40:36.057             7.082          1921.312
       155   05 Jun 2027 11:41:33.701   05 Jun 2027 11:41:40.475             6.774           421.000
       156   05 Jun 2027 11:42:28.933   05 Jun 2027 11:42:29.800             0.867           129.625
       157   06 Jun 2027 03:48:47.607   06 Jun 2027 03:49:19.710            32.103         16051.500
       158   06 Jun 2027 05:25:10.006   06 Jun 2027 05:28:12.652           182.646         91323.000
       159   06 Jun 2027 06:59:01.674   06 Jun 2027 07:00:44.173           102.499         50562.531
       160   06 Jun 2027 07:00:59.302   06 Jun 2027 07:01:01.360             2.058            84.562
       161   06 Jun 2027 07:01:18.915   06 Jun 2027 07:01:20.382             1.467           362.406
       162   06 Jun 2027 07:02:15.643   06 Jun 2027 07:02:18.230             2.587           778.781
       163   06 Jun 2027 07:02:54.668   06 Jun 2027 07:02:58.131             3.463          1031.344
       164   06 Jun 2027 07:03:21.166   06 Jun 2027 07:03:24.516             3.350           719.844
       165   06 Jun 2027 07:03:50.020   06 Jun 2027 07:03:51.568             1.548           747.781
       166   06 Jun 2027 07:04:23.095   06 Jun 2027 07:04:27.155             4.060           840.156
       167   06 Jun 2027 07:05:10.814   06 Jun 2027 07:05:17.932             7.118           786.406
       168   06 Jun 2027 07:05:46.135   06 Jun 2027 07:05:46.135             0.000             0.000
       169   06 Jun 2027 07:05:47.181   06 Jun 2027 07:05:50.404             3.223           502.750
       170   06 Jun 2027 07:06:56.969   06 Jun 2027 07:07:00.788             3.819          1506.781
       171   06 Jun 2027 07:07:09.245   06 Jun 2027 07:07:10.828             1.583           126.156
       172   06 Jun 2027 08:36:16.806   06 Jun 2027 08:36:22.795             5.989          2609.625
       173   06 Jun 2027 08:41:30.876   06 Jun 2027 08:41:32.973             2.097           908.437
       174   06 Jun 2027 08:42:38.448   06 Jun 2027 08:42:40.463             2.015           741.781
       175   06 Jun 2027 10:13:17.766   06 Jun 2027 10:13:28.387            10.621          5279.938
       176   06 Jun 2027 10:16:42.877   06 Jun 2027 10:16:43.870             0.993           274.125
       177   06 Jun 2027 10:16:48.716   06 Jun 2027 10:16:49.885             1.169           151.438
       178   06 Jun 2027 10:17:53.901   06 Jun 2027 10:17:57.152             3.251          1276.344
       179   06 Jun 2027 10:18:40.134   06 Jun 2027 10:18:42.900             2.766          1320.812
       180   06 Jun 2027 11:50:02.453   06 Jun 2027 11:50:24.985            22.532          8008.750
       181   06 Jun 2027 11:53:00.512   06 Jun 2027 11:53:03.777             3.265          1135.812
       182   07 Jun 2027 04:00:36.282   07 Jun 2027 04:00:49.341            13.059          6529.500
       183   07 Jun 2027 05:37:13.461   07 Jun 2027 05:38:59.673           106.212         53106.000
       184   07 Jun 2027 05:40:05.823   07 Jun 2027 05:40:37.358            31.535         15767.500
       185   07 Jun 2027 07:12:16.972   07 Jun 2027 07:14:57.891           160.919         80396.812
       186   07 Jun 2027 07:15:40.166   07 Jun 2027 07:15:41.729             1.563           505.094
       187   07 Jun 2027 07:16:20.731   07 Jun 2027 07:16:20.731             0.000             0.000
       188   07 Jun 2027 07:17:31.730   07 Jun 2027 07:17:39.590             7.860          3095.969
       189   07 Jun 2027 07:18:16.386   07 Jun 2027 07:18:16.386             0.000             0.000
       190   07 Jun 2027 07:18:54.160   07 Jun 2027 07:18:57.946             3.786          1893.000
       191   07 Jun 2027 07:19:04.084   07 Jun 2027 07:19:07.472             3.388           323.594
       192   07 Jun 2027 08:48:40.047   07 Jun 2027 08:48:49.878             9.831          4750.063
       193   07 Jun 2027 08:52:03.716   07 Jun 2027 08:52:07.947             4.231           127.469
       194   07 Jun 2027 08:52:30.566   07 Jun 2027 08:52:30.796             0.230            70.313
       195   07 Jun 2027 08:52:38.622   07 Jun 2027 08:52:42.736             4.114           186.750
       196   07 Jun 2027 08:53:25.941   07 Jun 2027 08:53:29.806             3.865           560.031
       197   07 Jun 2027 08:54:04.683   07 Jun 2027 08:54:10.347             5.664           534.438
       198   07 Jun 2027 08:54:49.458   07 Jun 2027 08:54:50.841             1.383           684.094
       199   07 Jun 2027 10:26:09.622   07 Jun 2027 10:26:21.539            11.917          5804.375
       200   07 Jun 2027 10:28:15.943   07 Jun 2027 10:28:16.989             1.046             4.594
       201   07 Jun 2027 10:29:20.446   07 Jun 2027 10:29:23.773             3.327           940.844
       202   07 Jun 2027 10:30:12.061   07 Jun 2027 10:30:17.383             5.322          1139.063
       203   08 Jun 2027 04:12:50.130   08 Jun 2027 04:13:39.933            49.803         24901.500
       204   08 Jun 2027 04:15:37.862   08 Jun 2027 04:15:37.862             0.000             0.000
       205   08 Jun 2027 05:49:23.264   08 Jun 2027 05:51:40.718           137.454         68727.000
       206   08 Jun 2027 05:51:48.899   08 Jun 2027 05:51:50.307             1.408           704.000
       207   08 Jun 2027 07:24:33.582   08 Jun 2027 07:26:43.022           129.440         64473.875
       208   08 Jun 2027 07:27:26.180   08 Jun 2027 07:27:30.577             4.397           164.187
       209   08 Jun 2027 07:27:55.106   08 Jun 2027 07:27:55.970             0.864           208.312
       210   08 Jun 2027 07:29:31.874   08 Jun 2027 07:29:39.497             7.623          2222.250
       211   08 Jun 2027 07:30:35.673   08 Jun 2027 07:30:42.442             6.769          1348.750
       212   08 Jun 2027 07:30:50.313   08 Jun 2027 07:30:52.846             2.533           156.937
       213   08 Jun 2027 07:30:57.168   08 Jun 2027 07:30:58.411             1.243           135.062
       214   08 Jun 2027 09:00:55.168   08 Jun 2027 09:01:05.928            10.760          5292.156
       215   08 Jun 2027 09:04:11.756   08 Jun 2027 09:04:12.625             0.869           375.688
       216   08 Jun 2027 09:05:19.162   08 Jun 2027 09:05:21.400             2.238           180.562
       217   08 Jun 2027 09:06:00.709   08 Jun 2027 09:06:01.783             1.074            93.219
       218   08 Jun 2027 09:06:22.347   08 Jun 2027 09:06:25.701             3.354            21.625
       219   08 Jun 2027 10:38:13.402   08 Jun 2027 10:38:27.280            13.878          6781.969
       220   08 Jun 2027 10:40:01.750   08 Jun 2027 10:40:05.176             3.426           819.406
       221   08 Jun 2027 10:41:11.245   08 Jun 2027 10:41:17.080             5.835          2064.656
       222   08 Jun 2027 10:41:22.651   08 Jun 2027 10:41:25.130             2.479           133.438
       223   08 Jun 2027 10:41:47.185   08 Jun 2027 10:41:49.287             2.102            22.750
       224   08 Jun 2027 10:42:23.738   08 Jun 2027 10:42:27.867             4.129          1049.375
       225   08 Jun 2027 10:42:38.586   08 Jun 2027 10:42:39.281             0.695           312.094
       226   09 Jun 2027 03:01:25.279   09 Jun 2027 03:01:55.048            29.769         14884.500
       227   09 Jun 2027 03:02:06.697   09 Jun 2027 03:02:13.190             6.493          3246.500
       228   09 Jun 2027 03:03:38.133   09 Jun 2027 03:04:05.862            27.729         13864.500
       229   09 Jun 2027 03:04:42.643   09 Jun 2027 03:04:45.161             2.518          1259.000
       230   09 Jun 2027 04:25:19.727   09 Jun 2027 04:25:54.410            34.683         17341.500
       231   09 Jun 2027 04:26:49.071   09 Jun 2027 04:27:36.312            47.241         23620.500
       232   09 Jun 2027 06:01:14.540   09 Jun 2027 06:02:52.602            98.062         49031.000
       233   09 Jun 2027 06:03:11.784   09 Jun 2027 06:03:40.444            28.660         14330.000
       234   09 Jun 2027 06:04:31.766   09 Jun 2027 06:04:34.489             2.723          1361.500
       235   09 Jun 2027 06:04:42.063   09 Jun 2027 06:04:45.670             3.607          1803.500
       236   09 Jun 2027 07:36:08.486   09 Jun 2027 07:36:59.627            51.141         24697.719
       237   09 Jun 2027 07:39:14.304   09 Jun 2027 07:39:16.636             2.332           887.437
       238   09 Jun 2027 07:39:57.322   09 Jun 2027 07:39:59.690             2.368           959.313
       239   09 Jun 2027 07:41:31.443   09 Jun 2027 07:41:35.747             4.304          2130.281
       240   09 Jun 2027 07:42:56.592   09 Jun 2027 07:43:00.795             4.203          2040.187
       241   09 Jun 2027 09:12:30.898   09 Jun 2027 09:12:43.145            12.247          4508.875
       242   09 Jun 2027 09:16:16.274   09 Jun 2027 09:16:16.772             0.498           243.594
       243   09 Jun 2027 09:17:10.076   09 Jun 2027 09:17:14.136             4.060          1522.250
       244   09 Jun 2027 09:17:37.264   09 Jun 2027 09:17:45.319             8.055           603.313
       245   09 Jun 2027 10:50:47.770   09 Jun 2027 10:50:59.324            11.554          4849.875
       246   09 Jun 2027 10:51:38.421   09 Jun 2027 10:51:41.156             2.735           311.594
       247   09 Jun 2027 10:52:54.919   09 Jun 2027 10:53:00.201             5.282           101.000
       248   09 Jun 2027 10:54:00.719   09 Jun 2027 10:54:06.213             5.494          1765.000
       249   09 Jun 2027 10:54:27.652   09 Jun 2027 10:54:28.751             1.099            67.281
       250   10 Jun 2027 03:02:04.789   10 Jun 2027 03:02:27.185            22.396         11198.000
       251   10 Jun 2027 03:13:21.472   10 Jun 2027 03:16:08.806           167.334         83667.000
       252   10 Jun 2027 04:35:57.222   10 Jun 2027 04:36:18.469            21.247         10623.500
       253   10 Jun 2027 04:37:13.387   10 Jun 2027 04:37:29.115            15.728          7864.000
       254   10 Jun 2027 04:40:05.561   10 Jun 2027 04:40:22.188            16.627          8313.500
       255   10 Jun 2027 06:11:31.886   10 Jun 2027 06:12:15.741            43.855         21927.500
       256   10 Jun 2027 06:12:58.315   10 Jun 2027 06:13:51.916            53.601         26491.281
       257   10 Jun 2027 06:14:04.482   10 Jun 2027 06:14:04.482             0.000             0.000
       258   10 Jun 2027 06:14:27.714   10 Jun 2027 06:14:32.220             4.506          1118.688
       259   10 Jun 2027 06:16:21.943   10 Jun 2027 06:16:30.700             8.757          3428.844
       260   10 Jun 2027 06:17:11.125   10 Jun 2027 06:17:16.590             5.465           859.219
       261   10 Jun 2027 07:47:44.511   10 Jun 2027 07:47:49.685             5.174          1633.406
       262   10 Jun 2027 07:48:39.727   10 Jun 2027 07:48:47.312             7.585           691.781
       263   10 Jun 2027 07:51:59.281   10 Jun 2027 07:52:04.704             5.423          1514.438
       264   10 Jun 2027 07:52:37.001   10 Jun 2027 07:52:42.504             5.503           270.844
       265   10 Jun 2027 07:53:39.517   10 Jun 2027 07:53:41.735             2.218          1090.406
       266   10 Jun 2027 07:54:12.668   10 Jun 2027 07:54:17.472             4.804           930.437
       267   10 Jun 2027 09:24:50.881   10 Jun 2027 09:25:04.623            13.742          5968.406
       268   10 Jun 2027 09:27:24.765   10 Jun 2027 09:27:26.897             2.132           302.281
       269   10 Jun 2027 09:28:58.012   10 Jun 2027 09:29:01.136             3.124           845.281
       270   10 Jun 2027 09:29:21.765   10 Jun 2027 09:29:24.078             2.313           146.000
       271   10 Jun 2027 09:29:42.171   10 Jun 2027 09:29:44.893             2.722           378.875
       272   10 Jun 2027 09:30:36.064   10 Jun 2027 09:30:39.184             3.120          1480.531
       273   10 Jun 2027 09:31:11.551   10 Jun 2027 09:31:13.061             1.510           652.719
       274   10 Jun 2027 11:02:48.872   10 Jun 2027 11:03:01.450            12.578          5492.375
       275   10 Jun 2027 11:03:41.568   10 Jun 2027 11:03:50.217             8.649          1221.281
       276   10 Jun 2027 11:04:25.414   10 Jun 2027 11:04:29.244             3.830          1099.906
       277   10 Jun 2027 11:05:00.568   10 Jun 2027 11:05:01.961             1.393           290.719
       278   10 Jun 2027 11:06:24.988   10 Jun 2027 11:06:28.199             3.211          1146.438
       279   11 Jun 2027 03:13:40.252   11 Jun 2027 03:13:47.732             7.480          3740.000
       280   11 Jun 2027 03:14:03.492   11 Jun 2027 03:14:03.492             0.000             0.000
       281   11 Jun 2027 03:14:47.029   11 Jun 2027 03:14:47.029             0.000             0.000
       282   11 Jun 2027 03:25:24.068   11 Jun 2027 03:26:33.163            69.095         34547.500
       283   11 Jun 2027 04:47:39.267   11 Jun 2027 04:48:45.793            66.526         33263.000
       284   11 Jun 2027 04:49:36.342   11 Jun 2027 04:50:44.287            67.945         33972.500
       285   11 Jun 2027 04:50:45.536   11 Jun 2027 04:50:57.648            12.112          6056.000
       286   11 Jun 2027 04:51:45.937   11 Jun 2027 04:51:45.937             0.000             0.000
       287   11 Jun 2027 04:52:14.081   11 Jun 2027 04:52:23.171             9.090          4545.000
       288   11 Jun 2027 06:22:38.647   11 Jun 2027 06:23:54.739            76.092         36046.282
       289   11 Jun 2027 06:23:56.187   11 Jun 2027 06:23:59.770             3.583            45.250
       290   11 Jun 2027 06:24:42.222   11 Jun 2027 06:24:46.724             4.502          1093.219
       291   11 Jun 2027 06:26:14.400   11 Jun 2027 06:26:20.386             5.986          2189.437
       292   11 Jun 2027 06:26:33.275   11 Jun 2027 06:26:33.926             0.651           255.188
       293   11 Jun 2027 06:27:41.682   11 Jun 2027 06:27:43.372             1.690           845.000
       294   11 Jun 2027 06:27:58.351   11 Jun 2027 06:28:02.838             4.487          1740.469
       295   11 Jun 2027 06:28:23.514   11 Jun 2027 06:28:30.015             6.501           584.375
       296   11 Jun 2027 06:29:11.634   11 Jun 2027 06:29:11.913             0.279           139.500
       297   11 Jun 2027 06:29:22.388   11 Jun 2027 06:29:28.568             6.180           599.125
       298   11 Jun 2027 06:29:42.958   11 Jun 2027 06:29:44.051             1.093           220.344
       299   11 Jun 2027 08:00:04.440   11 Jun 2027 08:00:14.526            10.086          3082.531
       300   11 Jun 2027 08:03:15.930   11 Jun 2027 08:03:17.467             1.537           402.938
       301   11 Jun 2027 08:04:36.060   11 Jun 2027 08:04:38.400             2.340          1097.625
       302   11 Jun 2027 08:06:01.202   11 Jun 2027 08:06:05.442             4.240          1024.406
       303   11 Jun 2027 08:07:18.196   11 Jun 2027 08:07:22.846             4.650          2215.313
       304   11 Jun 2027 09:36:51.445   11 Jun 2027 09:37:05.377            13.932          5710.000
       305   11 Jun 2027 09:39:24.176   11 Jun 2027 09:39:29.964             5.788            13.125
       306   11 Jun 2027 09:40:47.868   11 Jun 2027 09:40:51.581             3.713           186.531
       307   11 Jun 2027 09:41:38.199   11 Jun 2027 09:41:40.746             2.547           933.281
       308   11 Jun 2027 09:42:39.944   11 Jun 2027 09:42:43.659             3.715          1849.937
       309   11 Jun 2027 09:43:07.783   11 Jun 2027 09:43:12.731             4.948           139.563
       310   11 Jun 2027 11:14:49.411   11 Jun 2027 11:15:01.218            11.807          5734.719
       311   11 Jun 2027 11:16:49.988   11 Jun 2027 11:16:55.231             5.243          1871.281
       312   11 Jun 2027 11:18:03.419   11 Jun 2027 11:18:03.885             0.466            12.812
       313   11 Jun 2027 11:18:34.101   11 Jun 2027 11:18:36.385             2.284           944.250
       314   11 Jun 2027 11:18:50.266   11 Jun 2027 11:18:54.252             3.986           303.875
       315   12 Jun 2027 03:25:12.563   12 Jun 2027 03:25:42.319            29.756         14878.000
       316   12 Jun 2027 03:37:25.145   12 Jun 2027 03:37:56.823            31.678         15839.000
       317   12 Jun 2027 04:59:19.244   12 Jun 2027 05:00:32.349            73.105         36552.500
       318   12 Jun 2027 05:01:22.007   12 Jun 2027 05:02:44.096            82.089         41044.500
       319   12 Jun 2027 05:02:49.722   12 Jun 2027 05:02:49.722             0.000             0.000
       320   12 Jun 2027 05:03:29.840   12 Jun 2027 05:03:45.246            15.406          7703.000
       321   12 Jun 2027 05:04:27.712   12 Jun 2027 05:04:27.712             0.000             0.000
       322   12 Jun 2027 06:34:07.322   12 Jun 2027 06:35:34.369            87.047         43153.500
       323   12 Jun 2027 06:36:12.224   12 Jun 2027 06:36:13.922             1.698           511.094
       324   12 Jun 2027 06:36:45.912   12 Jun 2027 06:36:48.943             3.031           782.344
       325   12 Jun 2027 06:38:14.687   12 Jun 2027 06:38:19.528             4.841          1791.906
       326   12 Jun 2027 06:39:43.355   12 Jun 2027 06:39:52.128             8.773          2452.188
       327   12 Jun 2027 06:40:49.946   12 Jun 2027 06:40:54.284             4.338          1517.813
       328   12 Jun 2027 06:41:25.139   12 Jun 2027 06:41:26.425             1.286           313.656
       329   12 Jun 2027 06:41:44.676   12 Jun 2027 06:41:45.785             1.109           542.687
       330   12 Jun 2027 06:42:58.411   12 Jun 2027 06:43:06.716             8.305          1987.938
       331   12 Jun 2027 08:11:58.501   12 Jun 2027 08:12:01.991             3.490           776.031
       332   12 Jun 2027 08:12:45.755   12 Jun 2027 08:12:49.404             3.649           903.156
       333   12 Jun 2027 08:14:10.170   12 Jun 2027 08:14:13.735             3.565           652.469
       334   12 Jun 2027 08:15:43.905   12 Jun 2027 08:15:47.480             3.575          1602.594
       335   12 Jun 2027 08:16:46.553   12 Jun 2027 08:17:02.861            16.308          1385.063
       336   12 Jun 2027 08:17:53.543   12 Jun 2027 08:17:55.760             2.217           875.469
       337   12 Jun 2027 08:18:37.898   12 Jun 2027 08:18:46.954             9.056           333.156
       338   12 Jun 2027 09:48:43.076   12 Jun 2027 09:48:59.635            16.559          4485.375
       339   12 Jun 2027 09:49:14.835   12 Jun 2027 09:49:16.361             1.526           309.844
       340   12 Jun 2027 09:51:24.529   12 Jun 2027 09:51:27.000             2.471            63.313
       341   12 Jun 2027 09:52:46.238   12 Jun 2027 09:52:49.290             3.052           825.219
       342   12 Jun 2027 09:53:10.065   12 Jun 2027 09:53:12.630             2.565           246.406
       343   12 Jun 2027 09:53:27.052   12 Jun 2027 09:53:28.270             1.218           240.563
       344   12 Jun 2027 09:53:37.017   12 Jun 2027 09:53:37.829             0.812           142.906
       345   12 Jun 2027 09:54:03.010   12 Jun 2027 09:54:04.723             1.713           781.469
       346   12 Jun 2027 09:55:02.405   12 Jun 2027 09:55:04.504             2.099           632.438
       347   12 Jun 2027 11:26:52.049   12 Jun 2027 11:27:05.607            13.558          6110.094
       348   12 Jun 2027 11:29:38.758   12 Jun 2027 11:29:44.242             5.484           889.875
       349   12 Jun 2027 11:29:58.147   12 Jun 2027 11:30:11.609            13.462            87.313
       350   12 Jun 2027 11:30:36.152   12 Jun 2027 11:30:41.287             5.135           461.281
       351   12 Jun 2027 11:30:56.519   12 Jun 2027 11:30:57.426             0.907           406.313
       352   13 Jun 2027 03:37:10.007   13 Jun 2027 03:37:42.593            32.586         16293.000
       353   13 Jun 2027 05:13:07.858   13 Jun 2027 05:15:59.146           171.288         85644.000
       354   13 Jun 2027 05:16:07.440   13 Jun 2027 05:16:26.603            19.163          9581.500
       355   13 Jun 2027 06:46:56.030   13 Jun 2027 06:48:29.228            93.198         46435.063
       356   13 Jun 2027 06:49:22.597   13 Jun 2027 06:49:25.886             3.289           734.906
       357   13 Jun 2027 06:50:14.527   13 Jun 2027 06:50:18.691             4.164          1467.969
       358   13 Jun 2027 06:51:25.352   13 Jun 2027 06:51:28.577             3.225          1612.500
       359   13 Jun 2027 06:52:26.194   13 Jun 2027 06:52:30.132             3.938          1969.000
       360   13 Jun 2027 06:52:44.015   13 Jun 2027 06:52:45.733             1.718           472.500
       361   13 Jun 2027 06:53:40.810   13 Jun 2027 06:53:43.920             3.110          1442.406
       362   13 Jun 2027 06:54:27.855   13 Jun 2027 06:54:29.044             1.189           594.500
       363   13 Jun 2027 06:54:41.137   13 Jun 2027 06:54:43.237             2.100          1046.813
       364   13 Jun 2027 08:24:05.602   13 Jun 2027 08:24:12.951             7.349          3491.938
       365   13 Jun 2027 08:26:38.486   13 Jun 2027 08:26:47.699             9.213           795.125
       366   13 Jun 2027 08:28:03.121   13 Jun 2027 08:28:08.520             5.399          2316.719
       367   13 Jun 2027 08:29:24.488   13 Jun 2027 08:29:26.261             1.773           880.281
       368   13 Jun 2027 08:29:53.040   13 Jun 2027 08:29:55.045             2.005           706.000
       369   13 Jun 2027 08:30:42.892   13 Jun 2027 08:30:45.662             2.770            33.219
       370   13 Jun 2027 08:30:59.600   13 Jun 2027 08:31:04.307             4.707           337.156
       371   13 Jun 2027 10:01:09.247   13 Jun 2027 10:01:18.021             8.774          4195.344
       372   13 Jun 2027 10:03:47.836   13 Jun 2027 10:03:52.483             4.647           310.375
       373   13 Jun 2027 10:04:12.687   13 Jun 2027 10:04:18.770             6.083           155.500
       374   13 Jun 2027 10:04:37.077   13 Jun 2027 10:04:38.759             1.682           256.781
       375   13 Jun 2027 10:05:02.056   13 Jun 2027 10:05:03.197             1.141           373.594
       376   13 Jun 2027 10:05:13.935   13 Jun 2027 10:05:16.252             2.317           335.562
       377   13 Jun 2027 10:05:38.700   13 Jun 2027 10:05:40.177             1.477           292.031
       378   13 Jun 2027 10:06:10.713   13 Jun 2027 10:06:12.787             2.074           403.531
       379   13 Jun 2027 10:06:48.120   13 Jun 2027 10:06:52.023             3.903           223.906
       380   13 Jun 2027 11:38:02.926   13 Jun 2027 11:38:16.708            13.782          5549.375
       381   13 Jun 2027 11:40:44.263   13 Jun 2027 11:40:51.143             6.880          1889.375
       382   13 Jun 2027 11:41:22.258   13 Jun 2027 11:41:23.383             1.125           491.156
       383   13 Jun 2027 11:42:38.278   13 Jun 2027 11:42:43.909             5.631          2340.469
       384   13 Jun 2027 11:42:56.952   13 Jun 2027 11:42:57.910             0.958           358.594
