uniorb/output/strategy_4/Camera/Camera_KinoSat_111108.txt

KinoSat_111108
-------------------------
    Access    *     Start Time (UTCG)     *     Stop Time (UTCG)  *   Duration (s) *   Data (Mbytes)
         1   01 Jun 2027 03:06:36.658   01 Jun 2027 03:07:51.998            75.340         37670.000
         2   01 Jun 2027 03:07:58.939   01 Jun 2027 03:08:08.183             9.244          4622.000
         3   01 Jun 2027 03:09:45.218   01 Jun 2027 03:10:07.893            22.675         11337.500
         4   01 Jun 2027 04:30:16.339   01 Jun 2027 04:31:16.190            59.851         29925.500
         5   01 Jun 2027 04:31:38.672   01 Jun 2027 04:31:42.230             3.558          1779.000
         6   01 Jun 2027 06:06:41.926   01 Jun 2027 06:08:31.229           109.303         54651.500
         7   01 Jun 2027 06:09:11.582   01 Jun 2027 06:09:20.041             8.459          4229.500
         8   01 Jun 2027 06:09:45.450   01 Jun 2027 06:09:52.683             7.233          3616.500
         9   01 Jun 2027 07:41:50.108   01 Jun 2027 07:43:56.831           126.723         63361.500
        10   01 Jun 2027 07:44:25.118   01 Jun 2027 07:44:51.484            26.366         13183.000
        11   01 Jun 2027 07:47:14.586   01 Jun 2027 07:47:16.953             2.367          1183.500
        12   01 Jun 2027 07:48:21.129   01 Jun 2027 07:48:23.584             2.455          1227.500
        13   01 Jun 2027 09:18:10.866   01 Jun 2027 09:21:27.267           196.401         98200.500
        14   01 Jun 2027 09:21:34.921   01 Jun 2027 09:21:40.610             5.689          2844.500
        15   01 Jun 2027 09:22:14.249   01 Jun 2027 09:22:17.431             3.182          1591.000
        16   01 Jun 2027 09:23:50.469   01 Jun 2027 09:23:52.975             2.506          1253.000
        17   01 Jun 2027 10:55:44.720   01 Jun 2027 10:57:08.180            83.460         41730.000
        18   01 Jun 2027 10:57:19.812   01 Jun 2027 10:57:42.434            22.622         11311.000
        19   01 Jun 2027 10:58:45.968   01 Jun 2027 10:58:48.716             2.748          1374.000
        20   01 Jun 2027 10:59:42.900   01 Jun 2027 11:00:07.732            24.832         12416.000
        21   02 Jun 2027 03:18:55.924   02 Jun 2027 03:19:30.667            34.743         17371.500
        22   02 Jun 2027 03:19:44.512   02 Jun 2027 03:20:59.442            74.930         37465.000
        23   02 Jun 2027 03:22:39.644   02 Jun 2027 03:22:41.948             2.304          1152.000
        24   02 Jun 2027 04:42:15.434   02 Jun 2027 04:43:04.181            48.747         24373.500
        25   02 Jun 2027 04:44:07.109   02 Jun 2027 04:44:07.109             0.000             0.000
        26   02 Jun 2027 04:44:45.183   02 Jun 2027 04:45:10.541            25.358         12679.000
        27   02 Jun 2027 06:18:52.087   02 Jun 2027 06:22:19.005           206.918        103459.000
        28   02 Jun 2027 07:54:02.228   02 Jun 2027 07:57:09.208           186.980         93490.000
        29   02 Jun 2027 07:57:31.216   02 Jun 2027 07:57:31.216             0.000             0.000
        30   02 Jun 2027 08:00:15.857   02 Jun 2027 08:00:38.098            22.241         11120.500
        31   02 Jun 2027 09:30:19.468   02 Jun 2027 09:31:31.491            72.023         35828.499
        32   02 Jun 2027 09:32:14.048   02 Jun 2027 09:32:16.596             2.548           208.688
        33   02 Jun 2027 09:33:07.809   02 Jun 2027 09:33:09.566             1.757           381.906
        34   02 Jun 2027 09:33:36.264   02 Jun 2027 09:33:39.765             3.501           704.938
        35   02 Jun 2027 09:35:06.476   02 Jun 2027 09:35:11.218             4.742          1545.000
        36   02 Jun 2027 09:35:24.589   02 Jun 2027 09:35:27.520             2.931           408.125
        37   02 Jun 2027 09:35:30.740   02 Jun 2027 09:35:31.349             0.609           100.625
        38   02 Jun 2027 11:07:49.580   02 Jun 2027 11:08:00.039            10.459          5190.906
        39   02 Jun 2027 11:10:23.569   02 Jun 2027 11:10:29.822             6.253          2048.813
        40   02 Jun 2027 11:11:17.348   02 Jun 2027 11:11:19.027             1.679           311.219
        41   02 Jun 2027 11:12:11.663   02 Jun 2027 11:12:21.628             9.965          1644.875
        42   03 Jun 2027 03:20:06.494   03 Jun 2027 03:20:14.065             7.571          3785.500
        43   03 Jun 2027 03:30:52.595   03 Jun 2027 03:31:33.259            40.664         20332.000
        44   03 Jun 2027 03:31:42.926   03 Jun 2027 03:33:40.046           117.120         58560.000
        45   03 Jun 2027 03:33:51.942   03 Jun 2027 03:34:27.886            35.944         17972.000
        46   03 Jun 2027 04:54:51.544   03 Jun 2027 04:55:09.600            18.056          9028.000
        47   03 Jun 2027 04:56:11.351   03 Jun 2027 04:56:19.426             8.075          4037.500
        48   03 Jun 2027 06:30:36.270   03 Jun 2027 06:31:56.302            80.032         40016.000
        49   03 Jun 2027 06:32:32.816   03 Jun 2027 06:32:38.797             5.981          2245.375
        50   03 Jun 2027 06:33:19.187   03 Jun 2027 06:33:20.011             0.824           412.000
        51   03 Jun 2027 06:33:56.259   03 Jun 2027 06:34:02.115             5.856          1931.875
        52   03 Jun 2027 06:34:32.368   03 Jun 2027 06:34:36.824             4.456           945.406
        53   03 Jun 2027 08:05:30.921   03 Jun 2027 08:05:37.371             6.450          1969.781
        54   03 Jun 2027 08:06:15.221   03 Jun 2027 08:06:19.893             4.672           990.062
        55   03 Jun 2027 08:07:26.619   03 Jun 2027 08:07:32.511             5.892          2085.188
        56   03 Jun 2027 08:07:51.653   03 Jun 2027 08:07:52.997             1.344           472.219
        57   03 Jun 2027 08:08:55.710   03 Jun 2027 08:08:57.536             1.826           855.594
        58   03 Jun 2027 08:10:01.762   03 Jun 2027 08:10:06.094             4.332           886.219
        59   03 Jun 2027 08:11:25.817   03 Jun 2027 08:11:28.359             2.542           567.000
        60   03 Jun 2027 08:12:14.420   03 Jun 2027 08:12:15.183             0.763           139.031
        61   03 Jun 2027 09:42:02.074   03 Jun 2027 09:42:16.752            14.678          5365.250
        62   03 Jun 2027 09:44:51.632   03 Jun 2027 09:44:52.797             1.165           398.594
        63   03 Jun 2027 09:45:38.573   03 Jun 2027 09:45:43.676             5.103          1309.563
        64   03 Jun 2027 09:45:47.084   03 Jun 2027 09:45:47.432             0.348           106.500
        65   03 Jun 2027 09:47:02.585   03 Jun 2027 09:47:05.426             2.841          1281.312
        66   03 Jun 2027 09:47:28.005   03 Jun 2027 09:47:33.577             5.572           705.594
        67   03 Jun 2027 11:20:20.128   03 Jun 2027 11:20:30.801            10.673          5089.844
        68   03 Jun 2027 11:22:32.257   03 Jun 2027 11:22:33.304             1.047           265.781
        69   03 Jun 2027 11:23:10.358   03 Jun 2027 11:23:11.319             0.961           421.219
        70   03 Jun 2027 11:23:42.517   03 Jun 2027 11:23:43.971             1.454           317.906
        71   03 Jun 2027 11:23:58.609   03 Jun 2027 11:24:00.117             1.508           200.094
        72   04 Jun 2027 03:31:24.435   04 Jun 2027 03:31:25.789             1.354           677.000
        73   04 Jun 2027 03:31:58.731   04 Jun 2027 03:32:04.159             5.428          2714.000
        74   04 Jun 2027 03:42:49.255   04 Jun 2027 03:44:29.172            99.917         49958.500
        75   04 Jun 2027 05:05:26.155   04 Jun 2027 05:06:27.712            61.557         30778.500
        76   04 Jun 2027 05:06:41.623   04 Jun 2027 05:07:42.395            60.772         30386.000
        77   04 Jun 2027 05:07:56.536   04 Jun 2027 05:08:10.219            13.683          6841.500
        78   04 Jun 2027 06:40:51.504   04 Jun 2027 06:41:46.317            54.813         27406.500
        79   04 Jun 2027 06:42:22.115   04 Jun 2027 06:42:32.488            10.373          5169.187
        80   04 Jun 2027 06:42:45.622   04 Jun 2027 06:42:46.488             0.866           150.156
        81   04 Jun 2027 06:43:51.346   04 Jun 2027 06:43:53.946             2.600          1114.250
        82   04 Jun 2027 06:45:02.736   04 Jun 2027 06:45:07.447             4.711          2024.781
        83   04 Jun 2027 06:45:31.614   04 Jun 2027 06:45:33.697             2.083           512.781
        84   04 Jun 2027 06:46:41.961   04 Jun 2027 06:46:45.593             3.632          1375.187
        85   04 Jun 2027 06:47:01.294   04 Jun 2027 06:47:01.749             0.455            68.375
        86   04 Jun 2027 08:17:16.434   04 Jun 2027 08:17:19.719             3.285          1519.063
        87   04 Jun 2027 08:19:27.516   04 Jun 2027 08:19:35.847             8.331          2251.750
        88   04 Jun 2027 08:20:45.630   04 Jun 2027 08:20:48.353             2.723           141.062
        89   04 Jun 2027 08:22:07.940   04 Jun 2027 08:22:10.212             2.272          1019.594
        90   04 Jun 2027 08:23:10.794   04 Jun 2027 08:23:16.298             5.504          1320.375
        91   04 Jun 2027 08:24:01.299   04 Jun 2027 08:24:06.401             5.102          1017.375
        92   04 Jun 2027 09:54:22.481   04 Jun 2027 09:54:37.893            15.412          4658.594
        93   04 Jun 2027 09:57:28.425   04 Jun 2027 09:57:30.313             1.888            58.125
        94   04 Jun 2027 09:58:25.645   04 Jun 2027 09:58:30.835             5.190          1164.844
        95   04 Jun 2027 09:58:59.534   04 Jun 2027 09:59:06.724             7.190           405.031
        96   04 Jun 2027 10:00:14.779   04 Jun 2027 10:00:20.412             5.633          2037.094
        97   04 Jun 2027 11:32:17.801   04 Jun 2027 11:32:32.335            14.534          6741.563
        98   04 Jun 2027 11:33:11.552   04 Jun 2027 11:33:17.716             6.164           717.281
        99   04 Jun 2027 11:34:23.151   04 Jun 2027 11:34:26.579             3.428          1160.500
       100   04 Jun 2027 11:35:39.602   04 Jun 2027 11:35:46.264             6.662          1932.219
       101   04 Jun 2027 11:35:51.066   04 Jun 2027 11:35:53.715             2.649           150.063
       102   04 Jun 2027 11:36:13.855   04 Jun 2027 11:36:15.724             1.869             3.094
       103   05 Jun 2027 03:43:03.985   05 Jun 2027 03:43:25.849            21.864         10932.000
       104   05 Jun 2027 03:54:50.233   05 Jun 2027 03:55:50.771            60.538         30269.000
       105   05 Jun 2027 05:17:06.178   05 Jun 2027 05:18:12.406            66.228         33114.000
       106   05 Jun 2027 05:19:00.146   05 Jun 2027 05:19:55.471            55.325         27662.500
       107   05 Jun 2027 05:21:10.323   05 Jun 2027 05:21:16.629             6.306          3153.000
       108   05 Jun 2027 06:52:00.914   05 Jun 2027 06:53:55.124           114.210         55366.282
       109   05 Jun 2027 06:54:23.896   05 Jun 2027 06:54:26.633             2.737           420.937
       110   05 Jun 2027 06:55:51.909   05 Jun 2027 06:55:56.945             5.036          2012.687
       111   05 Jun 2027 06:57:15.602   05 Jun 2027 06:57:15.602             0.000             0.000
       112   05 Jun 2027 06:57:34.764   05 Jun 2027 06:57:38.873             4.109          2054.500
       113   05 Jun 2027 06:58:53.830   05 Jun 2027 06:59:01.551             7.721          3344.750
       114   05 Jun 2027 08:29:32.390   05 Jun 2027 08:29:36.268             3.878          1910.500
       115   05 Jun 2027 08:31:27.156   05 Jun 2027 08:31:32.136             4.980          2155.094
       116   05 Jun 2027 08:32:25.352   05 Jun 2027 08:32:29.136             3.784          1633.531
       117   05 Jun 2027 08:33:06.291   05 Jun 2027 08:33:08.945             2.654          1049.031
       118   05 Jun 2027 08:33:59.268   05 Jun 2027 08:34:00.568             1.300           357.906
       119   05 Jun 2027 08:35:04.103   05 Jun 2027 08:35:09.937             5.834          1477.531
       120   05 Jun 2027 08:35:52.454   05 Jun 2027 08:35:55.339             2.885          1300.062
       121   05 Jun 2027 08:36:45.870   05 Jun 2027 08:36:46.745             0.875           341.500
       122   05 Jun 2027 10:06:18.131   05 Jun 2027 10:06:33.090            14.959          4737.500
       123   05 Jun 2027 10:09:38.213   05 Jun 2027 10:09:48.662            10.449          1765.063
       124   05 Jun 2027 10:10:01.310   05 Jun 2027 10:10:05.693             4.383           163.813
       125   05 Jun 2027 10:10:30.884   05 Jun 2027 10:10:33.698             2.814           302.562
       126   05 Jun 2027 10:10:39.205   05 Jun 2027 10:10:42.663             3.458            81.875
       127   05 Jun 2027 10:11:04.970   05 Jun 2027 10:11:06.194             1.224           574.625
       128   05 Jun 2027 10:12:01.244   05 Jun 2027 10:12:04.709             3.465          1720.313
       129   05 Jun 2027 10:12:16.841   05 Jun 2027 10:12:20.489             3.648           264.937
       130   05 Jun 2027 10:12:37.126   05 Jun 2027 10:12:42.153             5.027           519.906
       131   05 Jun 2027 11:44:17.468   05 Jun 2027 11:44:28.791            11.323          5342.844
       132   05 Jun 2027 11:45:11.134   05 Jun 2027 11:45:14.706             3.572           790.031
       133   05 Jun 2027 11:46:08.708   05 Jun 2027 11:46:11.240             2.532          1201.000
       134   05 Jun 2027 11:46:26.594   05 Jun 2027 11:46:27.508             0.914           154.219
       135   05 Jun 2027 11:46:28.572   05 Jun 2027 11:46:30.798             2.226            33.250
       136   05 Jun 2027 11:47:40.812   05 Jun 2027 11:47:45.320             4.508           799.000
       137   05 Jun 2027 11:48:13.847   05 Jun 2027 11:48:21.514             7.667           850.187
       138   06 Jun 2027 03:54:41.987   06 Jun 2027 03:55:26.809            44.822         22411.000
       139   06 Jun 2027 03:56:43.314   06 Jun 2027 03:56:43.314             0.000             0.000
       140   06 Jun 2027 04:06:57.579   06 Jun 2027 04:07:25.187            27.608         13804.000
       141   06 Jun 2027 05:28:37.974   06 Jun 2027 05:29:58.050            80.076         40038.000
       142   06 Jun 2027 05:30:46.294   06 Jun 2027 05:31:39.922            53.628         26814.000
       143   06 Jun 2027 05:32:49.767   06 Jun 2027 05:33:15.404            25.637         12818.500
       144   06 Jun 2027 07:03:31.513   06 Jun 2027 07:05:10.814            99.301         48010.656
       145   06 Jun 2027 07:05:31.093   06 Jun 2027 07:05:32.807             1.714           633.719
       146   06 Jun 2027 07:05:47.181   06 Jun 2027 07:05:47.181             0.000             0.000
       147   06 Jun 2027 07:06:21.560   06 Jun 2027 07:06:24.595             3.035          1107.031
       148   06 Jun 2027 07:07:05.208   06 Jun 2027 07:07:07.634             2.426           970.781
       149   06 Jun 2027 07:07:21.994   06 Jun 2027 07:07:24.738             2.744           161.781
       150   06 Jun 2027 07:07:36.701   06 Jun 2027 07:07:39.425             2.724           274.000
       151   06 Jun 2027 07:08:01.579   06 Jun 2027 07:08:01.579             0.000             0.000
       152   06 Jun 2027 07:08:36.555   06 Jun 2027 07:08:41.154             4.599          1389.656
       153   06 Jun 2027 07:10:00.961   06 Jun 2027 07:10:05.113             4.152          1695.687
       154   06 Jun 2027 07:10:24.644   06 Jun 2027 07:10:24.644             0.000             0.000
       155   06 Jun 2027 07:10:46.475   06 Jun 2027 07:10:48.901             2.426           989.687
       156   06 Jun 2027 07:11:12.273   06 Jun 2027 07:11:20.111             7.838           729.000
       157   06 Jun 2027 07:11:27.616   06 Jun 2027 07:11:30.746             3.130           179.656
       158   06 Jun 2027 07:12:26.060   06 Jun 2027 07:12:33.415             7.355          1720.313
       159   06 Jun 2027 08:41:27.244   06 Jun 2027 08:41:32.973             5.729          2860.219
       160   06 Jun 2027 08:43:26.115   06 Jun 2027 08:43:30.210             4.095          1957.062
       161   06 Jun 2027 08:44:20.712   06 Jun 2027 08:44:23.756             3.044          1393.344
       162   06 Jun 2027 08:45:42.290   06 Jun 2027 08:45:43.677             1.387           273.750
       163   06 Jun 2027 08:46:21.295   06 Jun 2027 08:46:23.250             1.955           768.062
       164   06 Jun 2027 08:47:00.827   06 Jun 2027 08:47:06.401             5.574          1008.813
       165   06 Jun 2027 08:47:52.160   06 Jun 2027 08:47:55.543             3.383          1320.000
       166   06 Jun 2027 08:48:11.553   06 Jun 2027 08:48:14.079             2.526           347.563
       167   06 Jun 2027 08:48:38.081   06 Jun 2027 08:48:41.405             3.324           321.031
       168   06 Jun 2027 10:18:14.689   06 Jun 2027 10:18:26.480            11.791          5776.063
       169   06 Jun 2027 10:18:47.562   06 Jun 2027 10:18:49.171             1.609           491.063
       170   06 Jun 2027 10:19:17.571   06 Jun 2027 10:19:20.738             3.167           212.031
       171   06 Jun 2027 10:21:09.208   06 Jun 2027 10:21:10.564             1.356           474.312
       172   06 Jun 2027 10:22:18.310   06 Jun 2027 10:22:23.081             4.771          1208.406
       173   06 Jun 2027 10:23:05.605   06 Jun 2027 10:23:08.930             3.325           786.125
       174   06 Jun 2027 10:23:25.537   06 Jun 2027 10:23:29.498             3.961           518.969
       175   06 Jun 2027 10:24:10.360   06 Jun 2027 10:24:12.414             2.054          1026.469
       176   06 Jun 2027 10:24:35.534   06 Jun 2027 10:24:40.169             4.635           308.781
       177   06 Jun 2027 11:56:05.082   06 Jun 2027 11:56:18.022            12.940          5387.469
       178   06 Jun 2027 11:58:10.829   06 Jun 2027 11:58:18.799             7.970          2037.781
       179   06 Jun 2027 11:59:29.705   06 Jun 2027 11:59:33.463             3.758           230.281
       180   06 Jun 2027 11:59:58.930   06 Jun 2027 12:00:00.000             1.070           514.844
       181   07 Jun 2027 04:06:37.700   07 Jun 2027 04:06:58.972            21.272         10636.000
       182   07 Jun 2027 05:42:37.289   07 Jun 2027 05:45:00.653           143.364         71682.000
       183   07 Jun 2027 05:45:23.446   07 Jun 2027 05:45:26.421             2.975          1487.500
       184   07 Jun 2027 05:45:39.776   07 Jun 2027 05:45:39.776             0.000             0.000
       185   07 Jun 2027 07:16:24.996   07 Jun 2027 07:18:54.160           149.164         74582.000
       186   07 Jun 2027 07:18:57.946   07 Jun 2027 07:19:01.666             3.720          1574.438
       187   07 Jun 2027 07:19:38.781   07 Jun 2027 07:19:41.932             3.151          1084.281
       188   07 Jun 2027 07:20:39.063   07 Jun 2027 07:20:42.618             3.555          1477.750
       189   07 Jun 2027 07:22:42.714   07 Jun 2027 07:22:52.201             9.487          3258.813
       190   07 Jun 2027 07:23:29.044   07 Jun 2027 07:23:29.044             0.000             0.000
       191   07 Jun 2027 07:23:59.268   07 Jun 2027 07:24:05.095             5.827          1746.125
       192   07 Jun 2027 07:24:56.103   07 Jun 2027 07:24:56.600             0.497           248.500
       193   07 Jun 2027 08:53:39.105   07 Jun 2027 08:53:50.566            11.461          5299.750
       194   07 Jun 2027 08:56:05.994   07 Jun 2027 08:56:08.725             2.731           842.875
       195   07 Jun 2027 08:57:38.883   07 Jun 2027 08:57:45.122             6.239          2514.406
       196   07 Jun 2027 08:59:07.870   07 Jun 2027 08:59:10.505             2.635           195.688
       197   07 Jun 2027 09:00:12.868   07 Jun 2027 09:00:20.296             7.428           248.656
       198   07 Jun 2027 10:30:51.519   07 Jun 2027 10:30:57.669             6.150          3075.000
       199   07 Jun 2027 10:31:05.858   07 Jun 2027 10:31:19.587            13.729          2884.125
       200   07 Jun 2027 10:34:21.522   07 Jun 2027 10:34:25.592             4.070           421.062
       201   07 Jun 2027 10:34:46.064   07 Jun 2027 10:34:49.711             3.647           627.781
       202   07 Jun 2027 10:35:11.790   07 Jun 2027 10:35:13.099             1.309           197.594
       203   07 Jun 2027 10:35:32.738   07 Jun 2027 10:35:36.867             4.129           613.719
       204   07 Jun 2027 10:36:21.961   07 Jun 2027 10:36:25.002             3.041          1004.219
       205   07 Jun 2027 10:36:32.902   07 Jun 2027 10:36:41.139             8.237            81.219
       206   08 Jun 2027 04:18:29.540   08 Jun 2027 04:19:04.423            34.883         17441.500
       207   08 Jun 2027 04:19:35.578   08 Jun 2027 04:19:56.711            21.133         10566.500
       208   08 Jun 2027 05:54:51.191   08 Jun 2027 05:57:23.204           152.013         76006.500
       209   08 Jun 2027 05:57:36.135   08 Jun 2027 05:57:39.631             3.496          1748.000
       210   08 Jun 2027 07:27:10.979   08 Jun 2027 07:27:44.221            33.242         16621.000
       211   08 Jun 2027 07:28:56.350   08 Jun 2027 07:29:57.516            61.166         29752.531
       212   08 Jun 2027 07:30:50.313   08 Jun 2027 07:30:52.846             2.533           156.937
       213   08 Jun 2027 07:30:57.168   08 Jun 2027 07:30:58.411             1.243           135.062
       214   08 Jun 2027 07:31:40.593   08 Jun 2027 07:31:40.593             0.000             0.000
       215   08 Jun 2027 07:32:11.207   08 Jun 2027 07:32:13.814             2.607          1141.000
       216   08 Jun 2027 07:34:03.135   08 Jun 2027 07:34:09.001             5.866          2485.937
       217   08 Jun 2027 07:34:19.706   08 Jun 2027 07:34:23.078             3.372           140.937
       218   08 Jun 2027 07:35:34.305   08 Jun 2027 07:35:36.218             1.913           318.500
       219   08 Jun 2027 07:36:17.421   08 Jun 2027 07:36:20.090             2.669          1258.438
       220   08 Jun 2027 07:36:49.073   08 Jun 2027 07:36:50.772             1.699           677.344
       221   08 Jun 2027 07:36:52.078   08 Jun 2027 07:36:54.145             2.067            38.156
       222   08 Jun 2027 09:06:00.584   08 Jun 2027 09:06:11.718            11.134          4950.281
       223   08 Jun 2027 09:08:51.990   08 Jun 2027 09:08:52.861             0.871            76.719
       224   08 Jun 2027 09:09:40.604   08 Jun 2027 09:09:44.665             4.061          1056.469
       225   08 Jun 2027 09:11:04.520   08 Jun 2027 09:11:05.808             1.288           228.500
       226   08 Jun 2027 09:12:01.017   08 Jun 2027 09:12:04.957             3.940          1679.250
       227   08 Jun 2027 09:12:37.129   08 Jun 2027 09:12:37.793             0.664            11.938
       228   08 Jun 2027 10:42:58.300   08 Jun 2027 10:43:09.698            11.398          5126.531
       229   08 Jun 2027 10:45:21.008   08 Jun 2027 10:45:24.567             3.559          1095.687
       230   08 Jun 2027 10:47:13.184   08 Jun 2027 10:47:16.364             3.180          1132.031
       231   09 Jun 2027 03:07:28.373   09 Jun 2027 03:08:28.503            60.130         30065.000
       232   09 Jun 2027 03:08:40.900   09 Jun 2027 03:08:48.935             8.035          4017.500
       233   09 Jun 2027 03:10:22.512   09 Jun 2027 03:10:22.512             0.000             0.000
       234   09 Jun 2027 03:10:30.357   09 Jun 2027 03:10:48.896            18.539          9269.500
       235   09 Jun 2027 04:30:32.783   09 Jun 2027 04:31:12.526            39.743         19871.500
       236   09 Jun 2027 04:31:48.777   09 Jun 2027 04:31:53.633             4.856          2428.000
       237   09 Jun 2027 04:33:05.478   09 Jun 2027 04:33:11.448             5.970          2985.000
       238   09 Jun 2027 06:06:58.101   09 Jun 2027 06:09:38.971           160.870         80435.000
       239   09 Jun 2027 06:10:09.987   09 Jun 2027 06:10:20.291            10.304          5055.125
       240   09 Jun 2027 07:42:05.952   09 Jun 2027 07:42:13.302             7.350          2016.594
       241   09 Jun 2027 07:42:38.657   09 Jun 2027 07:42:44.909             6.252           731.281
       242   09 Jun 2027 07:43:13.403   09 Jun 2027 07:43:15.204             1.801           795.563
       243   09 Jun 2027 07:43:38.115   09 Jun 2027 07:43:40.920             2.805           259.031
       244   09 Jun 2027 07:44:19.756   09 Jun 2027 07:44:22.558             2.802          1177.312
       245   09 Jun 2027 07:45:22.686   09 Jun 2027 07:45:26.728             4.042           367.156
       246   09 Jun 2027 07:45:57.733   09 Jun 2027 07:46:03.767             6.034           361.844
       247   09 Jun 2027 07:47:24.595   09 Jun 2027 07:47:30.452             5.857          2206.469
       248   09 Jun 2027 07:48:07.413   09 Jun 2027 07:48:22.435            15.022           932.750
       249   09 Jun 2027 07:48:40.690   09 Jun 2027 07:48:41.386             0.696           247.719
       250   09 Jun 2027 09:18:27.025   09 Jun 2027 09:18:40.392            13.367          6356.781
       251   09 Jun 2027 09:20:27.721   09 Jun 2027 09:20:31.434             3.713          1591.312
       252   09 Jun 2027 09:20:38.162   09 Jun 2027 09:20:39.364             1.202            67.969
       253   09 Jun 2027 09:20:57.953   09 Jun 2027 09:21:04.011             6.058           546.906
       254   09 Jun 2027 09:21:44.606   09 Jun 2027 09:21:46.413             1.807           154.750
       255   09 Jun 2027 09:22:08.338   09 Jun 2027 09:22:09.938             1.600           666.906
       256   09 Jun 2027 09:23:23.822   09 Jun 2027 09:23:40.081            16.259          1747.406
       257   09 Jun 2027 09:24:08.004   09 Jun 2027 09:24:10.392             2.388           493.000
       258   09 Jun 2027 10:55:59.956   09 Jun 2027 10:56:14.273            14.317          4613.531
       259   09 Jun 2027 10:57:56.828   09 Jun 2027 10:57:59.190             2.362           315.406
       260   09 Jun 2027 10:58:38.438   09 Jun 2027 10:58:40.281             1.843            39.219
       261   09 Jun 2027 10:59:21.567   09 Jun 2027 10:59:24.611             3.044           878.719
       262   09 Jun 2027 11:00:16.155   09 Jun 2027 11:00:21.401             5.246           414.594
       263   10 Jun 2027 03:19:11.261   10 Jun 2027 03:19:46.271            35.010         17505.000
       264   10 Jun 2027 03:19:59.804   10 Jun 2027 03:22:28.697           148.893         74446.500
       265   10 Jun 2027 04:42:30.324   10 Jun 2027 04:43:19.071            48.747         24373.500
       266   10 Jun 2027 06:19:07.510   10 Jun 2027 06:20:36.387            88.877         41419.469
       267   10 Jun 2027 06:21:02.487   10 Jun 2027 06:21:03.801             1.314           421.625
       268   10 Jun 2027 06:22:11.785   10 Jun 2027 06:22:16.102             4.317          1915.500
       269   10 Jun 2027 07:54:17.472   10 Jun 2027 07:54:24.001             6.529          1887.375
       270   10 Jun 2027 07:55:37.612   10 Jun 2027 07:55:41.509             3.897          1939.844
       271   10 Jun 2027 07:55:43.196   10 Jun 2027 07:55:46.695             3.499            52.719
       272   10 Jun 2027 07:56:31.119   10 Jun 2027 07:56:33.189             2.070           461.625
       273   10 Jun 2027 07:57:09.395   10 Jun 2027 07:57:11.652             2.257            57.719
       274   10 Jun 2027 07:57:48.560   10 Jun 2027 07:57:54.727             6.167           793.344
       275   10 Jun 2027 07:59:24.551   10 Jun 2027 07:59:34.633            10.082          2166.563
       276   10 Jun 2027 08:00:32.729   10 Jun 2027 08:00:36.497             3.768          1624.937
       277   10 Jun 2027 09:30:34.789   10 Jun 2027 09:30:50.664            15.875          6315.844
       278   10 Jun 2027 09:32:51.094   10 Jun 2027 09:32:54.051             2.957           875.188
       279   10 Jun 2027 09:33:32.521   10 Jun 2027 09:33:33.246             0.725            22.781
       280   10 Jun 2027 09:33:35.943   10 Jun 2027 09:33:36.310             0.367            84.281
       281   10 Jun 2027 09:34:52.936   10 Jun 2027 09:34:57.051             4.115          1904.437
       282   10 Jun 2027 09:35:42.784   10 Jun 2027 09:35:45.724             2.940          1081.563
       283   10 Jun 2027 09:36:04.295   10 Jun 2027 09:36:05.981             1.686           555.250
       284   10 Jun 2027 11:08:06.865   10 Jun 2027 11:08:19.015            12.150          5340.062
       285   10 Jun 2027 11:09:33.969   10 Jun 2027 11:09:34.572             0.603            31.906
       286   10 Jun 2027 11:11:23.091   10 Jun 2027 11:11:25.578             2.487          1226.469
       287   10 Jun 2027 11:12:14.174   10 Jun 2027 11:12:17.919             3.745          1280.031
       288   11 Jun 2027 03:20:20.678   11 Jun 2027 03:20:31.524            10.846          5423.000
       289   11 Jun 2027 03:31:07.753   11 Jun 2027 03:33:56.011           168.258         84129.000
       290   11 Jun 2027 04:55:06.439   11 Jun 2027 04:55:57.942            51.503         25751.500
       291   11 Jun 2027 06:30:51.361   11 Jun 2027 06:32:07.094            75.733         37866.500
       292   11 Jun 2027 06:32:49.665   11 Jun 2027 06:32:57.770             8.105          2627.875
       293   11 Jun 2027 06:33:26.916   11 Jun 2027 06:33:26.916             0.000             0.000
       294   11 Jun 2027 06:34:13.547   11 Jun 2027 06:34:16.283             2.736          1368.000
       295   11 Jun 2027 06:34:49.827   11 Jun 2027 06:34:55.653             5.826          2048.281
       296   11 Jun 2027 08:05:44.326   11 Jun 2027 08:05:52.197             7.871          2014.125
       297   11 Jun 2027 08:06:18.439   11 Jun 2027 08:06:19.765             1.326           538.656
       298   11 Jun 2027 08:07:44.857   11 Jun 2027 08:07:44.857             0.000             0.000
       299   11 Jun 2027 08:07:58.377   11 Jun 2027 08:07:59.381             1.004           452.844
       300   11 Jun 2027 08:08:45.448   11 Jun 2027 08:08:48.144             2.696          1237.500
       301   11 Jun 2027 08:09:12.601   11 Jun 2027 08:09:14.803             2.202           448.844
       302   11 Jun 2027 08:10:18.971   11 Jun 2027 08:10:23.079             4.108           882.625
       303   11 Jun 2027 08:11:43.780   11 Jun 2027 08:11:46.486             2.706           621.750
       304   11 Jun 2027 08:12:29.460   11 Jun 2027 08:12:30.012             0.552            75.906
       305   11 Jun 2027 09:42:18.139   11 Jun 2027 09:42:30.807            12.668          5673.531
       306   11 Jun 2027 09:45:36.105   11 Jun 2027 09:45:38.095             1.990           908.875
       307   11 Jun 2027 09:46:37.461   11 Jun 2027 09:46:43.927             6.466          1460.000
       308   11 Jun 2027 09:47:12.462   11 Jun 2027 09:47:14.839             2.377           891.719
       309   11 Jun 2027 09:47:43.934   11 Jun 2027 09:47:51.600             7.666           719.375
       310   11 Jun 2027 11:20:35.532   11 Jun 2027 11:20:52.281            16.749          6889.656
       311   11 Jun 2027 11:21:29.489   11 Jun 2027 11:21:30.754             1.265           552.969
       312   11 Jun 2027 11:23:13.482   11 Jun 2027 11:23:14.366             0.884            36.719
       313   11 Jun 2027 11:23:58.350   11 Jun 2027 11:24:06.950             8.600           313.156
       314   11 Jun 2027 11:24:14.561   11 Jun 2027 11:24:16.911             2.350           237.844
       315   12 Jun 2027 03:31:38.244   12 Jun 2027 03:31:40.011             1.767           883.500
       316   12 Jun 2027 03:32:13.921   12 Jun 2027 03:32:20.765             6.844          3422.000
       317   12 Jun 2027 03:43:04.760   12 Jun 2027 03:44:44.433            99.673         49836.500
       318   12 Jun 2027 05:05:43.362   12 Jun 2027 05:06:43.167            59.805         29902.500
       319   12 Jun 2027 05:07:03.086   12 Jun 2027 05:07:57.563            54.477         27238.500
       320   12 Jun 2027 05:09:48.013   12 Jun 2027 05:09:53.727             5.714          2857.000
       321   12 Jun 2027 06:41:05.612   12 Jun 2027 06:42:01.876            56.264         28132.000
       322   12 Jun 2027 06:42:36.807   12 Jun 2027 06:43:06.716            29.909         13988.906
       323   12 Jun 2027 06:43:39.767   12 Jun 2027 06:43:44.334             4.567           279.500
       324   12 Jun 2027 06:43:49.576   12 Jun 2027 06:43:52.095             2.519            30.406
       325   12 Jun 2027 06:45:14.829   12 Jun 2027 06:45:20.880             6.051          2089.906
       326   12 Jun 2027 06:46:15.234   12 Jun 2027 06:46:19.027             3.793          1698.563
       327   12 Jun 2027 06:46:59.192   12 Jun 2027 06:46:59.573             0.381           190.500
       328   12 Jun 2027 08:17:32.603   12 Jun 2027 08:17:43.190            10.587          2246.219
       329   12 Jun 2027 08:18:32.742   12 Jun 2027 08:18:37.898             5.156           906.094
       330   12 Jun 2027 08:20:08.906   12 Jun 2027 08:20:11.530             2.624           710.156
       331   12 Jun 2027 08:20:49.266   12 Jun 2027 08:20:51.356             2.090           331.594
       332   12 Jun 2027 08:21:02.920   12 Jun 2027 08:21:02.920             0.000             0.000
       333   12 Jun 2027 08:21:52.609   12 Jun 2027 08:22:01.784             9.175          1753.313
       334   12 Jun 2027 08:23:22.488   12 Jun 2027 08:23:26.084             3.596          1786.094
       335   12 Jun 2027 08:24:16.198   12 Jun 2027 08:24:18.537             2.339           922.188
       336   12 Jun 2027 09:54:39.343   12 Jun 2027 09:54:53.957            14.614          7138.875
       337   12 Jun 2027 09:57:41.679   12 Jun 2027 09:57:44.951             3.272          1435.719
       338   12 Jun 2027 09:58:41.501   12 Jun 2027 09:58:46.745             5.244          1088.531
       339   12 Jun 2027 09:59:15.982   12 Jun 2027 09:59:21.656             5.674           428.219
       340   12 Jun 2027 10:00:31.395   12 Jun 2027 10:00:36.675             5.280          2078.875
       341   12 Jun 2027 10:00:54.532   12 Jun 2027 10:00:54.739             0.207            53.563
       342   12 Jun 2027 11:32:33.325   12 Jun 2027 11:32:47.495            14.170          6264.500
       343   12 Jun 2027 11:33:04.794   12 Jun 2027 11:33:05.158             0.364           159.281
       344   12 Jun 2027 11:34:00.486   12 Jun 2027 11:34:04.150             3.664          1021.156
       345   12 Jun 2027 11:34:55.343   12 Jun 2027 11:34:56.749             1.406           517.000
       346   12 Jun 2027 11:35:40.940   12 Jun 2027 11:35:45.241             4.301           899.156
       347   12 Jun 2027 11:36:02.395   12 Jun 2027 11:36:04.368             1.973           254.156
       348   12 Jun 2027 11:36:28.927   12 Jun 2027 11:36:32.047             3.120           679.687
       349   13 Jun 2027 03:42:52.597   13 Jun 2027 03:42:53.948             1.351           675.500
       350   13 Jun 2027 03:44:08.575   13 Jun 2027 03:44:21.090            12.515          6257.500
       351   13 Jun 2027 03:44:58.447   13 Jun 2027 03:44:58.447             0.000             0.000
       352   13 Jun 2027 03:55:04.699   13 Jun 2027 03:56:05.724            61.025         30512.500
       353   13 Jun 2027 05:17:20.924   13 Jun 2027 05:18:27.442            66.518         33259.000
       354   13 Jun 2027 05:19:15.867   13 Jun 2027 05:20:14.910            59.043         29521.500
       355   13 Jun 2027 06:52:14.969   13 Jun 2027 06:54:09.810           114.841         57387.125
       356   13 Jun 2027 06:54:39.592   13 Jun 2027 06:54:40.914             1.322           409.000
       357   13 Jun 2027 06:55:05.257   13 Jun 2027 06:55:05.257             0.000             0.000
       358   13 Jun 2027 06:56:08.491   13 Jun 2027 06:56:15.760             7.269          2729.812
       359   13 Jun 2027 06:57:31.296   13 Jun 2027 06:57:38.450             7.154          2305.125
       360   13 Jun 2027 06:58:46.214   13 Jun 2027 06:58:50.079             3.865          1688.656
       361   13 Jun 2027 06:58:51.773   13 Jun 2027 06:58:52.654             0.881            41.938
       362   13 Jun 2027 07:00:16.774   13 Jun 2027 07:00:22.080             5.306          1618.000
       363   13 Jun 2027 08:29:47.598   13 Jun 2027 08:29:53.040             5.442          1770.594
       364   13 Jun 2027 08:30:35.664   13 Jun 2027 08:30:41.829             6.165           925.094
       365   13 Jun 2027 08:31:08.657   13 Jun 2027 08:31:10.887             2.230           803.844
       366   13 Jun 2027 08:31:51.290   13 Jun 2027 08:31:53.283             1.993           237.937
       367   13 Jun 2027 08:32:48.008   13 Jun 2027 08:32:48.824             0.816           171.063
       368   13 Jun 2027 08:33:54.163   13 Jun 2027 08:33:59.594             5.431           949.906
       369   13 Jun 2027 08:34:14.080   13 Jun 2027 08:34:16.681             2.601           345.594
       370   13 Jun 2027 08:35:20.211   13 Jun 2027 08:35:24.382             4.171          1431.531
       371   13 Jun 2027 08:36:10.765   13 Jun 2027 08:36:18.356             7.591          1403.969
       372   13 Jun 2027 08:37:00.948   13 Jun 2027 08:37:02.063             1.115           339.250
       373   13 Jun 2027 10:06:30.573   13 Jun 2027 10:06:40.955            10.382          4879.812
       374   13 Jun 2027 10:09:01.865   13 Jun 2027 10:09:04.452             2.587           153.500
       375   13 Jun 2027 10:09:19.722   13 Jun 2027 10:09:24.308             4.586           252.938
       376   13 Jun 2027 10:09:45.219   13 Jun 2027 10:09:47.154             1.935           630.125
       377   13 Jun 2027 10:10:19.408   13 Jun 2027 10:10:20.647             1.239           222.937
       378   13 Jun 2027 10:10:52.422   13 Jun 2027 10:10:55.571             3.149           843.719
       379   13 Jun 2027 10:11:21.798   13 Jun 2027 10:11:23.302             1.504           559.406
       380   13 Jun 2027 10:11:48.360   13 Jun 2027 10:11:55.015             6.655            84.844
       381   13 Jun 2027 10:12:23.607   13 Jun 2027 10:12:26.828             3.221           680.250
       382   13 Jun 2027 10:12:58.331   13 Jun 2027 10:13:03.430             5.099           777.156
       383   13 Jun 2027 11:44:33.402   13 Jun 2027 11:44:43.671            10.269          5130.813
       384   13 Jun 2027 11:46:24.771   13 Jun 2027 11:46:31.056             6.285          2230.000
       385   13 Jun 2027 11:46:43.964   13 Jun 2027 11:46:45.447             1.483           209.313
       386   13 Jun 2027 11:47:12.164   13 Jun 2027 11:47:14.575             2.411           814.063
       387   13 Jun 2027 11:47:57.183   13 Jun 2027 11:47:59.869             2.686           813.562
       388   13 Jun 2027 11:48:30.095   13 Jun 2027 11:48:39.853             9.758           876.063
