uniorb/output/strategy_4/Camera/Camera_KinoSat_111405.txt

KinoSat_111405
-------------------------
    Access    *     Start Time (UTCG)     *     Stop Time (UTCG)  *   Duration (s) *   Data (Mbytes)
         1   01 Jun 2027 03:23:20.329   01 Jun 2027 03:25:31.094           130.765         65382.500
         2   01 Jun 2027 03:25:48.387   01 Jun 2027 03:25:57.846             9.459          4729.500
         3   01 Jun 2027 03:28:45.893   01 Jun 2027 03:29:04.518            18.625          9312.500
         4   01 Jun 2027 03:30:09.461   01 Jun 2027 03:30:16.614             7.153          3576.500
         5   01 Jun 2027 04:48:35.156   01 Jun 2027 04:48:57.847            22.691         11345.500
         6   01 Jun 2027 04:49:32.374   01 Jun 2027 04:49:50.732            18.358          9179.000
         7   01 Jun 2027 05:00:04.074   01 Jun 2027 05:00:46.336            42.262         21131.000
         8   01 Jun 2027 05:01:30.918   01 Jun 2027 05:01:31.169             0.251           125.500
         9   01 Jun 2027 06:22:43.330   01 Jun 2027 06:23:42.326            58.996         29498.000
        10   01 Jun 2027 06:24:19.086   01 Jun 2027 06:24:43.372            24.286         12143.000
        11   01 Jun 2027 07:58:03.089   01 Jun 2027 07:59:02.105            59.016         29508.000
        12   01 Jun 2027 07:59:35.243   01 Jun 2027 08:00:47.551            72.308         36154.000
        13   01 Jun 2027 08:02:12.513   01 Jun 2027 08:02:31.093            18.580          9290.000
        14   01 Jun 2027 09:34:33.635   01 Jun 2027 09:36:16.333           102.698         51349.000
        15   01 Jun 2027 09:38:03.363   01 Jun 2027 09:38:13.984            10.621          5310.500
        16   01 Jun 2027 09:40:28.386   01 Jun 2027 09:41:39.027            70.641         35320.500
        17   01 Jun 2027 11:11:38.134   01 Jun 2027 11:14:15.745           157.611         78805.500
        18   01 Jun 2027 11:14:26.988   01 Jun 2027 11:14:26.988             0.000             0.000
        19   01 Jun 2027 11:17:07.629   01 Jun 2027 11:17:12.389             4.760          2380.000
        20   02 Jun 2027 03:35:34.220   02 Jun 2027 03:36:58.378            84.158         42079.000
        21   02 Jun 2027 03:37:36.983   02 Jun 2027 03:38:39.034            62.051         31025.500
        22   02 Jun 2027 03:38:55.309   02 Jun 2027 03:39:05.478            10.169          5084.500
        23   02 Jun 2027 03:39:38.166   02 Jun 2027 03:39:43.309             5.143          2571.500
        24   02 Jun 2027 03:40:49.072   02 Jun 2027 03:40:49.643             0.571           285.500
        25   02 Jun 2027 03:41:31.133   02 Jun 2027 03:41:43.257            12.124          6062.000
        26   02 Jun 2027 03:42:23.638   02 Jun 2027 03:42:24.898             1.260           630.000
        27   02 Jun 2027 04:59:50.995   02 Jun 2027 05:00:32.905            41.910         20955.000
        28   02 Jun 2027 05:01:53.516   02 Jun 2027 05:01:53.516             0.000             0.000
        29   02 Jun 2027 05:12:03.308   02 Jun 2027 05:13:01.893            58.585         29292.500
        30   02 Jun 2027 06:34:19.290   02 Jun 2027 06:35:25.922            66.632         33316.000
        31   02 Jun 2027 06:36:14.900   02 Jun 2027 06:38:00.349           105.449         52724.500
        32   02 Jun 2027 08:09:12.754   02 Jun 2027 08:11:16.011           123.257         61628.500
        33   02 Jun 2027 08:11:22.492   02 Jun 2027 08:12:19.823            57.331         28665.500
        34   02 Jun 2027 08:12:59.401   02 Jun 2027 08:13:11.137            11.736          5868.000
        35   02 Jun 2027 09:46:46.718   02 Jun 2027 09:47:46.375            59.657         29440.563
        36   02 Jun 2027 09:48:47.533   02 Jun 2027 09:48:51.567             4.034           140.781
        37   02 Jun 2027 09:49:10.320   02 Jun 2027 09:49:12.147             1.827           586.031
        38   02 Jun 2027 09:50:35.921   02 Jun 2027 09:50:39.717             3.796          1393.844
        39   02 Jun 2027 09:52:26.027   02 Jun 2027 09:52:34.373             8.346          3322.188
        40   02 Jun 2027 09:53:05.121   02 Jun 2027 09:53:07.277             2.156            29.000
        41   02 Jun 2027 09:53:31.493   02 Jun 2027 09:53:36.786             5.293           706.594
        42   02 Jun 2027 09:53:44.750   02 Jun 2027 09:53:45.777             1.027           119.438
        43   02 Jun 2027 11:23:29.345   02 Jun 2027 11:23:40.402            11.057          5146.594
        44   02 Jun 2027 11:24:36.876   02 Jun 2027 11:24:40.096             3.220           112.344
        45   02 Jun 2027 11:26:13.895   02 Jun 2027 11:26:16.159             2.264           834.469
        46   02 Jun 2027 11:27:03.178   02 Jun 2027 11:27:10.416             7.238          1469.344
        47   02 Jun 2027 11:27:29.027   02 Jun 2027 11:27:31.669             2.642           193.125
        48   02 Jun 2027 11:27:57.893   02 Jun 2027 11:27:59.648             1.755           785.219
        49   02 Jun 2027 11:29:14.501   02 Jun 2027 11:29:23.735             9.234          2339.156
        50   02 Jun 2027 11:29:47.724   02 Jun 2027 11:29:48.685             0.961           367.281
        51   02 Jun 2027 11:30:04.056   02 Jun 2027 11:30:07.000             2.944           443.656
        52   03 Jun 2027 03:47:38.991   03 Jun 2027 03:49:09.444            90.453         45226.500
        53   03 Jun 2027 03:49:43.896   03 Jun 2027 03:50:30.576            46.680         23340.000
        54   03 Jun 2027 03:50:42.317   03 Jun 2027 03:51:39.752            57.435         28717.500
        55   03 Jun 2027 05:11:56.789   03 Jun 2027 05:12:35.840            39.051         19525.500
        56   03 Jun 2027 05:24:18.779   03 Jun 2027 05:24:36.378            17.599          8799.500
        57   03 Jun 2027 06:45:48.415   03 Jun 2027 06:47:02.931            74.516         36775.656
        58   03 Jun 2027 06:47:48.827   03 Jun 2027 06:47:51.470             2.643           551.344
        59   03 Jun 2027 06:48:02.656   03 Jun 2027 06:48:05.679             3.023           349.562
        60   03 Jun 2027 06:48:21.985   03 Jun 2027 06:48:22.814             0.829           209.000
        61   03 Jun 2027 06:48:46.827   03 Jun 2027 06:48:46.827             0.000             0.000
        62   03 Jun 2027 06:49:19.212   03 Jun 2027 06:49:22.707             3.495          1688.188
        63   03 Jun 2027 06:49:53.035   03 Jun 2027 06:49:54.808             1.773           273.063
        64   03 Jun 2027 06:50:31.740   03 Jun 2027 06:50:32.443             0.703           267.188
        65   03 Jun 2027 06:50:42.047   03 Jun 2027 06:50:42.047             0.000             0.000
        66   03 Jun 2027 06:51:07.370   03 Jun 2027 06:51:07.375             0.005             2.500
        67   03 Jun 2027 06:51:44.776   03 Jun 2027 06:51:49.251             4.475          2237.500
        68   03 Jun 2027 08:20:43.422   03 Jun 2027 08:20:48.816             5.394          1186.000
        69   03 Jun 2027 08:21:38.768   03 Jun 2027 08:21:41.084             2.316          1137.250
        70   03 Jun 2027 08:23:18.818   03 Jun 2027 08:23:22.022             3.204           759.813
        71   03 Jun 2027 08:24:10.046   03 Jun 2027 08:24:16.317             6.271           771.406
        72   03 Jun 2027 08:26:26.296   03 Jun 2027 08:26:32.489             6.193          2341.219
        73   03 Jun 2027 08:27:36.434   03 Jun 2027 08:27:40.169             3.735          1758.156
        74   03 Jun 2027 08:27:52.183   03 Jun 2027 08:27:53.054             0.871           214.875
        75   03 Jun 2027 08:28:05.723   03 Jun 2027 08:28:06.130             0.407           129.438
        76   03 Jun 2027 08:28:44.850   03 Jun 2027 08:28:47.298             2.448          1210.000
        77   03 Jun 2027 08:29:11.975   03 Jun 2027 08:29:12.999             1.024            20.938
        78   03 Jun 2027 09:58:40.793   03 Jun 2027 09:58:55.085            14.292          5519.687
        79   03 Jun 2027 10:00:59.286   03 Jun 2027 10:01:05.402             6.116           874.469
        80   03 Jun 2027 10:01:41.306   03 Jun 2027 10:01:42.587             1.281           260.094
        81   03 Jun 2027 10:02:20.556   03 Jun 2027 10:02:22.934             2.378            77.312
        82   03 Jun 2027 10:03:16.857   03 Jun 2027 10:03:20.055             3.198          1116.656
        83   03 Jun 2027 10:03:40.730   03 Jun 2027 10:03:41.095             0.365            97.344
        84   03 Jun 2027 10:04:22.546   03 Jun 2027 10:04:26.175             3.629          1267.406
        85   03 Jun 2027 10:05:17.606   03 Jun 2027 10:05:21.169             3.563          1187.469
        86   03 Jun 2027 10:05:23.219   03 Jun 2027 10:05:24.215             0.996            64.063
        87   03 Jun 2027 10:05:53.907   03 Jun 2027 10:05:55.847             1.940           538.187
        88   03 Jun 2027 11:35:35.419   03 Jun 2027 11:35:48.567            13.148          6269.469
        89   03 Jun 2027 11:37:09.054   03 Jun 2027 11:37:12.546             3.492           429.062
        90   03 Jun 2027 11:38:17.765   03 Jun 2027 11:38:19.571             1.806           818.438
        91   03 Jun 2027 11:39:12.893   03 Jun 2027 11:39:15.091             2.198          1001.250
        92   03 Jun 2027 11:39:36.396   03 Jun 2027 11:39:38.908             2.512           639.469
        93   03 Jun 2027 11:41:17.046   03 Jun 2027 11:41:24.123             7.077          2310.469
        94   03 Jun 2027 11:41:49.312   03 Jun 2027 11:41:52.418             3.106           564.656
        95   04 Jun 2027 04:00:04.202   04 Jun 2027 04:03:32.977           208.775        104387.500
        96   04 Jun 2027 04:04:59.862   04 Jun 2027 04:05:03.925             4.063          2031.500
        97   04 Jun 2027 05:23:52.664   04 Jun 2027 05:24:17.346            24.682         12341.000
        98   04 Jun 2027 06:59:52.536   04 Jun 2027 07:01:11.650            79.114         38735.969
        99   04 Jun 2027 07:02:00.982   04 Jun 2027 07:02:03.226             2.244          1122.000
       100   04 Jun 2027 07:02:18.989   04 Jun 2027 07:02:21.200             2.211           678.813
       101   04 Jun 2027 07:02:34.961   04 Jun 2027 07:02:36.267             1.306           121.656
       102   04 Jun 2027 07:02:44.455   04 Jun 2027 07:02:45.692             1.237           108.406
       103   04 Jun 2027 08:33:36.905   04 Jun 2027 08:33:42.183             5.278          2421.344
       104   04 Jun 2027 08:35:17.738   04 Jun 2027 08:35:19.670             1.932           705.563
       105   04 Jun 2027 08:36:58.196   04 Jun 2027 08:37:09.654            11.458          1857.656
       106   04 Jun 2027 08:38:17.545   04 Jun 2027 08:38:17.545             0.000             0.000
       107   04 Jun 2027 08:39:05.398   04 Jun 2027 08:39:12.730             7.332          3571.344
       108   04 Jun 2027 08:39:35.322   04 Jun 2027 08:39:37.267             1.945           140.344
       109   04 Jun 2027 08:40:38.787   04 Jun 2027 08:40:45.335             6.548           749.188
       110   04 Jun 2027 08:41:31.965   04 Jun 2027 08:41:34.842             2.877          1429.563
       111   04 Jun 2027 10:11:02.034   04 Jun 2027 10:11:17.942            15.908          5483.844
       112   04 Jun 2027 10:12:43.077   04 Jun 2027 10:12:44.502             1.425           557.375
       113   04 Jun 2027 10:14:42.110   04 Jun 2027 10:14:49.669             7.559          2480.438
       114   04 Jun 2027 10:16:03.840   04 Jun 2027 10:16:11.750             7.910          2160.219
       115   04 Jun 2027 10:16:14.882   04 Jun 2027 10:16:17.660             2.778            96.844
       116   04 Jun 2027 10:17:31.759   04 Jun 2027 10:17:34.840             3.081          1045.063
       117   04 Jun 2027 10:17:42.460   04 Jun 2027 10:17:42.756             0.296           145.844
       118   04 Jun 2027 11:48:05.658   04 Jun 2027 11:48:22.483            16.825          6738.187
       119   04 Jun 2027 11:50:10.563   04 Jun 2027 11:50:17.121             6.558          1804.156
       120   04 Jun 2027 11:50:17.604   04 Jun 2027 11:50:20.550             2.946            15.094
       121   04 Jun 2027 11:50:56.317   04 Jun 2027 11:50:57.811             1.494           123.375
       122   04 Jun 2027 11:51:22.017   04 Jun 2027 11:51:23.415             1.398           477.781
       123   04 Jun 2027 11:52:09.075   04 Jun 2027 11:52:15.753             6.678          1020.156
       124   04 Jun 2027 11:53:29.153   04 Jun 2027 11:53:35.092             5.939          2057.531
       125   04 Jun 2027 11:53:37.841   04 Jun 2027 11:53:39.356             1.515            85.906
       126   05 Jun 2027 04:12:22.716   05 Jun 2027 04:15:43.680           200.964        100482.000
       127   05 Jun 2027 05:35:44.272   05 Jun 2027 05:36:40.395            56.123         28061.500
       128   05 Jun 2027 07:12:07.069   05 Jun 2027 07:13:22.053            74.984         36616.063
       129   05 Jun 2027 07:13:32.956   05 Jun 2027 07:13:37.232             4.276           318.875
       130   05 Jun 2027 07:14:07.051   05 Jun 2027 07:14:09.150             2.099           895.656
       131   05 Jun 2027 07:15:00.655   05 Jun 2027 07:15:03.374             2.719          1359.500
       132   05 Jun 2027 08:46:11.367   05 Jun 2027 08:46:17.122             5.755          2706.531
       133   05 Jun 2027 08:47:49.643   05 Jun 2027 08:47:53.132             3.489          1698.187
       134   05 Jun 2027 08:48:04.888   05 Jun 2027 08:48:06.288             1.400           362.937
       135   05 Jun 2027 08:49:00.099   05 Jun 2027 08:49:08.775             8.676          1296.969
       136   05 Jun 2027 08:49:36.393   05 Jun 2027 08:49:39.265             2.872           268.344
       137   05 Jun 2027 08:51:06.540   05 Jun 2027 08:51:10.784             4.244          1919.156
       138   05 Jun 2027 08:51:27.550   05 Jun 2027 08:51:29.721             2.171           180.344
       139   05 Jun 2027 08:52:19.780   05 Jun 2027 08:52:22.479             2.699           287.312
       140   05 Jun 2027 08:52:49.385   05 Jun 2027 08:52:51.200             1.815           646.875
       141   05 Jun 2027 08:53:23.015   05 Jun 2027 08:53:26.094             3.079           858.156
       142   05 Jun 2027 08:54:00.945   05 Jun 2027 08:54:02.271             1.326           485.281
       143   05 Jun 2027 10:23:15.473   05 Jun 2027 10:23:25.435             9.962          4729.719
       144   05 Jun 2027 10:26:01.208   05 Jun 2027 10:26:01.378             0.170            64.000
       145   05 Jun 2027 10:26:19.831   05 Jun 2027 10:26:26.571             6.740           576.656
       146   05 Jun 2027 10:26:51.033   05 Jun 2027 10:26:52.708             1.675           623.937
       147   05 Jun 2027 10:28:01.124   05 Jun 2027 10:28:06.296             5.172          2036.531
       148   05 Jun 2027 10:28:31.503   05 Jun 2027 10:28:34.014             2.511           310.125
       149   05 Jun 2027 10:29:26.345   05 Jun 2027 10:29:28.676             2.331           246.688
       150   05 Jun 2027 10:29:42.771   05 Jun 2027 10:29:45.425             2.654            12.062
       151   05 Jun 2027 10:29:49.979   05 Jun 2027 10:29:50.692             0.713           100.594
       152   06 Jun 2027 04:25:15.584   06 Jun 2027 04:27:45.626           150.042         75021.000
       153   06 Jun 2027 05:47:48.733   06 Jun 2027 05:48:44.109            55.376         27688.000
       154   06 Jun 2027 07:24:17.710   06 Jun 2027 07:26:03.400           105.690         51513.062
       155   06 Jun 2027 07:26:41.681   06 Jun 2027 07:26:47.691             6.010          1015.813
       156   06 Jun 2027 08:59:23.223   06 Jun 2027 08:59:31.988             8.765          2945.875
       157   06 Jun 2027 09:00:32.367   06 Jun 2027 09:00:37.894             5.527          1134.094
       158   06 Jun 2027 09:01:01.675   06 Jun 2027 09:01:06.110             4.435           669.687
       159   06 Jun 2027 09:02:31.390   06 Jun 2027 09:02:35.796             4.406          1419.031
       160   06 Jun 2027 09:03:02.848   06 Jun 2027 09:03:06.414             3.566           431.625
       161   06 Jun 2027 09:04:47.675   06 Jun 2027 09:04:55.787             8.112          2531.844
       162   06 Jun 2027 09:06:01.544   06 Jun 2027 09:06:06.224             4.680          1094.187
       163   06 Jun 2027 10:35:45.442   06 Jun 2027 10:35:57.279            11.837          5889.844
       164   06 Jun 2027 10:37:38.791   06 Jun 2027 10:37:44.921             6.130           692.406
       165   06 Jun 2027 10:37:54.237   06 Jun 2027 10:37:54.917             0.680           291.125
       166   06 Jun 2027 10:37:59.903   06 Jun 2027 10:38:00.908             1.005           155.813
       167   06 Jun 2027 10:38:48.086   06 Jun 2027 10:38:49.181             1.095           539.750
       168   06 Jun 2027 10:39:49.655   06 Jun 2027 10:39:54.448             4.793           960.406
       169   06 Jun 2027 10:40:37.390   06 Jun 2027 10:40:44.394             7.004           867.531
       170   06 Jun 2027 10:40:50.374   06 Jun 2027 10:40:51.620             1.246           186.875
       171   06 Jun 2027 10:41:27.274   06 Jun 2027 10:41:28.816             1.542           704.438
       172   06 Jun 2027 10:41:35.038   06 Jun 2027 10:41:38.951             3.913           194.437
       173   06 Jun 2027 10:41:45.046   06 Jun 2027 10:41:46.930             1.884            33.656
       174   06 Jun 2027 10:41:52.255   06 Jun 2027 10:41:53.404             1.149             9.344
       175   07 Jun 2027 03:00:06.337   07 Jun 2027 03:00:29.175            22.838         11419.000
       176   07 Jun 2027 03:01:21.090   07 Jun 2027 03:01:27.426             6.336          3168.000
       177   07 Jun 2027 03:01:28.459   07 Jun 2027 03:01:31.261             2.802          1401.000
       178   07 Jun 2027 03:03:18.050   07 Jun 2027 03:03:39.581            21.531         10765.500
       179   07 Jun 2027 03:04:09.830   07 Jun 2027 03:04:17.306             7.476          3738.000
       180   07 Jun 2027 04:36:24.583   07 Jun 2027 04:37:02.283            37.700         18850.000
       181   07 Jun 2027 04:37:14.707   07 Jun 2027 04:39:31.532           136.825         68412.500
       182   07 Jun 2027 04:39:54.069   07 Jun 2027 04:39:59.962             5.893          2946.500
       183   07 Jun 2027 05:59:53.342   07 Jun 2027 06:00:46.599            53.257         26628.500
       184   07 Jun 2027 06:02:39.519   07 Jun 2027 06:02:40.311             0.792           396.000
       185   07 Jun 2027 07:36:22.244   07 Jun 2027 07:36:57.251            35.007         17131.532
       186   07 Jun 2027 07:37:49.845   07 Jun 2027 07:37:49.845             0.000             0.000
       187   07 Jun 2027 07:37:51.447   07 Jun 2027 07:37:53.396             1.949           801.344
       188   07 Jun 2027 07:38:13.457   07 Jun 2027 07:38:14.787             1.330           390.125
       189   07 Jun 2027 07:38:57.499   07 Jun 2027 07:38:58.710             1.211           605.500
       190   07 Jun 2027 07:39:14.999   07 Jun 2027 07:39:19.317             4.318          1039.625
       191   07 Jun 2027 09:11:32.633   07 Jun 2027 09:11:40.336             7.703          3812.125
       192   07 Jun 2027 09:13:18.299   07 Jun 2027 09:13:21.010             2.711           482.562
       193   07 Jun 2027 09:14:27.855   07 Jun 2027 09:14:30.150             2.295           918.937
       194   07 Jun 2027 09:14:51.620   07 Jun 2027 09:14:53.126             1.506           537.281
       195   07 Jun 2027 09:15:40.606   07 Jun 2027 09:15:43.106             2.500          1058.937
       196   07 Jun 2027 09:16:51.495   07 Jun 2027 09:16:55.015             3.520          1067.563
       197   07 Jun 2027 09:17:31.107   07 Jun 2027 09:17:33.047             1.940           860.656
       198   07 Jun 2027 10:47:45.608   07 Jun 2027 10:47:57.469            11.861          5469.719
       199   07 Jun 2027 10:49:19.529   07 Jun 2027 10:49:36.156            16.627           501.750
       200   07 Jun 2027 10:49:42.668   07 Jun 2027 10:49:46.321             3.653           138.281
       201   07 Jun 2027 10:49:57.862   07 Jun 2027 10:50:00.588             2.726           360.656
       202   07 Jun 2027 10:50:13.538   07 Jun 2027 10:50:15.658             2.120            66.469
       203   07 Jun 2027 10:50:27.809   07 Jun 2027 10:50:32.100             4.291            42.875
       204   07 Jun 2027 10:51:05.837   07 Jun 2027 10:51:08.454             2.617          1037.094
       205   07 Jun 2027 10:51:51.107   07 Jun 2027 10:51:54.725             3.618          1332.906
       206   07 Jun 2027 10:52:53.691   07 Jun 2027 10:53:01.549             7.858          1841.969
       207   07 Jun 2027 10:53:09.963   07 Jun 2027 10:53:11.943             1.980           116.719
       208   07 Jun 2027 10:53:46.030   07 Jun 2027 10:53:48.716             2.686           832.656
       209   08 Jun 2027 03:11:16.238   08 Jun 2027 03:12:41.725            85.487         42743.500
       210   08 Jun 2027 03:13:37.430   08 Jun 2027 03:13:43.701             6.271          3135.500
       211   08 Jun 2027 03:14:17.167   08 Jun 2027 03:14:21.983             4.816          2408.000
       212   08 Jun 2027 03:14:51.771   08 Jun 2027 03:15:01.207             9.436          4718.000
       213   08 Jun 2027 03:15:10.189   08 Jun 2027 03:15:21.221            11.032          5516.000
       214   08 Jun 2027 03:17:55.042   08 Jun 2027 03:18:35.218            40.176         20088.000
       215   08 Jun 2027 04:37:32.611   08 Jun 2027 04:37:49.871            17.260          8630.000
       216   08 Jun 2027 04:48:22.117   08 Jun 2027 04:50:48.753           146.636         70246.219
       217   08 Jun 2027 04:51:16.700   08 Jun 2027 04:51:18.992             2.292           479.594
       218   08 Jun 2027 06:12:20.216   08 Jun 2027 06:12:36.329            16.113          7939.000
       219   08 Jun 2027 06:14:25.661   08 Jun 2027 06:14:32.192             6.531          3023.750
       220   08 Jun 2027 07:48:06.515   08 Jun 2027 07:48:14.844             8.329          1437.187
       221   08 Jun 2027 07:49:05.780   08 Jun 2027 07:49:12.687             6.907           815.313
       222   08 Jun 2027 07:49:44.399   08 Jun 2027 07:49:49.932             5.533           991.000
       223   08 Jun 2027 07:50:36.136   08 Jun 2027 07:50:39.659             3.523          1442.062
       224   08 Jun 2027 07:50:51.469   08 Jun 2027 07:50:55.940             4.471            92.656
       225   08 Jun 2027 07:51:16.906   08 Jun 2027 07:51:18.288             1.382           655.188
       226   08 Jun 2027 09:22:52.721   08 Jun 2027 09:23:02.936            10.215          3372.688
       227   08 Jun 2027 09:23:35.988   08 Jun 2027 09:23:36.626             0.638           256.000
       228   08 Jun 2027 09:26:17.598   08 Jun 2027 09:26:22.585             4.987          2365.562
       229   08 Jun 2027 09:26:53.960   08 Jun 2027 09:26:53.960             0.000             0.000
       230   08 Jun 2027 09:27:32.327   08 Jun 2027 09:27:36.755             4.428          2168.594
       231   08 Jun 2027 09:28:19.539   08 Jun 2027 09:28:21.513             1.974           780.594
       232   08 Jun 2027 09:28:26.177   08 Jun 2027 09:28:27.873             1.696           145.750
       233   08 Jun 2027 09:28:57.487   08 Jun 2027 09:29:04.816             7.329           925.438
       234   08 Jun 2027 10:59:33.339   08 Jun 2027 10:59:44.789            11.450          5318.938
       235   08 Jun 2027 11:01:28.104   08 Jun 2027 11:01:33.716             5.612           257.000
       236   08 Jun 2027 11:01:47.473   08 Jun 2027 11:01:50.036             2.563           392.063
       237   08 Jun 2027 11:03:46.787   08 Jun 2027 11:03:49.130             2.343           502.656
       238   08 Jun 2027 11:04:31.882   08 Jun 2027 11:04:34.568             2.686           348.438
       239   08 Jun 2027 11:04:45.349   08 Jun 2027 11:04:51.090             5.741           287.125
       240   08 Jun 2027 11:05:47.882   08 Jun 2027 11:05:51.994             4.112          1774.750
       241   08 Jun 2027 11:05:53.556   08 Jun 2027 11:05:53.832             0.276            48.813
       242   09 Jun 2027 03:23:36.761   09 Jun 2027 03:25:51.751           134.990         67495.000
       243   09 Jun 2027 03:26:19.191   09 Jun 2027 03:27:20.363            61.172         30586.000
       244   09 Jun 2027 03:28:03.431   09 Jun 2027 03:28:21.423            17.992          8996.000
       245   09 Jun 2027 03:30:26.526   09 Jun 2027 03:30:31.442             4.916          2458.000
       246   09 Jun 2027 04:48:48.711   09 Jun 2027 04:49:13.895            25.184         12592.000
       247   09 Jun 2027 05:00:20.562   09 Jun 2027 05:01:49.662            89.100         44228.219
       248   09 Jun 2027 06:22:59.362   09 Jun 2027 06:23:04.894             5.532          2766.000
       249   09 Jun 2027 06:23:31.505   09 Jun 2027 06:23:35.867             4.362          1907.219
       250   09 Jun 2027 06:24:35.026   09 Jun 2027 06:24:37.373             2.347           944.844
       251   09 Jun 2027 06:26:42.075   09 Jun 2027 06:26:44.092             2.017          1008.500
       252   09 Jun 2027 06:26:53.459   09 Jun 2027 06:27:01.177             7.718          2856.062
       253   09 Jun 2027 07:58:11.277   09 Jun 2027 07:58:21.654            10.377          3589.250
       254   09 Jun 2027 07:59:08.919   09 Jun 2027 07:59:12.753             3.834          1477.031
       255   09 Jun 2027 08:00:01.316   09 Jun 2027 08:00:06.940             5.624          1334.750
       256   09 Jun 2027 08:01:27.980   09 Jun 2027 08:01:35.045             7.065          2448.594
       257   09 Jun 2027 08:01:41.426   09 Jun 2027 08:01:41.426             0.000             0.000
       258   09 Jun 2027 08:02:51.879   09 Jun 2027 08:02:57.444             5.565          2401.063
       259   09 Jun 2027 08:03:47.937   09 Jun 2027 08:03:52.686             4.749          1414.281
       260   09 Jun 2027 08:04:11.099   09 Jun 2027 08:04:13.578             2.479           440.531
       261   09 Jun 2027 09:34:51.814   09 Jun 2027 09:34:58.841             7.027          2617.312
       262   09 Jun 2027 09:37:03.815   09 Jun 2027 09:37:20.400            16.585          2738.281
       263   09 Jun 2027 09:38:32.680   09 Jun 2027 09:38:35.918             3.238           513.563
       264   09 Jun 2027 09:39:24.525   09 Jun 2027 09:39:27.482             2.957           890.562
       265   09 Jun 2027 09:40:45.389   09 Jun 2027 09:40:50.104             4.715          2072.562
       266   09 Jun 2027 09:41:01.352   09 Jun 2027 09:41:03.618             2.266           351.500
       267   09 Jun 2027 09:41:56.887   09 Jun 2027 09:42:01.143             4.256          1560.281
       268   09 Jun 2027 11:11:54.525   09 Jun 2027 11:12:06.655            12.130          5845.219
       269   09 Jun 2027 11:13:55.633   09 Jun 2027 11:13:58.031             2.398           399.250
       270   09 Jun 2027 11:15:12.694   09 Jun 2027 11:15:17.191             4.497          1220.219
       271   09 Jun 2027 11:16:13.596   09 Jun 2027 11:16:18.011             4.415          1285.375
       272   09 Jun 2027 11:17:28.455   09 Jun 2027 11:17:33.141             4.686          2009.344
       273   09 Jun 2027 11:17:52.402   09 Jun 2027 11:17:53.716             1.314           268.563
       274   10 Jun 2027 03:35:52.252   10 Jun 2027 03:39:10.366           198.114         99057.000
       275   10 Jun 2027 03:39:27.599   10 Jun 2027 03:40:00.434            32.835         16417.500
       276   10 Jun 2027 03:40:20.177   10 Jun 2027 03:40:35.607            15.430          7715.000
       277   10 Jun 2027 05:00:06.461   10 Jun 2027 05:00:49.043            42.582         21291.000
       278   10 Jun 2027 05:12:19.740   10 Jun 2027 05:13:17.284            57.544         27977.062
       279   10 Jun 2027 06:34:35.014   10 Jun 2027 06:34:40.709             5.695          2805.969
       280   10 Jun 2027 06:35:27.068   10 Jun 2027 06:35:27.316             0.248           124.000
       281   10 Jun 2027 06:35:33.001   10 Jun 2027 06:35:36.625             3.624          1288.656
       282   10 Jun 2027 06:36:40.113   10 Jun 2027 06:36:40.113             0.000             0.000
       283   10 Jun 2027 06:36:48.329   10 Jun 2027 06:36:52.812             4.483          1089.031
       284   10 Jun 2027 06:37:24.254   10 Jun 2027 06:37:24.254             0.000             0.000
       285   10 Jun 2027 06:38:40.615   10 Jun 2027 06:38:55.769            15.154          3368.844
       286   10 Jun 2027 06:39:05.008   10 Jun 2027 06:39:05.920             0.912           275.219
       287   10 Jun 2027 08:09:27.661   10 Jun 2027 08:09:33.457             5.796          2023.313
       288   10 Jun 2027 08:10:42.945   10 Jun 2027 08:10:46.285             3.340          1149.750
       289   10 Jun 2027 08:11:10.371   10 Jun 2027 08:11:16.808             6.437           663.125
       290   10 Jun 2027 08:12:08.001   10 Jun 2027 08:12:08.001             0.000             0.000
       291   10 Jun 2027 08:13:28.594   10 Jun 2027 08:13:37.222             8.628          4118.313
       292   10 Jun 2027 08:14:52.750   10 Jun 2027 08:15:04.206            11.456          2247.312
       293   10 Jun 2027 08:15:27.467   10 Jun 2027 08:15:27.467             0.000             0.000
       294   10 Jun 2027 08:15:38.991   10 Jun 2027 08:15:41.668             2.677           578.688
       295   10 Jun 2027 08:16:04.092   10 Jun 2027 08:16:08.184             4.092            90.125
       296   10 Jun 2027 08:17:31.367   10 Jun 2027 08:17:35.238             3.871          1632.688
       297   10 Jun 2027 09:47:02.141   10 Jun 2027 09:47:18.880            16.739          6706.906
       298   10 Jun 2027 09:49:07.502   10 Jun 2027 09:49:16.399             8.897           284.688
       299   10 Jun 2027 09:50:13.763   10 Jun 2027 09:50:17.642             3.879          1486.438
       300   10 Jun 2027 09:51:17.668   10 Jun 2027 09:51:24.507             6.839          1411.750
       301   10 Jun 2027 09:52:16.311   10 Jun 2027 09:52:19.549             3.238          1497.344
       302   10 Jun 2027 09:53:20.118   10 Jun 2027 09:53:24.653             4.535          1833.719
       303   10 Jun 2027 09:53:24.707   10 Jun 2027 09:53:25.739             1.032             1.688
       304   10 Jun 2027 09:54:18.227   10 Jun 2027 09:54:23.262             5.035          1000.406
       305   10 Jun 2027 11:23:44.921   10 Jun 2027 11:23:56.368            11.447          5455.031
       306   10 Jun 2027 11:25:25.654   10 Jun 2027 11:25:32.164             6.510          1028.938
       307   10 Jun 2027 11:27:18.213   10 Jun 2027 11:27:23.814             5.601          1424.344
       308   10 Jun 2027 11:27:45.055   10 Jun 2027 11:27:48.138             3.083           224.375
       309   10 Jun 2027 11:28:14.105   10 Jun 2027 11:28:16.703             2.598           760.906
       310   10 Jun 2027 11:29:24.382   10 Jun 2027 11:29:27.410             3.028          1483.750
       311   10 Jun 2027 11:29:53.120   10 Jun 2027 11:29:59.070             5.950           704.687
       312   10 Jun 2027 11:30:05.891   10 Jun 2027 11:30:06.454             0.563           169.281
       313   11 Jun 2027 03:47:56.911   11 Jun 2027 03:51:14.218           197.307         98653.500
       314   11 Jun 2027 03:52:28.310   11 Jun 2027 03:53:13.853            45.543         22771.500
       315   11 Jun 2027 03:54:36.014   11 Jun 2027 03:54:36.014             0.000             0.000
       316   11 Jun 2027 05:12:12.433   11 Jun 2027 05:12:51.970            39.537         19768.500
       317   11 Jun 2027 05:24:40.662   11 Jun 2027 05:24:51.595            10.933          5466.500
       318   11 Jun 2027 06:46:03.490   11 Jun 2027 06:47:02.337            58.847         27585.718
       319   11 Jun 2027 06:48:06.270   11 Jun 2027 06:48:10.422             4.152          1091.625
       320   11 Jun 2027 06:48:42.732   11 Jun 2027 06:48:44.242             1.510           709.188
       321   11 Jun 2027 06:49:07.713   11 Jun 2027 06:49:09.519             1.806           417.625
       322   11 Jun 2027 06:49:31.595   11 Jun 2027 06:49:32.010             0.415            54.969
       323   11 Jun 2027 06:49:58.920   11 Jun 2027 06:50:05.294             6.374           691.250
       324   11 Jun 2027 06:51:17.004   11 Jun 2027 06:51:21.394             4.390          2071.250
       325   11 Jun 2027 06:51:26.607   11 Jun 2027 06:51:26.607             0.000             0.000
       326   11 Jun 2027 06:51:36.269   11 Jun 2027 06:51:36.269             0.000             0.000
       327   11 Jun 2027 08:20:57.785   11 Jun 2027 08:21:04.137             6.352          2417.125
       328   11 Jun 2027 08:21:53.702   11 Jun 2027 08:21:55.899             2.197          1043.000
       329   11 Jun 2027 08:23:35.917   11 Jun 2027 08:23:44.079             8.162           765.094
       330   11 Jun 2027 08:25:28.795   11 Jun 2027 08:25:36.302             7.507          2247.937
       331   11 Jun 2027 08:26:52.608   11 Jun 2027 08:26:57.971             5.363          2184.312
       332   11 Jun 2027 08:27:53.534   11 Jun 2027 08:27:59.427             5.893          1723.156
       333   11 Jun 2027 08:28:09.390   11 Jun 2027 08:28:09.390             0.000             0.000
       334   11 Jun 2027 08:28:23.524   11 Jun 2027 08:28:25.767             2.243           715.156
       335   11 Jun 2027 08:28:41.063   11 Jun 2027 08:28:42.884             1.821           217.188
       336   11 Jun 2027 08:29:38.942   11 Jun 2027 08:29:43.382             4.440          1150.406
       337   11 Jun 2027 09:58:56.926   11 Jun 2027 09:59:06.293             9.367          4197.906
       338   11 Jun 2027 10:00:17.778   11 Jun 2027 10:00:19.822             2.044           923.656
       339   11 Jun 2027 10:00:46.628   11 Jun 2027 10:00:51.525             4.897           474.125
       340   11 Jun 2027 10:00:57.761   11 Jun 2027 10:00:58.377             0.616           194.875
       341   11 Jun 2027 10:01:55.014   11 Jun 2027 10:01:58.422             3.408          1647.625
       342   11 Jun 2027 10:02:34.346   11 Jun 2027 10:02:37.414             3.068           846.188
       343   11 Jun 2027 10:03:03.999   11 Jun 2027 10:03:12.754             8.755           830.781
       344   11 Jun 2027 10:04:20.979   11 Jun 2027 10:04:29.229             8.250          2132.031
       345   11 Jun 2027 10:04:35.674   11 Jun 2027 10:04:39.195             3.521           201.406
       346   11 Jun 2027 10:04:42.598   11 Jun 2027 10:04:46.335             3.737           100.781
       347   11 Jun 2027 10:04:54.242   11 Jun 2027 10:04:58.085             3.843           210.500
       348   11 Jun 2027 10:05:07.777   11 Jun 2027 10:05:13.569             5.792           302.875
       349   11 Jun 2027 10:05:32.007   11 Jun 2027 10:05:33.647             1.640           487.281
       350   11 Jun 2027 10:06:01.453   11 Jun 2027 10:06:05.345             3.892           596.719
       351   11 Jun 2027 11:35:53.356   11 Jun 2027 11:36:04.200            10.844          5179.562
       352   11 Jun 2027 11:37:26.388   11 Jun 2027 11:37:27.521             1.133           366.969
       353   11 Jun 2027 11:38:40.149   11 Jun 2027 11:38:43.789             3.640          1092.469
       354   11 Jun 2027 11:40:19.114   11 Jun 2027 11:40:27.079             7.965          2507.656
       355   11 Jun 2027 11:40:47.909   11 Jun 2027 11:40:48.421             0.512           104.219
       356   11 Jun 2027 11:41:05.529   11 Jun 2027 11:41:07.547             2.018           534.625
       357   11 Jun 2027 11:42:00.035   11 Jun 2027 11:42:06.864             6.829          1159.875
       358   12 Jun 2027 04:00:20.148   12 Jun 2027 04:03:17.599           177.451         88725.500
       359   12 Jun 2027 04:03:49.584   12 Jun 2027 04:04:14.152            24.568         12284.000
       360   12 Jun 2027 04:04:49.583   12 Jun 2027 04:04:53.314             3.731          1865.500
       361   12 Jun 2027 05:24:08.470   12 Jun 2027 05:24:54.824            46.354         23177.000
       362   12 Jun 2027 07:00:21.035   12 Jun 2027 07:01:26.657            65.622         32509.594
       363   12 Jun 2027 07:02:18.836   12 Jun 2027 07:02:25.802             6.966          1421.000
       364   12 Jun 2027 07:02:44.570   12 Jun 2027 07:02:45.198             0.628           299.969
       365   12 Jun 2027 07:02:56.485   12 Jun 2027 07:02:56.694             0.209           102.281
       366   12 Jun 2027 08:33:52.745   12 Jun 2027 08:33:59.900             7.155          3092.594
       367   12 Jun 2027 08:36:27.152   12 Jun 2027 08:36:27.152             0.000             0.000
       368   12 Jun 2027 08:37:15.802   12 Jun 2027 08:37:26.161            10.359          1807.250
       369   12 Jun 2027 08:40:24.075   12 Jun 2027 08:40:36.040            11.965          5487.281
       370   12 Jun 2027 08:40:51.240   12 Jun 2027 08:40:55.286             4.046           148.187
       371   12 Jun 2027 08:41:08.457   12 Jun 2027 08:41:13.612             5.155           323.219
       372   12 Jun 2027 08:42:27.133   12 Jun 2027 08:42:28.027             0.894           447.000
       373   12 Jun 2027 10:11:18.751   12 Jun 2027 10:11:33.198            14.447          5354.312
       374   12 Jun 2027 10:13:00.295   12 Jun 2027 10:13:02.144             1.849           379.688
       375   12 Jun 2027 10:13:58.521   12 Jun 2027 10:14:02.959             4.438          1158.344
       376   12 Jun 2027 10:14:42.935   12 Jun 2027 10:14:44.819             1.884            42.938
       377   12 Jun 2027 10:15:48.413   12 Jun 2027 10:15:52.664             4.251          1510.438
       378   12 Jun 2027 10:16:31.313   12 Jun 2027 10:16:32.600             1.287           507.750
       379   12 Jun 2027 10:17:12.801   12 Jun 2027 10:17:18.671             5.870          1256.281
       380   12 Jun 2027 10:17:50.173   12 Jun 2027 10:17:50.828             0.655           299.688
       381   12 Jun 2027 10:18:08.246   12 Jun 2027 10:18:11.515             3.269           388.906
       382   12 Jun 2027 11:48:22.355   12 Jun 2027 11:48:39.577            17.222          6491.750
       383   12 Jun 2027 11:49:30.413   12 Jun 2027 11:49:33.445             3.032          1015.750
       384   12 Jun 2027 11:50:31.503   12 Jun 2027 11:50:32.967             1.464           145.062
       385   12 Jun 2027 11:51:37.640   12 Jun 2027 11:51:41.496             3.856          1923.125
       386   12 Jun 2027 11:52:12.736   12 Jun 2027 11:52:15.706             2.970           976.250
       387   12 Jun 2027 11:53:34.835   12 Jun 2027 11:53:39.975             5.140          2148.281
       388   12 Jun 2027 11:54:11.513   12 Jun 2027 11:54:12.357             0.844           422.000
       389   13 Jun 2027 04:12:38.406   13 Jun 2027 04:13:30.781            52.375         26187.500
       390   13 Jun 2027 04:13:54.635   13 Jun 2027 04:15:08.602            73.967         36983.500
       391   13 Jun 2027 04:16:00.065   13 Jun 2027 04:16:18.086            18.021          9010.500
       392   13 Jun 2027 04:16:38.305   13 Jun 2027 04:17:06.165            27.860         13930.000
       393   13 Jun 2027 05:36:00.206   13 Jun 2027 05:36:54.983            54.777         27388.500
       394   13 Jun 2027 07:12:24.174   13 Jun 2027 07:13:59.388            95.214         45995.313
       395   13 Jun 2027 07:14:31.884   13 Jun 2027 07:14:33.341             1.457           265.125
       396   13 Jun 2027 07:15:03.342   13 Jun 2027 07:15:08.601             5.259           212.531
       397   13 Jun 2027 08:44:36.259   13 Jun 2027 08:44:46.279            10.020          4072.687
       398   13 Jun 2027 08:46:30.198   13 Jun 2027 08:46:31.949             1.751           605.656
       399   13 Jun 2027 08:48:06.808   13 Jun 2027 08:48:10.575             3.767          1708.000
       400   13 Jun 2027 08:48:20.487   13 Jun 2027 08:48:27.522             7.035           298.937
       401   13 Jun 2027 08:49:46.121   13 Jun 2027 08:49:51.455             5.334          2179.250
       402   13 Jun 2027 08:50:50.250   13 Jun 2027 08:50:55.116             4.866          1752.156
       403   13 Jun 2027 08:51:45.060   13 Jun 2027 08:51:51.448             6.388          1269.625
       404   13 Jun 2027 08:53:04.752   13 Jun 2027 08:53:07.304             2.552           655.188
       405   13 Jun 2027 08:53:40.840   13 Jun 2027 08:53:45.838             4.998           858.562
       406   13 Jun 2027 08:54:23.048   13 Jun 2027 08:54:24.557             1.509           616.625
       407   13 Jun 2027 10:23:30.545   13 Jun 2027 10:23:42.876            12.331          5583.844
       408   13 Jun 2027 10:25:42.047   13 Jun 2027 10:25:45.393             3.346             1.719
       409   13 Jun 2027 10:26:16.367   13 Jun 2027 10:26:17.417             1.050            34.844
       410   13 Jun 2027 10:28:39.224   13 Jun 2027 10:28:44.196             4.972           704.625
       411   13 Jun 2027 10:29:37.254   13 Jun 2027 10:29:44.242             6.988          1609.062
       412   13 Jun 2027 10:29:58.570   13 Jun 2027 10:30:00.085             1.515            52.375
       413   13 Jun 2027 10:30:08.683   13 Jun 2027 10:30:10.362             1.679           215.750
