uniorb/output/strategy_4/Camera/Camera_KinoSat_110209.txt

KinoSat_110209
-------------------------
    Access    *     Start Time (UTCG)     *     Stop Time (UTCG)  *   Duration (s) *   Data (Mbytes)
         1   01 Jun 2027 03:22:44.171   01 Jun 2027 03:24:06.441            82.270         41135.000
         2   01 Jun 2027 03:24:22.641   01 Jun 2027 03:25:11.966            49.325         24662.500
         3   01 Jun 2027 03:27:38.878   01 Jun 2027 03:27:38.878             0.000             0.000
         4   01 Jun 2027 03:29:11.646   01 Jun 2027 03:30:10.154            58.508         29254.000
         5   01 Jun 2027 04:59:41.496   01 Jun 2027 05:02:27.677           166.181         83090.500
         6   01 Jun 2027 05:03:07.768   01 Jun 2027 05:03:15.516             7.748          3874.000
         7   01 Jun 2027 05:04:26.894   01 Jun 2027 05:04:43.594            16.700          8350.000
         8   01 Jun 2027 05:05:45.840   01 Jun 2027 05:05:50.137             4.297          2148.500
         9   01 Jun 2027 06:37:34.514   01 Jun 2027 06:40:11.594           157.080         78540.000
        10   01 Jun 2027 06:41:12.828   01 Jun 2027 06:41:35.902            23.074         11537.000
        11   01 Jun 2027 08:11:02.381   01 Jun 2027 08:13:37.398           155.017         77508.500
        12   01 Jun 2027 08:15:01.402   01 Jun 2027 08:15:22.278            20.876         10438.000
        13   01 Jun 2027 08:16:05.492   01 Jun 2027 08:16:16.721            11.229          5614.500
        14   01 Jun 2027 08:16:27.458   01 Jun 2027 08:16:41.528            14.070          7035.000
        15   02 Jun 2027 03:34:45.506   02 Jun 2027 03:42:12.012           446.506        223253.000
        16   02 Jun 2027 05:11:33.700   02 Jun 2027 05:15:50.560           256.860        128430.000
        17   02 Jun 2027 05:16:53.218   02 Jun 2027 05:17:27.632            34.414         17207.000
        18   02 Jun 2027 05:17:36.163   02 Jun 2027 05:18:16.386            40.223         20111.500
        19   02 Jun 2027 06:49:35.818   02 Jun 2027 06:53:45.330           249.512        124756.000
        20   02 Jun 2027 08:23:28.036   02 Jun 2027 08:30:09.515           401.479        200739.500
        21   03 Jun 2027 03:46:48.835   03 Jun 2027 03:54:09.736           440.901        220450.500
        22   03 Jun 2027 05:23:43.686   03 Jun 2027 05:28:46.836           303.150        151575.000
        23   03 Jun 2027 05:28:58.188   03 Jun 2027 05:30:04.844            66.656         33328.000
        24   03 Jun 2027 07:01:14.167   03 Jun 2027 07:05:43.386           269.219        134609.500
        25   03 Jun 2027 08:35:54.222   03 Jun 2027 08:36:35.230            41.008         20504.000
        26   03 Jun 2027 08:37:39.875   03 Jun 2027 08:40:51.552           191.677         95838.500
        27   04 Jun 2027 03:59:14.623   04 Jun 2027 04:05:59.888           405.265        202632.500
        28   04 Jun 2027 05:36:11.115   04 Jun 2027 05:40:36.763           265.648        132824.000
        29   04 Jun 2027 05:41:06.049   04 Jun 2027 05:41:58.241            52.192         26096.000
        30   04 Jun 2027 07:13:01.747   04 Jun 2027 07:17:33.801           272.054        136027.000
        31   04 Jun 2027 08:50:38.007   04 Jun 2027 08:52:21.625           103.618         51809.000
        32   05 Jun 2027 04:11:20.837   05 Jun 2027 04:18:04.209           403.372        201686.000
        33   05 Jun 2027 05:49:00.957   05 Jun 2027 05:53:29.326           268.369        134184.500
        34   05 Jun 2027 07:25:24.456   05 Jun 2027 07:29:52.530           268.074        134037.000
        35   06 Jun 2027 04:23:56.912   06 Jun 2027 04:30:10.473           373.561        186780.500
        36   06 Jun 2027 06:01:13.960   06 Jun 2027 06:05:50.332           276.372        138186.000
        37   06 Jun 2027 07:37:54.006   06 Jun 2027 07:42:07.075           253.069        126534.500
        38   07 Jun 2027 03:00:00.000   07 Jun 2027 03:06:19.046           379.046        189523.000
        39   07 Jun 2027 04:35:29.391   07 Jun 2027 04:41:56.446           387.055        193527.500
        40   07 Jun 2027 06:13:30.532   07 Jun 2027 06:17:41.412           250.880        125440.000
        41   07 Jun 2027 07:49:10.309   07 Jun 2027 07:53:34.200           263.891        131945.500
        42   07 Jun 2027 07:53:40.738   07 Jun 2027 07:54:37.412            56.674         28337.000
        43   08 Jun 2027 03:10:50.525   08 Jun 2027 03:18:24.254           453.729        226864.500
        44   08 Jun 2027 04:47:51.012   08 Jun 2027 04:53:58.526           367.514        183757.000
        45   08 Jun 2027 06:25:52.009   08 Jun 2027 06:29:48.483           236.474        118237.000
        46   08 Jun 2027 07:59:14.918   08 Jun 2027 08:05:35.962           381.044        190522.000
        47   08 Jun 2027 08:05:52.380   08 Jun 2027 08:06:54.952            62.572         31286.000
        48   09 Jun 2027 03:22:59.061   09 Jun 2027 03:30:25.010           445.949        222974.500
        49   09 Jun 2027 04:59:56.450   09 Jun 2027 05:06:04.970           368.520        184260.000
        50   09 Jun 2027 06:37:49.384   09 Jun 2027 06:42:01.008           251.624        125812.000
        51   09 Jun 2027 08:11:17.851   09 Jun 2027 08:16:38.572           320.721        160360.500
        52   09 Jun 2027 08:16:45.041   09 Jun 2027 08:18:30.233           105.192         52596.000
        53   10 Jun 2027 03:35:00.657   10 Jun 2027 03:42:26.835           446.178        223089.000
        54   10 Jun 2027 05:11:48.697   10 Jun 2027 05:17:42.404           353.707        176853.500
        55   10 Jun 2027 05:17:50.695   10 Jun 2027 05:18:31.270            40.575         20287.500
        56   10 Jun 2027 06:49:51.335   10 Jun 2027 06:54:00.155           248.820        124410.000
        57   10 Jun 2027 08:23:42.999   10 Jun 2027 08:30:24.123           401.124        200562.000
        58   11 Jun 2027 03:47:03.840   11 Jun 2027 03:54:24.435           440.595        220297.500
        59   11 Jun 2027 05:23:58.533   11 Jun 2027 05:29:01.564           303.031        151515.500
        60   11 Jun 2027 05:29:45.893   11 Jun 2027 05:30:19.431            33.538         16769.000
        61   11 Jun 2027 07:01:28.329   11 Jun 2027 07:05:58.175           269.846        134923.000
        62   11 Jun 2027 08:36:08.983   11 Jun 2027 08:36:49.801            40.818         20409.000
        63   11 Jun 2027 08:37:51.522   11 Jun 2027 08:41:06.142           194.620         97310.000
        64   12 Jun 2027 03:59:29.546   12 Jun 2027 04:06:14.731           405.185        202592.500
        65   12 Jun 2027 05:36:25.962   12 Jun 2027 05:40:50.623           264.661        132330.500
        66   12 Jun 2027 05:40:57.465   12 Jun 2027 05:42:12.953            75.488         37744.000
        67   12 Jun 2027 07:13:16.503   12 Jun 2027 07:17:48.768           272.265        136132.500
        68   12 Jun 2027 08:50:53.229   12 Jun 2027 08:52:36.094           102.865         51432.500
        69   13 Jun 2027 04:11:35.941   13 Jun 2027 04:18:19.176           403.235        201617.500
        70   13 Jun 2027 05:49:16.754   13 Jun 2027 05:53:44.636           267.882        133941.000
        71   13 Jun 2027 07:25:39.223   13 Jun 2027 07:30:07.037           267.814        133907.000
