uniorb/output/strategy_4/Camera/Camera_KinoSat_111709.txt

KinoSat_111709
-------------------------
    Access    *     Start Time (UTCG)     *     Stop Time (UTCG)  *   Duration (s) *   Data (Mbytes)
         1   01 Jun 2027 04:08:14.426   01 Jun 2027 04:09:15.652            61.226         30613.000
         2   01 Jun 2027 04:09:22.339   01 Jun 2027 04:10:50.835            88.496         44248.000
         3   01 Jun 2027 04:11:36.993   01 Jun 2027 04:11:49.777            12.784          6392.000
         4   01 Jun 2027 04:13:04.118   01 Jun 2027 04:13:04.118             0.000             0.000
         5   01 Jun 2027 04:13:53.393   01 Jun 2027 04:13:58.769             5.376          2688.000
         6   01 Jun 2027 05:46:31.810   01 Jun 2027 05:47:06.283            34.473         17236.500
         7   01 Jun 2027 05:47:20.512   01 Jun 2027 05:48:24.567            64.055         32027.500
         8   01 Jun 2027 05:48:52.112   01 Jun 2027 05:49:10.108            17.996          8998.000
         9   01 Jun 2027 07:09:54.516   01 Jun 2027 07:11:45.918           111.402         55701.000
        10   01 Jun 2027 08:46:27.833   01 Jun 2027 08:48:51.312           143.479         71739.500
        11   01 Jun 2027 10:21:37.955   01 Jun 2027 10:23:34.345           116.390         58195.000
        12   01 Jun 2027 10:28:02.711   01 Jun 2027 10:28:14.037            11.326          5663.000
        13   01 Jun 2027 11:57:59.303   01 Jun 2027 12:00:00.000           120.697         60348.500
        14   02 Jun 2027 04:21:21.099   02 Jun 2027 04:22:44.116            83.017         41508.500
        15   02 Jun 2027 04:23:05.865   02 Jun 2027 04:23:32.029            26.164         13082.000
        16   02 Jun 2027 04:23:36.578   02 Jun 2027 04:23:38.236             1.658           829.000
        17   02 Jun 2027 04:23:42.965   02 Jun 2027 04:23:51.791             8.826          4413.000
        18   02 Jun 2027 04:24:00.495   02 Jun 2027 04:24:07.226             6.731          3365.500
        19   02 Jun 2027 04:24:30.787   02 Jun 2027 04:24:36.043             5.256          2628.000
        20   02 Jun 2027 04:27:45.589   02 Jun 2027 04:27:59.213            13.624          6812.000
        21   02 Jun 2027 04:28:17.783   02 Jun 2027 04:28:23.937             6.154          3077.000
        22   02 Jun 2027 05:58:28.754   02 Jun 2027 05:59:09.208            40.454         20227.000
        23   02 Jun 2027 05:59:26.758   02 Jun 2027 06:01:18.298           111.540         55770.000
        24   02 Jun 2027 06:01:54.212   02 Jun 2027 06:02:04.582            10.370          5185.000
        25   02 Jun 2027 07:21:56.340   02 Jun 2027 07:24:29.104           152.764         76382.000
        26   02 Jun 2027 08:58:18.943   02 Jun 2027 09:00:23.403           124.460         62230.000
        27   02 Jun 2027 09:01:36.985   02 Jun 2027 09:01:39.086             2.101          1050.500
        28   02 Jun 2027 10:33:12.121   02 Jun 2027 10:35:01.915           109.794         54389.938
        29   02 Jun 2027 10:35:47.625   02 Jun 2027 10:35:49.091             1.466           704.000
        30   02 Jun 2027 10:36:11.609   02 Jun 2027 10:36:12.824             1.215           298.750
        31   02 Jun 2027 10:37:09.281   02 Jun 2027 10:37:15.159             5.878          1580.437
        32   02 Jun 2027 10:37:36.650   02 Jun 2027 10:37:39.388             2.738           235.406
        33   02 Jun 2027 10:38:01.820   02 Jun 2027 10:38:03.538             1.718           489.406
        34   02 Jun 2027 10:38:40.867   02 Jun 2027 10:38:42.830             1.963           575.406
        35   02 Jun 2027 10:39:18.889   02 Jun 2027 10:39:21.325             2.436           592.844
        36   02 Jun 2027 10:40:01.384   02 Jun 2027 10:40:06.580             5.196           784.781
        37   03 Jun 2027 03:00:00.000   03 Jun 2027 03:00:14.780            14.780          7390.000
        38   03 Jun 2027 03:00:35.610   03 Jun 2027 03:00:53.862            18.252          9126.000
        39   03 Jun 2027 04:33:25.217   03 Jun 2027 04:35:35.748           130.531         65265.500
        40   03 Jun 2027 04:36:36.340   03 Jun 2027 04:36:58.539            22.199         11099.500
        41   03 Jun 2027 04:38:37.100   03 Jun 2027 04:39:02.207            25.107         12553.500
        42   03 Jun 2027 04:39:49.274   03 Jun 2027 04:40:59.222            69.948         34974.000
        43   03 Jun 2027 05:59:10.253   03 Jun 2027 05:59:49.650            39.397         19698.500
        44   03 Jun 2027 06:10:25.479   03 Jun 2027 06:11:10.111            44.632         21997.813
        45   03 Jun 2027 06:11:27.046   03 Jun 2027 06:11:29.500             2.454           457.875
        46   03 Jun 2027 07:33:01.676   03 Jun 2027 07:33:15.080            13.404          5271.000
        47   03 Jun 2027 07:34:14.776   03 Jun 2027 07:34:16.341             1.565           338.938
        48   03 Jun 2027 07:34:56.542   03 Jun 2027 07:35:00.680             4.138          1147.438
        49   03 Jun 2027 07:35:45.117   03 Jun 2027 07:35:49.279             4.162          1047.750
        50   03 Jun 2027 07:37:17.033   03 Jun 2027 07:37:20.616             3.583          1692.719
        51   03 Jun 2027 07:37:41.365   03 Jun 2027 07:37:41.515             0.150            75.000
        52   03 Jun 2027 09:08:36.613   03 Jun 2027 09:08:43.809             7.196          3536.156
        53   03 Jun 2027 09:10:45.262   03 Jun 2027 09:10:49.343             4.081          2029.906
        54   03 Jun 2027 09:11:36.533   03 Jun 2027 09:11:38.374             1.841           222.531
        55   03 Jun 2027 09:12:46.312   03 Jun 2027 09:12:46.809             0.497           200.062
        56   03 Jun 2027 09:13:09.153   03 Jun 2027 09:13:10.376             1.223           470.438
        57   03 Jun 2027 10:44:50.028   03 Jun 2027 10:45:00.608            10.580          2800.156
        58   03 Jun 2027 10:47:57.685   03 Jun 2027 10:48:08.259            10.574          4943.281
        59   03 Jun 2027 10:48:25.883   03 Jun 2027 10:48:30.515             4.632           474.219
        60   03 Jun 2027 10:49:33.669   03 Jun 2027 10:49:33.669             0.000             0.000
        61   03 Jun 2027 10:51:41.628   03 Jun 2027 10:51:58.902            17.274          4823.688
        62   04 Jun 2027 03:06:50.519   04 Jun 2027 03:07:51.113            60.594         30297.000
        63   04 Jun 2027 03:08:52.359   04 Jun 2027 03:09:04.683            12.324          6162.000
        64   04 Jun 2027 03:09:52.754   04 Jun 2027 03:09:56.378             3.624          1812.000
        65   04 Jun 2027 03:10:54.605   04 Jun 2027 03:11:16.660            22.055         11027.500
        66   04 Jun 2027 03:11:50.536   04 Jun 2027 03:11:54.052             3.516          1758.000
        67   04 Jun 2027 03:12:47.451   04 Jun 2027 03:12:53.863             6.412          3206.000
        68   04 Jun 2027 04:45:55.291   04 Jun 2027 04:48:43.966           168.675         84337.500
        69   04 Jun 2027 04:49:43.478   04 Jun 2027 04:50:15.368            31.890         15268.157
        70   04 Jun 2027 04:50:53.781   04 Jun 2027 04:50:55.143             1.362           406.250
        71   04 Jun 2027 04:51:17.825   04 Jun 2027 04:51:18.797             0.972           447.625
        72   04 Jun 2027 04:51:44.876   04 Jun 2027 04:51:46.602             1.726            70.344
        73   04 Jun 2027 04:53:02.026   04 Jun 2027 04:53:03.027             1.001           500.500
        74   04 Jun 2027 06:10:45.416   04 Jun 2027 06:11:04.757            19.341          8147.875
        75   04 Jun 2027 06:11:21.393   04 Jun 2027 06:11:21.393             0.000             0.000
        76   04 Jun 2027 06:22:26.479   04 Jun 2027 06:22:35.389             8.910          3692.375
        77   04 Jun 2027 07:44:44.421   04 Jun 2027 07:44:58.220            13.799          5474.656
        78   04 Jun 2027 07:45:27.112   04 Jun 2027 07:45:32.976             5.864           780.875
        79   04 Jun 2027 07:47:11.218   04 Jun 2027 07:47:15.583             4.365          1850.406
        80   04 Jun 2027 07:48:31.732   04 Jun 2027 07:48:37.952             6.220          2048.875
        81   04 Jun 2027 07:49:04.598   04 Jun 2027 07:49:06.314             1.716           239.469
        82   04 Jun 2027 09:19:43.077   04 Jun 2027 09:19:49.914             6.837          2954.563
        83   04 Jun 2027 09:20:27.013   04 Jun 2027 09:20:29.040             2.027           530.281
        84   04 Jun 2027 09:21:13.853   04 Jun 2027 09:21:18.876             5.023          1348.719
        85   04 Jun 2027 09:22:23.443   04 Jun 2027 09:22:25.917             2.474          1084.875
        86   04 Jun 2027 09:23:20.271   04 Jun 2027 09:23:24.801             4.530          1157.031
        87   04 Jun 2027 09:24:54.859   04 Jun 2027 09:25:03.195             8.336          2742.969
        88   04 Jun 2027 09:26:07.382   04 Jun 2027 09:26:07.382             0.000             0.000
        89   04 Jun 2027 09:27:41.429   04 Jun 2027 09:27:50.806             9.377          3488.656
        90   04 Jun 2027 10:57:10.255   04 Jun 2027 10:57:20.427            10.172          3345.813
        91   04 Jun 2027 10:59:09.453   04 Jun 2027 10:59:16.160             6.707           899.188
        92   04 Jun 2027 11:00:18.253   04 Jun 2027 11:00:20.054             1.801           343.906
        93   04 Jun 2027 11:02:31.269   04 Jun 2027 11:02:39.331             8.062          3987.531
        94   04 Jun 2027 11:03:24.706   04 Jun 2027 11:03:28.600             3.894           956.531
        95   04 Jun 2027 11:04:11.912   04 Jun 2027 11:04:14.197             2.285          1138.750
        96   05 Jun 2027 03:19:10.623   05 Jun 2027 03:19:37.289            26.666         13333.000
        97   05 Jun 2027 03:19:42.604   05 Jun 2027 03:20:16.553            33.949         16974.500
        98   05 Jun 2027 03:20:20.423   05 Jun 2027 03:21:15.712            55.289         27644.500
        99   05 Jun 2027 03:21:16.579   05 Jun 2027 03:21:38.600            22.021         11010.500
       100   05 Jun 2027 03:22:18.115   05 Jun 2027 03:22:45.070            26.955         13477.500
       101   05 Jun 2027 03:23:17.916   05 Jun 2027 03:23:32.262            14.346          7173.000
       102   05 Jun 2027 04:57:57.485   05 Jun 2027 05:00:03.053           125.568         62784.000
       103   05 Jun 2027 05:00:17.514   05 Jun 2027 05:00:19.624             2.110           852.437
       104   05 Jun 2027 05:00:51.861   05 Jun 2027 05:00:53.995             2.134           994.094
       105   05 Jun 2027 05:02:01.104   05 Jun 2027 05:02:05.628             4.524          1410.875
       106   05 Jun 2027 05:04:39.571   05 Jun 2027 05:04:41.799             2.228           582.500
       107   05 Jun 2027 06:22:18.153   05 Jun 2027 06:22:29.558            11.405          5316.906
       108   05 Jun 2027 06:23:23.016   05 Jun 2027 06:23:28.525             5.509          1257.250
       109   05 Jun 2027 06:24:05.071   05 Jun 2027 06:24:05.460             0.389             2.094
       110   05 Jun 2027 06:24:23.004   05 Jun 2027 06:24:25.255             2.251           493.406
       111   05 Jun 2027 06:34:34.208   05 Jun 2027 06:34:43.164             8.956          3331.406
       112   05 Jun 2027 07:56:21.973   05 Jun 2027 07:56:32.966            10.993          4499.906
       113   05 Jun 2027 07:57:05.318   05 Jun 2027 07:57:09.187             3.869           451.969
       114   05 Jun 2027 07:58:26.916   05 Jun 2027 07:58:28.241             1.325           511.438
       115   05 Jun 2027 07:59:10.225   05 Jun 2027 07:59:12.445             2.220           975.094
       116   05 Jun 2027 08:00:30.186   05 Jun 2027 08:00:34.239             4.053          1796.250
       117   05 Jun 2027 08:00:47.162   05 Jun 2027 08:00:52.052             4.890           376.531
       118   05 Jun 2027 08:01:27.695   05 Jun 2027 08:01:31.416             3.721           872.969
       119   05 Jun 2027 09:31:10.933   05 Jun 2027 09:31:18.273             7.340          3542.187
       120   05 Jun 2027 09:33:06.929   05 Jun 2027 09:33:08.718             1.789            13.281
       121   05 Jun 2027 09:33:59.965   05 Jun 2027 09:34:05.503             5.538          1554.531
       122   05 Jun 2027 09:34:56.747   05 Jun 2027 09:35:00.217             3.470           517.250
       123   05 Jun 2027 09:36:55.104   05 Jun 2027 09:37:12.311            17.207          2747.906
       124   05 Jun 2027 09:38:45.353   05 Jun 2027 09:38:56.317            10.964          2323.844
       125   05 Jun 2027 09:39:00.071   05 Jun 2027 09:39:12.336            12.265            57.219
       126   05 Jun 2027 09:39:34.145   05 Jun 2027 09:39:39.838             5.693           476.938
       127   05 Jun 2027 09:39:57.271   05 Jun 2027 09:40:03.345             6.074           264.406
       128   05 Jun 2027 11:09:04.187   05 Jun 2027 11:09:25.233            21.046          4024.594
       129   05 Jun 2027 11:11:16.232   05 Jun 2027 11:11:21.718             5.486          1042.844
       130   05 Jun 2027 11:12:02.198   05 Jun 2027 11:12:03.088             0.890           445.000
       131   05 Jun 2027 11:13:19.803   05 Jun 2027 11:13:32.225            12.422          2987.625
       132   05 Jun 2027 11:14:25.376   05 Jun 2027 11:14:28.185             2.809           663.469
       133   05 Jun 2027 11:14:59.808   05 Jun 2027 11:15:04.097             4.289           971.219
       134   05 Jun 2027 11:15:24.864   05 Jun 2027 11:15:26.805             1.941           648.969
       135   05 Jun 2027 11:16:05.493   05 Jun 2027 11:16:08.605             3.112          1209.000
       136   06 Jun 2027 03:31:53.505   06 Jun 2027 03:32:08.418            14.913          7456.500
       137   06 Jun 2027 03:32:17.331   06 Jun 2027 03:33:29.217            71.886         35943.000
       138   06 Jun 2027 03:33:58.385   06 Jun 2027 03:35:42.179           103.794         51897.000
       139   06 Jun 2027 05:10:22.964   06 Jun 2027 05:12:20.909           117.945         57357.313
       140   06 Jun 2027 05:14:05.341   06 Jun 2027 05:14:13.661             8.320          3021.469
       141   06 Jun 2027 05:15:00.246   06 Jun 2027 05:15:01.780             1.534           493.219
       142   06 Jun 2027 06:34:15.158   06 Jun 2027 06:34:31.048            15.890          7386.344
       143   06 Jun 2027 06:35:18.968   06 Jun 2027 06:35:23.392             4.424          1219.563
       144   06 Jun 2027 06:36:17.761   06 Jun 2027 06:36:17.761             0.000             0.000
       145   06 Jun 2027 06:36:19.386   06 Jun 2027 06:36:23.265             3.879          1714.594
       146   06 Jun 2027 08:10:14.276   06 Jun 2027 08:10:28.796            14.520          5748.969
       147   06 Jun 2027 08:10:40.737   06 Jun 2027 08:10:41.520             0.783           197.250
       148   06 Jun 2027 08:11:08.461   06 Jun 2027 08:11:10.880             2.419           409.156
       149   06 Jun 2027 08:12:27.738   06 Jun 2027 08:12:31.176             3.438          1430.719
       150   06 Jun 2027 08:13:02.396   06 Jun 2027 08:13:04.954             2.558           957.781
       151   06 Jun 2027 08:13:32.232   06 Jun 2027 08:13:39.414             7.182           799.656
       152   06 Jun 2027 09:44:02.703   06 Jun 2027 09:44:12.111             9.408          3152.437
       153   06 Jun 2027 09:45:35.027   06 Jun 2027 09:45:37.554             2.527           859.344
       154   06 Jun 2027 09:46:14.167   06 Jun 2027 09:46:17.161             2.994           391.844
       155   06 Jun 2027 09:46:36.862   06 Jun 2027 09:46:43.388             6.526           615.656
       156   06 Jun 2027 09:48:54.732   06 Jun 2027 09:48:54.732             0.000             0.000
       157   06 Jun 2027 09:49:59.278   06 Jun 2027 09:50:09.851            10.573          4672.500
       158   06 Jun 2027 09:51:09.704   06 Jun 2027 09:51:17.137             7.433          1427.094
       159   06 Jun 2027 09:52:07.365   06 Jun 2027 09:52:11.382             4.017          1455.281
       160   06 Jun 2027 09:52:12.724   06 Jun 2027 09:52:13.591             0.867            41.938
       161   06 Jun 2027 11:21:11.555   06 Jun 2027 11:21:28.214            16.659          5739.969
       162   06 Jun 2027 11:25:14.045   06 Jun 2027 11:25:26.210            12.165          5421.344
       163   06 Jun 2027 11:25:55.805   06 Jun 2027 11:25:56.047             0.242            58.469
       164   06 Jun 2027 11:26:22.124   06 Jun 2027 11:26:24.398             2.274           814.906
       165   06 Jun 2027 11:27:10.697   06 Jun 2027 11:27:17.112             6.415          1446.844
       166   06 Jun 2027 11:27:41.262   06 Jun 2027 11:27:45.310             4.048           450.094
       167   06 Jun 2027 11:27:50.243   06 Jun 2027 11:27:50.756             0.513           124.812
       168   06 Jun 2027 11:28:01.353   06 Jun 2027 11:28:04.984             3.631            84.625
       169   06 Jun 2027 11:28:06.879   06 Jun 2027 11:28:09.506             2.627            17.906
       170   07 Jun 2027 03:44:37.526   07 Jun 2027 03:44:44.328             6.802          3401.000
       171   07 Jun 2027 03:46:26.709   07 Jun 2027 03:48:04.321            97.612         48806.000
       172   07 Jun 2027 03:48:47.599   07 Jun 2027 03:49:17.798            30.199         15099.500
       173   07 Jun 2027 03:49:45.279   07 Jun 2027 03:49:52.815             7.536          3768.000
       174   07 Jun 2027 03:50:07.815   07 Jun 2027 03:50:39.177            31.362         15681.000
       175   07 Jun 2027 05:22:45.107   07 Jun 2027 05:24:38.444           113.337         56668.500
       176   07 Jun 2027 05:25:23.495   07 Jun 2027 05:25:42.004            18.509          8782.156
       177   07 Jun 2027 05:26:41.983   07 Jun 2027 05:26:45.824             3.841           881.094
       178   07 Jun 2027 05:27:13.991   07 Jun 2027 05:27:16.542             2.551           592.031
       179   07 Jun 2027 06:46:08.417   07 Jun 2027 06:46:29.330            20.913          6748.062
       180   07 Jun 2027 06:47:25.859   07 Jun 2027 06:47:30.686             4.827          1642.031
       181   07 Jun 2027 06:47:47.161   07 Jun 2027 06:47:54.607             7.446           262.500
       182   07 Jun 2027 06:48:11.345   07 Jun 2027 06:48:13.007             1.662           357.469
       183   07 Jun 2027 06:48:29.878   07 Jun 2027 06:48:33.961             4.083           227.344
       184   07 Jun 2027 08:22:31.175   07 Jun 2027 08:22:48.224            17.049          8221.250
       185   07 Jun 2027 08:23:02.971   07 Jun 2027 08:23:03.255             0.284           113.312
       186   07 Jun 2027 08:23:14.274   07 Jun 2027 08:23:15.065             0.791           267.031
       187   07 Jun 2027 08:23:54.063   07 Jun 2027 08:23:57.412             3.349           834.313
       188   07 Jun 2027 08:25:20.087   07 Jun 2027 08:25:28.998             8.911          2270.188
       189   07 Jun 2027 09:56:26.241   07 Jun 2027 09:56:31.917             5.676          2564.844
       190   07 Jun 2027 09:58:07.649   07 Jun 2027 09:58:13.278             5.629          1861.844
       191   07 Jun 2027 09:58:31.517   07 Jun 2027 09:58:35.241             3.724            50.187
       192   07 Jun 2027 09:59:34.912   07 Jun 2027 09:59:37.392             2.480           920.281
       193   07 Jun 2027 10:01:07.321   07 Jun 2027 10:01:13.012             5.691           790.000
       194   07 Jun 2027 10:01:48.824   07 Jun 2027 10:01:50.503             1.679           239.844
       195   07 Jun 2027 10:03:16.516   07 Jun 2027 10:03:21.299             4.783          1509.594
       196   07 Jun 2027 10:03:51.438   07 Jun 2027 10:03:53.278             1.840           773.125
       197   07 Jun 2027 10:04:16.110   07 Jun 2027 10:04:21.500             5.390            92.406
       198   07 Jun 2027 10:04:27.538   07 Jun 2027 10:04:30.962             3.424           188.687
       199   07 Jun 2027 11:33:37.449   07 Jun 2027 11:33:47.543            10.094          4737.813
       200   07 Jun 2027 11:36:10.445   07 Jun 2027 11:36:12.566             2.121           413.656
       201   07 Jun 2027 11:36:46.021   07 Jun 2027 11:36:47.686             1.665           670.656
       202   07 Jun 2027 11:38:20.275   07 Jun 2027 11:38:25.792             5.517          1954.875
       203   07 Jun 2027 11:38:48.975   07 Jun 2027 11:38:51.477             2.502           724.469
       204   07 Jun 2027 11:39:38.130   07 Jun 2027 11:39:43.020             4.890          1457.906
       205   07 Jun 2027 11:39:50.147   07 Jun 2027 11:39:51.312             1.165           222.719
       206   08 Jun 2027 03:56:41.340   08 Jun 2027 03:57:37.478            56.138         28069.000
       207   08 Jun 2027 03:57:43.183   08 Jun 2027 04:00:42.550           179.367         89683.500
       208   08 Jun 2027 04:01:48.362   08 Jun 2027 04:02:13.508            25.146         12573.000
       209   08 Jun 2027 05:35:07.545   08 Jun 2027 05:36:19.879            72.334         36167.000
       210   08 Jun 2027 05:36:25.598   08 Jun 2027 05:36:32.846             7.248          2374.719
       211   08 Jun 2027 05:37:29.701   08 Jun 2027 05:37:34.008             4.307          1515.562
       212   08 Jun 2027 06:57:59.782   08 Jun 2027 06:58:10.224            10.442          4961.000
       213   08 Jun 2027 06:58:24.148   08 Jun 2027 06:58:24.148             0.000             0.000
       214   08 Jun 2027 06:59:26.981   08 Jun 2027 06:59:32.313             5.332          2398.656
       215   08 Jun 2027 07:00:08.856   08 Jun 2027 07:00:10.818             1.962           852.063
       216   08 Jun 2027 08:34:34.550   08 Jun 2027 08:34:40.723             6.173          2993.938
       217   08 Jun 2027 08:35:36.073   08 Jun 2027 08:35:41.412             5.339          1072.719
       218   08 Jun 2027 08:37:07.000   08 Jun 2027 08:37:17.909            10.909          1867.875
       219   08 Jun 2027 10:09:43.424   08 Jun 2027 10:09:52.610             9.186          3581.469
       220   08 Jun 2027 10:10:45.550   08 Jun 2027 10:10:51.309             5.759           740.094
       221   08 Jun 2027 10:11:42.751   08 Jun 2027 10:11:46.196             3.445          1578.656
       222   08 Jun 2027 10:12:51.688   08 Jun 2027 10:12:51.688             0.000             0.000
       223   08 Jun 2027 10:13:30.399   08 Jun 2027 10:13:34.490             4.091          1679.625
       224   08 Jun 2027 10:14:05.479   08 Jun 2027 10:14:07.108             1.629           460.219
       225   08 Jun 2027 10:15:02.843   08 Jun 2027 10:15:09.558             6.715           867.312
       226   08 Jun 2027 10:15:52.278   08 Jun 2027 10:15:54.208             1.930           534.688
       227   08 Jun 2027 10:16:23.198   08 Jun 2027 10:16:26.014             2.816           516.156
       228   08 Jun 2027 11:46:03.456   08 Jun 2027 11:46:17.696            14.240          6420.187
       229   08 Jun 2027 11:47:27.262   08 Jun 2027 11:47:30.245             2.983          1186.875
       230   08 Jun 2027 11:47:44.725   08 Jun 2027 11:47:46.571             1.846           357.969
       231   08 Jun 2027 11:48:04.375   08 Jun 2027 11:48:07.549             3.174           175.250
       232   08 Jun 2027 11:48:49.082   08 Jun 2027 11:48:59.123            10.041          1297.906
       233   08 Jun 2027 11:49:40.112   08 Jun 2027 11:49:44.100             3.988           716.125
       234   08 Jun 2027 11:49:54.275   08 Jun 2027 11:49:56.672             2.397           276.438
       235   08 Jun 2027 11:50:05.353   08 Jun 2027 11:50:06.576             1.223           263.062
       236   08 Jun 2027 11:50:24.319   08 Jun 2027 11:50:26.712             2.393           175.219
       237   08 Jun 2027 11:51:29.123   08 Jun 2027 11:51:34.339             5.216          1945.906
       238   08 Jun 2027 11:52:00.949   08 Jun 2027 11:52:03.295             2.346           500.562
       239   09 Jun 2027 04:08:31.996   09 Jun 2027 04:09:30.816            58.820         29410.000
       240   09 Jun 2027 04:09:39.310   09 Jun 2027 04:11:23.833           104.523         52261.500
       241   09 Jun 2027 04:11:57.669   09 Jun 2027 04:12:55.351            57.682         28841.000
       242   09 Jun 2027 04:13:20.331   09 Jun 2027 04:13:20.331             0.000             0.000
       243   09 Jun 2027 05:46:48.808   09 Jun 2027 05:48:24.570            95.762         47751.344
       244   09 Jun 2027 05:49:28.273   09 Jun 2027 05:49:32.797             4.524          1700.594
       245   09 Jun 2027 05:49:36.244   09 Jun 2027 05:49:36.936             0.692            84.000
       246   09 Jun 2027 07:10:10.555   09 Jun 2027 07:10:21.711            11.156          4382.375
       247   09 Jun 2027 07:11:27.828   09 Jun 2027 07:11:27.828             0.000             0.000
       248   09 Jun 2027 07:12:03.625   09 Jun 2027 07:12:11.354             7.729          3113.375
       249   09 Jun 2027 07:12:43.880   09 Jun 2027 07:12:43.880             0.000             0.000
       250   09 Jun 2027 08:46:45.467   09 Jun 2027 08:46:56.054            10.587          3704.688
       251   09 Jun 2027 08:48:00.776   09 Jun 2027 08:48:04.397             3.621          1810.500
       252   09 Jun 2027 08:49:18.886   09 Jun 2027 08:49:24.894             6.008          2537.437
       253   09 Jun 2027 10:21:55.481   09 Jun 2027 10:22:07.068            11.587          4853.000
       254   09 Jun 2027 10:23:16.613   09 Jun 2027 10:23:21.594             4.981          2051.125
       255   09 Jun 2027 10:23:53.375   09 Jun 2027 10:23:55.847             2.472           733.156
       256   09 Jun 2027 10:25:05.859   09 Jun 2027 10:25:05.859             0.000             0.000
       257   09 Jun 2027 10:26:51.556   09 Jun 2027 10:26:59.399             7.843          3839.625
       258   09 Jun 2027 10:28:08.902   09 Jun 2027 10:28:14.922             6.020          2022.844
       259   09 Jun 2027 10:28:19.263   09 Jun 2027 10:28:19.899             0.636            92.812
       260   09 Jun 2027 11:58:16.403   09 Jun 2027 11:58:38.977            22.574          5954.031
       261   09 Jun 2027 11:59:41.204   09 Jun 2027 11:59:44.824             3.620          1680.125
       262   10 Jun 2027 04:21:38.348   10 Jun 2027 04:23:47.984           129.636         64818.000
       263   10 Jun 2027 04:24:58.978   10 Jun 2027 04:25:08.381             9.403          4701.500
       264   10 Jun 2027 04:25:21.387   10 Jun 2027 04:25:24.554             3.167          1583.500
       265   10 Jun 2027 04:26:07.327   10 Jun 2027 04:26:37.843            30.516         15258.000
       266   10 Jun 2027 04:28:09.806   10 Jun 2027 04:28:16.907             7.101          3550.500
       267   10 Jun 2027 04:28:32.942   10 Jun 2027 04:29:10.604            37.662         18831.000
       268   10 Jun 2027 05:58:45.241   10 Jun 2027 05:59:26.695            41.454         20727.000
       269   10 Jun 2027 05:59:34.863   10 Jun 2027 06:00:25.020            50.157         25078.500
       270   10 Jun 2027 06:00:50.959   10 Jun 2027 06:00:59.895             8.936          4468.000
       271   10 Jun 2027 06:01:41.002   10 Jun 2027 06:01:47.763             6.761          3169.156
       272   10 Jun 2027 07:22:42.225   10 Jun 2027 07:22:57.343            15.118          6167.719
       273   10 Jun 2027 07:23:37.434   10 Jun 2027 07:23:41.449             4.015           817.906
       274   10 Jun 2027 07:24:44.805   10 Jun 2027 07:24:48.512             3.707          1323.344
       275   10 Jun 2027 07:25:08.581   10 Jun 2027 07:25:11.594             3.013           622.125
       276   10 Jun 2027 08:58:33.757   10 Jun 2027 08:58:39.027             5.270          1877.031
       277   10 Jun 2027 09:00:03.816   10 Jun 2027 09:00:04.679             0.863           386.031
       278   10 Jun 2027 09:00:50.653   10 Jun 2027 09:00:50.653             0.000             0.000
       279   10 Jun 2027 09:01:17.195   10 Jun 2027 09:01:25.505             8.310          1516.312
       280   10 Jun 2027 10:33:26.220   10 Jun 2027 10:33:44.376            18.156          3264.219
       281   10 Jun 2027 10:35:45.037   10 Jun 2027 10:35:53.658             8.621          3407.188
       282   10 Jun 2027 10:36:22.899   10 Jun 2027 10:36:24.693             1.794           498.781
       283   10 Jun 2027 10:36:44.391   10 Jun 2027 10:36:48.560             4.169           615.563
       284   10 Jun 2027 10:37:48.455   10 Jun 2027 10:37:50.807             2.352           764.750
       285   10 Jun 2027 10:38:02.318   10 Jun 2027 10:38:04.297             1.979           285.344
       286   10 Jun 2027 10:38:45.293   10 Jun 2027 10:38:49.286             3.993           900.000
       287   10 Jun 2027 10:40:10.122   10 Jun 2027 10:40:17.869             7.747          2459.063
       288   11 Jun 2027 03:00:00.000   11 Jun 2027 03:00:05.516             5.516          2758.000
       289   11 Jun 2027 03:00:14.487   11 Jun 2027 03:00:29.545            15.058          7529.000
       290   11 Jun 2027 03:00:57.973   11 Jun 2027 03:01:20.577            22.604         11302.000
       291   11 Jun 2027 04:33:43.242   11 Jun 2027 04:35:32.681           109.439         54719.500
       292   11 Jun 2027 04:36:23.423   11 Jun 2027 04:36:43.420            19.997          9998.500
       293   11 Jun 2027 04:37:52.740   11 Jun 2027 04:37:54.694             1.954           977.000
       294   11 Jun 2027 04:38:55.594   11 Jun 2027 04:39:43.460            47.866         23933.000
       295   11 Jun 2027 04:39:53.142   11 Jun 2027 04:40:03.677            10.535          5267.500
       296   11 Jun 2027 04:40:11.686   11 Jun 2027 04:41:15.087            63.401         31700.500
       297   11 Jun 2027 05:59:23.835   11 Jun 2027 06:00:06.632            42.797         21398.500
       298   11 Jun 2027 06:10:42.820   11 Jun 2027 06:11:06.884            24.064         11473.751
       299   11 Jun 2027 06:11:47.666   11 Jun 2027 06:11:48.798             1.132           107.625
       300   11 Jun 2027 07:33:18.089   11 Jun 2027 07:33:29.581            11.492          5668.625
       301   11 Jun 2027 07:34:53.311   11 Jun 2027 07:34:58.542             5.231          1503.062
       302   11 Jun 2027 07:35:38.987   11 Jun 2027 07:35:40.599             1.612           794.250
       303   11 Jun 2027 07:36:38.466   11 Jun 2027 07:36:44.775             6.309          1102.844
       304   11 Jun 2027 07:37:11.665   11 Jun 2027 07:37:15.292             3.627           724.594
       305   11 Jun 2027 07:37:58.958   11 Jun 2027 07:37:59.800             0.842           421.000
       306   11 Jun 2027 09:08:49.642   11 Jun 2027 09:08:58.621             8.979          3886.750
       307   11 Jun 2027 09:09:21.130   11 Jun 2027 09:09:31.816            10.686           267.812
       308   11 Jun 2027 09:12:09.178   11 Jun 2027 09:12:16.773             7.595          2875.250
       309   11 Jun 2027 09:13:27.446   11 Jun 2027 09:13:29.958             2.512           494.844
       310   11 Jun 2027 09:13:41.393   11 Jun 2027 09:13:43.675             2.282            36.313
       311   11 Jun 2027 09:14:36.004   11 Jun 2027 09:14:37.929             1.925           888.937
       312   11 Jun 2027 10:45:09.315   11 Jun 2027 10:45:19.035             9.720          3260.438
       313   11 Jun 2027 10:48:18.025   11 Jun 2027 10:48:28.436            10.411          5108.094
       314   11 Jun 2027 10:49:29.335   11 Jun 2027 10:49:45.613            16.278          1589.781
       315   11 Jun 2027 10:49:50.473   11 Jun 2027 10:49:50.628             0.155            77.500
       316   11 Jun 2027 10:50:01.840   11 Jun 2027 10:50:03.735             1.895           369.344
       317   11 Jun 2027 10:51:09.126   11 Jun 2027 10:51:13.198             4.072          1687.031
       318   11 Jun 2027 10:51:16.846   11 Jun 2027 10:51:17.522             0.676            79.969
       319   11 Jun 2027 10:52:17.121   11 Jun 2027 10:52:22.207             5.086           719.188
       320   12 Jun 2027 03:07:08.125   12 Jun 2027 03:07:52.812            44.687         22343.500
       321   12 Jun 2027 03:08:23.277   12 Jun 2027 03:08:29.406             6.129          3064.500
       322   12 Jun 2027 03:09:11.976   12 Jun 2027 03:09:13.015             1.039           519.500
       323   12 Jun 2027 03:09:19.307   12 Jun 2027 03:09:28.044             8.737          4368.500
       324   12 Jun 2027 03:09:59.134   12 Jun 2027 03:10:08.830             9.696          4848.000
       325   12 Jun 2027 03:10:42.602   12 Jun 2027 03:10:51.036             8.434          4217.000
       326   12 Jun 2027 03:11:06.869   12 Jun 2027 03:11:10.616             3.747          1873.500
       327   12 Jun 2027 03:11:33.361   12 Jun 2027 03:11:37.361             4.000          2000.000
       328   12 Jun 2027 03:12:08.431   12 Jun 2027 03:12:14.563             6.132          3066.000
       329   12 Jun 2027 03:12:29.900   12 Jun 2027 03:12:45.526            15.626          7813.000
       330   12 Jun 2027 04:46:12.734   12 Jun 2027 04:48:59.297           166.563         83281.500
       331   12 Jun 2027 04:49:48.920   12 Jun 2027 04:50:29.121            40.201         19125.656
       332   12 Jun 2027 04:51:08.918   12 Jun 2027 04:51:10.667             1.749           342.031
       333   12 Jun 2027 04:51:18.506   12 Jun 2027 04:51:20.883             2.377           115.969
       334   12 Jun 2027 04:52:00.289   12 Jun 2027 04:52:02.214             1.925            76.500
       335   12 Jun 2027 04:52:23.515   12 Jun 2027 04:52:24.731             1.216           363.469
       336   12 Jun 2027 04:53:15.479   12 Jun 2027 04:53:20.070             4.591          1577.156
       337   12 Jun 2027 06:11:02.240   12 Jun 2027 06:11:23.619            21.379          9710.844
       338   12 Jun 2027 06:22:42.410   12 Jun 2027 06:22:50.372             7.962          2580.938
       339   12 Jun 2027 07:45:01.115   12 Jun 2027 07:45:12.988            11.873          5133.906
       340   12 Jun 2027 07:45:45.150   12 Jun 2027 07:45:45.150             0.000             0.000
       341   12 Jun 2027 07:46:57.338   12 Jun 2027 07:47:03.512             6.174          2450.719
       342   12 Jun 2027 07:47:23.209   12 Jun 2027 07:47:24.248             1.039           236.781
       343   12 Jun 2027 07:48:05.840   12 Jun 2027 07:48:10.254             4.414          1181.750
       344   12 Jun 2027 07:49:35.786   12 Jun 2027 07:49:45.524             9.738          2066.188
       345   12 Jun 2027 07:49:57.403   12 Jun 2027 07:49:57.808             0.405           143.063
       346   12 Jun 2027 09:19:57.824   12 Jun 2027 09:20:05.460             7.636          3305.125
       347   12 Jun 2027 09:21:01.241   12 Jun 2027 09:21:03.080             1.839           494.125
       348   12 Jun 2027 09:22:06.979   12 Jun 2027 09:22:10.129             3.150          1377.594
       349   12 Jun 2027 09:23:35.313   12 Jun 2027 09:23:40.485             5.172          1105.750
       350   12 Jun 2027 09:25:12.329   12 Jun 2027 09:25:18.567             6.238          2732.281
       351   12 Jun 2027 09:26:23.229   12 Jun 2027 09:26:27.606             4.377          1750.406
       352   12 Jun 2027 09:27:03.017   12 Jun 2027 09:27:14.075            11.058           999.594
       353   12 Jun 2027 11:00:30.404   12 Jun 2027 11:00:43.597            13.193          6596.500
       354   12 Jun 2027 11:00:56.347   12 Jun 2027 11:01:05.125             8.778          3614.781
       355   12 Jun 2027 11:01:50.602   12 Jun 2027 11:01:55.323             4.721           267.875
       356   12 Jun 2027 11:02:19.311   12 Jun 2027 11:02:20.761             1.450           339.656
       357   12 Jun 2027 11:03:38.444   12 Jun 2027 11:03:47.761             9.317          2412.000
       358   12 Jun 2027 11:04:29.560   12 Jun 2027 11:04:37.867             8.307          1211.500
       359   13 Jun 2027 03:19:28.625   13 Jun 2027 03:19:54.696            26.071         13035.500
       360   13 Jun 2027 03:20:01.588   13 Jun 2027 03:20:33.235            31.647         15823.500
       361   13 Jun 2027 03:20:37.316   13 Jun 2027 03:21:30.615            53.299         26649.500
       362   13 Jun 2027 03:21:33.308   13 Jun 2027 03:22:54.566            81.258         40629.000
       363   13 Jun 2027 03:23:27.060   13 Jun 2027 03:23:46.687            19.627          9813.500
       364   13 Jun 2027 03:24:06.648   13 Jun 2027 03:24:14.039             7.391          3695.500
       365   13 Jun 2027 03:24:29.004   13 Jun 2027 03:24:31.608             2.604          1302.000
       366   13 Jun 2027 03:24:54.824   13 Jun 2027 03:24:56.654             1.830           915.000
       367   13 Jun 2027 04:58:15.915   13 Jun 2027 04:58:26.985            11.070          5535.000
       368   13 Jun 2027 04:59:11.124   13 Jun 2027 05:00:25.605            74.481         36316.563
       369   13 Jun 2027 05:02:06.990   13 Jun 2027 05:02:17.538            10.548          2979.031
       370   13 Jun 2027 05:05:00.528   13 Jun 2027 05:05:03.855             3.327           656.125
       371   13 Jun 2027 06:22:35.794   13 Jun 2027 06:22:49.943            14.149          6114.719
       372   13 Jun 2027 06:23:13.361   13 Jun 2027 06:23:13.361             0.000             0.000
       373   13 Jun 2027 06:23:39.991   13 Jun 2027 06:23:43.207             3.216          1270.406
       374   13 Jun 2027 06:24:20.493   13 Jun 2027 06:24:21.393             0.900           364.062
       375   13 Jun 2027 06:34:51.533   13 Jun 2027 06:34:57.126             5.593          2269.375
       376   13 Jun 2027 07:56:33.165   13 Jun 2027 07:56:43.630            10.465          4218.687
       377   13 Jun 2027 07:58:27.807   13 Jun 2027 07:58:32.972             5.165          1674.500
       378   13 Jun 2027 08:00:10.535   13 Jun 2027 08:00:15.216             4.681          2276.031
       379   13 Jun 2027 08:01:36.722   13 Jun 2027 08:01:42.390             5.668          2483.719
       380   13 Jun 2027 08:01:49.941   13 Jun 2027 08:01:49.941             0.000             0.000
       381   13 Jun 2027 09:31:26.720   13 Jun 2027 09:31:38.076            11.356          4551.000
       382   13 Jun 2027 09:33:25.585   13 Jun 2027 09:33:26.076             0.491            40.375
       383   13 Jun 2027 09:35:06.094   13 Jun 2027 09:35:11.325             5.231          2222.781
       384   13 Jun 2027 09:35:45.212   13 Jun 2027 09:35:48.854             3.642          1058.969
       385   13 Jun 2027 09:38:18.967   13 Jun 2027 09:38:23.902             4.935          2076.437
       386   13 Jun 2027 09:39:05.069   13 Jun 2027 09:39:11.375             6.306          1274.625
       387   13 Jun 2027 09:40:23.687   13 Jun 2027 09:40:28.796             5.109          2148.438
       388   13 Jun 2027 11:09:21.388   13 Jun 2027 11:09:45.626            24.238          4083.531
       389   13 Jun 2027 11:10:50.314   13 Jun 2027 11:10:57.086             6.772          1228.719
       390   13 Jun 2027 11:14:46.320   13 Jun 2027 11:14:56.806            10.486          4589.625
       391   13 Jun 2027 11:15:50.439   13 Jun 2027 11:15:53.673             3.234          1048.375
       392   13 Jun 2027 11:16:19.694   13 Jun 2027 11:16:21.163             1.469           719.750
