uniorb/output/strategy_4/Camera/Camera_KinoSat_110701.txt

KinoSat_110701
-------------------------
    Access    *     Start Time (UTCG)     *     Stop Time (UTCG)  *   Duration (s) *   Data (Mbytes)
         1   01 Jun 2027 04:18:17.478   01 Jun 2027 04:20:03.572           106.094         53047.000
         2   01 Jun 2027 04:20:18.386   01 Jun 2027 04:20:18.386             0.000             0.000
         3   01 Jun 2027 05:53:27.386   01 Jun 2027 05:55:34.015           126.629         63314.500
         4   01 Jun 2027 05:56:03.864   01 Jun 2027 05:56:19.525            15.661          7830.500
         5   01 Jun 2027 05:57:38.171   01 Jun 2027 05:57:44.242             6.071          3035.500
         6   01 Jun 2027 05:58:55.576   01 Jun 2027 05:59:07.032            11.456          5728.000
         7   01 Jun 2027 05:59:57.335   01 Jun 2027 05:59:57.933             0.598           299.000
         8   01 Jun 2027 07:29:52.621   01 Jun 2027 07:32:35.499           162.878         81439.000
         9   01 Jun 2027 07:33:39.679   01 Jun 2027 07:33:45.466             5.787          2893.500
        10   01 Jun 2027 09:07:07.156   01 Jun 2027 09:10:09.623           182.467         91233.500
        11   01 Jun 2027 09:10:42.997   01 Jun 2027 09:10:48.560             5.563          2781.500
        12   01 Jun 2027 09:11:08.315   01 Jun 2027 09:11:08.554             0.239           119.500
        13   01 Jun 2027 09:11:40.721   01 Jun 2027 09:11:43.995             3.274          1637.000
        14   01 Jun 2027 10:43:21.900   01 Jun 2027 10:46:03.869           161.969         80984.500
        15   01 Jun 2027 10:47:09.417   01 Jun 2027 10:47:17.666             8.249          4124.500
        16   02 Jun 2027 04:30:10.377   02 Jun 2027 04:30:17.692             7.315          3657.500
        17   02 Jun 2027 04:30:44.360   02 Jun 2027 04:31:05.986            21.626         10813.000
        18   02 Jun 2027 04:31:46.801   02 Jun 2027 04:32:42.025            55.224         27612.000
        19   02 Jun 2027 04:33:35.476   02 Jun 2027 04:34:07.808            32.332         16166.000
        20   02 Jun 2027 06:05:06.950   02 Jun 2027 06:07:42.395           155.445         77722.500
        21   02 Jun 2027 06:08:06.398   02 Jun 2027 06:08:24.658            18.260          9130.000
        22   02 Jun 2027 06:10:36.709   02 Jun 2027 06:11:23.906            47.197         23598.500
        23   02 Jun 2027 06:12:08.412   02 Jun 2027 06:12:12.407             3.995          1997.500
        24   02 Jun 2027 07:41:24.998   02 Jun 2027 07:44:02.183           157.185         78592.500
        25   02 Jun 2027 07:45:09.401   02 Jun 2027 07:46:07.770            58.369         29184.500
        26   02 Jun 2027 07:46:39.963   02 Jun 2027 07:46:52.602            12.639          6319.500
        27   02 Jun 2027 09:19:40.866   02 Jun 2027 09:21:45.714           124.848         60116.687
        28   02 Jun 2027 09:22:17.491   02 Jun 2027 09:22:19.667             2.176           451.469
        29   02 Jun 2027 09:22:53.321   02 Jun 2027 09:22:56.023             2.702            78.062
        30   02 Jun 2027 09:23:06.142   02 Jun 2027 09:23:07.177             1.035           204.750
        31   02 Jun 2027 10:55:00.873   02 Jun 2027 10:55:13.552            12.679          5722.156
        32   03 Jun 2027 03:04:55.630   03 Jun 2027 03:05:22.851            27.221         13610.500
        33   03 Jun 2027 04:40:29.083   03 Jun 2027 04:41:02.367            33.284         16642.000
        34   03 Jun 2027 04:41:54.246   03 Jun 2027 04:44:20.710           146.464         73232.000
        35   03 Jun 2027 04:45:23.515   03 Jun 2027 04:45:36.513            12.998          6499.000
        36   03 Jun 2027 04:45:45.125   03 Jun 2027 04:45:49.483             4.358          2179.000
        37   03 Jun 2027 06:16:40.100   03 Jun 2027 06:18:15.514            95.414         46927.563
        38   03 Jun 2027 06:19:18.444   03 Jun 2027 06:19:21.195             2.751           538.219
        39   03 Jun 2027 06:19:50.920   03 Jun 2027 06:19:51.976             1.056           329.562
        40   03 Jun 2027 06:21:42.302   03 Jun 2027 06:21:52.587            10.285          3447.688
        41   03 Jun 2027 06:22:31.694   03 Jun 2027 06:22:34.947             3.253          1222.094
        42   03 Jun 2027 06:23:31.448   03 Jun 2027 06:23:36.455             5.007          1691.844
        43   03 Jun 2027 07:53:44.292   03 Jun 2027 07:53:45.302             1.010           191.281
        44   03 Jun 2027 07:54:53.949   03 Jun 2027 07:54:56.471             2.522           481.813
        45   03 Jun 2027 07:57:22.627   03 Jun 2027 07:57:28.421             5.794          2490.687
        46   03 Jun 2027 07:57:46.559   03 Jun 2027 07:57:48.461             1.902           517.344
        47   03 Jun 2027 07:58:16.559   03 Jun 2027 07:58:17.624             1.065           453.656
        48   03 Jun 2027 07:58:17.799   03 Jun 2027 07:58:20.931             3.132             2.406
        49   03 Jun 2027 07:59:04.822   03 Jun 2027 07:59:07.783             2.961           113.219
        50   03 Jun 2027 09:31:43.493   03 Jun 2027 09:31:58.183            14.690          5300.125
        51   03 Jun 2027 09:32:46.631   03 Jun 2027 09:32:53.133             6.502          1514.000
        52   03 Jun 2027 09:34:33.230   03 Jun 2027 09:34:34.267             1.037           436.281
        53   03 Jun 2027 09:35:02.671   03 Jun 2027 09:35:04.437             1.766           573.156
        54   03 Jun 2027 09:35:12.106   03 Jun 2027 09:35:14.357             2.251           209.094
        55   03 Jun 2027 11:04:52.817   03 Jun 2027 11:05:05.463            12.646          5094.875
        56   04 Jun 2027 03:16:31.437   04 Jun 2027 03:16:36.667             5.230          2615.000
        57   04 Jun 2027 03:17:34.939   04 Jun 2027 03:17:39.689             4.750          2375.000
        58   04 Jun 2027 03:19:23.487   04 Jun 2027 03:19:29.498             6.011          3005.500
        59   04 Jun 2027 03:21:04.990   04 Jun 2027 03:21:08.655             3.665          1832.500
        60   04 Jun 2027 04:51:35.961   04 Jun 2027 04:53:19.039           103.078         51539.000
        61   04 Jun 2027 04:53:38.846   04 Jun 2027 04:55:48.292           129.446         64723.000
        62   04 Jun 2027 04:59:34.694   04 Jun 2027 04:59:39.495             4.801          2400.500
        63   04 Jun 2027 06:28:56.862   04 Jun 2027 06:29:53.520            56.658         28329.000
        64   04 Jun 2027 06:30:07.573   04 Jun 2027 06:30:12.261             4.688          1120.594
        65   04 Jun 2027 06:31:45.165   04 Jun 2027 06:31:48.462             3.297           329.156
        66   04 Jun 2027 06:32:22.939   04 Jun 2027 06:32:28.325             5.386           939.781
        67   04 Jun 2027 06:34:12.869   04 Jun 2027 06:34:15.656             2.787           943.187
        68   04 Jun 2027 06:35:03.365   04 Jun 2027 06:35:05.401             2.036           995.500
        69   04 Jun 2027 08:05:46.038   04 Jun 2027 08:05:50.846             4.808           218.344
        70   04 Jun 2027 08:08:19.595   04 Jun 2027 08:08:23.110             3.515           526.719
        71   04 Jun 2027 08:09:26.855   04 Jun 2027 08:09:28.522             1.667           793.469
        72   04 Jun 2027 08:09:39.799   04 Jun 2027 08:09:40.308             0.509           188.500
        73   04 Jun 2027 08:09:57.340   04 Jun 2027 08:10:00.445             3.105           406.281
        74   04 Jun 2027 08:11:08.679   04 Jun 2027 08:11:14.977             6.298          1604.656
        75   04 Jun 2027 09:43:42.941   04 Jun 2027 09:43:52.521             9.580          4602.344
        76   04 Jun 2027 09:44:52.411   04 Jun 2027 09:44:53.705             1.294           280.156
        77   04 Jun 2027 09:47:04.470   04 Jun 2027 09:47:06.286             1.816           856.812
        78   04 Jun 2027 09:47:18.596   04 Jun 2027 09:47:19.850             1.254           280.625
        79   04 Jun 2027 11:17:19.408   04 Jun 2027 11:17:21.187             1.779           513.781
        80   05 Jun 2027 03:28:15.694   05 Jun 2027 03:28:19.412             3.718          1859.000
        81   05 Jun 2027 03:29:18.912   05 Jun 2027 03:29:22.854             3.942          1971.000
        82   05 Jun 2027 03:30:23.232   05 Jun 2027 03:30:31.279             8.047          4023.500
        83   05 Jun 2027 03:31:20.953   05 Jun 2027 03:31:27.650             6.697          3348.500
        84   05 Jun 2027 05:03:04.160   05 Jun 2027 05:06:17.293           193.133         96566.500
        85   05 Jun 2027 05:08:13.918   05 Jun 2027 05:08:13.918             0.000             0.000
        86   05 Jun 2027 05:09:36.976   05 Jun 2027 05:09:51.050            14.074          7037.000
        87   05 Jun 2027 05:11:42.206   05 Jun 2027 05:11:42.206             0.000             0.000
        88   05 Jun 2027 06:40:52.673   05 Jun 2027 06:42:27.082            94.409         46416.938
        89   05 Jun 2027 06:42:58.800   05 Jun 2027 06:43:01.389             2.589            98.219
        90   05 Jun 2027 06:43:54.540   05 Jun 2027 06:43:56.819             2.279           576.063
        91   05 Jun 2027 06:44:13.525   05 Jun 2027 06:44:13.525             0.000             0.000
        92   05 Jun 2027 06:44:29.143   05 Jun 2027 06:44:31.087             1.944           724.094
        93   05 Jun 2027 06:45:56.015   05 Jun 2027 06:45:58.054             2.039           251.469
        94   05 Jun 2027 06:46:28.008   05 Jun 2027 06:46:31.726             3.718           936.062
        95   05 Jun 2027 06:46:51.208   05 Jun 2027 06:46:58.734             7.526           508.313
        96   05 Jun 2027 08:17:37.181   05 Jun 2027 08:17:41.089             3.908          1114.219
        97   05 Jun 2027 08:20:38.775   05 Jun 2027 08:20:41.536             2.761             4.094
        98   05 Jun 2027 08:21:36.761   05 Jun 2027 08:21:43.296             6.535           266.812
        99   05 Jun 2027 08:22:28.578   05 Jun 2027 08:22:31.443             2.865           263.063
       100   05 Jun 2027 08:23:57.464   05 Jun 2027 08:24:00.259             2.795          1321.312
       101   05 Jun 2027 09:55:44.492   05 Jun 2027 09:55:54.707            10.215          3039.406
       102   05 Jun 2027 09:57:27.003   05 Jun 2027 09:57:33.550             6.547           917.906
       103   05 Jun 2027 09:58:45.065   05 Jun 2027 09:58:46.232             1.167            46.094
       104   05 Jun 2027 09:58:56.800   05 Jun 2027 09:59:01.072             4.272             2.375
       105   05 Jun 2027 11:29:35.569   05 Jun 2027 11:29:42.496             6.927          1541.531
       106   06 Jun 2027 03:42:01.487   06 Jun 2027 03:42:09.637             8.150          4075.000
       107   06 Jun 2027 03:43:24.924   06 Jun 2027 03:43:24.924             0.000             0.000
       108   06 Jun 2027 03:44:14.868   06 Jun 2027 03:44:22.515             7.647          3823.500
       109   06 Jun 2027 05:15:52.450   06 Jun 2027 05:18:52.632           180.182         90091.000
       110   06 Jun 2027 05:23:55.828   06 Jun 2027 05:24:22.366            26.538         13269.000
       111   06 Jun 2027 06:52:59.076   06 Jun 2027 06:54:31.565            92.489         46111.906
       112   06 Jun 2027 06:54:52.294   06 Jun 2027 06:54:52.294             0.000             0.000
       113   06 Jun 2027 06:55:23.963   06 Jun 2027 06:55:23.963             0.000             0.000
       114   06 Jun 2027 06:55:52.397   06 Jun 2027 06:55:55.887             3.490          1745.000
       115   06 Jun 2027 06:56:38.035   06 Jun 2027 06:56:46.680             8.645          1957.000
       116   06 Jun 2027 06:57:41.195   06 Jun 2027 06:57:46.439             5.244           103.656
       117   06 Jun 2027 06:58:00.532   06 Jun 2027 06:58:03.334             2.802           293.656
       118   06 Jun 2027 06:58:12.599   06 Jun 2027 06:58:16.031             3.432           144.344
       119   06 Jun 2027 08:30:01.260   06 Jun 2027 08:30:07.386             6.126          1616.844
       120   06 Jun 2027 08:31:59.188   06 Jun 2027 08:32:00.126             0.938           408.938
       121   06 Jun 2027 08:33:32.286   06 Jun 2027 08:33:34.439             2.153          1076.500
       122   06 Jun 2027 08:33:56.913   06 Jun 2027 08:33:59.521             2.608           817.812
       123   06 Jun 2027 08:34:27.654   06 Jun 2027 08:34:27.794             0.140            41.969
       124   06 Jun 2027 08:35:22.682   06 Jun 2027 08:35:24.612             1.930           174.844
       125   06 Jun 2027 08:36:00.994   06 Jun 2027 08:36:02.899             1.905           905.656
       126   06 Jun 2027 10:06:58.473   06 Jun 2027 10:07:09.756            11.283          5366.437
       127   06 Jun 2027 10:07:33.757   06 Jun 2027 10:07:36.500             2.743           306.562
       128   06 Jun 2027 10:08:42.883   06 Jun 2027 10:08:46.716             3.833          1042.031
       129   06 Jun 2027 10:10:08.785   06 Jun 2027 10:10:11.971             3.186           381.937
       130   06 Jun 2027 10:10:57.876   06 Jun 2027 10:11:00.877             3.001           176.125
       131   06 Jun 2027 11:42:02.310   06 Jun 2027 11:42:06.288             3.978          1833.344
       132   07 Jun 2027 03:54:23.136   07 Jun 2027 03:54:48.767            25.631         12815.500
       133   07 Jun 2027 05:27:50.891   07 Jun 2027 05:30:43.419           172.528         86264.000
       134   07 Jun 2027 05:30:46.572   07 Jun 2027 05:30:58.635            12.063          6031.500
       135   07 Jun 2027 05:34:49.766   07 Jun 2027 05:34:51.609             1.843           921.500
       136   07 Jun 2027 05:35:47.217   07 Jun 2027 05:35:55.399             8.182          4091.000
       137   07 Jun 2027 05:36:04.199   07 Jun 2027 05:36:21.406            17.207          8603.500
       138   07 Jun 2027 07:05:24.810   07 Jun 2027 07:07:00.665            95.855         47400.813
       139   07 Jun 2027 07:08:41.907   07 Jun 2027 07:08:42.563             0.656           178.125
       140   07 Jun 2027 08:42:18.704   07 Jun 2027 08:42:25.859             7.155          3431.344
       141   07 Jun 2027 08:45:01.061   07 Jun 2027 08:45:06.526             5.465          2040.875
       142   07 Jun 2027 08:45:56.114   07 Jun 2027 08:45:57.105             0.991            72.656
       143   07 Jun 2027 08:46:45.507   07 Jun 2027 08:46:47.148             1.641           637.937
       144   07 Jun 2027 10:19:12.438   07 Jun 2027 10:19:29.488            17.050          7599.875
       145   07 Jun 2027 10:21:06.557   07 Jun 2027 10:21:13.671             7.114          1241.062
       146   07 Jun 2027 10:21:49.706   07 Jun 2027 10:21:53.267             3.561           143.281
       147   07 Jun 2027 11:56:51.968   07 Jun 2027 11:56:54.209             2.241           535.906
       148   08 Jun 2027 04:06:24.554   08 Jun 2027 04:06:45.327            20.773         10386.500
       149   08 Jun 2027 04:07:14.922   08 Jun 2027 04:07:14.922             0.000             0.000
       150   08 Jun 2027 04:08:25.372   08 Jun 2027 04:08:31.634             6.262          3131.000
       151   08 Jun 2027 04:09:25.331   08 Jun 2027 04:09:54.491            29.160         14580.000
       152   08 Jun 2027 05:41:19.568   08 Jun 2027 05:43:03.796           104.228         52114.000
       153   08 Jun 2027 05:44:32.452   08 Jun 2027 05:45:11.271            38.819         19409.500
       154   08 Jun 2027 05:47:35.615   08 Jun 2027 05:47:59.237            23.622         11811.000
       155   08 Jun 2027 07:17:32.180   08 Jun 2027 07:19:29.160           116.980         57843.750
       156   08 Jun 2027 07:21:40.892   08 Jun 2027 07:21:45.825             4.933           489.938
       157   08 Jun 2027 08:55:15.348   08 Jun 2027 08:55:27.331            11.983          5253.813
       158   08 Jun 2027 08:55:51.317   08 Jun 2027 08:55:57.788             6.471           186.219
       159   08 Jun 2027 08:57:02.687   08 Jun 2027 08:57:07.576             4.889          1614.687
       160   08 Jun 2027 08:57:49.132   08 Jun 2027 08:57:52.638             3.506          1045.500
       161   08 Jun 2027 08:58:36.707   08 Jun 2027 08:58:44.015             7.308           635.781
       162   08 Jun 2027 08:59:17.000   08 Jun 2027 08:59:23.546             6.546          1006.656
       163   08 Jun 2027 10:31:21.654   08 Jun 2027 10:31:35.049            13.395          5667.281
       164   08 Jun 2027 10:35:04.545   08 Jun 2027 10:35:07.094             2.549           230.781
       165   09 Jun 2027 04:18:32.165   09 Jun 2027 04:19:07.267            35.102         17551.000
       166   09 Jun 2027 04:19:30.520   09 Jun 2027 04:19:38.291             7.771          3885.500
       167   09 Jun 2027 04:20:20.812   09 Jun 2027 04:20:33.253            12.441          6220.500
       168   09 Jun 2027 04:21:31.312   09 Jun 2027 04:21:49.755            18.443          9221.500
       169   09 Jun 2027 04:21:57.864   09 Jun 2027 04:22:01.607             3.743          1871.500
       170   09 Jun 2027 05:53:42.177   09 Jun 2027 05:55:47.694           125.517         62758.500
       171   09 Jun 2027 05:56:01.920   09 Jun 2027 05:56:02.174             0.254           127.000
       172   09 Jun 2027 05:59:17.579   09 Jun 2027 06:00:18.791            61.212         30606.000
       173   09 Jun 2027 07:30:07.673   09 Jun 2027 07:31:11.060            63.387         31219.188
       174   09 Jun 2027 07:33:24.447   09 Jun 2027 07:33:31.248             6.801           370.187
       175   09 Jun 2027 07:34:28.854   09 Jun 2027 07:34:35.264             6.410          1436.188
       176   09 Jun 2027 07:35:53.486   09 Jun 2027 07:35:56.242             2.756           548.500
       177   09 Jun 2027 09:07:22.136   09 Jun 2027 09:07:32.629            10.493          4508.625
       178   09 Jun 2027 09:09:45.777   09 Jun 2027 09:09:46.321             0.544           137.781
       179   09 Jun 2027 09:09:52.611   09 Jun 2027 09:09:54.626             2.015             2.594
       180   09 Jun 2027 09:11:11.639   09 Jun 2027 09:11:12.800             1.161             0.750
       181   09 Jun 2027 10:43:36.641   09 Jun 2027 10:43:49.561            12.920          6258.063
       182   09 Jun 2027 10:48:16.351   09 Jun 2027 10:48:18.623             2.272             9.469
       183   10 Jun 2027 04:30:25.116   10 Jun 2027 04:32:01.477            96.361         48180.500
       184   10 Jun 2027 04:32:57.477   10 Jun 2027 04:33:49.832            52.355         26177.500
       185   10 Jun 2027 06:05:21.283   10 Jun 2027 06:07:11.803           110.520         55260.000
       186   10 Jun 2027 06:08:21.053   10 Jun 2027 06:08:56.491            35.438         17719.000
       187   10 Jun 2027 06:09:27.043   10 Jun 2027 06:09:40.837            13.794          6396.844
       188   10 Jun 2027 06:11:01.143   10 Jun 2027 06:11:05.712             4.569          1968.656
       189   10 Jun 2027 06:11:35.192   10 Jun 2027 06:11:37.624             2.432           851.437
       190   10 Jun 2027 06:11:58.041   10 Jun 2027 06:11:59.577             1.536           149.437
       191   10 Jun 2027 07:41:39.932   10 Jun 2027 07:41:40.942             1.010           169.375
       192   10 Jun 2027 07:45:22.786   10 Jun 2027 07:45:24.286             1.500           718.750
       193   10 Jun 2027 09:19:55.390   10 Jun 2027 09:20:10.154            14.764          4830.688
       194   10 Jun 2027 09:20:56.558   10 Jun 2027 09:21:00.431             3.873          1172.313
       195   10 Jun 2027 09:22:18.817   10 Jun 2027 09:22:21.394             2.577          1065.187
       196   10 Jun 2027 09:23:05.786   10 Jun 2027 09:23:08.266             2.480           968.000
       197   10 Jun 2027 09:23:14.879   10 Jun 2027 09:23:18.884             4.005           206.656
       198   10 Jun 2027 09:23:45.834   10 Jun 2027 09:23:48.117             2.283           729.563
       199   10 Jun 2027 10:55:15.528   10 Jun 2027 10:55:26.353            10.825          4670.625
       200   11 Jun 2027 03:05:45.334   11 Jun 2027 03:05:50.071             4.737          2368.500
       201   11 Jun 2027 03:05:52.343   11 Jun 2027 03:05:59.449             7.106          3553.000
       202   11 Jun 2027 03:06:34.522   11 Jun 2027 03:06:49.116            14.594          7297.000
       203   11 Jun 2027 04:40:43.781   11 Jun 2027 04:41:17.418            33.637         16818.500
       204   11 Jun 2027 04:42:08.966   11 Jun 2027 04:44:56.970           168.004         84002.000
       205   11 Jun 2027 04:45:02.411   11 Jun 2027 04:45:22.646            20.235         10117.500
       206   11 Jun 2027 06:16:54.607   11 Jun 2027 06:17:57.963            63.356         30745.000
       207   11 Jun 2027 06:18:21.581   11 Jun 2027 06:18:21.581             0.000             0.000
       208   11 Jun 2027 06:19:11.907   11 Jun 2027 06:19:16.579             4.672          1979.313
       209   11 Jun 2027 06:19:55.820   11 Jun 2027 06:19:58.360             2.540           672.625
       210   11 Jun 2027 06:20:56.762   11 Jun 2027 06:21:00.600             3.838          1801.812
       211   11 Jun 2027 06:22:09.353   11 Jun 2027 06:22:10.802             1.449           323.531
       212   11 Jun 2027 06:22:47.364   11 Jun 2027 06:22:52.020             4.656           450.906
       213   11 Jun 2027 06:23:45.942   11 Jun 2027 06:23:54.739             8.797          1647.594
       214   11 Jun 2027 07:53:59.189   11 Jun 2027 07:54:00.065             0.876           214.563
       215   11 Jun 2027 07:55:10.492   11 Jun 2027 07:55:12.804             2.312           532.219
       216   11 Jun 2027 07:56:17.765   11 Jun 2027 07:56:18.223             0.458           183.312
       217   11 Jun 2027 07:57:20.595   11 Jun 2027 07:57:23.046             2.451           767.031
       218   11 Jun 2027 07:57:45.323   11 Jun 2027 07:57:46.480             1.157           242.531
       219   11 Jun 2027 07:58:32.201   11 Jun 2027 07:58:35.447             3.246           964.375
       220   11 Jun 2027 07:59:20.022   11 Jun 2027 07:59:21.653             1.631            87.219
       221   11 Jun 2027 09:31:58.318   11 Jun 2027 09:32:12.727            14.409          5494.844
       222   11 Jun 2027 09:33:44.588   11 Jun 2027 09:33:48.014             3.426           220.469
       223   11 Jun 2027 09:34:48.333   11 Jun 2027 09:34:48.719             0.386            98.500
       224   11 Jun 2027 09:35:51.196   11 Jun 2027 09:35:53.413             2.217           797.594
       225   11 Jun 2027 11:05:07.330   11 Jun 2027 11:05:21.321            13.991          5166.688
       226   12 Jun 2027 03:16:46.147   12 Jun 2027 03:16:52.980             6.833          3416.500
       227   12 Jun 2027 03:17:52.066   12 Jun 2027 03:17:52.066             0.000             0.000
       228   12 Jun 2027 03:18:46.890   12 Jun 2027 03:19:02.967            16.077          8038.500
       229   12 Jun 2027 04:51:50.368   12 Jun 2027 04:53:33.615           103.247         51623.500
       230   12 Jun 2027 04:53:53.421   12 Jun 2027 04:56:04.696           131.275         65637.500
       231   12 Jun 2027 06:29:12.123   12 Jun 2027 06:30:08.953            56.830         28415.000
       232   12 Jun 2027 06:30:24.674   12 Jun 2027 06:30:29.281             4.607          2245.406
       233   12 Jun 2027 06:31:50.105   12 Jun 2027 06:31:52.188             2.083           543.594
       234   12 Jun 2027 06:32:32.868   12 Jun 2027 06:32:37.108             4.240          1076.344
       235   12 Jun 2027 06:33:57.836   12 Jun 2027 06:34:03.224             5.388          2468.969
       236   12 Jun 2027 06:35:18.524   12 Jun 2027 06:35:24.137             5.613          2353.125
       237   12 Jun 2027 08:06:00.806   12 Jun 2027 08:06:05.654             4.848           272.031
       238   12 Jun 2027 08:08:37.544   12 Jun 2027 08:08:39.107             1.563           624.469
       239   12 Jun 2027 08:09:41.701   12 Jun 2027 08:09:47.611             5.910           745.750
       240   12 Jun 2027 08:09:54.799   12 Jun 2027 08:09:55.185             0.386           179.281
       241   12 Jun 2027 08:10:11.660   12 Jun 2027 08:10:15.827             4.167           490.250
       242   12 Jun 2027 08:11:13.106   12 Jun 2027 08:11:17.250             4.144          1488.469
       243   12 Jun 2027 08:11:25.356   12 Jun 2027 08:11:27.270             1.914            21.625
       244   12 Jun 2027 09:43:57.870   12 Jun 2027 09:44:09.261            11.391          5641.938
       245   12 Jun 2027 09:47:19.176   12 Jun 2027 09:47:21.892             2.716           781.156
       246   12 Jun 2027 09:47:33.993   12 Jun 2027 09:47:35.658             1.665           293.500
       247   12 Jun 2027 11:17:34.652   12 Jun 2027 11:17:38.009             3.357           515.594
       248   13 Jun 2027 03:28:30.194   13 Jun 2027 03:28:53.493            23.299         11649.500
       249   13 Jun 2027 05:03:18.565   13 Jun 2027 05:06:41.987           203.422        101711.000
       250   13 Jun 2027 05:07:00.450   13 Jun 2027 05:07:11.055            10.605          5302.500
       251   13 Jun 2027 05:08:07.645   13 Jun 2027 05:08:07.645             0.000             0.000
       252   13 Jun 2027 05:08:18.763   13 Jun 2027 05:08:21.621             2.858          1429.000
       253   13 Jun 2027 05:12:00.993   13 Jun 2027 05:12:08.080             7.087          3543.500
       254   13 Jun 2027 06:41:07.383   13 Jun 2027 06:42:27.678            80.295         38856.125
       255   13 Jun 2027 06:43:11.409   13 Jun 2027 06:43:14.202             2.793          1366.594
       256   13 Jun 2027 06:43:46.074   13 Jun 2027 06:43:48.169             2.095           973.719
       257   13 Jun 2027 06:44:10.583   13 Jun 2027 06:44:10.583             0.000             0.000
       258   13 Jun 2027 06:44:23.706   13 Jun 2027 06:44:29.112             5.406          1030.313
       259   13 Jun 2027 06:44:45.135   13 Jun 2027 06:44:48.705             3.570           500.719
       260   13 Jun 2027 06:46:06.206   13 Jun 2027 06:46:08.380             2.174           322.813
       261   13 Jun 2027 06:46:14.793   13 Jun 2027 06:46:15.336             0.543            87.625
       262   13 Jun 2027 06:47:05.465   13 Jun 2027 06:47:06.875             1.410           665.781
       263   13 Jun 2027 06:48:10.047   13 Jun 2027 06:48:13.009             2.962           704.688
       264   13 Jun 2027 08:17:51.764   13 Jun 2027 08:17:56.494             4.730           703.562
       265   13 Jun 2027 08:20:56.414   13 Jun 2027 08:20:58.856             2.442           150.906
       266   13 Jun 2027 08:22:46.356   13 Jun 2027 08:22:51.665             5.309          2208.250
       267   13 Jun 2027 08:24:12.082   13 Jun 2027 08:24:16.123             4.041          1279.812
       268   13 Jun 2027 09:55:59.427   13 Jun 2027 09:56:10.919            11.492          3804.000
       269   13 Jun 2027 09:57:13.854   13 Jun 2027 09:57:18.817             4.963          1636.719
       270   13 Jun 2027 11:29:50.461   13 Jun 2027 11:29:54.922             4.461          1540.094
