uniorb/output/strategy_4/Camera/Camera_KinoSat_110610.txt

KinoSat_110610
-------------------------
    Access    *     Start Time (UTCG)     *     Stop Time (UTCG)  *   Duration (s) *   Data (Mbytes)
         1   01 Jun 2027 04:28:54.882   01 Jun 2027 04:31:16.190           141.308         70654.000
         2   01 Jun 2027 04:31:38.672   01 Jun 2027 04:31:38.672             0.000             0.000
         3   01 Jun 2027 04:32:50.922   01 Jun 2027 04:32:50.922             0.000             0.000
         4   01 Jun 2027 04:33:07.653   01 Jun 2027 04:33:19.062            11.409          5704.500
         5   01 Jun 2027 04:36:10.886   01 Jun 2027 04:36:29.467            18.581          9290.500
         6   01 Jun 2027 06:06:41.190   01 Jun 2027 06:08:50.458           129.268         64634.000
         7   01 Jun 2027 06:09:20.041   01 Jun 2027 06:09:31.489            11.448          5724.000
         8   01 Jun 2027 06:13:22.027   01 Jun 2027 06:13:22.381             0.354           177.000
         9   01 Jun 2027 06:13:43.715   01 Jun 2027 06:13:50.802             7.087          3543.500
        10   01 Jun 2027 07:43:26.594   01 Jun 2027 07:46:20.216           173.622         86811.000
        11   01 Jun 2027 07:49:36.503   01 Jun 2027 07:49:54.103            17.600          8800.000
        12   01 Jun 2027 09:21:31.801   01 Jun 2027 09:24:34.323           182.522         91261.000
        13   01 Jun 2027 09:25:20.941   01 Jun 2027 09:25:37.370            16.429          8214.500
        14   01 Jun 2027 10:55:22.796   01 Jun 2027 10:57:36.188           133.392         66696.000
        15   01 Jun 2027 10:58:57.455   01 Jun 2027 10:58:57.455             0.000             0.000
        16   01 Jun 2027 11:00:10.903   01 Jun 2027 11:00:17.100             6.197          3098.500
        17   01 Jun 2027 11:01:00.274   01 Jun 2027 11:01:00.274             0.000             0.000
        18   01 Jun 2027 11:01:48.688   01 Jun 2027 11:02:02.958            14.270          7135.000
        19   02 Jun 2027 03:05:38.938   02 Jun 2027 03:05:53.667            14.729          7364.500
        20   02 Jun 2027 03:06:36.128   02 Jun 2027 03:06:36.128             0.000             0.000
        21   02 Jun 2027 03:07:56.348   02 Jun 2027 03:08:04.749             8.401          4200.500
        22   02 Jun 2027 03:10:19.278   02 Jun 2027 03:10:19.278             0.000             0.000
        23   02 Jun 2027 03:11:45.296   02 Jun 2027 03:11:45.707             0.411           205.500
        24   02 Jun 2027 04:41:40.749   02 Jun 2027 04:44:20.242           159.493         79746.500
        25   02 Jun 2027 04:45:35.612   02 Jun 2027 04:45:53.586            17.974          8987.000
        26   02 Jun 2027 04:49:25.299   02 Jun 2027 04:49:25.299             0.000             0.000
        27   02 Jun 2027 04:49:27.548   02 Jun 2027 04:49:51.558            24.010         12005.000
        28   02 Jun 2027 06:18:44.785   02 Jun 2027 06:20:10.195            85.410         42705.000
        29   02 Jun 2027 06:20:58.424   02 Jun 2027 06:21:46.724            48.300         24150.000
        30   02 Jun 2027 06:22:39.749   02 Jun 2027 06:22:52.693            12.944          6472.000
        31   02 Jun 2027 06:23:21.995   02 Jun 2027 06:23:49.124            27.129         13564.500
        32   02 Jun 2027 06:24:10.066   02 Jun 2027 06:25:02.988            52.922         26461.000
        33   02 Jun 2027 07:55:40.581   02 Jun 2027 07:59:19.873           219.292        109646.000
        34   02 Jun 2027 08:00:07.767   02 Jun 2027 08:00:13.418             5.651          2825.500
        35   02 Jun 2027 08:00:38.240   02 Jun 2027 08:00:40.915             2.675          1337.500
        36   02 Jun 2027 08:00:48.289   02 Jun 2027 08:00:54.492             6.203          2188.218
        37   02 Jun 2027 09:32:45.460   02 Jun 2027 09:33:07.809            22.349         10683.812
        38   02 Jun 2027 09:33:18.548   02 Jun 2027 09:33:20.753             2.205            10.812
        39   02 Jun 2027 11:07:48.878   02 Jun 2027 11:07:57.734             8.856           548.594
        40   03 Jun 2027 03:20:10.276   03 Jun 2027 03:20:30.609            20.333         10166.500
        41   03 Jun 2027 03:21:25.847   03 Jun 2027 03:21:28.535             2.688          1344.000
        42   03 Jun 2027 04:53:38.816   03 Jun 2027 04:54:51.908            73.092         36546.000
        43   03 Jun 2027 04:55:05.395   03 Jun 2027 04:55:33.395            28.000         14000.000
        44   03 Jun 2027 04:58:24.431   03 Jun 2027 05:00:23.513           119.082         59541.000
        45   03 Jun 2027 05:01:59.873   03 Jun 2027 05:02:09.588             9.715          4857.500
        46   03 Jun 2027 06:31:11.073   03 Jun 2027 06:32:15.452            64.379         31865.125
        47   03 Jun 2027 08:08:05.867   03 Jun 2027 08:08:17.373            11.506          1713.781
        48   03 Jun 2027 08:11:26.355   03 Jun 2027 08:11:28.359             2.004           893.375
        49   03 Jun 2027 08:11:44.746   03 Jun 2027 08:11:46.432             1.686           327.562
        50   03 Jun 2027 08:12:43.588   03 Jun 2027 08:12:46.273             2.685          1131.375
        51   03 Jun 2027 09:44:56.697   03 Jun 2027 09:45:05.939             9.242          3799.406
        52   03 Jun 2027 11:22:33.304   03 Jun 2027 11:22:36.829             3.525           170.344
        53   04 Jun 2027 03:32:22.150   04 Jun 2027 03:32:40.594            18.444          9222.000
        54   04 Jun 2027 03:34:02.697   04 Jun 2027 03:34:12.826            10.129          5064.500
        55   04 Jun 2027 05:06:41.378   04 Jun 2027 05:07:40.815            59.437         29718.500
        56   04 Jun 2027 05:08:39.581   04 Jun 2027 05:08:57.681            18.100          9050.000
        57   04 Jun 2027 05:10:22.116   04 Jun 2027 05:10:58.283            36.167         18083.500
        58   04 Jun 2027 05:10:58.878   04 Jun 2027 05:12:17.546            78.668         39334.000
        59   04 Jun 2027 05:13:10.432   04 Jun 2027 05:14:05.364            54.932         27466.000
        60   04 Jun 2027 06:43:18.064   04 Jun 2027 06:43:57.943            39.879         19535.282
        61   04 Jun 2027 08:21:00.235   04 Jun 2027 08:21:02.894             2.659          1094.531
        62   04 Jun 2027 08:22:36.658   04 Jun 2027 08:22:38.511             1.853           469.875
        63   04 Jun 2027 08:23:31.679   04 Jun 2027 08:23:39.075             7.396           480.656
        64   04 Jun 2027 08:25:17.344   04 Jun 2027 08:25:20.366             3.022           319.406
        65   04 Jun 2027 09:56:58.877   04 Jun 2027 09:57:08.519             9.642          4608.063
        66   04 Jun 2027 09:58:33.739   04 Jun 2027 09:58:37.291             3.552            51.656
        67   05 Jun 2027 03:44:20.439   05 Jun 2027 03:44:43.395            22.956         11478.000
        68   05 Jun 2027 05:19:29.555   05 Jun 2027 05:21:36.491           126.936         63468.000
        69   05 Jun 2027 05:22:21.233   05 Jun 2027 05:23:21.827            60.594         30297.000
        70   05 Jun 2027 05:23:58.465   05 Jun 2027 05:24:37.758            39.293         19646.500
        71   05 Jun 2027 05:25:55.750   05 Jun 2027 05:26:06.752            11.002          5501.000
        72   05 Jun 2027 06:55:53.278   05 Jun 2027 06:56:45.987            52.709         26215.594
        73   05 Jun 2027 06:58:35.433   05 Jun 2027 06:58:40.322             4.889           622.469
        74   05 Jun 2027 08:33:06.985   05 Jun 2027 08:33:20.048            13.063          4686.812
        75   05 Jun 2027 08:34:58.725   05 Jun 2027 08:35:02.860             4.135           508.156
        76   05 Jun 2027 08:35:19.122   05 Jun 2027 08:35:24.929             5.807           425.000
        77   05 Jun 2027 08:35:25.514   05 Jun 2027 08:35:26.167             0.653            18.281
        78   05 Jun 2027 08:35:42.184   05 Jun 2027 08:35:43.042             0.858           392.500
        79   05 Jun 2027 08:36:34.942   05 Jun 2027 08:36:37.725             2.783          1327.750
        80   05 Jun 2027 10:09:25.901   05 Jun 2027 10:09:37.141            11.240          5084.969
        81   05 Jun 2027 10:11:24.538   05 Jun 2027 10:11:31.204             6.666           365.000
        82   06 Jun 2027 03:56:13.351   06 Jun 2027 03:56:41.008            27.657         13828.500
        83   06 Jun 2027 03:56:43.314   06 Jun 2027 03:56:45.671             2.357          1178.500
        84   06 Jun 2027 05:31:10.897   06 Jun 2027 05:35:14.404           243.507        121753.500
        85   06 Jun 2027 05:37:46.913   06 Jun 2027 05:38:14.464            27.551         13775.500
        86   06 Jun 2027 07:07:24.879   06 Jun 2027 07:07:48.146            23.267         10647.656
        87   06 Jun 2027 07:09:45.861   06 Jun 2027 07:09:52.600             6.739          1769.719
        88   06 Jun 2027 07:10:37.514   06 Jun 2027 07:10:39.273             1.759           706.406
        89   06 Jun 2027 07:11:20.111   06 Jun 2027 07:11:22.378             2.267          1067.844
        90   06 Jun 2027 07:12:13.776   06 Jun 2027 07:12:16.078             2.302           179.156
        91   06 Jun 2027 07:12:45.718   06 Jun 2027 07:12:47.766             2.048           709.531
        92   06 Jun 2027 08:45:44.867   06 Jun 2027 08:45:54.180             9.313          4424.375
        93   06 Jun 2027 08:46:09.319   06 Jun 2027 08:46:10.854             1.535           473.094
        94   06 Jun 2027 08:47:26.218   06 Jun 2027 08:47:32.375             6.157          2274.719
        95   06 Jun 2027 08:47:55.543   06 Jun 2027 08:47:57.553             2.010           723.875
        96   06 Jun 2027 08:48:43.282   06 Jun 2027 08:48:49.699             6.417            58.656
        97   06 Jun 2027 08:49:08.537   06 Jun 2027 08:49:09.954             1.417           420.844
        98   06 Jun 2027 10:21:04.266   06 Jun 2027 10:21:16.040            11.774          5877.031
        99   07 Jun 2027 04:06:35.532   07 Jun 2027 04:06:58.972            23.440         11720.000
       100   07 Jun 2027 04:07:58.039   07 Jun 2027 04:08:18.596            20.557         10278.500
       101   07 Jun 2027 04:12:23.231   07 Jun 2027 04:12:29.641             6.410          3205.000
       102   07 Jun 2027 05:42:43.881   07 Jun 2027 05:45:44.612           180.731         90365.500
       103   07 Jun 2027 05:49:40.232   07 Jun 2027 05:50:18.090            37.858         18929.000
       104   07 Jun 2027 07:19:46.388   07 Jun 2027 07:20:51.865            65.477         32243.125
       105   07 Jun 2027 07:21:37.815   07 Jun 2027 07:21:40.752             2.937          1225.250
       106   07 Jun 2027 07:23:24.456   07 Jun 2027 07:23:29.044             4.588          1418.938
       107   07 Jun 2027 07:24:02.147   07 Jun 2027 07:24:05.095             2.948           413.562
       108   07 Jun 2027 08:57:45.996   07 Jun 2027 08:57:56.157            10.161          4434.031
       109   07 Jun 2027 08:58:58.224   07 Jun 2027 08:59:00.745             2.521           135.250
       110   07 Jun 2027 08:59:23.286   07 Jun 2027 08:59:26.236             2.950           704.406
       111   07 Jun 2027 08:59:31.172   07 Jun 2027 08:59:36.338             5.166           154.250
       112   07 Jun 2027 09:00:21.995   07 Jun 2027 09:00:25.037             3.042           951.781
       113   07 Jun 2027 10:30:57.356   07 Jun 2027 10:31:10.041            12.685          6318.750
       114   07 Jun 2027 10:35:20.114   07 Jun 2027 10:35:22.475             2.361           158.594
       115   08 Jun 2027 04:17:39.968   08 Jun 2027 04:18:27.688            47.720         23860.000
       116   08 Jun 2027 04:18:31.697   08 Jun 2027 04:18:34.489             2.792          1396.000
       117   08 Jun 2027 04:20:15.732   08 Jun 2027 04:20:20.809             5.077          2538.500
       118   08 Jun 2027 04:21:48.488   08 Jun 2027 04:22:15.352            26.864         13432.000
       119   08 Jun 2027 04:22:25.365   08 Jun 2027 04:22:51.014            25.649         12824.500
       120   08 Jun 2027 04:25:44.104   08 Jun 2027 04:25:53.931             9.827          4913.500
       121   08 Jun 2027 05:54:55.636   08 Jun 2027 05:57:11.706           136.070         68035.000
       122   08 Jun 2027 05:57:20.200   08 Jun 2027 05:57:25.525             5.325          2662.500
       123   08 Jun 2027 05:57:36.135   08 Jun 2027 05:57:43.134             6.999          3499.500
       124   08 Jun 2027 05:58:31.529   08 Jun 2027 05:58:33.018             1.489           744.500
       125   08 Jun 2027 05:58:38.231   08 Jun 2027 05:59:19.693            41.462         20731.000
       126   08 Jun 2027 06:02:19.503   08 Jun 2027 06:02:19.720             0.217           108.500
       127   08 Jun 2027 07:31:49.558   08 Jun 2027 07:32:39.224            49.666         24788.720
       128   08 Jun 2027 07:33:29.381   08 Jun 2027 07:33:30.958             1.577           530.188
       129   08 Jun 2027 07:36:00.170   08 Jun 2027 07:36:07.238             7.068          2017.281
       130   08 Jun 2027 09:09:45.736   08 Jun 2027 09:09:58.370            12.634          5607.906
       131   08 Jun 2027 09:11:25.472   08 Jun 2027 09:11:32.503             7.031          1181.125
       132   08 Jun 2027 09:12:05.244   08 Jun 2027 09:12:06.712             1.468           113.125
       133   08 Jun 2027 10:43:19.576   08 Jun 2027 10:43:22.985             3.409          1405.969
       134   09 Jun 2027 04:29:09.215   09 Jun 2027 04:31:12.526           123.311         61655.500
       135   09 Jun 2027 04:31:48.777   09 Jun 2027 04:31:51.913             3.136          1568.000
       136   09 Jun 2027 04:32:58.359   09 Jun 2027 04:33:05.478             7.119          3559.500
       137   09 Jun 2027 04:33:36.366   09 Jun 2027 04:33:48.882            12.516          6258.000
       138   09 Jun 2027 04:34:33.385   09 Jun 2027 04:34:57.778            24.393         12196.500
       139   09 Jun 2027 04:37:26.241   09 Jun 2027 04:38:07.103            40.862         20431.000
       140   09 Jun 2027 06:06:55.770   09 Jun 2027 06:08:22.429            86.659         43329.500
       141   09 Jun 2027 06:09:12.927   09 Jun 2027 06:09:56.707            43.780         19406.563
       142   09 Jun 2027 06:10:50.945   09 Jun 2027 06:10:54.459             3.514          1694.937
       143   09 Jun 2027 06:11:26.134   09 Jun 2027 06:11:26.830             0.696           348.000
       144   09 Jun 2027 06:12:33.348   09 Jun 2027 06:12:40.408             7.060          2699.719
       145   09 Jun 2027 07:43:40.920   09 Jun 2027 07:43:45.722             4.802           814.594
       146   09 Jun 2027 07:47:02.314   09 Jun 2027 07:47:06.320             4.006           215.031
       147   09 Jun 2027 07:47:34.745   09 Jun 2027 07:47:37.565             2.820           666.031
       148   09 Jun 2027 07:48:00.491   09 Jun 2027 07:48:02.448             1.957           147.531
       149   09 Jun 2027 07:48:35.054   09 Jun 2027 07:48:38.453             3.399           808.625
       150   09 Jun 2027 07:50:00.613   09 Jun 2027 07:50:06.780             6.167          2278.281
       151   09 Jun 2027 09:21:46.413   09 Jun 2027 09:21:55.627             9.214          2746.500
       152   09 Jun 2027 09:23:23.822   09 Jun 2027 09:23:40.081            16.259          1747.406
       153   09 Jun 2027 10:55:37.516   09 Jun 2027 10:55:40.941             3.425           867.344
       154   10 Jun 2027 03:05:53.356   10 Jun 2027 03:05:56.663             3.307          1653.500
       155   10 Jun 2027 03:08:06.091   10 Jun 2027 03:08:10.847             4.756          2378.000
       156   10 Jun 2027 03:09:31.301   10 Jun 2027 03:09:34.059             2.758          1379.000
       157   10 Jun 2027 03:10:12.064   10 Jun 2027 03:10:23.578            11.514          5757.000
       158   10 Jun 2027 03:11:37.434   10 Jun 2027 03:11:56.052            18.618          9309.000
       159   10 Jun 2027 04:41:55.307   10 Jun 2027 04:44:59.717           184.410         92205.000
       160   10 Jun 2027 04:45:37.631   10 Jun 2027 04:45:46.621             8.990          4495.000
       161   10 Jun 2027 04:48:47.628   10 Jun 2027 04:49:14.953            27.325         13662.500
       162   10 Jun 2027 06:18:59.807   10 Jun 2027 06:19:53.309            53.502         26204.312
       163   10 Jun 2027 06:20:29.037   10 Jun 2027 06:20:30.028             0.991           102.156
       164   10 Jun 2027 06:21:28.694   10 Jun 2027 06:21:28.895             0.201           100.500
       165   10 Jun 2027 06:21:42.601   10 Jun 2027 06:21:46.696             4.095           499.250
       166   10 Jun 2027 06:22:44.803   10 Jun 2027 06:22:49.087             4.284          1139.063
       167   10 Jun 2027 06:23:30.100   10 Jun 2027 06:23:31.471             1.371           178.094
       168   10 Jun 2027 06:23:59.853   10 Jun 2027 06:24:01.914             2.061           855.312
       169   10 Jun 2027 07:55:58.923   10 Jun 2027 07:56:02.845             3.922          1373.844
       170   10 Jun 2027 07:58:13.564   10 Jun 2027 07:58:15.221             1.657           421.875
       171   10 Jun 2027 07:58:39.945   10 Jun 2027 07:58:42.343             2.398            70.000
       172   10 Jun 2027 07:59:26.529   10 Jun 2027 07:59:34.633             8.104           372.625
       173   10 Jun 2027 08:00:13.046   10 Jun 2027 08:00:15.761             2.715           657.031
       174   10 Jun 2027 08:00:53.876   10 Jun 2027 08:00:55.420             1.544           772.000
       175   10 Jun 2027 08:01:02.409   10 Jun 2027 08:01:02.844             0.435            23.281
       176   10 Jun 2027 09:33:00.253   10 Jun 2027 09:33:06.855             6.602          3272.875
       177   10 Jun 2027 09:33:32.521   10 Jun 2027 09:33:33.246             0.725            22.781
       178   10 Jun 2027 09:33:35.943   10 Jun 2027 09:33:36.310             0.367            84.281
       179   10 Jun 2027 11:08:03.892   10 Jun 2027 11:08:06.865             2.973           531.531
       180   11 Jun 2027 03:20:25.159   11 Jun 2027 03:20:45.249            20.090         10045.000
       181   11 Jun 2027 03:21:43.042   11 Jun 2027 03:21:44.139             1.097           548.500
       182   11 Jun 2027 04:53:53.371   11 Jun 2027 04:55:05.157            71.786         35893.000
       183   11 Jun 2027 04:55:21.043   11 Jun 2027 04:55:32.337            11.294          5647.000
       184   11 Jun 2027 04:58:44.835   11 Jun 2027 05:01:22.365           157.530         78765.000
       185   11 Jun 2027 05:02:21.969   11 Jun 2027 05:02:24.223             2.254          1127.000
       186   11 Jun 2027 06:31:26.534   11 Jun 2027 06:32:14.199            47.665         23271.968
       187   11 Jun 2027 08:08:20.586   11 Jun 2027 08:08:26.019             5.433          1896.125
       188   11 Jun 2027 08:11:42.808   11 Jun 2027 08:11:44.674             1.866           852.906
       189   11 Jun 2027 08:12:00.370   11 Jun 2027 08:12:03.013             2.643           359.188
       190   11 Jun 2027 08:13:44.226   11 Jun 2027 08:13:48.571             4.345          1384.219
       191   11 Jun 2027 09:45:11.676   11 Jun 2027 09:45:20.885             9.209          3908.000
       192   11 Jun 2027 09:47:55.652   11 Jun 2027 09:47:57.211             1.559           615.625
       193   11 Jun 2027 11:22:48.042   11 Jun 2027 11:22:49.878             1.836           688.563
       194   12 Jun 2027 03:32:26.424   12 Jun 2027 03:32:37.160            10.736          5368.000
       195   12 Jun 2027 05:07:08.930   12 Jun 2027 05:07:56.603            47.673         23836.500
       196   12 Jun 2027 05:08:10.774   12 Jun 2027 05:08:54.287            43.513         21756.500
       197   12 Jun 2027 05:10:36.725   12 Jun 2027 05:11:13.468            36.743         18371.500
       198   12 Jun 2027 05:11:21.046   12 Jun 2027 05:12:31.923            70.877         35438.500
       199   12 Jun 2027 05:13:25.176   12 Jun 2027 05:14:01.115            35.939         17969.500
       200   12 Jun 2027 05:14:16.963   12 Jun 2027 05:14:20.090             3.127          1563.500
       201   12 Jun 2027 06:43:32.870   12 Jun 2027 06:44:29.908            57.038         28352.625
       202   12 Jun 2027 08:21:15.371   12 Jun 2027 08:21:23.393             8.022          3324.187
       203   12 Jun 2027 08:22:52.143   12 Jun 2027 08:22:53.334             1.191           498.156
       204   12 Jun 2027 08:23:46.299   12 Jun 2027 08:23:47.229             0.930           425.031
       205   12 Jun 2027 08:24:34.321   12 Jun 2027 08:24:37.346             3.025          1471.625
       206   12 Jun 2027 08:25:31.795   12 Jun 2027 08:25:36.726             4.931           304.438
       207   12 Jun 2027 09:57:13.739   12 Jun 2027 09:57:24.196            10.457          4624.969
       208   12 Jun 2027 09:58:48.491   12 Jun 2027 09:58:48.826             0.335            54.562
       209   12 Jun 2027 09:59:26.718   12 Jun 2027 09:59:31.395             4.677          1177.656
       210   12 Jun 2027 10:00:28.976   12 Jun 2027 10:00:32.054             3.078          1237.531
       211   13 Jun 2027 03:44:35.101   13 Jun 2027 03:44:50.772            15.671          7835.500
       212   13 Jun 2027 03:46:00.694   13 Jun 2027 03:46:00.694             0.000             0.000
       213   13 Jun 2027 03:46:51.304   13 Jun 2027 03:46:51.304             0.000             0.000
       214   13 Jun 2027 05:19:55.972   13 Jun 2027 05:22:35.881           159.909         79954.500
       215   13 Jun 2027 05:23:37.092   13 Jun 2027 05:24:12.883            35.791         17895.500
       216   13 Jun 2027 05:25:45.412   13 Jun 2027 05:25:54.102             8.690          4345.000
       217   13 Jun 2027 05:26:20.117   13 Jun 2027 05:26:21.427             1.310           655.000
       218   13 Jun 2027 06:56:08.300   13 Jun 2027 06:57:42.618            94.318         45570.406
       219   13 Jun 2027 06:58:50.079   13 Jun 2027 06:58:51.773             1.694           454.563
       220   13 Jun 2027 08:33:21.729   13 Jun 2027 08:33:31.031             9.302          2136.563
       221   13 Jun 2027 08:35:40.244   13 Jun 2027 08:35:44.249             4.005          1959.375
       222   13 Jun 2027 08:35:57.317   13 Jun 2027 08:35:59.490             2.173           408.375
       223   13 Jun 2027 10:09:40.401   13 Jun 2027 10:09:52.252            11.851          5158.094
       224   13 Jun 2027 10:12:00.875   13 Jun 2027 10:12:04.252             3.377          1042.531
