uniorb/output/strategy_4/Camera/Camera_KinoSat_111401.txt

KinoSat_111401
-------------------------
    Access    *     Start Time (UTCG)     *     Stop Time (UTCG)  *   Duration (s) *   Data (Mbytes)
         1   01 Jun 2027 04:02:39.466   01 Jun 2027 04:04:57.183           137.717         68858.500
         2   01 Jun 2027 04:05:45.563   01 Jun 2027 04:05:59.554            13.991          6995.500
         3   01 Jun 2027 05:26:10.210   01 Jun 2027 05:27:22.158            71.948         35974.000
         4   01 Jun 2027 05:27:48.740   01 Jun 2027 05:28:24.151            35.411         17705.500
         5   01 Jun 2027 07:02:21.325   01 Jun 2027 07:04:19.687           118.362         59181.000
         6   01 Jun 2027 08:35:54.739   01 Jun 2027 08:37:43.015           108.276         54138.000
         7   01 Jun 2027 08:39:47.646   01 Jun 2027 08:39:47.646             0.000             0.000
         8   01 Jun 2027 08:42:50.857   01 Jun 2027 08:42:58.779             7.922          3961.000
         9   01 Jun 2027 08:43:31.105   01 Jun 2027 08:43:41.774            10.669          5334.500
        10   01 Jun 2027 10:13:22.481   01 Jun 2027 10:15:06.322           103.841         51920.500
        11   01 Jun 2027 10:16:59.064   01 Jun 2027 10:16:59.064             0.000             0.000
        12   01 Jun 2027 10:17:37.753   01 Jun 2027 10:18:44.290            66.537         33268.500
        13   01 Jun 2027 10:19:28.129   01 Jun 2027 10:19:35.321             7.192          3596.000
        14   01 Jun 2027 11:50:21.954   01 Jun 2027 11:51:30.938            68.984         34492.000
        15   01 Jun 2027 11:52:27.163   01 Jun 2027 11:52:28.606             1.443           721.500
        16   01 Jun 2027 11:53:36.328   01 Jun 2027 11:54:25.541            49.213         24606.500
        17   01 Jun 2027 11:55:37.420   01 Jun 2027 11:55:44.075             6.655          3327.500
        18   02 Jun 2027 04:14:20.761   02 Jun 2027 04:16:16.251           115.490         57745.000
        19   02 Jun 2027 04:17:22.085   02 Jun 2027 04:17:36.412            14.327          7163.500
        20   02 Jun 2027 05:38:00.164   02 Jun 2027 05:39:27.706            87.542         43771.000
        21   02 Jun 2027 05:39:41.929   02 Jun 2027 05:39:43.553             1.624           812.000
        22   02 Jun 2027 07:14:27.051   02 Jun 2027 07:18:01.568           214.517        107258.500
        23   02 Jun 2027 08:46:36.711   02 Jun 2027 08:46:46.216             9.505          4752.500
        24   02 Jun 2027 08:48:33.854   02 Jun 2027 08:51:17.415           163.561         81780.500
        25   02 Jun 2027 08:51:54.959   02 Jun 2027 08:52:09.422            14.463          7231.500
        26   02 Jun 2027 08:54:01.110   02 Jun 2027 08:55:04.439            63.329         31664.500
        27   02 Jun 2027 08:56:23.683   02 Jun 2027 08:56:25.731             2.048          1024.000
        28   02 Jun 2027 10:25:32.063   02 Jun 2027 10:26:10.432            38.369         18428.750
        29   02 Jun 2027 10:27:51.150   02 Jun 2027 10:27:52.978             1.828           117.219
        30   02 Jun 2027 10:28:46.059   02 Jun 2027 10:28:48.019             1.960           703.750
        31   02 Jun 2027 10:29:32.293   02 Jun 2027 10:29:35.018             2.725           210.812
        32   02 Jun 2027 10:30:18.198   02 Jun 2027 10:30:22.684             4.486          1276.906
        33   02 Jun 2027 10:30:43.076   02 Jun 2027 10:30:43.454             0.378           103.812
        34   02 Jun 2027 10:30:56.825   02 Jun 2027 10:30:59.519             2.694             0.312
        35   02 Jun 2027 10:31:33.292   02 Jun 2027 10:31:36.704             3.412            66.156
        36   02 Jun 2027 10:31:58.752   02 Jun 2027 10:32:00.402             1.650           689.000
        37   03 Jun 2027 04:27:34.323   03 Jun 2027 04:29:21.460           107.137         53568.500
        38   03 Jun 2027 04:30:03.453   03 Jun 2027 04:30:17.959            14.506          7253.000
        39   03 Jun 2027 05:50:08.198   03 Jun 2027 05:51:18.431            70.233         35116.500
        40   03 Jun 2027 07:26:36.346   03 Jun 2027 07:28:42.135           125.789         62634.031
        41   03 Jun 2027 07:29:14.231   03 Jun 2027 07:29:17.219             2.988           972.406
        42   03 Jun 2027 07:30:07.633   03 Jun 2027 07:30:07.633             0.000             0.000
        43   03 Jun 2027 09:01:47.223   03 Jun 2027 09:01:53.943             6.720          2607.844
        44   03 Jun 2027 09:02:11.797   03 Jun 2027 09:02:14.930             3.133           408.938
        45   03 Jun 2027 09:03:01.794   03 Jun 2027 09:03:03.515             1.721           126.469
        46   03 Jun 2027 09:04:05.025   03 Jun 2027 09:04:09.990             4.965          1440.562
        47   03 Jun 2027 09:05:06.300   03 Jun 2027 09:05:08.253             1.953           564.625
        48   03 Jun 2027 09:05:43.667   03 Jun 2027 09:05:43.667             0.000             0.000
        49   03 Jun 2027 09:07:04.842   03 Jun 2027 09:07:13.176             8.334          3393.469
        50   03 Jun 2027 09:08:17.873   03 Jun 2027 09:08:21.941             4.068           869.219
        51   03 Jun 2027 10:38:06.206   03 Jun 2027 10:38:16.582            10.376          4397.562
        52   03 Jun 2027 10:40:59.024   03 Jun 2027 10:40:59.851             0.827           326.906
        53   03 Jun 2027 10:41:56.976   03 Jun 2027 10:42:00.221             3.245          1182.156
        54   03 Jun 2027 10:42:26.762   03 Jun 2027 10:42:28.716             1.954           770.031
        55   03 Jun 2027 10:43:29.577   03 Jun 2027 10:43:32.477             2.900          1379.594
        56   03 Jun 2027 10:43:59.973   03 Jun 2027 10:44:03.125             3.152           610.688
        57   04 Jun 2027 03:00:29.989   04 Jun 2027 03:00:44.340            14.351          7175.500
        58   04 Jun 2027 03:00:53.601   04 Jun 2027 03:00:55.650             2.049          1024.500
        59   04 Jun 2027 03:01:34.045   04 Jun 2027 03:01:49.270            15.225          7612.500
        60   04 Jun 2027 03:02:37.183   04 Jun 2027 03:02:47.265            10.082          5041.000
        61   04 Jun 2027 03:03:38.637   04 Jun 2027 03:03:42.742             4.105          2052.500
        62   04 Jun 2027 03:03:46.166   04 Jun 2027 03:03:51.481             5.315          2657.500
        63   04 Jun 2027 03:04:42.775   04 Jun 2027 03:05:12.984            30.209         15104.500
        64   04 Jun 2027 03:06:36.363   04 Jun 2027 03:06:38.162             1.799           899.500
        65   04 Jun 2027 04:38:43.354   04 Jun 2027 04:39:19.736            36.382         18191.000
        66   04 Jun 2027 04:39:48.338   04 Jun 2027 04:41:30.350           102.012         51006.000
        67   04 Jun 2027 04:42:05.331   04 Jun 2027 04:42:14.337             9.006          4503.000
        68   04 Jun 2027 06:02:09.574   04 Jun 2027 06:03:15.145            65.571         32785.500
        69   04 Jun 2027 06:03:35.150   04 Jun 2027 06:03:50.353            15.203          7601.500
        70   04 Jun 2027 06:04:56.631   04 Jun 2027 06:05:00.906             4.275          2137.500
        71   04 Jun 2027 07:38:37.320   04 Jun 2027 07:38:57.408            20.088          8823.313
        72   04 Jun 2027 07:39:20.340   04 Jun 2027 07:39:22.063             1.723           697.594
        73   04 Jun 2027 07:40:12.021   04 Jun 2027 07:40:12.021             0.000             0.000
        74   04 Jun 2027 07:40:16.979   04 Jun 2027 07:40:21.619             4.640          1060.187
        75   04 Jun 2027 07:40:47.636   04 Jun 2027 07:40:52.393             4.757           392.219
        76   04 Jun 2027 07:41:15.777   04 Jun 2027 07:41:17.326             1.549           542.281
        77   04 Jun 2027 07:42:00.966   04 Jun 2027 07:42:03.270             2.304           900.656
        78   04 Jun 2027 09:13:49.897   04 Jun 2027 09:13:57.446             7.549          2364.094
        79   04 Jun 2027 09:15:20.040   04 Jun 2027 09:15:26.829             6.789          2525.531
        80   04 Jun 2027 09:16:17.993   04 Jun 2027 09:16:20.835             2.842          1026.594
        81   04 Jun 2027 09:17:08.848   04 Jun 2027 09:17:12.413             3.565           761.594
        82   04 Jun 2027 09:19:04.673   04 Jun 2027 09:19:10.181             5.508          2469.594
        83   04 Jun 2027 09:19:14.335   04 Jun 2027 09:19:15.264             0.929           129.813
        84   04 Jun 2027 09:19:28.483   04 Jun 2027 09:19:35.497             7.014           363.375
        85   04 Jun 2027 09:20:27.830   04 Jun 2027 09:20:27.850             0.020            10.000
        86   04 Jun 2027 10:49:45.163   04 Jun 2027 10:49:57.326            12.163          5514.875
        87   04 Jun 2027 10:51:57.283   04 Jun 2027 10:51:57.862             0.579            12.625
        88   04 Jun 2027 10:52:25.154   04 Jun 2027 10:52:26.103             0.949           439.219
        89   04 Jun 2027 10:52:47.864   04 Jun 2027 10:52:50.255             2.391            64.375
        90   04 Jun 2027 10:54:06.766   04 Jun 2027 10:54:12.953             6.187          2234.000
        91   04 Jun 2027 10:55:09.491   04 Jun 2027 10:55:14.149             4.658          1766.813
        92   04 Jun 2027 10:55:28.811   04 Jun 2027 10:55:30.605             1.794           285.531
        93   04 Jun 2027 10:55:42.358   04 Jun 2027 10:55:43.730             1.372           285.375
        94   05 Jun 2027 03:13:34.617   05 Jun 2027 03:15:01.840            87.223         43611.500
        95   05 Jun 2027 03:15:53.361   05 Jun 2027 03:15:55.059             1.698           849.000
        96   05 Jun 2027 03:16:02.147   05 Jun 2027 03:16:13.353            11.206          5603.000
        97   05 Jun 2027 03:16:39.541   05 Jun 2027 03:16:50.783            11.242          5621.000
        98   05 Jun 2027 03:17:33.111   05 Jun 2027 03:17:39.242             6.131          3065.500
        99   05 Jun 2027 03:18:28.200   05 Jun 2027 03:18:43.930            15.730          7865.000
       100   05 Jun 2027 03:20:17.504   05 Jun 2027 03:20:40.350            22.846         11423.000
       101   05 Jun 2027 03:20:58.807   05 Jun 2027 03:21:21.757            22.950         11475.000
       102   05 Jun 2027 04:39:43.144   05 Jun 2027 04:40:10.965            27.821         13910.500
       103   05 Jun 2027 04:50:38.985   05 Jun 2027 04:52:15.851            96.866         48433.000
       104   05 Jun 2027 04:52:25.751   05 Jun 2027 04:52:53.118            27.367         13342.625
       105   05 Jun 2027 04:54:01.823   05 Jun 2027 04:54:04.399             2.576          1195.094
       106   05 Jun 2027 06:14:36.045   05 Jun 2027 06:14:46.292            10.247          4353.594
       107   05 Jun 2027 06:16:16.247   05 Jun 2027 06:16:21.317             5.070          2413.625
       108   05 Jun 2027 06:17:31.738   05 Jun 2027 06:17:31.738             0.000             0.000
       109   05 Jun 2027 07:50:21.251   05 Jun 2027 07:50:32.736            11.485          2404.281
       110   05 Jun 2027 07:51:23.281   05 Jun 2027 07:51:26.570             3.289           818.844
       111   05 Jun 2027 07:52:00.862   05 Jun 2027 07:52:03.966             3.104          1071.625
       112   05 Jun 2027 07:52:58.448   05 Jun 2027 07:53:03.646             5.198          1656.375
       113   05 Jun 2027 07:53:09.025   05 Jun 2027 07:53:12.647             3.622            98.219
       114   05 Jun 2027 07:54:21.926   05 Jun 2027 07:54:29.208             7.282          2139.375
       115   05 Jun 2027 07:54:37.948   05 Jun 2027 07:54:38.354             0.406            92.063
       116   05 Jun 2027 09:25:05.127   05 Jun 2027 09:25:08.391             3.264          1632.000
       117   05 Jun 2027 09:25:16.235   05 Jun 2027 09:25:21.466             5.231          1377.469
       118   05 Jun 2027 09:25:52.691   05 Jun 2027 09:25:53.643             0.952           341.000
       119   05 Jun 2027 09:26:47.375   05 Jun 2027 09:26:51.859             4.484           606.938
       120   05 Jun 2027 09:28:27.109   05 Jun 2027 09:28:32.606             5.497          2109.938
       121   05 Jun 2027 09:28:39.276   05 Jun 2027 09:28:40.857             1.581           164.000
       122   05 Jun 2027 09:29:11.151   05 Jun 2027 09:29:16.254             5.103           891.375
       123   05 Jun 2027 09:31:03.836   05 Jun 2027 09:31:10.190             6.354          2301.844
       124   05 Jun 2027 09:32:21.548   05 Jun 2027 09:32:28.654             7.106          2023.031
       125   05 Jun 2027 11:01:54.857   05 Jun 2027 11:02:08.606            13.749          6841.594
       126   05 Jun 2027 11:04:23.827   05 Jun 2027 11:04:24.381             0.554           169.219
       127   05 Jun 2027 11:05:10.164   05 Jun 2027 11:05:14.779             4.615           660.406
       128   05 Jun 2027 11:05:59.117   05 Jun 2027 11:06:04.064             4.947           598.562
       129   05 Jun 2027 11:06:17.451   05 Jun 2027 11:06:20.836             3.385           418.344
       130   05 Jun 2027 11:06:54.397   05 Jun 2027 11:06:56.759             2.362           275.688
       131   05 Jun 2027 11:07:24.704   05 Jun 2027 11:07:26.748             2.044           873.281
       132   05 Jun 2027 11:08:07.960   05 Jun 2027 11:08:08.709             0.749            69.469
       133   06 Jun 2027 03:25:56.191   06 Jun 2027 03:28:09.861           133.670         66835.000
       134   06 Jun 2027 03:28:36.853   06 Jun 2027 03:30:01.671            84.818         42409.000
       135   06 Jun 2027 03:30:19.269   06 Jun 2027 03:30:49.006            29.737         14868.500
       136   06 Jun 2027 04:50:59.981   06 Jun 2027 04:51:04.209             4.228          2114.000
       137   06 Jun 2027 04:51:37.575   06 Jun 2027 04:51:37.575             0.000             0.000
       138   06 Jun 2027 05:02:39.925   06 Jun 2027 05:04:03.985            84.060         42030.000
       139   06 Jun 2027 06:25:11.121   06 Jun 2027 06:25:23.474            12.353          5682.032
       140   06 Jun 2027 06:25:49.026   06 Jun 2027 06:25:49.026             0.000             0.000
       141   06 Jun 2027 06:26:53.206   06 Jun 2027 06:26:59.590             6.384          2152.250
       142   06 Jun 2027 06:27:22.326   06 Jun 2027 06:27:23.861             1.535           620.594
       143   06 Jun 2027 06:28:59.777   06 Jun 2027 06:29:01.350             1.573           786.500
       144   06 Jun 2027 06:29:11.312   06 Jun 2027 06:29:20.280             8.968          2081.937
       145   06 Jun 2027 08:00:14.352   06 Jun 2027 08:00:18.813             4.461          2179.687
       146   06 Jun 2027 08:00:22.284   06 Jun 2027 08:00:22.902             0.618            75.500
       147   06 Jun 2027 08:00:42.871   06 Jun 2027 08:00:43.718             0.847           270.031
       148   06 Jun 2027 08:02:19.095   06 Jun 2027 08:02:24.486             5.391          2223.062
       149   06 Jun 2027 08:03:45.142   06 Jun 2027 08:03:49.553             4.411          2205.500
       150   06 Jun 2027 08:03:58.291   06 Jun 2027 08:04:12.046            13.755           588.062
       151   06 Jun 2027 08:04:48.942   06 Jun 2027 08:04:49.291             0.349             0.500
       152   06 Jun 2027 08:05:10.046   06 Jun 2027 08:05:11.797             1.751           648.594
       153   06 Jun 2027 08:05:35.877   06 Jun 2027 08:05:38.786             2.909           669.281
       154   06 Jun 2027 08:06:08.083   06 Jun 2027 08:06:09.649             1.566           332.688
       155   06 Jun 2027 09:37:13.272   06 Jun 2027 09:37:22.052             8.780          3631.188
       156   06 Jun 2027 09:39:20.823   06 Jun 2027 09:39:40.732            19.909          2735.281
       157   06 Jun 2027 09:40:53.334   06 Jun 2027 09:40:56.271             2.937           619.687
       158   06 Jun 2027 09:41:57.360   06 Jun 2027 09:42:00.839             3.479          1380.844
       159   06 Jun 2027 09:42:38.815   06 Jun 2027 09:42:40.100             1.285           425.250
       160   06 Jun 2027 09:44:03.066   06 Jun 2027 09:44:12.111             9.045          1603.406
       161   06 Jun 2027 09:44:37.767   06 Jun 2027 09:44:37.949             0.182            91.000
       162   06 Jun 2027 11:14:11.328   06 Jun 2027 11:14:26.156            14.828          5750.562
       163   06 Jun 2027 11:16:31.839   06 Jun 2027 11:16:36.093             4.254          1475.906
       164   06 Jun 2027 11:17:37.638   06 Jun 2027 11:17:44.993             7.355          1459.906
       165   06 Jun 2027 11:18:00.108   06 Jun 2027 11:18:05.685             5.577           472.344
       166   06 Jun 2027 11:18:29.186   06 Jun 2027 11:18:31.186             2.000           734.406
       167   06 Jun 2027 11:18:56.515   06 Jun 2027 11:18:57.711             1.196           439.969
       168   06 Jun 2027 11:19:27.087   06 Jun 2027 11:19:30.661             3.574           918.000
       169   06 Jun 2027 11:19:46.448   06 Jun 2027 11:19:48.279             1.831           493.344
       170   06 Jun 2027 11:20:09.522   06 Jun 2027 11:20:10.140             0.618           119.312
       171   07 Jun 2027 03:38:13.164   07 Jun 2027 03:41:21.641           188.477         94238.500
       172   07 Jun 2027 03:42:36.756   07 Jun 2027 03:43:26.343            49.587         24793.500
       173   07 Jun 2027 03:44:59.134   07 Jun 2027 03:45:00.858             1.724           862.000
       174   07 Jun 2027 05:02:21.012   07 Jun 2027 05:02:23.042             2.030          1015.000
       175   07 Jun 2027 05:03:22.331   07 Jun 2027 05:03:33.292            10.961          5480.500
       176   07 Jun 2027 05:14:37.152   07 Jun 2027 05:15:32.086            54.934         27467.000
       177   07 Jun 2027 06:36:35.883   07 Jun 2027 06:37:00.634            24.751         12117.063
       178   07 Jun 2027 06:37:49.017   07 Jun 2027 06:37:50.497             1.480           740.000
       179   07 Jun 2027 06:37:52.421   07 Jun 2027 06:38:00.259             7.838           717.500
       180   07 Jun 2027 06:38:47.852   07 Jun 2027 06:38:51.283             3.431           757.906
       181   07 Jun 2027 06:39:13.897   07 Jun 2027 06:39:15.841             1.944           545.594
       182   07 Jun 2027 06:39:52.287   07 Jun 2027 06:39:52.287             0.000             0.000
       183   07 Jun 2027 06:40:22.757   07 Jun 2027 06:40:28.411             5.654          1914.187
       184   07 Jun 2027 06:41:33.841   07 Jun 2027 06:41:40.835             6.994          1979.813
       185   07 Jun 2027 08:11:37.577   07 Jun 2027 08:11:41.570             3.993          1984.719
       186   07 Jun 2027 08:13:24.843   07 Jun 2027 08:13:27.836             2.993           617.531
       187   07 Jun 2027 08:14:09.869   07 Jun 2027 08:14:13.490             3.621          1313.531
       188   07 Jun 2027 08:15:45.695   07 Jun 2027 08:15:55.297             9.602          2486.500
       189   07 Jun 2027 08:17:10.141   07 Jun 2027 08:17:15.040             4.899          2250.875
       190   07 Jun 2027 08:17:51.705   07 Jun 2027 08:17:51.705             0.000             0.000
       191   07 Jun 2027 08:18:00.319   07 Jun 2027 08:18:01.749             1.430           710.594
       192   07 Jun 2027 08:18:24.808   07 Jun 2027 08:18:26.724             1.916           252.875
       193   07 Jun 2027 09:49:15.282   07 Jun 2027 09:49:25.623            10.341          4161.375
       194   07 Jun 2027 09:51:55.868   07 Jun 2027 09:52:01.206             5.338           920.563
       195   07 Jun 2027 09:53:14.861   07 Jun 2027 09:53:15.096             0.235             8.844
       196   07 Jun 2027 09:54:07.296   07 Jun 2027 09:54:12.241             4.945          1597.812
       197   07 Jun 2027 09:54:18.309   07 Jun 2027 09:54:22.278             3.969            14.531
       198   07 Jun 2027 09:54:39.149   07 Jun 2027 09:54:39.892             0.743           129.625
       199   07 Jun 2027 09:54:42.409   07 Jun 2027 09:54:45.044             2.635            78.656
       200   07 Jun 2027 09:55:12.061   07 Jun 2027 09:55:18.510             6.449           456.344
       201   07 Jun 2027 09:55:44.772   07 Jun 2027 09:55:48.110             3.338           123.187
       202   07 Jun 2027 09:56:01.811   07 Jun 2027 09:56:03.838             2.027           365.562
       203   07 Jun 2027 09:56:32.353   07 Jun 2027 09:56:35.262             2.909           233.219
       204   07 Jun 2027 11:26:01.358   07 Jun 2027 11:26:19.115            17.757          7589.375
       205   07 Jun 2027 11:28:27.657   07 Jun 2027 11:28:28.129             0.472           188.688
       206   07 Jun 2027 11:29:39.389   07 Jun 2027 11:29:50.391            11.002          1084.500
       207   07 Jun 2027 11:30:07.299   07 Jun 2027 11:30:08.870             1.571           453.719
       208   07 Jun 2027 11:30:21.791   07 Jun 2027 11:30:23.327             1.536           267.719
       209   07 Jun 2027 11:30:24.984   07 Jun 2027 11:30:25.277             0.293            51.781
       210   07 Jun 2027 11:30:32.840   07 Jun 2027 11:30:35.151             2.311            98.750
       211   07 Jun 2027 11:32:05.602   07 Jun 2027 11:32:08.271             2.669          1334.500
       212   07 Jun 2027 11:32:18.294   07 Jun 2027 11:32:21.681             3.387           897.281
       213   07 Jun 2027 11:32:38.071   07 Jun 2027 11:32:42.541             4.470           315.344
       214   08 Jun 2027 03:50:19.973   08 Jun 2027 03:53:45.430           205.457        102728.500
       215   08 Jun 2027 03:54:55.768   08 Jun 2027 03:55:26.205            30.437         15218.500
       216   08 Jun 2027 05:14:28.952   08 Jun 2027 05:15:10.098            41.146         20573.000
       217   08 Jun 2027 06:48:18.419   08 Jun 2027 06:49:42.359            83.940         38571.625
       218   08 Jun 2027 06:50:34.445   08 Jun 2027 06:50:34.445             0.000             0.000
       219   08 Jun 2027 06:51:02.933   08 Jun 2027 06:51:07.901             4.968          2223.000
       220   08 Jun 2027 06:51:50.966   08 Jun 2027 06:51:54.132             3.166          1211.375
       221   08 Jun 2027 06:52:12.956   08 Jun 2027 06:52:12.956             0.000             0.000
       222   08 Jun 2027 06:53:34.462   08 Jun 2027 06:53:42.581             8.119          3135.312
       223   08 Jun 2027 08:23:10.393   08 Jun 2027 08:23:17.890             7.497          2891.500
       224   08 Jun 2027 08:25:28.828   08 Jun 2027 08:25:34.673             5.845          2306.344
       225   08 Jun 2027 08:26:35.349   08 Jun 2027 08:26:37.829             2.480          1180.531
       226   08 Jun 2027 08:26:50.325   08 Jun 2027 08:26:51.278             0.953            44.031
       227   08 Jun 2027 08:28:00.416   08 Jun 2027 08:28:05.512             5.096           917.938
       228   08 Jun 2027 08:29:15.738   08 Jun 2027 08:29:21.386             5.648           182.719
       229   08 Jun 2027 08:30:26.865   08 Jun 2027 08:30:30.406             3.541          1491.781
       230   08 Jun 2027 08:31:00.375   08 Jun 2027 08:31:02.651             2.276           827.750
       231   08 Jun 2027 08:31:57.839   08 Jun 2027 08:32:00.821             2.982          1197.469
       232   08 Jun 2027 10:01:16.198   08 Jun 2027 10:01:28.763            12.565          5083.219
       233   08 Jun 2027 10:02:54.651   08 Jun 2027 10:02:56.526             1.875           561.063
       234   08 Jun 2027 10:03:15.084   08 Jun 2027 10:03:18.739             3.655           541.062
       235   08 Jun 2027 10:04:55.565   08 Jun 2027 10:04:58.578             3.013           994.937
       236   08 Jun 2027 10:05:17.326   08 Jun 2027 10:05:18.187             0.861           273.750
       237   08 Jun 2027 10:06:38.505   08 Jun 2027 10:06:43.500             4.995          2150.313
       238   08 Jun 2027 10:07:24.324   08 Jun 2027 10:07:31.182             6.858          1275.750
       239   08 Jun 2027 10:07:42.175   08 Jun 2027 10:07:44.842             2.667           323.594
       240   08 Jun 2027 10:07:58.720   08 Jun 2027 10:08:01.818             3.098           372.656
       241   08 Jun 2027 10:08:16.124   08 Jun 2027 10:08:18.235             2.111           447.063
       242   08 Jun 2027 10:08:20.812   08 Jun 2027 10:08:22.584             1.772            80.531
       243   08 Jun 2027 10:08:33.454   08 Jun 2027 10:08:37.459             4.005           326.437
       244   08 Jun 2027 11:38:10.744   08 Jun 2027 11:38:20.365             9.621          4810.500
       245   08 Jun 2027 11:38:42.999   08 Jun 2027 11:38:45.293             2.294          1039.969
       246   08 Jun 2027 11:40:47.518   08 Jun 2027 11:40:48.927             1.409             7.062
       247   08 Jun 2027 11:41:17.420   08 Jun 2027 11:41:22.238             4.818           611.063
       248   08 Jun 2027 11:41:50.309   08 Jun 2027 11:41:52.574             2.265            94.937
       249   08 Jun 2027 11:42:41.449   08 Jun 2027 11:42:46.010             4.561          1240.344
       250   08 Jun 2027 11:42:59.735   08 Jun 2027 11:43:01.937             2.202           157.406
       251   08 Jun 2027 11:43:16.819   08 Jun 2027 11:43:17.781             0.962           465.062
       252   08 Jun 2027 11:44:16.280   08 Jun 2027 11:44:24.364             8.084          1070.812
       253   09 Jun 2027 04:02:56.423   09 Jun 2027 04:05:36.194           159.771         79885.500
       254   09 Jun 2027 04:05:59.721   09 Jun 2027 04:06:20.346            20.625         10312.500
       255   09 Jun 2027 04:07:05.551   09 Jun 2027 04:07:25.853            20.302         10151.000
       256   09 Jun 2027 05:26:25.105   09 Jun 2027 05:26:43.723            18.618          9309.000
       257   09 Jun 2027 05:27:12.937   09 Jun 2027 05:27:12.937             0.000             0.000
       258   09 Jun 2027 07:02:37.881   09 Jun 2027 07:04:37.566           119.685         59632.781
       259   09 Jun 2027 07:05:34.711   09 Jun 2027 07:05:41.756             7.045          1785.781
       260   09 Jun 2027 08:36:11.165   09 Jun 2027 08:36:18.017             6.852          3098.406
       261   09 Jun 2027 08:38:30.950   09 Jun 2027 08:38:34.515             3.565           952.406
       262   09 Jun 2027 08:38:43.703   09 Jun 2027 08:38:43.703             0.000             0.000
       263   09 Jun 2027 08:39:02.432   09 Jun 2027 08:39:04.065             1.633           753.063
       264   09 Jun 2027 08:40:05.269   09 Jun 2027 08:40:08.305             3.036          1003.312
       265   09 Jun 2027 08:42:36.746   09 Jun 2027 08:42:44.204             7.458          3369.688
       266   09 Jun 2027 08:43:17.451   09 Jun 2027 08:43:18.146             0.695           279.969
       267   09 Jun 2027 08:44:09.058   09 Jun 2027 08:44:15.156             6.098          1508.313
       268   09 Jun 2027 10:13:42.675   09 Jun 2027 10:13:52.762            10.087          4735.844
       269   09 Jun 2027 10:15:42.017   09 Jun 2027 10:15:44.368             2.351           397.219
       270   09 Jun 2027 10:16:14.492   09 Jun 2027 10:16:16.560             2.068           858.094
       271   09 Jun 2027 10:17:47.801   09 Jun 2027 10:17:50.455             2.654           961.719
       272   09 Jun 2027 10:18:50.919   09 Jun 2027 10:18:56.863             5.944           442.563
       273   09 Jun 2027 10:19:28.718   09 Jun 2027 10:19:30.569             1.851            73.125
       274   09 Jun 2027 10:20:15.708   09 Jun 2027 10:20:16.534             0.826           396.781
       275   09 Jun 2027 11:50:38.790   09 Jun 2027 11:50:50.710            11.920          5105.844
       276   09 Jun 2027 11:51:48.568   09 Jun 2027 11:51:53.256             4.688          1037.688
       277   09 Jun 2027 11:52:24.280   09 Jun 2027 11:52:25.756             1.476            44.188
       278   09 Jun 2027 11:52:43.449   09 Jun 2027 11:52:52.878             9.429            17.719
       279   09 Jun 2027 11:53:53.407   09 Jun 2027 11:53:58.511             5.104          1859.219
       280   09 Jun 2027 11:54:37.016   09 Jun 2027 11:54:43.509             6.493           812.062
       281   09 Jun 2027 11:55:52.833   09 Jun 2027 11:55:57.217             4.384          2127.219
       282   09 Jun 2027 11:56:29.380   09 Jun 2027 11:56:29.879             0.499           249.500
       283   10 Jun 2027 04:14:37.095   10 Jun 2027 04:16:55.103           138.008         69004.000
       284   10 Jun 2027 04:17:16.170   10 Jun 2027 04:17:26.880            10.710          5355.000
       285   10 Jun 2027 05:38:16.148   10 Jun 2027 05:39:10.628            54.480         27240.000
       286   10 Jun 2027 07:14:43.076   10 Jun 2027 07:16:48.287           125.211         62456.437
       287   10 Jun 2027 07:17:34.491   10 Jun 2027 07:17:37.923             3.432          1443.875
       288   10 Jun 2027 08:46:51.188   10 Jun 2027 08:46:58.279             7.091          3139.406
       289   10 Jun 2027 08:49:29.366   10 Jun 2027 08:49:37.176             7.810          2315.406
       290   10 Jun 2027 08:50:35.236   10 Jun 2027 08:50:36.677             1.441           400.781
       291   10 Jun 2027 08:50:57.341   10 Jun 2027 08:50:59.491             2.150           645.750
       292   10 Jun 2027 08:52:12.785   10 Jun 2027 08:52:15.281             2.496          1181.094
       293   10 Jun 2027 08:53:07.266   10 Jun 2027 08:53:10.477             3.211          1440.000
       294   10 Jun 2027 08:53:51.504   10 Jun 2027 08:53:54.075             2.571           930.437
       295   10 Jun 2027 08:55:21.646   10 Jun 2027 08:55:27.962             6.316          2498.031
       296   10 Jun 2027 08:56:08.774   10 Jun 2027 08:56:10.826             2.052          1021.031
       297   10 Jun 2027 08:56:39.669   10 Jun 2027 08:56:39.793             0.124            62.000
       298   10 Jun 2027 10:25:48.759   10 Jun 2027 10:26:02.009            13.250          5999.125
       299   10 Jun 2027 10:28:03.025   10 Jun 2027 10:28:07.330             4.305            25.625
       300   10 Jun 2027 10:28:33.065   10 Jun 2027 10:28:34.092             1.027           230.000
       301   10 Jun 2027 10:29:02.814   10 Jun 2027 10:29:10.958             8.144           728.188
       302   10 Jun 2027 10:30:18.373   10 Jun 2027 10:30:20.741             2.368           626.813
       303   10 Jun 2027 10:30:57.280   10 Jun 2027 10:31:00.304             3.024           735.531
       304   10 Jun 2027 10:31:12.379   10 Jun 2027 10:31:15.311             2.932            29.312
       305   10 Jun 2027 10:31:48.796   10 Jun 2027 10:31:52.996             4.200            69.781
       306   10 Jun 2027 10:32:13.828   10 Jun 2027 10:32:15.916             2.088           651.000
       307   11 Jun 2027 04:27:50.415   11 Jun 2027 04:30:02.436           132.021         66010.500
       308   11 Jun 2027 04:30:39.978   11 Jun 2027 04:30:42.231             2.253          1126.500
       309   11 Jun 2027 04:30:54.723   11 Jun 2027 04:30:59.047             4.324          2162.000
       310   11 Jun 2027 05:50:24.554   11 Jun 2027 05:50:54.788            30.234         15117.000
       311   11 Jun 2027 05:51:38.530   11 Jun 2027 05:51:38.530             0.000             0.000
       312   11 Jun 2027 05:52:02.698   11 Jun 2027 05:52:14.624            11.926          5963.000
       313   11 Jun 2027 07:26:53.020   11 Jun 2027 07:29:01.347           128.327         64163.500
       314   11 Jun 2027 07:29:32.532   11 Jun 2027 07:29:44.935            12.403          2635.625
       315   11 Jun 2027 09:02:04.269   11 Jun 2027 09:02:12.919             8.650          3673.562
       316   11 Jun 2027 09:02:27.247   11 Jun 2027 09:02:31.098             3.851           347.594
       317   11 Jun 2027 09:03:19.844   11 Jun 2027 09:03:22.191             2.347           128.188
       318   11 Jun 2027 09:04:23.064   11 Jun 2027 09:04:26.142             3.078          1456.125
       319   11 Jun 2027 09:06:01.429   11 Jun 2027 09:06:06.382             4.953          1776.031
       320   11 Jun 2027 09:06:37.689   11 Jun 2027 09:06:39.798             2.109            87.250
       321   11 Jun 2027 09:08:08.170   11 Jun 2027 09:08:12.193             4.023          1442.625
       322   11 Jun 2027 10:38:23.008   11 Jun 2027 10:38:33.381            10.373          4857.344
       323   11 Jun 2027 10:40:04.912   11 Jun 2027 10:40:10.821             5.909          1208.875
       324   11 Jun 2027 10:40:25.352   11 Jun 2027 10:40:26.128             0.776            66.156
       325   11 Jun 2027 10:40:29.135   11 Jun 2027 10:40:29.529             0.394            91.875
       326   11 Jun 2027 10:40:31.834   11 Jun 2027 10:40:35.867             4.033            72.031
       327   11 Jun 2027 10:41:05.267   11 Jun 2027 10:41:10.587             5.320           347.406
       328   11 Jun 2027 10:41:35.791   11 Jun 2027 10:41:40.424             4.633           694.625
       329   11 Jun 2027 10:42:24.859   11 Jun 2027 10:42:29.234             4.375            39.906
       330   11 Jun 2027 10:43:03.000   11 Jun 2027 10:43:05.936             2.936          1055.188
       331   11 Jun 2027 10:43:26.762   11 Jun 2027 10:43:28.629             1.867           133.469
       332   11 Jun 2027 10:43:56.308   11 Jun 2027 10:43:57.771             1.463           644.125
       333   11 Jun 2027 10:44:11.167   11 Jun 2027 10:44:14.114             2.947           149.906
       334   12 Jun 2027 03:00:46.633   12 Jun 2027 03:00:59.189            12.556          6278.000
       335   12 Jun 2027 03:01:10.787   12 Jun 2027 03:01:11.635             0.848           424.000
       336   12 Jun 2027 03:01:50.204   12 Jun 2027 03:02:23.758            33.554         16777.000
       337   12 Jun 2027 03:03:07.772   12 Jun 2027 03:03:27.164            19.392          9696.000
       338   12 Jun 2027 03:06:48.165   12 Jun 2027 03:06:54.110             5.945          2972.500
       339   12 Jun 2027 04:38:59.386   12 Jun 2027 04:39:35.776            36.390         18195.000
       340   12 Jun 2027 04:40:04.383   12 Jun 2027 04:41:49.306           104.923         52461.500
       341   12 Jun 2027 04:42:09.398   12 Jun 2027 04:42:17.956             8.558          4279.000
       342   12 Jun 2027 06:03:07.025   12 Jun 2027 06:04:51.868           104.843         52091.875
       343   12 Jun 2027 07:38:52.174   12 Jun 2027 07:39:05.214            13.040          5842.344
       344   12 Jun 2027 07:39:38.037   12 Jun 2027 07:39:46.219             8.182           752.500
       345   12 Jun 2027 07:40:30.288   12 Jun 2027 07:40:32.171             1.883           928.156
       346   12 Jun 2027 07:41:03.949   12 Jun 2027 07:41:08.483             4.534           385.094
       347   12 Jun 2027 07:41:32.212   12 Jun 2027 07:41:33.405             1.193           480.219
       348   12 Jun 2027 07:42:15.862   12 Jun 2027 07:42:15.862             0.000             0.000
       349   12 Jun 2027 09:14:05.280   12 Jun 2027 09:14:12.066             6.786          2764.281
       350   12 Jun 2027 09:14:14.484   12 Jun 2027 09:14:17.873             3.389            72.875
       351   12 Jun 2027 09:16:03.525   12 Jun 2027 09:16:06.655             3.130           541.562
       352   12 Jun 2027 09:16:59.237   12 Jun 2027 09:17:00.758             1.521           718.156
       353   12 Jun 2027 09:17:26.988   12 Jun 2027 09:17:33.537             6.549           819.688
       354   12 Jun 2027 09:19:21.786   12 Jun 2027 09:19:28.701             6.915          2442.281
       355   12 Jun 2027 09:20:16.403   12 Jun 2027 09:20:20.800             4.397          1490.687
       356   12 Jun 2027 09:20:31.893   12 Jun 2027 09:20:38.435             6.542           113.656
       357   12 Jun 2027 09:20:44.625   12 Jun 2027 09:20:45.429             0.804            60.094
       358   12 Jun 2027 10:50:01.804   12 Jun 2027 10:50:12.464            10.660          4639.687
       359   12 Jun 2027 10:52:15.144   12 Jun 2027 10:52:17.070             1.926            69.438
       360   12 Jun 2027 10:52:41.787   12 Jun 2027 10:52:41.857             0.070            34.312
       361   12 Jun 2027 10:53:10.003   12 Jun 2027 10:53:11.608             1.605            50.781
       362   12 Jun 2027 10:54:02.375   12 Jun 2027 10:54:06.047             3.672           905.281
       363   12 Jun 2027 10:54:42.789   12 Jun 2027 10:54:44.417             1.628           711.688
       364   12 Jun 2027 10:55:43.026   12 Jun 2027 10:55:45.929             2.903          1131.406
       365   12 Jun 2027 10:55:58.423   12 Jun 2027 10:55:59.199             0.776           308.500
       366   12 Jun 2027 10:56:20.488   12 Jun 2027 10:56:20.840             0.352            50.938
       367   13 Jun 2027 03:13:51.165   13 Jun 2027 03:15:21.065            89.900         44950.000
       368   13 Jun 2027 03:16:24.591   13 Jun 2027 03:16:35.783            11.192          5596.000
       369   13 Jun 2027 03:16:54.144   13 Jun 2027 03:17:17.686            23.542         11771.000
       370   13 Jun 2027 03:17:43.444   13 Jun 2027 03:17:47.588             4.144          2072.000
       371   13 Jun 2027 03:20:07.204   13 Jun 2027 03:20:17.604            10.400          5200.000
       372   13 Jun 2027 03:20:32.306   13 Jun 2027 03:20:37.142             4.836          2418.000
       373   13 Jun 2027 03:20:56.466   13 Jun 2027 03:21:13.753            17.287          8643.500
       374   13 Jun 2027 04:39:57.188   13 Jun 2027 04:40:27.628            30.440         15220.000
       375   13 Jun 2027 04:50:55.049   13 Jun 2027 04:53:11.628           136.579         67052.781
       376   13 Jun 2027 06:14:13.918   13 Jun 2027 06:14:28.572            14.654          6757.219
       377   13 Jun 2027 06:15:38.559   13 Jun 2027 06:15:46.276             7.717          1768.125
       378   13 Jun 2027 06:17:14.520   13 Jun 2027 06:17:16.963             2.443          1221.500
       379   13 Jun 2027 06:17:25.226   13 Jun 2027 06:17:31.050             5.824          1644.656
       380   13 Jun 2027 07:50:36.737   13 Jun 2027 07:50:50.917            14.180          2741.219
       381   13 Jun 2027 07:51:40.962   13 Jun 2027 07:51:42.789             1.827           874.375
       382   13 Jun 2027 07:52:17.752   13 Jun 2027 07:52:20.251             2.499          1092.594
       383   13 Jun 2027 07:53:15.134   13 Jun 2027 07:53:18.703             3.569          1715.094
       384   13 Jun 2027 07:53:29.836   13 Jun 2027 07:53:29.836             0.000             0.000
       385   13 Jun 2027 07:53:34.915   13 Jun 2027 07:53:42.363             7.448           378.250
       386   13 Jun 2027 07:54:11.383   13 Jun 2027 07:54:15.481             4.098           699.813
       387   13 Jun 2027 09:25:21.797   13 Jun 2027 09:25:30.519             8.722          3080.094
       388   13 Jun 2027 09:26:10.550   13 Jun 2027 09:26:11.488             0.938           431.188
       389   13 Jun 2027 09:27:03.033   13 Jun 2027 09:27:04.580             1.547           640.375
       390   13 Jun 2027 09:27:35.295   13 Jun 2027 09:27:37.264             1.969           829.563
       391   13 Jun 2027 09:28:52.526   13 Jun 2027 09:28:55.453             2.927          1115.500
       392   13 Jun 2027 09:29:01.600   13 Jun 2027 09:29:03.082             1.482           192.094
       393   13 Jun 2027 09:30:08.388   13 Jun 2027 09:30:11.502             3.114          1222.719
       394   13 Jun 2027 09:30:53.338   13 Jun 2027 09:30:55.200             1.862           669.000
       395   13 Jun 2027 09:31:11.661   13 Jun 2027 09:31:14.881             3.220           359.750
       396   13 Jun 2027 09:32:15.084   13 Jun 2027 09:32:20.232             5.148          1693.563
       397   13 Jun 2027 09:32:49.837   13 Jun 2027 09:32:53.790             3.953           420.719
       398   13 Jun 2027 11:02:11.144   13 Jun 2027 11:02:24.604            13.460          4963.594
       399   13 Jun 2027 11:05:04.913   13 Jun 2027 11:05:07.657             2.744           750.125
       400   13 Jun 2027 11:05:18.340   13 Jun 2027 11:05:20.332             1.992           333.844
       401   13 Jun 2027 11:06:19.165   13 Jun 2027 11:06:22.671             3.506          1540.813
       402   13 Jun 2027 11:07:00.644   13 Jun 2027 11:07:11.811            11.167           823.406
       403   13 Jun 2027 11:07:14.702   13 Jun 2027 11:07:17.569             2.867            89.375
       404   13 Jun 2027 11:07:19.668   13 Jun 2027 11:07:23.629             3.961            65.594
