uniorb/output/strategy_4/Camera/Camera_KinoSat_110703.txt

KinoSat_110703
-------------------------
    Access    *     Start Time (UTCG)     *     Stop Time (UTCG)  *   Duration (s) *   Data (Mbytes)
         1   01 Jun 2027 03:58:53.809   01 Jun 2027 04:00:26.507            92.698         46349.000
         2   01 Jun 2027 04:00:48.752   01 Jun 2027 04:01:05.015            16.263          8131.500
         3   01 Jun 2027 04:02:21.362   01 Jun 2027 04:02:27.943             6.581          3290.500
         4   01 Jun 2027 05:31:10.876   01 Jun 2027 05:31:30.243            19.367          9683.500
         5   01 Jun 2027 05:32:57.859   01 Jun 2027 05:34:44.484           106.625         53312.500
         6   01 Jun 2027 05:35:37.692   01 Jun 2027 05:35:56.655            18.963          9481.500
         7   01 Jun 2027 05:39:36.777   01 Jun 2027 05:39:40.690             3.913          1956.500
         8   01 Jun 2027 05:40:07.460   01 Jun 2027 05:40:23.503            16.043          8021.500
         9   01 Jun 2027 05:40:53.399   01 Jun 2027 05:40:56.015             2.616          1308.000
        10   01 Jun 2027 07:10:02.246   01 Jun 2027 07:12:22.200           139.954         69977.000
        11   01 Jun 2027 07:12:47.818   01 Jun 2027 07:12:56.290             8.472          4236.000
        12   01 Jun 2027 07:14:21.725   01 Jun 2027 07:14:24.515             2.790          1395.000
        13   01 Jun 2027 07:15:04.808   01 Jun 2027 07:15:14.136             9.328          4664.000
        14   01 Jun 2027 08:46:58.597   01 Jun 2027 08:49:40.990           162.393         81196.500
        15   01 Jun 2027 08:50:16.553   01 Jun 2027 08:50:27.123            10.570          5285.000
        16   01 Jun 2027 08:51:48.997   01 Jun 2027 08:51:50.590             1.593           796.500
        17   01 Jun 2027 10:23:45.176   01 Jun 2027 10:25:47.226           122.050         61025.000
        18   01 Jun 2027 10:25:59.849   01 Jun 2027 10:26:04.866             5.017          2508.500
        19   01 Jun 2027 10:26:45.366   01 Jun 2027 10:26:55.775            10.409          5204.500
        20   01 Jun 2027 10:27:51.597   01 Jun 2027 10:28:03.485            11.888          5944.000
        21   02 Jun 2027 04:11:04.313   02 Jun 2027 04:11:27.226            22.913         11456.500
        22   02 Jun 2027 04:12:33.430   02 Jun 2027 04:12:56.703            23.273         11636.500
        23   02 Jun 2027 05:46:09.177   02 Jun 2027 05:48:38.770           149.593         74796.500
        24   02 Jun 2027 05:48:56.459   02 Jun 2027 05:49:12.550            16.091          8045.500
        25   02 Jun 2027 05:49:39.583   02 Jun 2027 05:50:02.458            22.875         11437.500
        26   02 Jun 2027 05:52:47.694   02 Jun 2027 05:52:57.083             9.389          4694.500
        27   02 Jun 2027 07:22:30.761   02 Jun 2027 07:25:46.774           196.013         98006.500
        28   02 Jun 2027 07:27:40.510   02 Jun 2027 07:27:50.255             9.745          4872.500
        29   02 Jun 2027 09:00:01.515   02 Jun 2027 09:03:31.403           209.888        104944.000
        30   02 Jun 2027 09:03:58.360   02 Jun 2027 09:04:15.418            17.058          8529.000
        31   02 Jun 2027 09:04:18.543   02 Jun 2027 09:04:27.233             8.690          4345.000
        32   02 Jun 2027 10:36:06.074   02 Jun 2027 10:36:35.564            29.490         14197.281
        33   02 Jun 2027 10:38:00.539   02 Jun 2027 10:38:01.820             1.281           559.219
        34   03 Jun 2027 04:23:09.075   03 Jun 2027 04:24:32.059            82.984         41492.000
        35   03 Jun 2027 04:26:32.210   03 Jun 2027 04:26:34.406             2.196          1098.000
        36   03 Jun 2027 05:58:19.217   03 Jun 2027 06:00:31.421           132.204         66102.000
        37   03 Jun 2027 06:00:38.548   03 Jun 2027 06:00:39.498             0.950           475.000
        38   03 Jun 2027 06:01:24.734   03 Jun 2027 06:01:39.020            14.286          7143.000
        39   03 Jun 2027 06:03:53.868   03 Jun 2027 06:04:55.637            61.769         30884.500
        40   03 Jun 2027 07:34:35.320   03 Jun 2027 07:35:10.281            34.961         15152.125
        41   03 Jun 2027 07:35:49.748   03 Jun 2027 07:35:52.739             2.991           497.562
        42   03 Jun 2027 07:37:04.230   03 Jun 2027 07:37:11.545             7.315           266.875
        43   03 Jun 2027 07:37:28.831   03 Jun 2027 07:37:32.482             3.651           140.969
        44   03 Jun 2027 07:37:58.671   03 Jun 2027 07:38:01.266             2.595           462.437
        45   03 Jun 2027 07:38:44.416   03 Jun 2027 07:38:46.461             2.045           449.219
        46   03 Jun 2027 09:12:07.024   03 Jun 2027 09:12:19.788            12.764          5403.937
        47   03 Jun 2027 09:13:27.337   03 Jun 2027 09:13:31.206             3.869           645.062
        48   03 Jun 2027 09:14:15.965   03 Jun 2027 09:14:16.886             0.921           373.219
        49   03 Jun 2027 09:15:01.793   03 Jun 2027 09:15:05.467             3.674          1287.531
        50   03 Jun 2027 09:15:53.619   03 Jun 2027 09:15:56.001             2.382           151.969
        51   03 Jun 2027 10:48:08.259   03 Jun 2027 10:48:18.757            10.498          5196.906
        52   04 Jun 2027 03:00:00.000   04 Jun 2027 03:00:08.152             8.152          4076.000
        53   04 Jun 2027 03:01:09.888   04 Jun 2027 03:01:09.888             0.000             0.000
        54   04 Jun 2027 03:01:15.592   04 Jun 2027 03:01:33.525            17.933          8966.500
        55   04 Jun 2027 04:34:52.615   04 Jun 2027 04:37:11.133           138.518         69259.000
        56   04 Jun 2027 04:38:20.296   04 Jun 2027 04:39:00.346            40.050         20025.000
        57   04 Jun 2027 06:09:44.037   04 Jun 2027 06:11:34.522           110.485         54247.594
        58   04 Jun 2027 06:11:39.664   04 Jun 2027 06:11:41.360             1.696           160.688
        59   04 Jun 2027 06:12:34.700   04 Jun 2027 06:12:38.530             3.830          1264.094
        60   04 Jun 2027 06:12:46.159   04 Jun 2027 06:12:46.159             0.000             0.000
        61   04 Jun 2027 06:13:09.513   04 Jun 2027 06:13:13.606             4.093           895.500
        62   04 Jun 2027 06:14:42.198   04 Jun 2027 06:14:49.945             7.747           760.625
        63   04 Jun 2027 06:16:18.812   04 Jun 2027 06:16:22.198             3.386          1430.469
        64   04 Jun 2027 06:16:30.007   04 Jun 2027 06:16:31.463             1.456            22.562
        65   04 Jun 2027 07:46:19.556   04 Jun 2027 07:46:25.150             5.594            31.625
        66   04 Jun 2027 07:50:05.218   04 Jun 2027 07:50:10.054             4.836          2239.406
        67   04 Jun 2027 07:50:52.205   04 Jun 2027 07:50:56.319             4.114          1054.719
        68   04 Jun 2027 07:51:29.094   04 Jun 2027 07:51:30.804             1.710           825.156
        69   04 Jun 2027 07:52:42.797   04 Jun 2027 07:52:43.294             0.497             6.062
        70   04 Jun 2027 09:24:37.144   04 Jun 2027 09:24:51.330            14.186          7009.344
        71   04 Jun 2027 09:25:34.134   04 Jun 2027 09:25:39.762             5.628           900.906
        72   04 Jun 2027 09:27:13.335   04 Jun 2027 09:27:19.319             5.984          1638.625
        73   04 Jun 2027 10:58:37.022   04 Jun 2027 10:58:50.894            13.872          5388.563
        74   05 Jun 2027 03:09:45.769   05 Jun 2027 03:10:01.401            15.632          7816.000
        75   05 Jun 2027 03:13:05.364   05 Jun 2027 03:13:10.908             5.544          2772.000
        76   05 Jun 2027 04:45:06.294   05 Jun 2027 04:46:04.376            58.082         29041.000
        77   05 Jun 2027 04:46:37.701   05 Jun 2027 04:48:48.256           130.555         65277.500
        78   05 Jun 2027 04:51:11.237   05 Jun 2027 04:51:11.237             0.000             0.000
        79   05 Jun 2027 06:21:35.534   05 Jun 2027 06:23:14.021            98.487         48739.156
        80   05 Jun 2027 06:24:32.312   05 Jun 2027 06:24:35.431             3.119          1249.437
        81   05 Jun 2027 06:24:42.944   05 Jun 2027 06:24:43.297             0.353            78.781
        82   05 Jun 2027 06:25:11.637   05 Jun 2027 06:25:16.399             4.762           606.031
        83   05 Jun 2027 06:26:45.079   05 Jun 2027 06:26:53.921             8.842           330.844
        84   05 Jun 2027 06:27:46.121   05 Jun 2027 06:27:49.030             2.909           993.437
        85   05 Jun 2027 06:28:12.068   05 Jun 2027 06:28:14.099             2.031           597.281
        86   05 Jun 2027 07:58:40.654   05 Jun 2027 07:58:41.088             0.434            63.719
        87   05 Jun 2027 08:00:56.695   05 Jun 2027 08:00:58.658             1.963            86.375
        88   05 Jun 2027 08:02:28.386   05 Jun 2027 08:02:29.655             1.269           178.812
        89   05 Jun 2027 08:03:08.184   05 Jun 2027 08:03:09.713             1.529           216.250
        90   05 Jun 2027 08:03:45.137   05 Jun 2027 08:03:47.355             2.218          1091.187
        91   05 Jun 2027 08:04:16.044   05 Jun 2027 08:04:16.306             0.262            57.688
        92   05 Jun 2027 09:36:34.798   05 Jun 2027 09:36:48.140            13.342          6299.031
        93   05 Jun 2027 09:37:57.855   05 Jun 2027 09:38:00.044             2.189           549.562
        94   05 Jun 2027 09:39:18.010   05 Jun 2027 09:39:22.849             4.839          1798.406
        95   05 Jun 2027 09:39:54.378   05 Jun 2027 09:39:57.271             2.893           974.750
        96   05 Jun 2027 11:09:42.899   05 Jun 2027 11:09:54.500            11.601          5394.156
        97   06 Jun 2027 03:21:21.628   06 Jun 2027 03:21:28.090             6.462          3231.000
        98   06 Jun 2027 03:23:17.123   06 Jun 2027 03:23:26.623             9.500          4750.000
        99   06 Jun 2027 03:24:08.322   06 Jun 2027 03:24:11.206             2.884          1442.000
       100   06 Jun 2027 04:56:15.621   06 Jun 2027 04:58:18.165           122.544         61272.000
       101   06 Jun 2027 04:58:24.620   06 Jun 2027 04:59:47.446            82.826         41413.000
       102   06 Jun 2027 05:01:29.942   06 Jun 2027 05:01:36.058             6.116          3058.000
       103   06 Jun 2027 05:04:30.476   06 Jun 2027 05:04:44.668            14.192          7096.000
       104   06 Jun 2027 06:33:49.104   06 Jun 2027 06:34:58.631            69.527         34678.468
       105   06 Jun 2027 06:38:33.043   06 Jun 2027 06:38:37.805             4.762          2381.000
       106   06 Jun 2027 06:38:47.827   06 Jun 2027 06:38:49.314             1.487           330.750
       107   06 Jun 2027 06:39:42.871   06 Jun 2027 06:39:48.714             5.843          1431.375
       108   06 Jun 2027 08:10:31.566   06 Jun 2027 08:10:34.425             2.859           304.531
       109   06 Jun 2027 08:13:19.444   06 Jun 2027 08:13:21.616             2.172           815.344
       110   06 Jun 2027 08:14:18.420   06 Jun 2027 08:14:22.118             3.698           841.906
       111   06 Jun 2027 08:14:46.146   06 Jun 2027 08:14:48.427             2.281           750.875
       112   06 Jun 2027 08:15:44.472   06 Jun 2027 08:15:50.838             6.366          1106.000
       113   06 Jun 2027 08:16:51.737   06 Jun 2027 08:17:03.354            11.617          1536.000
       114   06 Jun 2027 09:48:34.684   06 Jun 2027 09:48:45.919            11.235          5302.219
       115   06 Jun 2027 09:51:43.379   06 Jun 2027 09:51:47.240             3.861           362.188
       116   06 Jun 2027 09:51:56.409   06 Jun 2027 09:51:57.188             0.779             6.937
       117   06 Jun 2027 09:52:12.724   06 Jun 2027 09:52:13.591             0.867            41.938
       118   06 Jun 2027 09:52:41.946   06 Jun 2027 09:52:44.170             2.224           289.937
       119   06 Jun 2027 11:22:11.806   06 Jun 2027 11:22:14.666             2.860          1279.406
       120   07 Jun 2027 03:32:50.957   07 Jun 2027 03:33:09.273            18.316          9158.000
       121   07 Jun 2027 03:33:19.266   07 Jun 2027 03:33:19.266             0.000             0.000
       122   07 Jun 2027 03:34:01.941   07 Jun 2027 03:34:07.517             5.576          2788.000
       123   07 Jun 2027 05:07:46.223   07 Jun 2027 05:11:20.078           213.855        106927.500
       124   07 Jun 2027 05:15:12.322   07 Jun 2027 05:15:14.556             2.234          1117.000
       125   07 Jun 2027 05:16:40.546   07 Jun 2027 05:16:56.020            15.474          7737.000
       126   07 Jun 2027 06:45:43.024   07 Jun 2027 06:47:01.272            78.248         36069.219
       127   07 Jun 2027 06:47:38.761   07 Jun 2027 06:47:41.168             2.407          1111.656
       128   07 Jun 2027 06:48:22.603   07 Jun 2027 06:48:27.402             4.799          1107.562
       129   07 Jun 2027 06:48:58.847   07 Jun 2027 06:49:02.021             3.174           905.281
       130   07 Jun 2027 06:50:30.748   07 Jun 2027 06:50:36.998             6.250          2147.844
       131   07 Jun 2027 06:50:41.048   07 Jun 2027 06:50:42.255             1.207             5.719
       132   07 Jun 2027 06:51:49.152   07 Jun 2027 06:51:53.571             4.419          1935.656
       133   07 Jun 2027 08:22:35.609   07 Jun 2027 08:22:41.881             6.272          1729.719
       134   07 Jun 2027 08:25:06.476   07 Jun 2027 08:25:20.087            13.611          1639.375
       135   07 Jun 2027 08:26:03.433   07 Jun 2027 08:26:06.519             3.086           406.313
       136   07 Jun 2027 08:26:35.888   07 Jun 2027 08:26:40.161             4.273           897.813
       137   07 Jun 2027 08:27:13.236   07 Jun 2027 08:27:15.094             1.858           297.812
       138   07 Jun 2027 08:27:34.111   07 Jun 2027 08:27:35.190             1.079           201.344
       139   07 Jun 2027 08:28:18.503   07 Jun 2027 08:28:23.095             4.592           674.844
       140   07 Jun 2027 08:28:32.823   07 Jun 2027 08:28:34.690             1.867           219.125
       141   07 Jun 2027 10:00:21.125   07 Jun 2027 10:00:30.794             9.669          4514.250
       142   07 Jun 2027 10:03:39.436   07 Jun 2027 10:03:43.977             4.541           753.250
       143   07 Jun 2027 10:04:21.500   07 Jun 2027 10:04:27.538             6.038           911.750
       144   07 Jun 2027 11:36:20.647   07 Jun 2027 11:36:21.321             0.674           303.813
       145   08 Jun 2027 03:46:54.319   08 Jun 2027 03:47:06.974            12.655          6327.500
       146   08 Jun 2027 03:49:36.206   08 Jun 2027 03:49:36.206             0.000             0.000
       147   08 Jun 2027 03:49:45.115   08 Jun 2027 03:49:52.397             7.282          3641.000
       148   08 Jun 2027 05:20:40.069   08 Jun 2027 05:23:46.083           186.014         93007.000
       149   08 Jun 2027 05:28:50.290   08 Jun 2027 05:29:13.277            22.987         11493.500
       150   08 Jun 2027 06:58:03.448   08 Jun 2027 06:59:41.590            98.142         46788.906
       151   08 Jun 2027 07:00:47.526   08 Jun 2027 07:00:52.581             5.055          2060.500
       152   08 Jun 2027 07:01:02.142   08 Jun 2027 07:01:02.919             0.777           271.781
       153   08 Jun 2027 07:02:11.126   08 Jun 2027 07:02:17.142             6.016          1172.531
       154   08 Jun 2027 07:02:37.827   08 Jun 2027 07:02:43.630             5.803           324.813
       155   08 Jun 2027 07:04:28.044   08 Jun 2027 07:04:29.541             1.497           608.063
       156   08 Jun 2027 07:04:53.148   08 Jun 2027 07:04:56.181             3.033           737.719
       157   08 Jun 2027 08:35:07.674   08 Jun 2027 08:35:12.606             4.932          2091.031
       158   08 Jun 2027 08:37:01.757   08 Jun 2027 08:37:05.928             4.171           403.719
       159   08 Jun 2027 08:37:59.186   08 Jun 2027 08:38:00.521             1.335           251.125
       160   08 Jun 2027 08:38:24.533   08 Jun 2027 08:38:25.104             0.571           107.563
       161   08 Jun 2027 08:38:30.698   08 Jun 2027 08:38:31.150             0.452            94.594
       162   08 Jun 2027 08:39:20.781   08 Jun 2027 08:39:24.945             4.164          1340.563
       163   08 Jun 2027 08:40:14.018   08 Jun 2027 08:40:16.916             2.898          1352.594
       164   08 Jun 2027 08:40:52.666   08 Jun 2027 08:40:54.844             2.178           964.062
       165   08 Jun 2027 10:11:52.100   08 Jun 2027 10:12:04.562            12.462          6173.938
       166   08 Jun 2027 11:47:08.085   08 Jun 2027 11:47:12.715             4.630          1985.594
       167   09 Jun 2027 03:59:08.559   09 Jun 2027 03:59:17.876             9.317          4658.500
       168   09 Jun 2027 04:00:10.062   09 Jun 2027 04:00:10.062             0.000             0.000
       169   09 Jun 2027 04:00:48.937   09 Jun 2027 04:00:49.471             0.534           267.000
       170   09 Jun 2027 04:01:15.681   09 Jun 2027 04:01:36.082            20.401         10200.500
       171   09 Jun 2027 05:31:25.328   09 Jun 2027 05:31:43.694            18.366          9183.000
       172   09 Jun 2027 05:33:12.545   09 Jun 2027 05:35:51.737           159.192         79596.000
       173   09 Jun 2027 05:40:58.198   09 Jun 2027 05:41:10.630            12.432          6216.000
       174   09 Jun 2027 07:10:17.079   09 Jun 2027 07:12:11.354           114.275         57004.563
       175   09 Jun 2027 07:13:23.018   09 Jun 2027 07:13:25.210             2.192           610.875
       176   09 Jun 2027 07:13:59.023   09 Jun 2027 07:14:01.070             2.047           781.125
       177   09 Jun 2027 07:14:40.513   09 Jun 2027 07:14:47.416             6.903          1232.594
       178   09 Jun 2027 08:47:13.141   09 Jun 2027 08:47:23.586            10.445          4785.594
       179   09 Jun 2027 08:52:07.507   09 Jun 2027 08:52:08.243             0.736            59.562
       180   09 Jun 2027 10:23:59.718   09 Jun 2027 10:24:13.949            14.231          6685.313
       181   09 Jun 2027 10:26:14.579   09 Jun 2027 10:26:15.983             1.404           369.375
       182   09 Jun 2027 10:28:19.899   09 Jun 2027 10:28:25.139             5.240           853.531
       183   10 Jun 2027 04:11:19.076   10 Jun 2027 04:11:39.924            20.848         10424.000
       184   10 Jun 2027 04:11:43.305   10 Jun 2027 04:11:44.802             1.497           748.500
       185   10 Jun 2027 04:13:11.879   10 Jun 2027 04:13:17.200             5.321          2660.500
       186   10 Jun 2027 05:46:23.989   10 Jun 2027 05:47:56.586            92.597         46298.500
       187   10 Jun 2027 05:48:34.390   10 Jun 2027 05:48:54.847            20.457         10228.500
       188   10 Jun 2027 05:49:11.053   10 Jun 2027 05:49:31.290            20.237         10118.500
       189   10 Jun 2027 05:49:45.389   10 Jun 2027 05:50:16.427            31.038         15519.000
       190   10 Jun 2027 05:52:26.258   10 Jun 2027 05:52:41.453            15.195          7597.500
       191   10 Jun 2027 05:52:52.090   10 Jun 2027 05:52:56.891             4.801          2400.500
       192   10 Jun 2027 05:53:05.056   10 Jun 2027 05:53:11.777             6.721          3360.500
       193   10 Jun 2027 07:22:45.847   10 Jun 2027 07:24:30.013           104.166         51040.031
       194   10 Jun 2027 07:26:16.505   10 Jun 2027 07:26:20.003             3.498           168.750
       195   10 Jun 2027 07:28:21.155   10 Jun 2027 07:28:29.573             8.418           445.750
       196   10 Jun 2027 09:00:16.237   10 Jun 2027 09:00:31.909            15.672          6755.062
       197   10 Jun 2027 09:01:36.139   10 Jun 2027 09:01:38.836             2.697           527.750
       198   10 Jun 2027 09:04:08.690   10 Jun 2027 09:04:11.911             3.221          1012.063
       199   10 Jun 2027 09:04:33.558   10 Jun 2027 09:04:33.975             0.417           104.563
       200   10 Jun 2027 10:36:20.885   10 Jun 2027 10:36:33.411            12.526          6154.500
       201   10 Jun 2027 10:39:58.288   10 Jun 2027 10:40:02.098             3.810             5.437
       202   11 Jun 2027 04:24:54.393   11 Jun 2027 04:26:48.898           114.505         57252.500
       203   11 Jun 2027 05:58:34.026   11 Jun 2027 06:00:43.512           129.486         64743.000
       204   11 Jun 2027 06:02:53.192   11 Jun 2027 06:03:28.553            35.361         17680.500
       205   11 Jun 2027 06:03:40.903   11 Jun 2027 06:03:41.639             0.736           368.000
       206   11 Jun 2027 06:04:07.833   11 Jun 2027 06:04:15.305             7.472          3736.000
       207   11 Jun 2027 06:04:54.680   11 Jun 2027 06:05:10.334            15.654          7827.000
       208   11 Jun 2027 07:34:48.901   11 Jun 2027 07:35:16.741            27.840         13343.031
       209   11 Jun 2027 07:36:04.547   11 Jun 2027 07:36:05.967             1.420           504.187
       210   11 Jun 2027 07:36:39.449   11 Jun 2027 07:36:44.775             5.326           971.344
       211   11 Jun 2027 07:37:20.036   11 Jun 2027 07:37:22.570             2.534           287.438
       212   11 Jun 2027 07:37:43.555   11 Jun 2027 07:37:46.718             3.163            83.719
       213   11 Jun 2027 07:38:15.135   11 Jun 2027 07:38:17.088             1.953           523.125
       214   11 Jun 2027 07:39:01.403   11 Jun 2027 07:39:05.020             3.617           517.094
       215   11 Jun 2027 07:39:33.990   11 Jun 2027 07:39:35.018             1.028           104.156
       216   11 Jun 2027 07:39:50.993   11 Jun 2027 07:39:54.030             3.037           420.062
       217   11 Jun 2027 09:12:21.769   11 Jun 2027 09:12:33.082            11.313          4825.375
       218   11 Jun 2027 09:13:43.675   11 Jun 2027 09:13:52.294             8.619           695.125
       219   11 Jun 2027 09:14:31.126   11 Jun 2027 09:14:32.141             1.015           312.875
       220   11 Jun 2027 09:15:03.089   11 Jun 2027 09:15:05.840             2.751           864.094
       221   11 Jun 2027 09:15:14.350   11 Jun 2027 09:15:16.760             2.410           265.937
       222   11 Jun 2027 09:15:24.212   11 Jun 2027 09:15:28.095             3.883           156.969
       223   11 Jun 2027 09:16:08.514   11 Jun 2027 09:16:09.047             0.533           139.406
       224   11 Jun 2027 10:48:23.084   11 Jun 2027 10:48:33.453            10.369          5165.187
       225   11 Jun 2027 10:51:56.807   11 Jun 2027 10:52:02.186             5.379          2052.062
       226   12 Jun 2027 03:00:00.000   12 Jun 2027 03:00:22.819            22.819         11409.500
       227   12 Jun 2027 04:35:07.322   12 Jun 2027 04:35:27.978            20.656         10328.000
       228   12 Jun 2027 04:36:30.070   12 Jun 2027 04:37:58.045            87.975         43987.500
       229   12 Jun 2027 04:38:32.310   12 Jun 2027 04:39:15.205            42.895         21447.500
       230   12 Jun 2027 06:09:58.492   12 Jun 2027 06:12:11.976           133.484         65831.187
       231   12 Jun 2027 06:14:33.467   12 Jun 2027 06:14:41.946             8.479          3766.406
       232   12 Jun 2027 06:14:58.966   12 Jun 2027 06:15:05.305             6.339           267.250
       233   12 Jun 2027 06:16:03.382   12 Jun 2027 06:16:06.809             3.427           670.969
       234   12 Jun 2027 06:16:44.535   12 Jun 2027 06:16:52.015             7.480           321.219
       235   12 Jun 2027 07:46:34.195   12 Jun 2027 07:46:35.631             1.436           638.625
       236   12 Jun 2027 07:49:08.407   12 Jun 2027 07:49:13.147             4.740           828.500
       237   12 Jun 2027 07:49:50.658   12 Jun 2027 07:49:52.825             2.167           560.344
       238   12 Jun 2027 07:50:26.150   12 Jun 2027 07:50:27.837             1.687           730.250
       239   12 Jun 2027 07:51:06.908   12 Jun 2027 07:51:10.963             4.055          1035.063
       240   12 Jun 2027 07:51:46.054   12 Jun 2027 07:51:49.356             3.302          1096.594
       241   12 Jun 2027 07:52:50.013   12 Jun 2027 07:52:51.143             1.130           443.969
       242   12 Jun 2027 09:24:51.811   12 Jun 2027 09:25:06.351            14.540          6576.687
       243   12 Jun 2027 09:25:50.435   12 Jun 2027 09:25:56.043             5.608          1337.125
       244   12 Jun 2027 09:27:30.603   12 Jun 2027 09:27:36.158             5.555          1714.719
       245   12 Jun 2027 09:28:32.635   12 Jun 2027 09:28:34.875             2.240           539.750
       246   12 Jun 2027 10:58:12.571   12 Jun 2027 10:58:20.831             8.260          4130.000
       247   12 Jun 2027 11:00:11.688   12 Jun 2027 11:00:15.557             3.869           506.406
       248   13 Jun 2027 03:10:00.457   13 Jun 2027 03:10:16.001            15.544          7772.000
       249   13 Jun 2027 03:13:26.939   13 Jun 2027 03:13:27.366             0.427           213.500
       250   13 Jun 2027 03:14:12.846   13 Jun 2027 03:14:15.716             2.870          1435.000
       251   13 Jun 2027 04:45:20.216   13 Jun 2027 04:46:19.355            59.139         29569.500
       252   13 Jun 2027 04:46:52.292   13 Jun 2027 04:48:50.074           117.782         58891.000
       253   13 Jun 2027 06:21:50.708   13 Jun 2027 06:23:47.319           116.611         57077.968
       254   13 Jun 2027 06:24:37.467   13 Jun 2027 06:24:39.160             1.693           517.500
       255   13 Jun 2027 06:24:59.016   13 Jun 2027 06:24:59.612             0.596           121.594
       256   13 Jun 2027 06:25:27.468   13 Jun 2027 06:25:31.067             3.599           546.500
       257   13 Jun 2027 06:28:09.360   13 Jun 2027 06:28:16.631             7.271          2490.812
       258   13 Jun 2027 06:28:30.847   13 Jun 2027 06:28:33.183             2.336           115.375
       259   13 Jun 2027 07:58:55.252   13 Jun 2027 07:58:57.646             2.394           971.500
       260   13 Jun 2027 08:01:14.946   13 Jun 2027 08:01:15.855             0.909           193.250
       261   13 Jun 2027 08:02:37.973   13 Jun 2027 08:02:38.313             0.340            94.281
       262   13 Jun 2027 08:03:15.635   13 Jun 2027 08:03:18.798             3.163          1013.000
       263   13 Jun 2027 08:04:11.531   13 Jun 2027 08:04:19.457             7.926          1511.344
       264   13 Jun 2027 08:04:44.632   13 Jun 2027 08:04:45.807             1.175           587.500
       265   13 Jun 2027 08:04:47.795   13 Jun 2027 08:04:49.104             1.309           144.188
       266   13 Jun 2027 09:36:49.495   13 Jun 2027 09:36:59.657            10.162          4804.938
       267   13 Jun 2027 09:38:11.958   13 Jun 2027 09:38:14.206             2.248           481.906
       268   13 Jun 2027 09:39:33.117   13 Jun 2027 09:39:37.419             4.302          1807.500
       269   13 Jun 2027 09:40:24.725   13 Jun 2027 09:40:28.796             4.071           471.437
       270   13 Jun 2027 11:09:58.204   13 Jun 2027 11:10:08.293            10.089          4762.844
