uniorb/output/strategy_4/Camera/Camera_KinoSat_111404.txt

KinoSat_111404
-------------------------
    Access    *     Start Time (UTCG)     *     Stop Time (UTCG)  *   Duration (s) *   Data (Mbytes)
         1   01 Jun 2027 03:33:07.342   01 Jun 2027 03:35:27.622           140.280         70140.000
         2   01 Jun 2027 03:36:40.428   01 Jun 2027 03:36:41.932             1.504           752.000
         3   01 Jun 2027 03:39:55.263   01 Jun 2027 03:40:15.499            20.236         10118.000
         4   01 Jun 2027 04:57:57.439   01 Jun 2027 04:58:06.697             9.258          4629.000
         5   01 Jun 2027 04:58:17.098   01 Jun 2027 04:58:41.223            24.125         12062.500
         6   01 Jun 2027 04:58:57.034   01 Jun 2027 04:59:13.177            16.143          8071.500
         7   01 Jun 2027 05:09:41.604   01 Jun 2027 05:10:34.074            52.470         26235.000
         8   01 Jun 2027 06:31:56.610   01 Jun 2027 06:33:02.547            65.937         32968.500
         9   01 Jun 2027 06:34:22.763   01 Jun 2027 06:34:41.608            18.845          9422.500
        10   01 Jun 2027 08:06:54.269   01 Jun 2027 08:08:49.154           114.885         57442.500
        11   01 Jun 2027 08:08:58.176   01 Jun 2027 08:09:05.572             7.396          3698.000
        12   01 Jun 2027 08:09:54.802   01 Jun 2027 08:10:00.757             5.955          2977.500
        13   01 Jun 2027 08:12:10.465   01 Jun 2027 08:12:35.055            24.590         12295.000
        14   01 Jun 2027 09:44:22.919   01 Jun 2027 09:46:20.433           117.514         58757.000
        15   01 Jun 2027 09:50:00.886   01 Jun 2027 09:50:00.886             0.000             0.000
        16   01 Jun 2027 09:50:01.406   01 Jun 2027 09:50:34.944            33.538         16769.000
        17   01 Jun 2027 09:51:08.388   01 Jun 2027 09:51:32.816            24.428         12214.000
        18   01 Jun 2027 11:21:07.655   01 Jun 2027 11:23:35.894           148.239         74119.500
        19   01 Jun 2027 11:27:25.219   01 Jun 2027 11:27:34.432             9.213          4606.500
        20   02 Jun 2027 03:45:09.450   02 Jun 2027 03:47:54.595           165.145         82572.500
        21   02 Jun 2027 03:51:58.620   02 Jun 2027 03:51:58.620             0.000             0.000
        22   02 Jun 2027 03:52:07.904   02 Jun 2027 03:52:09.001             1.097           548.500
        23   02 Jun 2027 05:09:30.820   02 Jun 2027 05:10:18.397            47.577         23788.500
        24   02 Jun 2027 05:21:46.739   02 Jun 2027 05:22:14.409            27.670         13835.000
        25   02 Jun 2027 06:43:29.529   02 Jun 2027 06:44:49.362            79.833         39916.500
        26   02 Jun 2027 06:45:23.080   02 Jun 2027 06:46:53.089            90.009         45004.500
        27   02 Jun 2027 06:47:22.577   02 Jun 2027 06:47:58.210            35.633         17816.500
        28   02 Jun 2027 06:48:05.290   02 Jun 2027 06:48:05.290             0.000             0.000
        29   02 Jun 2027 06:49:03.415   02 Jun 2027 06:49:19.293            15.878          7939.000
        30   02 Jun 2027 08:18:22.375   02 Jun 2027 08:21:30.238           187.863         93931.500
        31   02 Jun 2027 08:24:02.113   02 Jun 2027 08:24:02.113             0.000             0.000
        32   02 Jun 2027 08:25:14.426   02 Jun 2027 08:25:21.443             7.017          3508.500
        33   02 Jun 2027 08:27:28.820   02 Jun 2027 08:27:43.660            14.840          7420.000
        34   02 Jun 2027 09:56:16.200   02 Jun 2027 09:56:55.088            38.888         15973.437
        35   02 Jun 2027 09:58:19.534   02 Jun 2027 09:58:19.534             0.000             0.000
        36   02 Jun 2027 09:59:16.463   02 Jun 2027 09:59:28.231            11.768          4308.438
        37   02 Jun 2027 09:59:53.936   02 Jun 2027 09:59:58.128             4.192           526.250
        38   02 Jun 2027 10:00:30.262   02 Jun 2027 10:00:31.822             1.560           474.719
        39   02 Jun 2027 10:01:13.451   02 Jun 2027 10:01:16.063             2.612          1016.000
        40   02 Jun 2027 10:01:46.340   02 Jun 2027 10:01:49.971             3.631           877.688
        41   02 Jun 2027 10:02:01.058   02 Jun 2027 10:02:07.054             5.996           195.844
        42   02 Jun 2027 10:02:51.730   02 Jun 2027 10:02:55.081             3.351          1176.344
        43   02 Jun 2027 10:03:16.065   02 Jun 2027 10:03:17.978             1.913           655.750
        44   02 Jun 2027 11:33:00.191   02 Jun 2027 11:33:14.575            14.384          5943.250
        45   02 Jun 2027 11:33:34.612   02 Jun 2027 11:33:37.334             2.722           577.313
        46   02 Jun 2027 11:34:07.717   02 Jun 2027 11:34:09.768             2.051           407.031
        47   02 Jun 2027 11:35:45.937   02 Jun 2027 11:35:48.929             2.992           670.125
        48   02 Jun 2027 11:36:22.920   02 Jun 2027 11:36:25.965             3.045          1062.219
        49   02 Jun 2027 11:36:55.027   02 Jun 2027 11:36:57.987             2.960           787.281
        50   02 Jun 2027 11:37:30.493   02 Jun 2027 11:37:33.163             2.670           756.531
        51   02 Jun 2027 11:38:17.503   02 Jun 2027 11:38:21.533             4.030          1299.094
        52   02 Jun 2027 11:39:19.849   02 Jun 2027 11:39:22.557             2.708          1319.062
        53   03 Jun 2027 03:57:33.904   03 Jun 2027 03:58:41.221            67.317         33658.500
        54   03 Jun 2027 03:59:13.044   03 Jun 2027 04:00:10.905            57.861         28930.500
        55   03 Jun 2027 04:00:36.411   03 Jun 2027 04:02:11.744            95.333         47666.500
        56   03 Jun 2027 05:21:26.881   03 Jun 2027 05:21:58.377            31.496         15748.000
        57   03 Jun 2027 06:57:27.794   03 Jun 2027 06:58:54.907            87.113         43556.500
        58   03 Jun 2027 06:58:59.853   03 Jun 2027 06:58:59.853             0.000             0.000
        59   03 Jun 2027 06:59:33.436   03 Jun 2027 06:59:40.545             7.109          2336.687
        60   03 Jun 2027 07:00:08.482   03 Jun 2027 07:00:10.631             2.149           417.219
        61   03 Jun 2027 07:00:19.631   03 Jun 2027 07:00:20.590             0.959            41.187
        62   03 Jun 2027 08:31:15.260   03 Jun 2027 08:31:25.153             9.893          3072.531
        63   03 Jun 2027 08:32:47.793   03 Jun 2027 08:32:49.694             1.901           575.469
        64   03 Jun 2027 08:33:35.146   03 Jun 2027 08:33:37.037             1.891           117.844
        65   03 Jun 2027 08:33:46.980   03 Jun 2027 08:33:46.980             0.000             0.000
        66   03 Jun 2027 08:34:32.018   03 Jun 2027 08:34:36.195             4.177          1718.156
        67   03 Jun 2027 08:35:53.946   03 Jun 2027 08:35:59.822             5.876          2139.719
        68   03 Jun 2027 08:36:16.853   03 Jun 2027 08:36:16.853             0.000             0.000
        69   03 Jun 2027 08:37:06.041   03 Jun 2027 08:37:10.699             4.658          1755.219
        70   03 Jun 2027 08:37:58.295   03 Jun 2027 08:38:03.103             4.808          1445.531
        71   03 Jun 2027 08:39:03.865   03 Jun 2027 08:39:07.706             3.841          1362.875
        72   03 Jun 2027 10:08:24.221   03 Jun 2027 10:08:38.369            14.148          5957.156
        73   03 Jun 2027 10:10:17.813   03 Jun 2027 10:10:21.603             3.790          1276.375
        74   03 Jun 2027 10:11:20.052   03 Jun 2027 10:11:26.440             6.388          1560.031
        75   03 Jun 2027 10:12:29.227   03 Jun 2027 10:12:39.143             9.916           735.750
        76   03 Jun 2027 10:13:04.789   03 Jun 2027 10:13:08.207             3.418           252.656
        77   03 Jun 2027 10:13:30.359   03 Jun 2027 10:13:34.658             4.299           382.312
        78   03 Jun 2027 10:13:47.655   03 Jun 2027 10:13:48.567             0.912           280.969
        79   03 Jun 2027 10:14:37.178   03 Jun 2027 10:14:48.444            11.266          1281.094
        80   03 Jun 2027 10:14:52.813   03 Jun 2027 10:14:53.154             0.341           136.531
        81   03 Jun 2027 10:15:21.367   03 Jun 2027 10:15:23.399             2.032           881.656
        82   03 Jun 2027 10:15:28.738   03 Jun 2027 10:15:30.128             1.390           166.844
        83   03 Jun 2027 11:45:38.753   03 Jun 2027 11:45:51.833            13.080          6336.469
        84   03 Jun 2027 11:47:57.919   03 Jun 2027 11:48:04.897             6.978           231.875
        85   03 Jun 2027 11:48:52.404   03 Jun 2027 11:48:55.788             3.384          1342.031
        86   03 Jun 2027 11:49:10.337   03 Jun 2027 11:49:11.367             1.030           425.437
        87   03 Jun 2027 11:49:41.974   03 Jun 2027 11:49:45.175             3.201           767.063
        88   03 Jun 2027 11:51:04.095   03 Jun 2027 11:51:10.153             6.058          2100.594
        89   03 Jun 2027 11:51:11.817   03 Jun 2027 11:51:11.988             0.171            52.000
        90   04 Jun 2027 04:09:57.415   04 Jun 2027 04:12:17.481           140.066         70033.000
        91   04 Jun 2027 04:12:36.335   04 Jun 2027 04:13:31.806            55.471         27735.500
        92   04 Jun 2027 05:33:19.959   04 Jun 2027 05:34:15.314            55.355         27677.500
        93   04 Jun 2027 07:09:40.861   04 Jun 2027 07:10:52.464            71.603         35177.625
        94   04 Jun 2027 07:11:43.137   04 Jun 2027 07:11:48.411             5.274          1489.875
        95   04 Jun 2027 07:11:55.482   04 Jun 2027 07:11:55.962             0.480           144.844
        96   04 Jun 2027 07:12:20.552   04 Jun 2027 07:12:22.635             2.083           273.906
        97   04 Jun 2027 08:43:40.787   04 Jun 2027 08:43:47.526             6.739          2937.625
        98   04 Jun 2027 08:45:25.575   04 Jun 2027 08:45:26.791             1.216           162.187
        99   04 Jun 2027 08:46:33.988   04 Jun 2027 08:46:40.913             6.925          1662.156
       100   04 Jun 2027 08:47:09.033   04 Jun 2027 08:47:15.763             6.730           738.969
       101   04 Jun 2027 08:50:14.682   04 Jun 2027 08:50:24.118             9.436          4718.000
       102   04 Jun 2027 08:50:46.653   04 Jun 2027 08:50:53.114             6.461           744.313
       103   04 Jun 2027 08:51:42.359   04 Jun 2027 08:51:44.443             2.084           801.875
       104   04 Jun 2027 10:20:49.674   04 Jun 2027 10:21:06.068            16.394          6060.594
       105   04 Jun 2027 10:23:19.240   04 Jun 2027 10:23:23.564             4.324           309.250
       106   04 Jun 2027 10:23:36.978   04 Jun 2027 10:23:38.712             1.734           378.281
       107   04 Jun 2027 10:24:50.407   04 Jun 2027 10:24:55.639             5.232          2066.844
       108   04 Jun 2027 10:25:54.545   04 Jun 2027 10:25:56.311             1.766           572.719
       109   04 Jun 2027 10:26:57.284   04 Jun 2027 10:27:01.533             4.249          1406.563
       110   04 Jun 2027 11:57:48.437   04 Jun 2027 11:58:06.768            18.331          5207.844
       111   04 Jun 2027 11:58:52.513   04 Jun 2027 11:58:56.002             3.489          1129.000
       112   04 Jun 2027 11:59:56.427   04 Jun 2027 11:59:58.551             2.124           481.969
       113   05 Jun 2027 04:22:16.571   05 Jun 2027 04:24:29.998           133.427         66713.500
       114   05 Jun 2027 05:45:14.078   05 Jun 2027 05:46:33.402            79.324         39662.000
       115   05 Jun 2027 07:21:46.677   05 Jun 2027 07:23:32.083           105.406         52002.625
       116   05 Jun 2027 07:23:45.052   05 Jun 2027 07:23:46.931             1.879           405.281
       117   05 Jun 2027 07:24:46.850   05 Jun 2027 07:24:50.399             3.549          1616.531
       118   05 Jun 2027 08:56:55.524   05 Jun 2027 08:57:07.271            11.747          3723.531
       119   05 Jun 2027 08:57:32.501   05 Jun 2027 08:57:38.798             6.297           445.844
       120   05 Jun 2027 08:58:09.829   05 Jun 2027 08:58:10.906             1.077           361.344
       121   05 Jun 2027 08:59:18.042   05 Jun 2027 08:59:21.018             2.976          1325.250
       122   05 Jun 2027 09:00:22.676   05 Jun 2027 09:00:27.539             4.863           511.219
       123   05 Jun 2027 09:01:00.872   05 Jun 2027 09:01:02.803             1.931           810.625
       124   05 Jun 2027 09:01:54.600   05 Jun 2027 09:01:57.153             2.553           204.063
       125   05 Jun 2027 09:02:23.140   05 Jun 2027 09:02:25.348             2.208           572.906
       126   05 Jun 2027 09:02:54.159   05 Jun 2027 09:02:58.735             4.576           635.937
       127   05 Jun 2027 09:03:36.254   05 Jun 2027 09:03:37.140             0.886           279.625
       128   05 Jun 2027 10:33:15.868   05 Jun 2027 10:33:27.417            11.549          5700.938
       129   05 Jun 2027 10:35:28.523   05 Jun 2027 10:35:30.893             2.370           908.938
       130   05 Jun 2027 10:35:38.131   05 Jun 2027 10:35:42.276             4.145           226.188
       131   05 Jun 2027 10:36:44.250   05 Jun 2027 10:36:46.517             2.267           673.406
       132   05 Jun 2027 10:37:22.880   05 Jun 2027 10:37:24.857             1.977           686.406
       133   05 Jun 2027 10:37:34.728   05 Jun 2027 10:37:37.228             2.500           292.375
       134   05 Jun 2027 10:38:48.982   05 Jun 2027 10:38:56.513             7.531          1513.875
       135   05 Jun 2027 10:39:32.578   05 Jun 2027 10:39:37.553             4.975          1074.562
       136   06 Jun 2027 03:00:00.000   06 Jun 2027 03:00:03.657             3.657          1828.500
       137   06 Jun 2027 03:00:08.366   06 Jun 2027 03:00:29.206            20.840         10420.000
       138   06 Jun 2027 04:34:00.811   06 Jun 2027 04:34:35.607            34.796         17398.000
       139   06 Jun 2027 04:34:49.428   06 Jun 2027 04:36:44.136           114.708         57354.000
       140   06 Jun 2027 05:57:21.604   06 Jun 2027 05:58:20.505            58.901         29450.500
       141   06 Jun 2027 05:58:44.091   06 Jun 2027 05:58:44.091             0.000             0.000
       142   06 Jun 2027 05:58:52.447   06 Jun 2027 05:58:59.586             7.139          3569.500
       143   06 Jun 2027 06:00:13.362   06 Jun 2027 06:00:15.768             2.406          1203.000
       144   06 Jun 2027 07:33:57.181   06 Jun 2027 07:34:59.777            62.596         31298.000
       145   06 Jun 2027 07:35:17.136   06 Jun 2027 07:35:21.714             4.578          1989.937
       146   06 Jun 2027 07:35:37.311   06 Jun 2027 07:35:41.567             4.256           373.062
       147   06 Jun 2027 07:35:48.512   06 Jun 2027 07:35:50.543             2.031           150.094
       148   06 Jun 2027 07:36:33.388   06 Jun 2027 07:36:35.654             2.266           746.500
       149   06 Jun 2027 07:37:24.385   06 Jun 2027 07:37:24.385             0.000             0.000
       150   06 Jun 2027 09:09:07.453   06 Jun 2027 09:09:14.611             7.158          3047.344
       151   06 Jun 2027 09:10:34.433   06 Jun 2027 09:10:39.145             4.712          2284.500
       152   06 Jun 2027 09:11:29.899   06 Jun 2027 09:11:34.552             4.653          1476.594
       153   06 Jun 2027 09:12:15.802   06 Jun 2027 09:12:15.802             0.000             0.000
       154   06 Jun 2027 09:12:25.306   06 Jun 2027 09:12:29.474             4.168           696.031
       155   06 Jun 2027 09:14:21.961   06 Jun 2027 09:14:27.088             5.127          2501.313
       156   06 Jun 2027 09:15:04.304   06 Jun 2027 09:15:07.848             3.544          1063.406
       157   06 Jun 2027 09:15:30.205   06 Jun 2027 09:15:31.142             0.937            36.438
       158   06 Jun 2027 10:45:27.526   06 Jun 2027 10:45:38.052            10.526          4733.844
       159   06 Jun 2027 10:46:34.915   06 Jun 2027 10:46:37.462             2.547           849.406
       160   06 Jun 2027 10:47:20.339   06 Jun 2027 10:47:21.698             1.359           310.094
       161   06 Jun 2027 10:47:31.680   06 Jun 2027 10:47:35.273             3.593           278.500
       162   06 Jun 2027 10:48:36.471   06 Jun 2027 10:48:40.905             4.434          1739.125
       163   06 Jun 2027 10:49:26.891   06 Jun 2027 10:49:41.188            14.297          1437.063
       164   06 Jun 2027 10:50:32.568   06 Jun 2027 10:50:37.343             4.775           839.219
       165   06 Jun 2027 10:50:39.133   06 Jun 2027 10:50:40.576             1.443            55.937
       166   07 Jun 2027 03:08:50.142   07 Jun 2027 03:09:46.897            56.755         28377.500
       167   07 Jun 2027 03:10:24.274   07 Jun 2027 03:10:40.209            15.935          7967.500
       168   07 Jun 2027 03:11:13.182   07 Jun 2027 03:11:22.480             9.298          4649.000
       169   07 Jun 2027 03:11:49.258   07 Jun 2027 03:11:57.147             7.889          3944.500
       170   07 Jun 2027 03:12:27.113   07 Jun 2027 03:12:34.671             7.558          3779.000
       171   07 Jun 2027 03:12:59.932   07 Jun 2027 03:13:14.205            14.273          7136.500
       172   07 Jun 2027 03:13:53.908   07 Jun 2027 03:13:55.544             1.636           818.000
       173   07 Jun 2027 03:15:16.267   07 Jun 2027 03:15:18.470             2.203          1101.500
       174   07 Jun 2027 04:35:14.646   07 Jun 2027 04:35:15.489             0.843           421.500
       175   07 Jun 2027 04:45:57.489   07 Jun 2027 04:46:38.338            40.849         20424.500
       176   07 Jun 2027 04:46:55.155   07 Jun 2027 04:49:28.939           153.784         75455.031
       177   07 Jun 2027 06:09:55.245   07 Jun 2027 06:10:15.996            20.751          7635.937
       178   07 Jun 2027 06:11:05.142   07 Jun 2027 06:11:05.142             0.000             0.000
       179   07 Jun 2027 06:12:10.278   07 Jun 2027 06:12:15.313             5.035          2517.500
       180   07 Jun 2027 06:12:24.318   07 Jun 2027 06:12:26.797             2.479          1203.937
       181   07 Jun 2027 07:45:44.141   07 Jun 2027 07:45:52.279             8.138          2271.750
       182   07 Jun 2027 07:47:01.052   07 Jun 2027 07:47:05.010             3.958          1958.562
       183   07 Jun 2027 07:47:26.970   07 Jun 2027 07:47:28.572             1.602           230.469
       184   07 Jun 2027 07:48:26.393   07 Jun 2027 07:48:30.555             4.162          1238.969
       185   07 Jun 2027 07:49:06.896   07 Jun 2027 07:49:09.252             2.356          1135.656
       186   07 Jun 2027 09:20:36.910   07 Jun 2027 09:20:43.383             6.473          2655.250
       187   07 Jun 2027 09:21:10.463   07 Jun 2027 09:21:14.236             3.773           138.625
       188   07 Jun 2027 09:21:49.273   07 Jun 2027 09:21:51.506             2.233           950.594
       189   07 Jun 2027 09:22:12.210   07 Jun 2027 09:22:18.362             6.152           296.500
       190   07 Jun 2027 09:23:53.016   07 Jun 2027 09:23:58.419             5.403          2391.563
       191   07 Jun 2027 09:24:27.699   07 Jun 2027 09:24:30.943             3.244           915.000
       192   07 Jun 2027 09:25:13.785   07 Jun 2027 09:25:19.999             6.214           420.062
       193   07 Jun 2027 09:25:49.744   07 Jun 2027 09:25:51.590             1.846           737.156
       194   07 Jun 2027 09:26:09.212   07 Jun 2027 09:26:12.116             2.904           488.375
       195   07 Jun 2027 09:27:20.809   07 Jun 2027 09:27:24.716             3.907          1857.094
       196   07 Jun 2027 09:27:48.256   07 Jun 2027 09:27:52.231             3.975           234.562
       197   07 Jun 2027 10:57:07.182   07 Jun 2027 10:57:17.540            10.358          4884.906
       198   07 Jun 2027 10:59:05.224   07 Jun 2027 10:59:09.553             4.329           452.875
       199   07 Jun 2027 10:59:19.897   07 Jun 2027 10:59:23.284             3.387           246.500
       200   07 Jun 2027 10:59:34.325   07 Jun 2027 10:59:35.458             1.133           297.625
       201   07 Jun 2027 11:00:20.236   07 Jun 2027 11:00:21.571             1.335           503.156
       202   07 Jun 2027 11:01:04.753   07 Jun 2027 11:01:07.480             2.727          1099.125
       203   07 Jun 2027 11:01:37.643   07 Jun 2027 11:01:43.502             5.859           570.469
       204   07 Jun 2027 11:02:06.127   07 Jun 2027 11:02:10.096             3.969           707.031
       205   07 Jun 2027 11:02:10.339   07 Jun 2027 11:02:10.638             0.299             7.594
       206   07 Jun 2027 11:02:21.212   07 Jun 2027 11:02:30.341             9.129           102.688
       207   07 Jun 2027 11:03:22.138   07 Jun 2027 11:03:26.055             3.917          1618.656
       208   07 Jun 2027 11:03:27.984   07 Jun 2027 11:03:29.138             1.154            55.531
       209   08 Jun 2027 03:20:54.288   08 Jun 2027 03:23:26.233           151.945         75972.500
       210   08 Jun 2027 03:23:54.246   08 Jun 2027 03:24:37.665            43.419         21709.500
       211   08 Jun 2027 03:27:16.402   08 Jun 2027 03:27:20.211             3.809          1904.500
       212   08 Jun 2027 03:28:04.245   08 Jun 2027 03:28:31.709            27.464         13732.000
       213   08 Jun 2027 04:46:33.114   08 Jun 2027 04:47:14.039            40.925         20462.500
       214   08 Jun 2027 04:57:54.430   08 Jun 2027 04:59:15.632            81.202         40285.188
       215   08 Jun 2027 04:59:23.208   08 Jun 2027 04:59:25.200             1.992           102.063
       216   08 Jun 2027 06:20:30.090   08 Jun 2027 06:20:38.600             8.510          3781.281
       217   08 Jun 2027 06:21:32.518   08 Jun 2027 06:21:33.463             0.945           472.500
       218   08 Jun 2027 06:21:46.925   08 Jun 2027 06:21:47.946             1.021           510.500
       219   08 Jun 2027 06:22:10.401   08 Jun 2027 06:22:15.697             5.296          1379.937
       220   08 Jun 2027 06:24:16.760   08 Jun 2027 06:24:25.679             8.919          3536.469
       221   08 Jun 2027 06:25:01.196   08 Jun 2027 06:25:05.779             4.583          1061.781
       222   08 Jun 2027 06:25:11.217   08 Jun 2027 06:25:12.036             0.819            52.781
       223   08 Jun 2027 07:56:00.918   08 Jun 2027 07:56:06.867             5.949          1073.844
       224   08 Jun 2027 07:57:29.530   08 Jun 2027 07:57:31.710             2.180          1052.656
       225   08 Jun 2027 07:59:02.065   08 Jun 2027 07:59:09.256             7.191          2739.750
       226   08 Jun 2027 07:59:16.133   08 Jun 2027 07:59:17.372             1.239            99.063
       227   08 Jun 2027 08:00:28.465   08 Jun 2027 08:00:29.744             1.279           316.031
       228   08 Jun 2027 08:00:45.923   08 Jun 2027 08:00:47.019             1.096           499.812
       229   08 Jun 2027 08:00:54.269   08 Jun 2027 08:00:57.711             3.442            52.719
       230   08 Jun 2027 08:01:20.449   08 Jun 2027 08:01:20.449             0.000             0.000
       231   08 Jun 2027 08:01:45.733   08 Jun 2027 08:01:47.672             1.939           823.594
       232   08 Jun 2027 08:01:49.192   08 Jun 2027 08:01:49.192             0.000             0.000
       233   08 Jun 2027 09:32:21.080   08 Jun 2027 09:32:30.579             9.499          3561.250
       234   08 Jun 2027 09:34:38.075   08 Jun 2027 09:34:55.189            17.114          2747.563
       235   08 Jun 2027 09:35:52.135   08 Jun 2027 09:35:53.693             1.558           491.719
       236   08 Jun 2027 09:35:59.815   08 Jun 2027 09:36:01.585             1.770           191.313
       237   08 Jun 2027 09:36:29.827   08 Jun 2027 09:36:35.615             5.788           844.656
       238   08 Jun 2027 09:37:11.669   08 Jun 2027 09:37:17.085             5.416           911.406
       239   08 Jun 2027 09:37:38.275   08 Jun 2027 09:37:38.522             0.247            46.219
       240   08 Jun 2027 09:38:18.373   08 Jun 2027 09:38:20.061             1.688           725.812
       241   08 Jun 2027 09:39:08.067   08 Jun 2027 09:39:12.181             4.114          1500.188
       242   08 Jun 2027 09:39:53.023   08 Jun 2027 09:39:53.184             0.161            80.500
       243   08 Jun 2027 11:09:27.157   08 Jun 2027 11:09:37.452            10.295          4953.219
       244   08 Jun 2027 11:11:03.307   08 Jun 2027 11:11:05.268             1.961           238.594
       245   08 Jun 2027 11:11:28.262   08 Jun 2027 11:11:32.000             3.738           167.063
       246   08 Jun 2027 11:12:09.196   08 Jun 2027 11:12:11.980             2.784          1023.594
       247   08 Jun 2027 11:13:18.377   08 Jun 2027 11:13:22.184             3.807          1254.531
       248   08 Jun 2027 11:13:45.150   08 Jun 2027 11:13:49.487             4.337           717.687
       249   08 Jun 2027 11:14:13.704   08 Jun 2027 11:14:22.335             8.631           697.562
       250   08 Jun 2027 11:15:35.299   08 Jun 2027 11:15:40.099             4.800          1638.844
       251   09 Jun 2027 03:33:24.446   09 Jun 2027 03:35:51.871           147.425         73712.500
       252   09 Jun 2027 03:36:17.263   09 Jun 2027 03:36:39.628            22.365         11182.500
       253   09 Jun 2027 03:37:47.437   09 Jun 2027 03:38:28.052            40.615         20307.500
       254   09 Jun 2027 03:38:44.833   09 Jun 2027 03:38:46.508             1.675           837.500
       255   09 Jun 2027 03:39:17.811   09 Jun 2027 03:39:23.319             5.508          2754.000
       256   09 Jun 2027 03:40:11.647   09 Jun 2027 03:40:32.008            20.361         10180.500
       257   09 Jun 2027 04:58:13.707   09 Jun 2027 04:58:49.514            35.807         17903.500
       258   09 Jun 2027 05:09:54.622   09 Jun 2027 05:10:55.797            61.175         30587.500
       259   09 Jun 2027 06:32:12.246   09 Jun 2027 06:32:23.124            10.878          5439.000
       260   09 Jun 2027 06:32:54.044   09 Jun 2027 06:32:56.699             2.655          1263.562
       261   09 Jun 2027 06:33:07.017   09 Jun 2027 06:33:11.046             4.029           322.438
       262   09 Jun 2027 06:35:07.098   09 Jun 2027 06:35:12.302             5.204          2319.500
       263   09 Jun 2027 06:35:52.247   09 Jun 2027 06:35:53.915             1.668           443.313
       264   09 Jun 2027 06:36:29.988   09 Jun 2027 06:36:32.852             2.864           454.125
       265   09 Jun 2027 08:07:08.473   09 Jun 2027 08:07:13.565             5.092          1494.750
       266   09 Jun 2027 08:08:12.700   09 Jun 2027 08:08:15.027             2.327           937.031
       267   09 Jun 2027 08:08:44.413   09 Jun 2027 08:08:51.350             6.937           918.313
       268   09 Jun 2027 08:09:30.224   09 Jun 2027 08:09:35.718             5.494          1208.031
       269   09 Jun 2027 08:11:02.757   09 Jun 2027 08:11:09.586             6.829          2566.375
       270   09 Jun 2027 08:12:27.052   09 Jun 2027 08:12:32.088             5.036          2250.281
       271   09 Jun 2027 08:13:08.270   09 Jun 2027 08:13:08.270             0.000             0.000
       272   09 Jun 2027 08:13:57.416   09 Jun 2027 08:14:02.258             4.842          1983.906
       273   09 Jun 2027 09:44:38.601   09 Jun 2027 09:44:44.678             6.077          3013.375
       274   09 Jun 2027 09:47:08.467   09 Jun 2027 09:47:11.834             3.367          1488.375
       275   09 Jun 2027 09:47:48.822   09 Jun 2027 09:47:56.128             7.306           635.406
       276   09 Jun 2027 09:48:24.262   09 Jun 2027 09:48:30.538             6.276           286.125
       277   09 Jun 2027 09:49:20.559   09 Jun 2027 09:49:26.714             6.155          1528.531
       278   09 Jun 2027 09:49:35.612   09 Jun 2027 09:49:36.753             1.141            52.750
       279   09 Jun 2027 09:49:47.945   09 Jun 2027 09:49:48.629             0.684           278.625
       280   09 Jun 2027 09:49:55.841   09 Jun 2027 09:49:57.219             1.378           225.375
       281   09 Jun 2027 09:50:22.673   09 Jun 2027 09:50:24.276             1.603           403.531
       282   09 Jun 2027 09:50:50.334   09 Jun 2027 09:50:54.223             3.889           814.312
       283   09 Jun 2027 09:51:23.125   09 Jun 2027 09:51:28.945             5.820           891.813
       284   09 Jun 2027 09:51:57.021   09 Jun 2027 09:51:57.497             0.476            19.281
       285   09 Jun 2027 11:21:23.373   09 Jun 2027 11:21:34.162            10.789          5127.313
       286   09 Jun 2027 11:23:37.982   09 Jun 2027 11:23:39.115             1.133            69.906
       287   09 Jun 2027 11:24:52.239   09 Jun 2027 11:24:55.903             3.664          1089.937
       288   09 Jun 2027 11:25:20.275   09 Jun 2027 11:25:23.726             3.451           761.625
       289   09 Jun 2027 11:25:48.241   09 Jun 2027 11:25:51.066             2.825           766.094
       290   09 Jun 2027 11:26:42.637   09 Jun 2027 11:26:47.294             4.657          1611.594
       291   09 Jun 2027 11:27:41.242   09 Jun 2027 11:27:49.448             8.206          1685.875
       292   10 Jun 2027 03:45:26.427   10 Jun 2027 03:48:18.363           171.936         85968.000
       293   10 Jun 2027 03:49:39.306   10 Jun 2027 03:50:36.792            57.486         28743.000
       294   10 Jun 2027 03:52:13.099   10 Jun 2027 03:52:13.099             0.000             0.000
       295   10 Jun 2027 05:09:47.302   10 Jun 2027 05:10:25.777            38.475         19237.500
       296   10 Jun 2027 05:22:02.841   10 Jun 2027 05:22:30.245            27.404         13702.000
       297   10 Jun 2027 06:43:44.240   10 Jun 2027 06:44:16.881            32.641         16022.250
       298   10 Jun 2027 06:45:52.390   10 Jun 2027 06:45:55.437             3.047          1523.500
       299   10 Jun 2027 06:46:13.850   10 Jun 2027 06:46:17.007             3.157           661.500
       300   10 Jun 2027 06:46:41.278   10 Jun 2027 06:46:42.945             1.667           400.438
       301   10 Jun 2027 06:47:04.311   10 Jun 2027 06:47:04.311             0.000             0.000
       302   10 Jun 2027 06:48:13.330   10 Jun 2027 06:48:22.913             9.583          2434.406
       303   10 Jun 2027 06:48:32.608   10 Jun 2027 06:48:37.217             4.609           283.562
       304   10 Jun 2027 06:48:59.295   10 Jun 2027 06:48:59.295             0.000             0.000
       305   10 Jun 2027 08:18:37.784   10 Jun 2027 08:18:43.216             5.432          2595.250
       306   10 Jun 2027 08:19:31.011   10 Jun 2027 08:19:33.335             2.324          1158.000
       307   10 Jun 2027 08:21:00.192   10 Jun 2027 08:21:02.551             2.359           457.219
       308   10 Jun 2027 08:21:49.031   10 Jun 2027 08:21:55.607             6.576          1423.406
       309   10 Jun 2027 08:22:07.321   10 Jun 2027 08:22:07.602             0.281           116.156
       310   10 Jun 2027 08:22:47.410   10 Jun 2027 08:22:59.217            11.807           742.375
       311   10 Jun 2027 08:24:18.225   10 Jun 2027 08:24:24.013             5.788          2349.187
       312   10 Jun 2027 08:24:31.938   10 Jun 2027 08:24:33.672             1.734           153.469
       313   10 Jun 2027 08:26:11.707   10 Jun 2027 08:26:18.857             7.150          2367.563
       314   10 Jun 2027 08:27:11.389   10 Jun 2027 08:27:14.185             2.796          1103.125
       315   10 Jun 2027 09:56:32.804   10 Jun 2027 09:56:42.467             9.663          4354.031
       316   10 Jun 2027 10:00:43.067   10 Jun 2027 10:00:47.191             4.124          1008.031
       317   10 Jun 2027 10:01:55.586   10 Jun 2027 10:02:01.792             6.206          2115.750
       318   10 Jun 2027 10:02:24.086   10 Jun 2027 10:02:25.632             1.546           299.250
       319   10 Jun 2027 10:03:07.775   10 Jun 2027 10:03:13.216             5.441          1220.312
       320   10 Jun 2027 10:03:38.975   10 Jun 2027 10:03:40.840             1.865           804.969
       321   10 Jun 2027 10:03:52.799   10 Jun 2027 10:03:55.149             2.350           159.781
       322   10 Jun 2027 11:33:17.422   10 Jun 2027 11:33:29.644            12.222          5938.875
       323   10 Jun 2027 11:33:52.057   10 Jun 2027 11:33:54.833             2.776           671.875
       324   10 Jun 2027 11:36:13.488   10 Jun 2027 11:36:18.644             5.156          1067.469
       325   10 Jun 2027 11:37:22.982   10 Jun 2027 11:37:29.947             6.965          1412.875
       326   10 Jun 2027 11:37:43.891   10 Jun 2027 11:37:47.318             3.427           435.750
       327   10 Jun 2027 11:38:10.568   10 Jun 2027 11:38:17.870             7.302           701.344
       328   10 Jun 2027 11:38:52.611   10 Jun 2027 11:38:55.161             2.550          1064.688
       329   10 Jun 2027 11:39:35.771   10 Jun 2027 11:39:40.118             4.347          1269.062
       330   11 Jun 2027 03:57:52.047   11 Jun 2027 04:00:51.457           179.410         89705.000
       331   11 Jun 2027 04:01:32.204   11 Jun 2027 04:01:52.312            20.108         10054.000
       332   11 Jun 2027 04:02:26.311   11 Jun 2027 04:02:44.770            18.459          9229.500
       333   11 Jun 2027 05:22:13.140   11 Jun 2027 05:22:28.647            15.507          7753.500
       334   11 Jun 2027 06:57:43.021   11 Jun 2027 06:59:24.034           101.013         50153.344
       335   11 Jun 2027 07:00:12.172   11 Jun 2027 07:00:19.783             7.611           915.750
       336   11 Jun 2027 07:01:00.709   11 Jun 2027 07:01:01.108             0.399           199.500
       337   11 Jun 2027 07:01:36.395   11 Jun 2027 07:01:36.565             0.170            85.000
       338   11 Jun 2027 08:31:31.107   11 Jun 2027 08:31:40.339             9.232          2554.469
       339   11 Jun 2027 08:33:59.671   11 Jun 2027 08:33:59.671             0.000             0.000
       340   11 Jun 2027 08:35:02.854   11 Jun 2027 08:35:10.266             7.412          2215.562
       341   11 Jun 2027 08:36:57.362   11 Jun 2027 08:37:01.067             3.705          1483.719
       342   11 Jun 2027 08:37:27.279   11 Jun 2027 08:37:29.285             2.006           124.344
       343   11 Jun 2027 08:38:05.220   11 Jun 2027 08:38:07.421             2.201           299.656
       344   11 Jun 2027 08:38:16.581   11 Jun 2027 08:38:18.987             2.406            22.875
       345   11 Jun 2027 08:38:43.267   11 Jun 2027 08:38:46.986             3.719           461.187
       346   11 Jun 2027 10:08:42.691   11 Jun 2027 10:08:56.707            14.016          5458.844
       347   11 Jun 2027 10:10:35.048   11 Jun 2027 10:10:38.031             2.983          1131.313
       348   11 Jun 2027 10:11:34.985   11 Jun 2027 10:11:44.088             9.103          1389.281
       349   11 Jun 2027 10:12:45.453   11 Jun 2027 10:12:53.784             8.331           754.063
       350   11 Jun 2027 10:13:45.549   11 Jun 2027 10:13:47.030             1.481           329.156
       351   11 Jun 2027 10:14:05.391   11 Jun 2027 10:14:06.463             1.072           347.156
       352   11 Jun 2027 10:14:51.701   11 Jun 2027 10:15:04.828            13.127          1320.188
       353   11 Jun 2027 10:15:28.135   11 Jun 2027 10:15:28.389             0.254           107.844
       354   11 Jun 2027 11:45:56.399   11 Jun 2027 11:46:10.747            14.348          6336.250
       355   11 Jun 2027 11:48:02.070   11 Jun 2027 11:48:09.014             6.944          1827.531
       356   11 Jun 2027 11:48:12.405   11 Jun 2027 11:48:13.565             1.160           105.969
       357   11 Jun 2027 11:48:43.642   11 Jun 2027 11:48:48.709             5.067           253.813
       358   11 Jun 2027 11:49:13.783   11 Jun 2027 11:49:15.211             1.428           486.812
       359   11 Jun 2027 11:49:46.591   11 Jun 2027 11:49:51.803             5.212           980.625
       360   11 Jun 2027 11:50:19.699   11 Jun 2027 11:50:26.368             6.669           104.469
       361   11 Jun 2027 11:51:08.806   11 Jun 2027 11:51:12.448             3.642          1286.719
       362   11 Jun 2027 11:51:28.256   11 Jun 2027 11:51:29.368             1.112           405.156
       363   12 Jun 2027 04:10:13.519   12 Jun 2027 04:10:40.521            27.002         13501.000
       364   12 Jun 2027 04:11:31.954   12 Jun 2027 04:13:34.035           122.081         61040.500
       365   12 Jun 2027 04:13:52.248   12 Jun 2027 04:14:13.089            20.841         10420.500
       366   12 Jun 2027 05:33:35.405   12 Jun 2027 05:34:31.432            56.027         28013.500
       367   12 Jun 2027 07:09:56.523   12 Jun 2027 07:11:28.189            91.666         45675.750
       368   12 Jun 2027 07:12:11.105   12 Jun 2027 07:12:14.073             2.968           348.500
       369   12 Jun 2027 07:12:37.255   12 Jun 2027 07:12:37.255             0.000             0.000
       370   12 Jun 2027 07:12:40.549   12 Jun 2027 07:12:44.706             4.157           328.344
       371   12 Jun 2027 08:43:59.529   12 Jun 2027 08:44:08.201             8.672          3759.781
       372   12 Jun 2027 08:45:42.697   12 Jun 2027 08:45:48.696             5.999           147.156
       373   12 Jun 2027 08:46:06.655   12 Jun 2027 08:46:10.026             3.371           319.844
       374   12 Jun 2027 08:47:03.462   12 Jun 2027 08:47:05.658             2.196           371.531
       375   12 Jun 2027 08:47:58.096   12 Jun 2027 08:48:01.714             3.618          1558.250
       376   12 Jun 2027 08:48:38.038   12 Jun 2027 08:48:41.475             3.437           407.812
       377   12 Jun 2027 08:50:34.418   12 Jun 2027 08:50:41.683             7.265          2996.437
       378   12 Jun 2027 08:51:04.394   12 Jun 2027 08:51:09.239             4.845           703.437
       379   12 Jun 2027 08:51:58.374   12 Jun 2027 08:52:00.315             1.941           744.281
       380   12 Jun 2027 10:21:06.274   12 Jun 2027 10:21:20.424            14.150          4994.406
       381   12 Jun 2027 10:25:24.129   12 Jun 2027 10:25:27.349             3.220          1185.188
       382   12 Jun 2027 10:26:12.206   12 Jun 2027 10:26:13.735             1.529           638.219
       383   12 Jun 2027 10:27:13.495   12 Jun 2027 10:27:16.594             3.099          1465.625
       384   12 Jun 2027 10:27:32.476   12 Jun 2027 10:27:33.976             1.500           496.312
       385   12 Jun 2027 10:27:45.748   12 Jun 2027 10:27:47.893             2.145           367.875
       386   12 Jun 2027 11:58:03.913   12 Jun 2027 11:58:24.295            20.382          6465.406
       387   12 Jun 2027 11:59:10.303   12 Jun 2027 11:59:12.915             2.612          1134.844
       388   13 Jun 2027 04:22:37.769   13 Jun 2027 04:25:35.447           177.678         88839.000
       389   13 Jun 2027 05:45:37.103   13 Jun 2027 05:46:09.415            32.312         16156.000
       390   13 Jun 2027 05:46:43.122   13 Jun 2027 05:46:50.671             7.549          3774.500
       391   13 Jun 2027 07:22:02.997   13 Jun 2027 07:23:41.583            98.586         48561.031
       392   13 Jun 2027 07:23:47.875   13 Jun 2027 07:23:49.884             2.009           196.625
       393   13 Jun 2027 07:24:00.050   13 Jun 2027 07:24:01.584             1.534           317.687
       394   13 Jun 2027 07:25:04.942   13 Jun 2027 07:25:06.972             2.030          1015.000
       395   13 Jun 2027 08:57:11.337   13 Jun 2027 08:57:17.522             6.185          2668.562
       396   13 Jun 2027 08:58:16.138   13 Jun 2027 08:58:18.579             2.441           879.156
       397   13 Jun 2027 08:58:53.186   13 Jun 2027 08:58:58.570             5.384           793.625
       398   13 Jun 2027 08:59:53.439   13 Jun 2027 08:59:56.126             2.687          1125.469
       399   13 Jun 2027 09:00:40.845   13 Jun 2027 09:00:45.182             4.337           566.844
       400   13 Jun 2027 09:00:56.741   13 Jun 2027 09:00:59.392             2.651             5.937
       401   13 Jun 2027 09:02:39.078   13 Jun 2027 09:02:44.144             5.066          2516.375
       402   13 Jun 2027 09:03:12.166   13 Jun 2027 09:03:17.878             5.712           875.688
       403   13 Jun 2027 09:03:52.910   13 Jun 2027 09:03:54.014             1.104           368.063
       404   13 Jun 2027 10:33:32.047   13 Jun 2027 10:33:43.083            11.036          4220.625
       405   13 Jun 2027 10:35:53.546   13 Jun 2027 10:35:57.006             3.460           248.594
       406   13 Jun 2027 10:36:44.464   13 Jun 2027 10:36:50.231             5.767           720.750
       407   13 Jun 2027 10:37:47.881   13 Jun 2027 10:37:52.392             4.511          1801.562
       408   13 Jun 2027 10:39:05.403   13 Jun 2027 10:39:12.444             7.041          1477.250
       409   13 Jun 2027 10:39:51.165   13 Jun 2027 10:39:54.236             3.071          1178.000
