uniorb/output/strategy_4/Camera/Camera_KinoSat_111308.txt

KinoSat_111308
-------------------------
    Access    *     Start Time (UTCG)     *     Stop Time (UTCG)  *   Duration (s) *   Data (Mbytes)
         1   01 Jun 2027 03:00:00.000   01 Jun 2027 03:00:09.650             9.650          4825.000
         2   01 Jun 2027 03:00:12.057   01 Jun 2027 03:00:39.709            27.652         13826.000
         3   01 Jun 2027 03:01:48.740   01 Jun 2027 03:01:51.327             2.587          1293.500
         4   01 Jun 2027 03:02:16.045   01 Jun 2027 03:02:19.613             3.568          1784.000
         5   01 Jun 2027 03:03:02.562   01 Jun 2027 03:03:02.562             0.000             0.000
         6   01 Jun 2027 03:03:09.986   01 Jun 2027 03:03:26.731            16.745          8372.500
         7   01 Jun 2027 03:04:21.230   01 Jun 2027 03:04:28.110             6.880          3440.000
         8   01 Jun 2027 03:05:07.676   01 Jun 2027 03:05:42.929            35.253         17626.500
         9   01 Jun 2027 04:23:34.973   01 Jun 2027 04:24:22.622            47.649         23824.500
        10   01 Jun 2027 04:35:02.807   01 Jun 2027 04:35:53.877            51.070         25535.000
        11   01 Jun 2027 05:57:42.204   01 Jun 2027 05:58:41.194            58.990         29495.000
        12   01 Jun 2027 05:59:17.909   01 Jun 2027 05:59:49.449            31.540         15770.000
        13   01 Jun 2027 06:00:03.018   01 Jun 2027 06:00:16.963            13.945          6972.500
        14   01 Jun 2027 06:01:56.497   01 Jun 2027 06:02:06.920            10.423          5211.500
        15   01 Jun 2027 07:33:03.192   01 Jun 2027 07:34:00.476            57.284         28642.000
        16   01 Jun 2027 07:34:34.246   01 Jun 2027 07:35:52.443            78.197         39098.500
        17   01 Jun 2027 07:38:57.762   01 Jun 2027 07:39:00.466             2.704          1352.000
        18   01 Jun 2027 09:09:31.637   01 Jun 2027 09:11:47.707           136.070         68035.000
        19   01 Jun 2027 09:14:25.916   01 Jun 2027 09:14:25.916             0.000             0.000
        20   01 Jun 2027 09:15:27.548   01 Jun 2027 09:16:10.896            43.348         21674.000
        21   01 Jun 2027 09:16:14.105   01 Jun 2027 09:16:55.432            41.327         20663.500
        22   01 Jun 2027 09:17:01.773   01 Jun 2027 09:17:01.895             0.122            61.000
        23   01 Jun 2027 10:46:37.213   01 Jun 2027 10:49:05.013           147.800         73900.000
        24   01 Jun 2027 10:51:21.849   01 Jun 2027 10:51:37.702            15.853          7926.500
        25   02 Jun 2027 03:10:32.566   02 Jun 2027 03:12:14.750           102.184         51092.000
        26   02 Jun 2027 03:12:53.939   02 Jun 2027 03:12:57.765             3.826          1913.000
        27   02 Jun 2027 03:13:03.400   02 Jun 2027 03:13:14.552            11.152          5576.000
        28   02 Jun 2027 03:13:33.362   02 Jun 2027 03:13:40.814             7.452          3726.000
        29   02 Jun 2027 03:14:25.595   02 Jun 2027 03:14:29.752             4.157          2078.500
        30   02 Jun 2027 03:15:49.339   02 Jun 2027 03:15:53.446             4.107          2053.500
        31   02 Jun 2027 03:17:22.856   02 Jun 2027 03:17:39.191            16.335          8167.500
        32   02 Jun 2027 04:34:49.928   02 Jun 2027 04:35:15.359            25.431         12715.500
        33   02 Jun 2027 04:35:33.821   02 Jun 2027 04:35:44.972            11.151          5575.500
        34   02 Jun 2027 04:47:02.098   02 Jun 2027 04:48:02.006            59.908         29954.000
        35   02 Jun 2027 06:09:18.301   02 Jun 2027 06:10:25.037            66.736         33368.000
        36   02 Jun 2027 06:11:13.874   02 Jun 2027 06:13:08.086           114.212         57106.000
        37   02 Jun 2027 07:44:12.225   02 Jun 2027 07:46:14.645           122.420         61210.000
        38   02 Jun 2027 07:46:21.127   02 Jun 2027 07:46:36.319            15.192          7596.000
        39   02 Jun 2027 07:48:12.388   02 Jun 2027 07:49:30.442            78.054         39027.000
        40   02 Jun 2027 09:21:45.714   02 Jun 2027 09:22:58.616            72.902         36069.219
        41   02 Jun 2027 09:26:35.375   02 Jun 2027 09:26:47.057            11.682          5252.469
        42   02 Jun 2027 09:27:09.334   02 Jun 2027 09:27:14.235             4.901           368.156
        43   02 Jun 2027 09:28:14.447   02 Jun 2027 09:28:16.251             1.804            80.656
        44   02 Jun 2027 09:28:17.080   02 Jun 2027 09:28:21.113             4.033            25.906
        45   02 Jun 2027 10:58:28.191   02 Jun 2027 10:58:41.032            12.841          5373.969
        46   02 Jun 2027 11:00:07.798   02 Jun 2027 11:00:10.947             3.149           836.250
        47   02 Jun 2027 11:00:48.495   02 Jun 2027 11:00:50.587             2.092            58.344
        48   02 Jun 2027 11:01:33.428   02 Jun 2027 11:01:38.295             4.867           765.875
        49   02 Jun 2027 11:02:33.056   02 Jun 2027 11:02:35.608             2.552           642.750
        50   02 Jun 2027 11:02:45.112   02 Jun 2027 11:02:48.004             2.892           297.000
        51   02 Jun 2027 11:03:22.085   02 Jun 2027 11:03:24.537             2.452           977.625
        52   02 Jun 2027 11:03:54.659   02 Jun 2027 11:04:02.147             7.488           941.313
        53   02 Jun 2027 11:04:35.861   02 Jun 2027 11:04:38.274             2.413           775.938
        54   03 Jun 2027 03:22:36.444   03 Jun 2027 03:26:08.702           212.258        106129.000
        55   03 Jun 2027 03:26:38.527   03 Jun 2027 03:26:47.444             8.917          4458.500
        56   03 Jun 2027 03:27:14.368   03 Jun 2027 03:27:14.844             0.476           238.000
        57   03 Jun 2027 04:46:55.822   03 Jun 2027 04:47:36.694            40.872         20436.000
        58   03 Jun 2027 04:59:16.093   03 Jun 2027 04:59:36.290            20.197         10098.500
        59   03 Jun 2027 06:20:47.822   03 Jun 2027 06:21:35.096            47.274         22207.438
        60   03 Jun 2027 06:21:52.587   03 Jun 2027 06:21:54.462             1.875           321.406
        61   03 Jun 2027 06:23:07.055   03 Jun 2027 06:23:09.910             2.855          1143.000
        62   03 Jun 2027 06:23:22.173   03 Jun 2027 06:23:22.173             0.000             0.000
        63   03 Jun 2027 06:24:20.573   03 Jun 2027 06:24:25.370             4.797          2208.219
        64   03 Jun 2027 06:25:58.112   03 Jun 2027 06:26:03.441             5.329          2132.281
        65   03 Jun 2027 07:55:42.899   03 Jun 2027 07:55:50.692             7.793          2460.500
        66   03 Jun 2027 07:57:49.763   03 Jun 2027 07:57:55.342             5.579          2077.781
        67   03 Jun 2027 07:58:17.367   03 Jun 2027 07:58:20.931             3.564           292.312
        68   03 Jun 2027 07:58:42.454   03 Jun 2027 07:58:43.200             0.746           209.969
        69   03 Jun 2027 08:00:12.564   03 Jun 2027 08:00:24.405            11.841          2009.562
        70   03 Jun 2027 08:01:33.855   03 Jun 2027 08:01:45.874            12.019          2170.312
        71   03 Jun 2027 08:02:40.191   03 Jun 2027 08:02:43.444             3.253          1594.281
        72   03 Jun 2027 08:03:27.628   03 Jun 2027 08:03:34.366             6.738          1357.625
        73   03 Jun 2027 08:04:18.937   03 Jun 2027 08:04:21.662             2.725          1093.000
        74   03 Jun 2027 08:04:39.141   03 Jun 2027 08:04:41.068             1.927            69.156
        75   03 Jun 2027 09:33:39.765   03 Jun 2027 09:33:51.717            11.952          5013.281
        76   03 Jun 2027 09:33:54.563   03 Jun 2027 09:33:54.563             0.000             0.000
        77   03 Jun 2027 09:34:35.235   03 Jun 2027 09:34:40.110             4.875          1351.469
        78   03 Jun 2027 09:36:37.649   03 Jun 2027 09:36:42.266             4.617          1608.750
        79   03 Jun 2027 09:37:55.524   03 Jun 2027 09:37:59.239             3.715           223.656
        80   03 Jun 2027 09:39:06.305   03 Jun 2027 09:39:08.593             2.288          1012.813
        81   03 Jun 2027 09:40:01.253   03 Jun 2027 09:40:05.005             3.752          1639.750
        82   03 Jun 2027 09:40:29.436   03 Jun 2027 09:40:32.137             2.701            63.344
        83   03 Jun 2027 09:40:44.469   03 Jun 2027 09:40:45.730             1.261           385.375
        84   03 Jun 2027 11:10:32.031   03 Jun 2027 11:10:33.288             1.257           628.500
        85   03 Jun 2027 11:10:35.423   03 Jun 2027 11:10:40.627             5.204          2602.000
        86   03 Jun 2027 11:11:02.733   03 Jun 2027 11:11:10.684             7.951          2727.812
        87   03 Jun 2027 11:11:38.588   03 Jun 2027 11:11:42.462             3.874           541.438
        88   03 Jun 2027 11:12:26.188   03 Jun 2027 11:12:28.372             2.184           563.469
        89   03 Jun 2027 11:13:20.726   03 Jun 2027 11:13:23.084             2.358           273.937
        90   03 Jun 2027 11:14:33.142   03 Jun 2027 11:14:37.328             4.186          1490.750
        91   03 Jun 2027 11:15:00.247   03 Jun 2027 11:15:01.342             1.095           312.344
        92   03 Jun 2027 11:15:48.607   03 Jun 2027 11:15:56.797             8.190          1230.250
        93   03 Jun 2027 11:16:42.964   03 Jun 2027 11:16:48.455             5.491          1255.906
        94   04 Jun 2027 03:35:02.621   04 Jun 2027 03:38:38.979           216.358        108179.000
        95   04 Jun 2027 03:39:00.807   04 Jun 2027 03:39:03.782             2.975          1487.500
        96   04 Jun 2027 03:39:56.934   04 Jun 2027 03:40:03.957             7.023          3511.500
        97   04 Jun 2027 04:58:51.993   04 Jun 2027 04:59:01.195             9.202          4601.000
        98   04 Jun 2027 06:34:51.149   04 Jun 2027 06:36:11.448            80.299         39536.875
        99   04 Jun 2027 06:36:59.857   04 Jun 2027 06:36:59.857             0.000             0.000
       100   04 Jun 2027 06:37:58.425   04 Jun 2027 06:38:06.377             7.952          3075.563
       101   04 Jun 2027 08:08:36.816   04 Jun 2027 08:08:57.103            20.287          2471.094
       102   04 Jun 2027 08:09:39.799   04 Jun 2027 08:09:40.308             0.509           188.500
       103   04 Jun 2027 08:10:20.795   04 Jun 2027 08:10:26.860             6.065           867.500
       104   04 Jun 2027 08:11:05.123   04 Jun 2027 08:11:08.166             3.043           246.062
       105   04 Jun 2027 08:12:12.235   04 Jun 2027 08:12:20.149             7.914          2002.156
       106   04 Jun 2027 08:13:33.091   04 Jun 2027 08:13:43.933            10.842          2018.250
       107   04 Jun 2027 08:14:34.781   04 Jun 2027 08:14:37.608             2.827          1330.313
       108   04 Jun 2027 08:15:26.795   04 Jun 2027 08:15:31.332             4.537          1537.094
       109   04 Jun 2027 08:15:44.944   04 Jun 2027 08:15:47.571             2.627           425.375
       110   04 Jun 2027 08:16:17.715   04 Jun 2027 08:16:19.603             1.888           850.625
       111   04 Jun 2027 08:17:09.175   04 Jun 2027 08:17:10.367             1.192           596.000
       112   04 Jun 2027 09:46:00.341   04 Jun 2027 09:46:13.934            13.593          4600.938
       113   04 Jun 2027 09:48:11.038   04 Jun 2027 09:48:14.379             3.341          1521.594
       114   04 Jun 2027 09:48:15.285   04 Jun 2027 09:48:15.789             0.504            28.312
       115   04 Jun 2027 09:50:06.286   04 Jun 2027 09:50:08.795             2.509           771.250
       116   04 Jun 2027 09:51:13.939   04 Jun 2027 09:51:15.924             1.985            93.594
       117   04 Jun 2027 09:52:30.415   04 Jun 2027 09:52:34.129             3.714           779.250
       118   04 Jun 2027 09:52:43.843   04 Jun 2027 09:52:45.381             1.538           303.563
       119   04 Jun 2027 09:52:55.557   04 Jun 2027 09:52:56.122             0.565           118.344
       120   04 Jun 2027 11:23:04.561   04 Jun 2027 11:23:17.755            13.194          5343.031
       121   04 Jun 2027 11:26:01.382   04 Jun 2027 11:26:06.536             5.154          1944.344
       122   04 Jun 2027 11:26:15.894   04 Jun 2027 11:26:17.881             1.987            14.219
       123   04 Jun 2027 11:27:27.421   04 Jun 2027 11:27:33.761             6.340          1973.469
       124   04 Jun 2027 11:28:02.852   04 Jun 2027 11:28:06.950             4.098           657.719
       125   04 Jun 2027 11:28:35.127   04 Jun 2027 11:28:39.184             4.057           644.625
       126   05 Jun 2027 03:47:21.527   05 Jun 2027 03:50:42.345           200.818        100409.000
       127   05 Jun 2027 05:10:43.521   05 Jun 2027 05:11:42.206            58.685         29342.500
       128   05 Jun 2027 06:47:05.569   05 Jun 2027 06:48:05.882            60.313         27712.688
       129   05 Jun 2027 06:49:09.911   05 Jun 2027 06:49:13.124             3.213          1434.531
       130   05 Jun 2027 06:49:25.653   05 Jun 2027 06:49:28.304             2.651           179.250
       131   05 Jun 2027 06:50:10.987   05 Jun 2027 06:50:13.897             2.910           833.469
       132   05 Jun 2027 08:21:09.579   05 Jun 2027 08:21:19.343             9.764          2557.531
       133   05 Jun 2027 08:22:54.420   05 Jun 2027 08:22:56.419             1.999           999.500
       134   05 Jun 2027 08:23:05.164   05 Jun 2027 08:23:07.679             2.515          1088.031
       135   05 Jun 2027 08:24:01.388   05 Jun 2027 08:24:05.991             4.603          1442.875
       136   05 Jun 2027 08:25:03.286   05 Jun 2027 08:25:06.140             2.854          1095.719
       137   05 Jun 2027 08:25:55.102   05 Jun 2027 08:25:56.690             1.588           735.281
       138   05 Jun 2027 08:27:38.951   05 Jun 2027 08:27:45.626             6.675          2626.437
       139   05 Jun 2027 08:27:53.252   05 Jun 2027 08:27:53.867             0.615           220.125
       140   05 Jun 2027 08:28:42.491   05 Jun 2027 08:28:47.361             4.870           348.156
       141   05 Jun 2027 08:28:58.311   05 Jun 2027 08:29:05.700             7.389            52.375
       142   05 Jun 2027 09:58:14.154   05 Jun 2027 09:58:24.488            10.334          4528.344
       143   05 Jun 2027 10:00:39.924   05 Jun 2027 10:00:41.531             1.607           176.344
       144   05 Jun 2027 10:00:49.747   05 Jun 2027 10:00:51.562             1.815           202.187
       145   05 Jun 2027 10:01:25.799   05 Jun 2027 10:01:28.720             2.921           532.500
       146   05 Jun 2027 10:03:20.595   05 Jun 2027 10:03:21.655             1.060           510.187
       147   05 Jun 2027 10:04:19.455   05 Jun 2027 10:04:23.615             4.160          1429.031
       148   05 Jun 2027 10:04:34.935   05 Jun 2027 10:04:38.229             3.294           295.844
       149   05 Jun 2027 11:35:10.159   05 Jun 2027 11:35:25.809            15.650          7592.375
       150   05 Jun 2027 11:36:18.819   05 Jun 2027 11:36:21.185             2.366          1093.531
       151   05 Jun 2027 11:37:03.452   05 Jun 2027 11:37:08.618             5.166           938.469
       152   05 Jun 2027 11:40:02.973   05 Jun 2027 11:40:09.486             6.513          3256.500
       153   06 Jun 2027 03:59:50.265   06 Jun 2027 04:01:02.938            72.673         36336.500
       154   06 Jun 2027 04:01:30.337   06 Jun 2027 04:03:18.820           108.483         54241.500
       155   06 Jun 2027 05:22:47.120   06 Jun 2027 05:23:37.741            50.621         25310.500
       156   06 Jun 2027 06:59:16.249   06 Jun 2027 07:00:35.589            79.340         38056.281
       157   06 Jun 2027 07:00:57.226   06 Jun 2027 07:00:58.259             1.033            19.687
       158   06 Jun 2027 07:01:07.318   06 Jun 2027 07:01:08.177             0.859           250.500
       159   06 Jun 2027 07:01:46.203   06 Jun 2027 07:01:49.582             3.379           852.750
       160   06 Jun 2027 07:02:15.643   06 Jun 2027 07:02:18.230             2.587           778.781
       161   06 Jun 2027 08:34:21.216   06 Jun 2027 08:34:27.654             6.438          3132.813
       162   06 Jun 2027 08:35:20.811   06 Jun 2027 08:35:24.612             3.801          1661.156
       163   06 Jun 2027 08:36:02.899   06 Jun 2027 08:36:09.104             6.205           821.750
       164   06 Jun 2027 08:37:29.148   06 Jun 2027 08:37:36.248             7.100          1389.125
       165   06 Jun 2027 08:38:04.011   06 Jun 2027 08:38:05.684             1.673           193.906
       166   06 Jun 2027 08:39:04.089   06 Jun 2027 08:39:07.516             3.427          1306.969
       167   06 Jun 2027 08:39:22.271   06 Jun 2027 08:39:23.876             1.605           128.500
       168   06 Jun 2027 08:40:24.013   06 Jun 2027 08:40:26.909             2.896          1167.344
       169   06 Jun 2027 08:41:00.276   06 Jun 2027 08:41:05.135             4.859           934.094
       170   06 Jun 2027 10:10:43.204   06 Jun 2027 10:10:52.869             9.665          4687.156
       171   06 Jun 2027 10:12:53.717   06 Jun 2027 10:12:55.470             1.753           108.500
       172   06 Jun 2027 10:13:13.762   06 Jun 2027 10:13:16.160             2.398           353.062
       173   06 Jun 2027 10:14:19.273   06 Jun 2027 10:14:23.860             4.587          1496.406
       174   06 Jun 2027 10:14:59.934   06 Jun 2027 10:15:02.379             2.445           617.750
       175   06 Jun 2027 10:16:03.800   06 Jun 2027 10:16:11.584             7.784          1919.406
       176   06 Jun 2027 10:16:20.119   06 Jun 2027 10:16:21.507             1.388           266.719
       177   06 Jun 2027 10:16:23.047   06 Jun 2027 10:16:25.534             2.487            26.687
       178   06 Jun 2027 10:16:42.877   06 Jun 2027 10:16:43.870             0.993           274.125
       179   06 Jun 2027 10:16:48.716   06 Jun 2027 10:16:49.885             1.169           151.438
       180   06 Jun 2027 11:48:13.451   06 Jun 2027 11:48:25.678            12.227          5266.875
       181   06 Jun 2027 11:49:37.420   06 Jun 2027 11:49:43.333             5.913          1280.094
       182   06 Jun 2027 11:50:07.103   06 Jun 2027 11:50:09.701             2.598           201.594
       183   06 Jun 2027 11:50:38.301   06 Jun 2027 11:50:40.891             2.590           178.562
       184   06 Jun 2027 11:50:47.733   06 Jun 2027 11:50:48.483             0.750           188.344
       185   06 Jun 2027 11:50:57.233   06 Jun 2027 11:50:58.494             1.261           263.906
       186   06 Jun 2027 11:52:23.339   06 Jun 2027 11:52:27.263             3.924          1859.156
       187   07 Jun 2027 04:11:23.803   07 Jun 2027 04:12:00.710            36.907         18453.500
       188   07 Jun 2027 04:12:13.352   07 Jun 2027 04:14:55.523           162.171         81085.500
       189   07 Jun 2027 05:34:43.268   07 Jun 2027 05:34:53.851            10.583          5291.500
       190   07 Jun 2027 05:35:37.841   07 Jun 2027 05:35:56.280            18.439          9219.500
       191   07 Jun 2027 05:37:45.274   07 Jun 2027 05:37:50.632             5.358          2679.000
       192   07 Jun 2027 07:11:21.046   07 Jun 2027 07:12:52.641            91.595         45241.281
       193   07 Jun 2027 07:13:37.037   07 Jun 2027 07:13:40.627             3.590          1387.375
       194   07 Jun 2027 08:46:31.458   07 Jun 2027 08:46:38.339             6.881          3059.031
       195   07 Jun 2027 08:48:01.718   07 Jun 2027 08:48:06.848             5.130          2420.813
       196   07 Jun 2027 08:48:57.022   07 Jun 2027 08:49:05.108             8.086          1171.406
       197   07 Jun 2027 08:49:35.100   07 Jun 2027 08:49:37.487             2.387           785.906
       198   07 Jun 2027 08:50:32.773   07 Jun 2027 08:50:35.174             2.401          1014.656
       199   07 Jun 2027 08:50:50.097   07 Jun 2027 08:50:52.842             2.745           332.344
       200   07 Jun 2027 08:51:21.029   07 Jun 2027 08:51:23.327             2.298           722.250
       201   07 Jun 2027 08:51:59.637   07 Jun 2027 08:52:02.184             2.547          1086.594
       202   07 Jun 2027 10:22:45.733   07 Jun 2027 10:22:58.702            12.969          5731.406
       203   07 Jun 2027 10:25:31.379   07 Jun 2027 10:25:34.250             2.871           840.562
       204   07 Jun 2027 10:25:44.249   07 Jun 2027 10:25:47.201             2.952           114.188
       205   07 Jun 2027 10:27:00.588   07 Jun 2027 10:27:06.538             5.950           259.688
       206   07 Jun 2027 10:27:55.535   07 Jun 2027 10:28:02.129             6.594           756.125
       207   08 Jun 2027 04:12:32.087   08 Jun 2027 04:12:47.747            15.660          7830.000
       208   08 Jun 2027 04:23:20.734   08 Jun 2027 04:26:14.442           173.708         86854.000
       209   08 Jun 2027 05:47:19.205   08 Jun 2027 05:47:49.462            30.257         15128.500
       210   08 Jun 2027 05:49:22.942   08 Jun 2027 05:49:44.152            21.210         10605.000
       211   08 Jun 2027 07:23:04.851   08 Jun 2027 07:24:38.240            93.389         44590.282
       212   08 Jun 2027 07:24:57.912   08 Jun 2027 07:24:58.844             0.932           449.594
       213   08 Jun 2027 07:25:54.149   08 Jun 2027 07:25:57.449             3.300          1239.688
       214   08 Jun 2027 07:26:31.709   08 Jun 2027 07:26:31.709             0.000             0.000
       215   08 Jun 2027 07:26:32.978   08 Jun 2027 07:26:36.191             3.213          1110.281
       216   08 Jun 2027 08:57:55.725   08 Jun 2027 08:58:05.247             9.522          3217.406
       217   08 Jun 2027 08:58:44.015   08 Jun 2027 08:58:47.372             3.357           509.406
       218   08 Jun 2027 09:00:30.968   08 Jun 2027 09:00:32.713             1.745           820.937
       219   08 Jun 2027 09:01:12.372   08 Jun 2027 09:01:14.960             2.588          1095.781
       220   08 Jun 2027 09:02:02.559   08 Jun 2027 09:02:06.451             3.892          1487.469
       221   08 Jun 2027 09:02:35.790   08 Jun 2027 09:02:37.078             1.288           442.844
       222   08 Jun 2027 09:04:32.161   08 Jun 2027 09:04:42.836            10.675          3596.344
       223   08 Jun 2027 10:34:31.619   08 Jun 2027 10:34:47.521            15.902          7241.906
       224   08 Jun 2027 10:37:48.017   08 Jun 2027 10:37:49.266             1.249           429.531
       225   08 Jun 2027 10:38:56.825   08 Jun 2027 10:39:03.094             6.269          1699.219
       226   08 Jun 2027 10:40:01.750   08 Jun 2027 10:40:05.176             3.426           819.406
       227   09 Jun 2027 03:00:00.000   09 Jun 2027 03:00:01.696             1.696           848.000
       228   09 Jun 2027 03:00:53.155   09 Jun 2027 03:01:05.152            11.997          5998.500
       229   09 Jun 2027 03:01:14.279   09 Jun 2027 03:01:29.880            15.601          7800.500
       230   09 Jun 2027 03:03:30.682   09 Jun 2027 03:04:05.862            35.180         17590.000
       231   09 Jun 2027 03:04:42.643   09 Jun 2027 03:04:45.161             2.518          1259.000
       232   09 Jun 2027 03:05:04.223   09 Jun 2027 03:05:12.071             7.848          3924.000
       233   09 Jun 2027 04:23:48.617   09 Jun 2027 04:24:37.835            49.218         24609.000
       234   09 Jun 2027 04:24:52.363   09 Jun 2027 04:25:05.628            13.265          6632.500
       235   09 Jun 2027 04:35:18.879   09 Jun 2027 04:36:54.705            95.826         47913.000
       236   09 Jun 2027 05:57:58.098   09 Jun 2027 05:58:29.145            31.047         15523.500
       237   09 Jun 2027 05:59:40.855   09 Jun 2027 06:00:19.245            38.390         19195.000
       238   09 Jun 2027 06:00:34.268   09 Jun 2027 06:00:34.268             0.000             0.000
       239   09 Jun 2027 06:01:35.231   09 Jun 2027 06:01:51.011            15.780          7890.000
       240   09 Jun 2027 07:33:15.663   09 Jun 2027 07:33:53.144            37.481         17810.687
       241   09 Jun 2027 07:34:06.585   09 Jun 2027 07:34:11.846             5.261           168.156
       242   09 Jun 2027 07:35:09.489   09 Jun 2027 07:35:10.559             1.070           535.000
       243   09 Jun 2027 07:36:29.010   09 Jun 2027 07:36:36.946             7.936          3579.906
       244   09 Jun 2027 07:36:41.401   09 Jun 2027 07:36:45.822             4.421            30.125
       245   09 Jun 2027 07:37:49.878   09 Jun 2027 07:37:52.798             2.920          1140.250
       246   09 Jun 2027 07:38:08.485   09 Jun 2027 07:38:10.633             2.148           241.344
       247   09 Jun 2027 07:38:27.200   09 Jun 2027 07:38:29.674             2.474           403.562
       248   09 Jun 2027 07:39:18.834   09 Jun 2027 07:39:23.016             4.182          1430.437
       249   09 Jun 2027 09:09:49.087   09 Jun 2027 09:09:55.957             6.870          3250.719
       250   09 Jun 2027 09:10:08.056   09 Jun 2027 09:10:09.069             1.013           134.594
       251   09 Jun 2027 09:12:04.855   09 Jun 2027 09:12:12.119             7.264          2506.375
       252   09 Jun 2027 09:13:24.119   09 Jun 2027 09:13:25.236             1.117           341.938
       253   09 Jun 2027 09:14:24.563   09 Jun 2027 09:14:28.883             4.320          1731.125
       254   09 Jun 2027 09:15:44.279   09 Jun 2027 09:15:49.192             4.913          1882.844
       255   09 Jun 2027 09:16:16.274   09 Jun 2027 09:16:16.772             0.498           243.594
       256   09 Jun 2027 09:17:10.076   09 Jun 2027 09:17:14.136             4.060          1522.250
       257   09 Jun 2027 10:46:52.884   09 Jun 2027 10:47:06.481            13.597          5425.187
       258   09 Jun 2027 10:48:40.433   09 Jun 2027 10:48:43.206             2.773           752.563
       259   09 Jun 2027 10:48:57.107   09 Jun 2027 10:48:58.778             1.671           427.000
       260   09 Jun 2027 10:49:02.879   09 Jun 2027 10:49:04.083             1.204           128.156
       261   09 Jun 2027 10:49:21.459   09 Jun 2027 10:49:23.513             2.054           381.719
       262   09 Jun 2027 10:49:31.249   09 Jun 2027 10:49:38.658             7.409           241.750
       263   09 Jun 2027 10:50:18.447   09 Jun 2027 10:50:24.049             5.602          1196.000
       264   09 Jun 2027 10:50:34.657   09 Jun 2027 10:50:36.502             1.845            44.187
       265   09 Jun 2027 10:50:53.588   09 Jun 2027 10:50:54.926             1.338           384.656
       266   09 Jun 2027 10:51:28.450   09 Jun 2027 10:51:36.905             8.455           861.313
       267   09 Jun 2027 10:52:51.687   09 Jun 2027 10:53:00.201             8.514          2289.563
       268   10 Jun 2027 03:10:48.879   10 Jun 2027 03:12:26.376            97.497         48748.500
       269   10 Jun 2027 03:13:55.813   10 Jun 2027 03:14:59.424            63.611         31805.500
       270   10 Jun 2027 03:16:02.759   10 Jun 2027 03:16:12.520             9.761          4880.500
       271   10 Jun 2027 03:16:32.985   10 Jun 2027 03:16:53.691            20.706         10353.000
       272   10 Jun 2027 04:35:05.576   10 Jun 2027 04:35:29.911            24.335         12167.500
       273   10 Jun 2027 04:35:49.652   10 Jun 2027 04:36:02.290            12.638          6319.000
       274   10 Jun 2027 04:47:18.114   10 Jun 2027 04:48:16.832            58.718         29359.000
       275   10 Jun 2027 06:09:33.947   10 Jun 2027 06:10:27.756            53.809         26904.500
       276   10 Jun 2027 06:10:30.593   10 Jun 2027 06:10:32.111             1.518           581.093
       277   10 Jun 2027 06:11:29.346   10 Jun 2027 06:11:33.180             3.834          1474.344
       278   10 Jun 2027 06:12:04.332   10 Jun 2027 06:12:04.332             0.000             0.000
       279   10 Jun 2027 06:12:36.075   10 Jun 2027 06:12:42.926             6.851          1965.469
       280   10 Jun 2027 06:14:13.759   10 Jun 2027 06:14:25.218            11.459          2195.500
       281   10 Jun 2027 07:44:27.038   10 Jun 2027 07:44:32.257             5.219          2349.313
       282   10 Jun 2027 07:45:03.281   10 Jun 2027 07:45:10.516             7.235           820.875
       283   10 Jun 2027 07:46:06.207   10 Jun 2027 07:46:08.001             1.794           897.000
       284   10 Jun 2027 07:46:47.482   10 Jun 2027 07:46:51.075             3.593          1285.000
       285   10 Jun 2027 07:48:29.564   10 Jun 2027 07:48:38.155             8.591          3077.781
       286   10 Jun 2027 07:49:50.258   10 Jun 2027 07:49:57.819             7.561          2204.094
       287   10 Jun 2027 07:50:39.682   10 Jun 2027 07:50:42.429             2.747          1114.906
       288   10 Jun 2027 07:51:10.819   10 Jun 2027 07:51:10.819             0.000             0.000
       289   10 Jun 2027 07:52:30.017   10 Jun 2027 07:52:34.580             4.563          1793.531
       290   10 Jun 2027 09:22:01.300   10 Jun 2027 09:22:10.495             9.195          3438.156
       291   10 Jun 2027 09:22:47.801   10 Jun 2027 09:22:51.738             3.937          1165.812
       292   10 Jun 2027 09:24:11.371   10 Jun 2027 09:24:12.879             1.508           418.406
       293   10 Jun 2027 09:25:44.454   10 Jun 2027 09:25:48.842             4.388          1226.813
       294   10 Jun 2027 09:26:06.161   10 Jun 2027 09:26:07.178             1.017           412.188
       295   10 Jun 2027 09:26:28.193   10 Jun 2027 09:26:30.624             2.431           368.156
       296   10 Jun 2027 09:27:41.817   10 Jun 2027 09:27:47.539             5.722          1503.125
       297   10 Jun 2027 09:28:30.963   10 Jun 2027 09:28:32.828             1.865            28.000
       298   10 Jun 2027 09:29:01.136   10 Jun 2027 09:29:03.763             2.627           884.625
       299   10 Jun 2027 09:29:17.093   10 Jun 2027 09:29:17.702             0.609            91.156
       300   10 Jun 2027 10:58:44.095   10 Jun 2027 10:58:54.799            10.704          5098.313
       301   10 Jun 2027 11:01:24.531   10 Jun 2027 11:01:25.902             1.371           630.937
       302   10 Jun 2027 11:02:20.005   10 Jun 2027 11:02:23.912             3.907          1506.719
       303   10 Jun 2027 11:02:47.901   10 Jun 2027 11:02:51.376             3.475           519.625
       304   10 Jun 2027 11:03:01.450   10 Jun 2027 11:03:02.487             1.037           277.281
       305   10 Jun 2027 11:03:41.568   10 Jun 2027 11:03:50.217             8.649          1221.281
       306   10 Jun 2027 11:04:25.414   10 Jun 2027 11:04:29.244             3.830          1099.906
       307   10 Jun 2027 11:04:54.270   10 Jun 2027 11:04:56.119             1.849           729.406
       308   10 Jun 2027 11:05:04.452   10 Jun 2027 11:05:09.468             5.016           147.281
       309   10 Jun 2027 11:05:20.066   10 Jun 2027 11:05:21.955             1.889           126.375
       310   11 Jun 2027 03:22:53.442   11 Jun 2027 03:25:37.470           164.028         82014.000
       311   11 Jun 2027 03:25:40.366   11 Jun 2027 03:25:45.296             4.930          2465.000
       312   11 Jun 2027 03:25:59.922   11 Jun 2027 03:26:15.609            15.687          7843.500
       313   11 Jun 2027 03:26:51.605   11 Jun 2027 03:27:04.670            13.065          6532.500
       314   11 Jun 2027 03:27:28.722   11 Jun 2027 03:27:28.975             0.253           126.500
       315   11 Jun 2027 03:28:11.475   11 Jun 2027 03:28:37.134            25.659         12829.500
       316   11 Jun 2027 03:29:20.299   11 Jun 2027 03:29:35.669            15.370          7685.000
       317   11 Jun 2027 04:47:11.243   11 Jun 2027 04:47:23.806            12.563          6281.500
       318   11 Jun 2027 04:47:52.519   11 Jun 2027 04:48:03.699            11.180          5590.000
       319   11 Jun 2027 04:59:33.260   11 Jun 2027 04:59:51.368            18.108          9054.000
       320   11 Jun 2027 06:21:02.742   11 Jun 2027 06:21:59.000            56.258         28091.032
       321   11 Jun 2027 06:22:09.353   11 Jun 2027 06:22:10.802             1.449           323.531
       322   11 Jun 2027 06:23:23.472   11 Jun 2027 06:23:26.289             2.817          1177.000
       323   11 Jun 2027 06:23:39.283   11 Jun 2027 06:23:45.942             6.659           379.906
       324   11 Jun 2027 06:23:48.130   11 Jun 2027 06:23:49.090             0.960            68.375
       325   11 Jun 2027 06:23:56.187   11 Jun 2027 06:23:59.770             3.583            45.250
       326   11 Jun 2027 06:24:37.871   11 Jun 2027 06:24:40.954             3.083          1093.219
       327   11 Jun 2027 06:26:14.400   11 Jun 2027 06:26:20.386             5.986          2189.437
       328   11 Jun 2027 06:26:33.275   11 Jun 2027 06:26:33.926             0.651           255.188
       329   11 Jun 2027 07:55:57.464   11 Jun 2027 07:56:04.901             7.437          2117.375
       330   11 Jun 2027 07:56:24.792   11 Jun 2027 07:56:27.612             2.820           183.281
       331   11 Jun 2027 07:58:08.008   11 Jun 2027 07:58:16.692             8.684          2143.469
       332   11 Jun 2027 07:58:35.447   11 Jun 2027 07:58:37.308             1.861           278.500
       333   11 Jun 2027 07:58:59.444   11 Jun 2027 07:59:01.140             1.696           221.500
       334   11 Jun 2027 08:00:29.703   11 Jun 2027 08:00:40.413            10.710          1964.031
       335   11 Jun 2027 08:01:50.096   11 Jun 2027 08:02:00.627            10.531          2144.406
       336   11 Jun 2027 08:02:57.098   11 Jun 2027 08:03:01.278             4.180          1560.875
       337   11 Jun 2027 08:03:46.393   11 Jun 2027 08:03:49.221             2.828          1358.313
       338   11 Jun 2027 08:04:36.060   11 Jun 2027 08:04:38.400             2.340          1097.625
       339   11 Jun 2027 09:33:55.467   11 Jun 2027 09:34:06.883            11.416          5192.406
       340   11 Jun 2027 09:34:53.537   11 Jun 2027 09:34:59.286             5.749          1277.219
       341   11 Jun 2027 09:36:53.143   11 Jun 2027 09:36:57.930             4.787          1560.719
       342   11 Jun 2027 09:38:03.678   11 Jun 2027 09:38:07.409             3.731           904.156
       343   11 Jun 2027 09:38:18.800   11 Jun 2027 09:38:21.967             3.167           355.969
       344   11 Jun 2027 09:39:23.756   11 Jun 2027 09:39:29.964             6.208          1048.375
       345   11 Jun 2027 09:40:41.899   11 Jun 2027 09:40:47.868             5.969           868.406
       346   11 Jun 2027 09:40:48.188   11 Jun 2027 09:40:51.581             3.393            10.000
       347   11 Jun 2027 11:10:50.528   11 Jun 2027 11:10:54.874             4.346          2173.000
       348   11 Jun 2027 11:11:19.669   11 Jun 2027 11:11:27.385             7.716          3589.281
       349   11 Jun 2027 11:12:25.175   11 Jun 2027 11:12:31.997             6.822           911.312
       350   11 Jun 2027 11:13:28.077   11 Jun 2027 11:13:34.680             6.603          1338.688
       351   11 Jun 2027 11:14:00.090   11 Jun 2027 11:14:01.545             1.455           658.156
       352   11 Jun 2027 11:14:40.281   11 Jun 2027 11:14:43.777             3.496          1210.500
       353   11 Jun 2027 11:15:16.475   11 Jun 2027 11:15:21.542             5.067           835.656
       354   11 Jun 2027 11:15:50.107   11 Jun 2027 11:15:52.010             1.903           463.094
       355   11 Jun 2027 11:15:56.141   11 Jun 2027 11:15:56.599             0.458           129.094
       356   11 Jun 2027 11:16:33.016   11 Jun 2027 11:16:35.427             2.411           855.156
       357   11 Jun 2027 11:17:05.679   11 Jun 2027 11:17:14.247             8.568           490.344
       358   11 Jun 2027 11:17:19.434   11 Jun 2027 11:17:20.287             0.853           162.094
       359   12 Jun 2027 03:35:19.018   12 Jun 2027 03:38:10.263           171.245         85622.500
       360   12 Jun 2027 03:39:20.837   12 Jun 2027 03:40:18.668            57.831         28915.500
       361   12 Jun 2027 04:59:07.057   12 Jun 2027 04:59:32.747            25.690         12845.000
       362   12 Jun 2027 06:35:07.271   12 Jun 2027 06:36:20.877            73.606         35346.781
       363   12 Jun 2027 06:36:45.912   12 Jun 2027 06:36:48.943             3.031           782.344
       364   12 Jun 2027 06:38:14.687   12 Jun 2027 06:38:19.528             4.841          1791.906
       365   12 Jun 2027 08:08:51.337   12 Jun 2027 08:08:57.921             6.584          2452.188
       366   12 Jun 2027 08:10:37.715   12 Jun 2027 08:10:43.684             5.969           877.812
       367   12 Jun 2027 08:11:51.176   12 Jun 2027 08:11:54.465             3.289          1149.281
       368   12 Jun 2027 08:12:45.755   12 Jun 2027 08:12:49.404             3.649           903.156
       369   12 Jun 2027 08:14:10.170   12 Jun 2027 08:14:13.735             3.565           652.469
       370   12 Jun 2027 08:15:32.069   12 Jun 2027 08:15:39.255             7.186          1888.281
       371   12 Jun 2027 08:15:58.286   12 Jun 2027 08:16:02.118             3.832           449.406
       372   12 Jun 2027 08:16:46.553   12 Jun 2027 08:17:02.861            16.308          1385.063
       373   12 Jun 2027 09:46:16.866   12 Jun 2027 09:46:26.433             9.567          4585.031
       374   12 Jun 2027 09:48:26.802   12 Jun 2027 09:48:31.158             4.356          1523.250
       375   12 Jun 2027 09:49:42.485   12 Jun 2027 09:49:42.980             0.495           112.813
       376   12 Jun 2027 09:50:17.903   12 Jun 2027 09:50:19.531             1.628           665.937
       377   12 Jun 2027 09:51:24.529   12 Jun 2027 09:51:27.000             2.471            63.313
       378   12 Jun 2027 09:52:19.831   12 Jun 2027 09:52:29.443             9.612          1516.156
       379   12 Jun 2027 09:52:49.290   12 Jun 2027 09:52:52.204             2.914           500.156
       380   12 Jun 2027 11:23:20.406   12 Jun 2027 11:23:33.460            13.054          5609.469
       381   12 Jun 2027 11:25:31.792   12 Jun 2027 11:25:32.850             1.058           226.594
       382   12 Jun 2027 11:25:54.931   12 Jun 2027 11:26:01.891             6.960           326.844
       383   12 Jun 2027 11:26:30.167   12 Jun 2027 11:26:31.760             1.593           399.156
       384   12 Jun 2027 11:26:37.512   12 Jun 2027 11:26:41.117             3.605           179.750
       385   12 Jun 2027 11:27:06.239   12 Jun 2027 11:27:10.109             3.870           478.187
       386   12 Jun 2027 11:27:38.042   12 Jun 2027 11:27:43.327             5.285           872.906
       387   12 Jun 2027 11:27:45.549   12 Jun 2027 11:27:45.804             0.255            38.188
       388   12 Jun 2027 11:28:35.089   12 Jun 2027 11:28:37.161             2.072           525.875
       389   12 Jun 2027 11:29:10.282   12 Jun 2027 11:29:10.827             0.545           272.500
       390   13 Jun 2027 03:47:37.445   13 Jun 2027 03:49:14.421            96.976         48488.000
       391   13 Jun 2027 03:49:29.407   13 Jun 2027 03:50:05.186            35.779         17889.500
       392   13 Jun 2027 03:50:25.166   13 Jun 2027 03:51:17.635            52.469         26234.500
       393   13 Jun 2027 05:10:58.646   13 Jun 2027 05:11:58.017            59.371         29685.500
       394   13 Jun 2027 05:12:15.440   13 Jun 2027 05:12:19.494             4.054          2027.000
       395   13 Jun 2027 06:47:21.951   13 Jun 2027 06:48:21.981            60.030         29701.531
       396   13 Jun 2027 06:49:08.545   13 Jun 2027 06:49:13.150             4.605           851.844
       397   13 Jun 2027 06:49:35.512   13 Jun 2027 06:49:37.388             1.876           403.594
       398   13 Jun 2027 06:50:00.704   13 Jun 2027 06:50:02.473             1.769           631.156
       399   13 Jun 2027 08:21:26.485   13 Jun 2027 08:21:32.681             6.196          2498.844
       400   13 Jun 2027 08:22:16.370   13 Jun 2027 08:22:18.766             2.396           760.500
       401   13 Jun 2027 08:22:42.698   13 Jun 2027 08:22:46.156             3.458           232.656
       402   13 Jun 2027 08:23:20.532   13 Jun 2027 08:23:20.532             0.000             0.000
       403   13 Jun 2027 08:23:32.544   13 Jun 2027 08:23:34.197             1.653           656.594
       404   13 Jun 2027 08:24:52.669   13 Jun 2027 08:24:58.988             6.319          1062.281
       405   13 Jun 2027 08:25:47.722   13 Jun 2027 08:25:51.146             3.424          1189.781
       406   13 Jun 2027 08:26:32.655   13 Jun 2027 08:26:35.077             2.422           626.437
       407   13 Jun 2027 08:26:48.986   13 Jun 2027 08:26:50.380             1.394           328.125
       408   13 Jun 2027 08:28:10.549   13 Jun 2027 08:28:11.226             0.677           232.125
       409   13 Jun 2027 08:28:46.237   13 Jun 2027 08:28:46.973             0.736           158.938
       410   13 Jun 2027 08:28:59.966   13 Jun 2027 08:29:04.540             4.574           355.438
       411   13 Jun 2027 08:29:13.472   13 Jun 2027 08:29:13.472             0.000             0.000
       412   13 Jun 2027 08:29:21.438   13 Jun 2027 08:29:22.519             1.081           298.094
       413   13 Jun 2027 09:58:29.862   13 Jun 2027 09:58:45.022            15.160          4653.406
       414   13 Jun 2027 10:01:05.676   13 Jun 2027 10:01:06.991             1.315           321.500
       415   13 Jun 2027 10:01:33.955   13 Jun 2027 10:01:36.002             2.047           497.938
       416   13 Jun 2027 10:01:49.520   13 Jun 2027 10:01:50.536             1.016           422.438
       417   13 Jun 2027 10:04:02.235   13 Jun 2027 10:04:07.711             5.476          1374.938
       418   13 Jun 2027 10:04:37.077   13 Jun 2027 10:04:38.759             1.682           256.781
       419   13 Jun 2027 10:04:50.101   13 Jun 2027 10:04:53.927             3.826           221.719
       420   13 Jun 2027 11:35:26.495   13 Jun 2027 11:35:40.465            13.970          6534.906
       421   13 Jun 2027 11:36:48.674   13 Jun 2027 11:36:50.953             2.279           924.500
       422   13 Jun 2027 11:37:50.823   13 Jun 2027 11:37:55.430             4.607           982.312
       423   13 Jun 2027 11:38:48.845   13 Jun 2027 11:38:52.918             4.073           369.031
       424   13 Jun 2027 11:39:05.744   13 Jun 2027 11:39:08.925             3.181           400.813
       425   13 Jun 2027 11:39:15.510   13 Jun 2027 11:39:18.612             3.102           105.625
       426   13 Jun 2027 11:39:53.200   13 Jun 2027 11:39:58.213             5.013           691.406
