uniorb/output/strategy_4/Camera/Camera_KinoSat_111009.txt

KinoSat_111009
-------------------------
    Access    *     Start Time (UTCG)     *     Stop Time (UTCG)  *   Duration (s) *   Data (Mbytes)
         1   01 Jun 2027 03:01:09.997   01 Jun 2027 03:01:48.909            38.912         19456.000
         2   01 Jun 2027 03:02:19.613   01 Jun 2027 03:02:19.613             0.000             0.000
         3   01 Jun 2027 03:03:02.562   01 Jun 2027 03:03:09.986             7.424          3712.000
         4   01 Jun 2027 03:03:53.053   01 Jun 2027 03:04:28.110            35.057         17528.500
         5   01 Jun 2027 04:25:04.788   01 Jun 2027 04:25:48.191            43.403         21701.500
         6   01 Jun 2027 04:26:34.203   01 Jun 2027 04:27:01.433            27.230         13615.000
         7   01 Jun 2027 04:27:17.176   01 Jun 2027 04:27:23.924             6.748          3374.000
         8   01 Jun 2027 06:00:59.739   01 Jun 2027 06:03:05.936           126.197         63098.500
         9   01 Jun 2027 06:03:55.751   01 Jun 2027 06:04:00.113             4.362          2181.000
        10   01 Jun 2027 07:35:54.972   01 Jun 2027 07:38:08.875           133.903         66951.500
        11   01 Jun 2027 07:38:57.762   01 Jun 2027 07:39:01.379             3.617          1808.500
        12   01 Jun 2027 07:41:37.861   01 Jun 2027 07:41:59.187            21.326         10663.000
        13   01 Jun 2027 07:42:33.051   01 Jun 2027 07:42:41.061             8.010          4005.000
        14   01 Jun 2027 09:12:15.311   01 Jun 2027 09:14:47.442           152.131         76065.500
        15   01 Jun 2027 09:15:08.923   01 Jun 2027 09:15:48.770            39.847         19923.500
        16   01 Jun 2027 09:16:55.432   01 Jun 2027 09:17:01.773             6.341          3170.500
        17   01 Jun 2027 09:17:22.016   01 Jun 2027 09:17:33.888            11.872          5936.000
        18   01 Jun 2027 10:50:31.908   01 Jun 2027 10:53:11.101           159.193         79596.500
        19   01 Jun 2027 10:53:21.375   01 Jun 2027 10:53:21.762             0.387           193.500
        20   01 Jun 2027 10:53:28.817   01 Jun 2027 10:53:35.064             6.247          3123.500
        21   02 Jun 2027 03:01:50.849   02 Jun 2027 03:02:10.894            20.045         10022.500
        22   02 Jun 2027 03:13:06.298   02 Jun 2027 03:13:49.975            43.677         21838.500
        23   02 Jun 2027 03:14:36.663   02 Jun 2027 03:14:47.183            10.520          5260.000
        24   02 Jun 2027 03:15:14.672   02 Jun 2027 03:16:14.500            59.828         29914.000
        25   02 Jun 2027 04:35:42.295   02 Jun 2027 04:36:23.414            41.119         20559.500
        26   02 Jun 2027 04:38:24.308   02 Jun 2027 04:38:37.170            12.862          6431.000
        27   02 Jun 2027 04:39:11.655   02 Jun 2027 04:39:23.466            11.811          5905.500
        28   02 Jun 2027 06:11:17.253   02 Jun 2027 06:11:59.446            42.193         21096.500
        29   02 Jun 2027 06:12:43.737   02 Jun 2027 06:15:38.132           174.395         87197.500
        30   02 Jun 2027 06:16:28.071   02 Jun 2027 06:16:28.581             0.510           255.000
        31   02 Jun 2027 06:17:14.245   02 Jun 2027 06:17:18.192             3.947          1973.500
        32   02 Jun 2027 07:47:29.203   02 Jun 2027 07:50:23.151           173.948         86974.000
        33   02 Jun 2027 07:52:11.374   02 Jun 2027 07:52:11.374             0.000             0.000
        34   02 Jun 2027 07:53:40.512   02 Jun 2027 07:54:17.391            36.879         18439.500
        35   02 Jun 2027 07:54:20.750   02 Jun 2027 07:54:54.183            33.433         16716.500
        36   02 Jun 2027 07:55:03.628   02 Jun 2027 07:55:03.861             0.233           116.500
        37   02 Jun 2027 09:24:35.513   02 Jun 2027 09:25:31.129            55.616         27197.845
        38   02 Jun 2027 09:26:13.114   02 Jun 2027 09:26:14.526             1.412           386.906
        39   02 Jun 2027 09:28:11.866   02 Jun 2027 09:28:16.251             4.385          1954.125
        40   02 Jun 2027 09:28:45.646   02 Jun 2027 09:28:48.297             2.651           892.688
        41   02 Jun 2027 09:29:02.654   02 Jun 2027 09:29:03.281             0.627            31.406
        42   02 Jun 2027 09:29:37.392   02 Jun 2027 09:29:39.971             2.579           992.875
        43   02 Jun 2027 09:30:11.888   02 Jun 2027 09:30:15.198             3.310           428.219
        44   02 Jun 2027 11:02:33.641   02 Jun 2027 11:02:45.502            11.861          5782.094
        45   02 Jun 2027 11:03:19.535   02 Jun 2027 11:03:22.085             2.550           824.250
        46   02 Jun 2027 11:04:11.031   02 Jun 2027 11:04:13.587             2.556          1147.844
        47   02 Jun 2027 11:04:43.305   02 Jun 2027 11:04:45.784             2.479           232.625
        48   02 Jun 2027 11:05:08.930   02 Jun 2027 11:05:12.026             3.096           176.438
        49   02 Jun 2027 11:06:09.729   02 Jun 2027 11:06:15.766             6.037          1166.969
        50   02 Jun 2027 11:06:26.556   02 Jun 2027 11:06:29.364             2.808           337.188
        51   03 Jun 2027 03:13:25.190   03 Jun 2027 03:13:32.848             7.658          3829.000
        52   03 Jun 2027 03:14:32.447   03 Jun 2027 03:14:58.996            26.549         13274.500
        53   03 Jun 2027 03:25:09.340   03 Jun 2027 03:26:19.050            69.710         34855.000
        54   03 Jun 2027 04:47:23.225   03 Jun 2027 04:48:31.088            67.863         33931.500
        55   03 Jun 2027 04:49:21.538   03 Jun 2027 04:50:26.613            65.075         32537.500
        56   03 Jun 2027 04:50:29.412   03 Jun 2027 04:50:42.689            13.277          6638.500
        57   03 Jun 2027 06:22:23.985   03 Jun 2027 06:23:28.368            64.383         32111.718
        58   03 Jun 2027 06:23:33.091   03 Jun 2027 06:23:36.455             3.364            51.344
        59   03 Jun 2027 06:23:40.691   03 Jun 2027 06:23:40.691             0.000             0.000
        60   03 Jun 2027 06:23:51.558   03 Jun 2027 06:23:57.076             5.518           392.750
        61   03 Jun 2027 06:25:04.644   03 Jun 2027 06:25:07.470             2.826          1397.656
        62   03 Jun 2027 06:25:34.368   03 Jun 2027 06:25:37.877             3.509            54.938
        63   03 Jun 2027 06:25:40.902   03 Jun 2027 06:25:44.517             3.615            33.813
        64   03 Jun 2027 06:26:16.075   03 Jun 2027 06:26:16.075             0.000             0.000
        65   03 Jun 2027 06:27:26.426   03 Jun 2027 06:27:33.764             7.338          2759.812
        66   03 Jun 2027 06:27:47.826   03 Jun 2027 06:27:47.826             0.000             0.000
        67   03 Jun 2027 06:28:06.542   03 Jun 2027 06:28:08.875             2.333           837.125
        68   03 Jun 2027 06:28:56.067   03 Jun 2027 06:29:01.015             4.948           413.531
        69   03 Jun 2027 06:29:21.217   03 Jun 2027 06:29:25.408             4.191           600.625
        70   03 Jun 2027 07:59:49.158   03 Jun 2027 07:59:57.409             8.251          3455.250
        71   03 Jun 2027 08:01:33.855   03 Jun 2027 08:01:45.874            12.019          2170.312
        72   03 Jun 2027 08:04:05.836   03 Jun 2027 08:04:07.448             1.612            93.125
        73   03 Jun 2027 08:05:12.568   03 Jun 2027 08:05:18.281             5.713          1675.969
        74   03 Jun 2027 08:05:43.539   03 Jun 2027 08:05:45.824             2.285           616.344
        75   03 Jun 2027 08:07:03.311   03 Jun 2027 08:07:08.012             4.701          2314.125
        76   03 Jun 2027 09:36:36.654   03 Jun 2027 09:36:53.545            16.891          5986.125
        77   03 Jun 2027 09:39:08.781   03 Jun 2027 09:39:14.961             6.180            77.375
        78   03 Jun 2027 09:40:27.409   03 Jun 2027 09:40:29.436             2.027           817.375
        79   03 Jun 2027 09:40:32.137   03 Jun 2027 09:40:32.759             0.622            84.406
        80   03 Jun 2027 09:41:08.693   03 Jun 2027 09:41:12.004             3.311           757.000
        81   03 Jun 2027 09:42:25.671   03 Jun 2027 09:42:30.621             4.950          1857.625
        82   03 Jun 2027 09:42:52.713   03 Jun 2027 09:42:53.252             0.539            93.406
        83   03 Jun 2027 11:14:33.964   03 Jun 2027 11:14:45.854            11.890          5594.125
        84   03 Jun 2027 11:15:09.239   03 Jun 2027 11:15:15.644             6.405           281.000
        85   03 Jun 2027 11:15:38.741   03 Jun 2027 11:15:39.769             1.028           385.250
        86   03 Jun 2027 11:16:17.248   03 Jun 2027 11:16:20.716             3.468           895.031
        87   03 Jun 2027 11:16:48.455   03 Jun 2027 11:16:57.474             9.019           432.437
        88   03 Jun 2027 11:17:47.419   03 Jun 2027 11:17:52.161             4.742           676.719
        89   03 Jun 2027 11:18:24.700   03 Jun 2027 11:18:27.701             3.001           526.187
        90   04 Jun 2027 03:24:57.260   04 Jun 2027 03:25:27.380            30.120         15060.000
        91   04 Jun 2027 03:37:09.860   04 Jun 2027 03:37:41.608            31.748         15874.000
        92   04 Jun 2027 04:59:04.226   04 Jun 2027 05:00:17.810            73.584         36792.000
        93   04 Jun 2027 05:01:07.309   04 Jun 2027 05:02:30.494            83.185         41592.500
        94   04 Jun 2027 05:02:50.863   04 Jun 2027 05:03:10.624            19.761          9880.500
        95   04 Jun 2027 06:33:52.762   04 Jun 2027 06:35:03.365            70.603         35139.000
        96   04 Jun 2027 06:35:14.952   04 Jun 2027 06:35:19.582             4.630           362.094
        97   04 Jun 2027 06:35:54.798   04 Jun 2027 06:35:54.798             0.000             0.000
        98   04 Jun 2027 06:36:05.296   04 Jun 2027 06:36:09.690             4.394           786.188
        99   04 Jun 2027 06:36:59.857   04 Jun 2027 06:37:03.004             3.147          1245.313
       100   04 Jun 2027 06:37:30.685   04 Jun 2027 06:37:31.567             0.882           381.156
       101   04 Jun 2027 06:37:44.089   04 Jun 2027 06:37:44.089             0.000             0.000
       102   04 Jun 2027 06:38:08.862   04 Jun 2027 06:38:10.630             1.768           833.812
       103   04 Jun 2027 06:39:20.980   04 Jun 2027 06:39:27.937             6.957          1971.687
       104   04 Jun 2027 06:39:44.283   04 Jun 2027 06:39:46.173             1.890           510.812
       105   04 Jun 2027 06:40:17.695   04 Jun 2027 06:40:19.175             1.480           207.219
       106   04 Jun 2027 06:41:00.765   04 Jun 2027 06:41:03.517             2.752           829.250
       107   04 Jun 2027 06:41:31.128   04 Jun 2027 06:41:33.102             1.974           846.094
       108   04 Jun 2027 06:42:40.817   04 Jun 2027 06:42:45.358             4.541          1934.906
       109   04 Jun 2027 08:11:43.117   04 Jun 2027 08:11:54.177            11.060          1301.312
       110   04 Jun 2027 08:13:52.211   04 Jun 2027 08:13:54.432             2.221           597.500
       111   04 Jun 2027 08:15:45.285   04 Jun 2027 08:15:47.571             2.286           122.906
       112   04 Jun 2027 08:17:02.050   04 Jun 2027 08:17:07.135             5.085          1326.469
       113   04 Jun 2027 08:17:39.208   04 Jun 2027 08:17:41.469             2.261           938.531
       114   04 Jun 2027 08:18:05.328   04 Jun 2027 08:18:09.549             4.221           745.594
       115   04 Jun 2027 08:18:25.140   04 Jun 2027 08:18:31.120             5.980           487.219
       116   04 Jun 2027 09:48:27.834   04 Jun 2027 09:48:42.512            14.678          5640.375
       117   04 Jun 2027 09:48:59.029   04 Jun 2027 09:49:00.770             1.741           249.219
       118   04 Jun 2027 09:51:07.149   04 Jun 2027 09:51:12.989             5.840          2303.625
       119   04 Jun 2027 09:52:05.479   04 Jun 2027 09:52:13.996             8.517          1610.625
       120   04 Jun 2027 09:52:43.652   04 Jun 2027 09:52:45.381             1.729           413.656
       121   04 Jun 2027 09:52:56.122   04 Jun 2027 09:52:57.657             1.535            59.719
       122   04 Jun 2027 09:53:12.906   04 Jun 2027 09:53:13.543             0.637            87.344
       123   04 Jun 2027 09:53:48.530   04 Jun 2027 09:53:57.089             8.559          1093.344
       124   04 Jun 2027 09:54:31.143   04 Jun 2027 09:54:37.893             6.750           230.656
       125   04 Jun 2027 09:55:08.524   04 Jun 2027 09:55:12.188             3.664           616.688
       126   04 Jun 2027 11:26:36.384   04 Jun 2027 11:26:48.381            11.997          5917.938
       127   04 Jun 2027 11:27:21.871   04 Jun 2027 11:27:27.421             5.550           588.938
       128   04 Jun 2027 11:28:39.184   04 Jun 2027 11:28:42.453             3.269           620.625
       129   04 Jun 2027 11:29:24.465   04 Jun 2027 11:29:26.479             2.014           980.375
       130   04 Jun 2027 11:30:39.258   04 Jun 2027 11:30:42.195             2.937          1468.500
       131   05 Jun 2027 03:36:54.968   05 Jun 2027 03:37:28.035            33.067         16533.500
       132   05 Jun 2027 05:12:52.226   05 Jun 2027 05:16:13.352           201.126        100563.000
       133   05 Jun 2027 05:16:38.599   05 Jun 2027 05:16:38.599             0.000             0.000
       134   05 Jun 2027 06:46:40.871   05 Jun 2027 06:47:58.444            77.573         38578.687
       135   05 Jun 2027 06:49:06.466   05 Jun 2027 06:49:09.911             3.445           728.000
       136   05 Jun 2027 06:49:58.294   05 Jun 2027 06:50:04.020             5.726          1511.969
       137   05 Jun 2027 06:51:09.399   05 Jun 2027 06:51:13.470             4.071          1825.375
       138   05 Jun 2027 06:52:09.253   05 Jun 2027 06:52:14.255             5.002          1743.219
       139   05 Jun 2027 06:52:27.792   05 Jun 2027 06:52:33.668             5.876           423.031
       140   05 Jun 2027 06:53:23.208   05 Jun 2027 06:53:23.208             0.000             0.000
       141   05 Jun 2027 06:53:37.242   05 Jun 2027 06:53:42.579             5.337          1870.687
       142   05 Jun 2027 06:54:26.633   05 Jun 2027 06:54:29.765             3.132          1335.906
       143   05 Jun 2027 06:55:01.027   05 Jun 2027 06:55:01.659             0.632           316.000
       144   05 Jun 2027 06:55:10.320   05 Jun 2027 06:55:11.518             1.198           346.781
       145   05 Jun 2027 08:23:50.286   05 Jun 2027 08:23:59.119             8.833          3881.094
       146   05 Jun 2027 08:26:23.625   05 Jun 2027 08:26:31.698             8.073           891.344
       147   05 Jun 2027 08:27:46.208   05 Jun 2027 08:27:51.094             4.886          2328.437
       148   05 Jun 2027 08:28:54.281   05 Jun 2027 08:28:56.635             2.354           864.438
       149   05 Jun 2027 08:28:58.311   05 Jun 2027 08:29:05.700             7.389            52.375
       150   05 Jun 2027 08:29:34.282   05 Jun 2027 08:29:35.153             0.871           116.094
       151   05 Jun 2027 08:30:05.097   05 Jun 2027 08:30:07.298             2.201           336.625
       152   05 Jun 2027 08:30:27.810   05 Jun 2027 08:30:29.362             1.552            74.656
       153   05 Jun 2027 08:30:42.430   05 Jun 2027 08:30:43.413             0.983           266.469
       154   05 Jun 2027 10:00:53.109   05 Jun 2027 10:01:05.088            11.979          5371.031
       155   05 Jun 2027 10:01:34.221   05 Jun 2027 10:01:37.671             3.450           400.844
       156   05 Jun 2027 10:04:17.633   05 Jun 2027 10:04:20.137             2.504           981.094
       157   05 Jun 2027 10:04:54.333   05 Jun 2027 10:04:56.803             2.470          1031.719
       158   05 Jun 2027 10:05:21.204   05 Jun 2027 10:05:23.283             2.079           273.125
       159   05 Jun 2027 10:05:47.804   05 Jun 2027 10:05:51.144             3.340           501.125
       160   05 Jun 2027 10:06:40.102   05 Jun 2027 10:06:44.718             4.616          1422.438
       161   05 Jun 2027 11:37:48.517   05 Jun 2027 11:38:02.071            13.554          5702.031
       162   05 Jun 2027 11:38:59.463   05 Jun 2027 11:39:04.034             4.571           115.531
       163   05 Jun 2027 11:40:47.516   05 Jun 2027 11:40:51.943             4.427           579.406
       164   05 Jun 2027 11:41:05.195   05 Jun 2027 11:41:06.584             1.389           414.125
       165   05 Jun 2027 11:42:21.898   05 Jun 2027 11:42:28.933             7.035          2317.438
       166   05 Jun 2027 11:42:39.206   05 Jun 2027 11:42:39.921             0.715           293.937
       167   06 Jun 2027 03:48:47.607   06 Jun 2027 03:48:50.933             3.326          1663.000
       168   06 Jun 2027 03:50:13.130   06 Jun 2027 03:50:16.734             3.604          1802.000
       169   06 Jun 2027 03:50:35.698   06 Jun 2027 03:50:41.699             6.001          3000.500
       170   06 Jun 2027 05:25:10.006   06 Jun 2027 05:28:38.780           208.774        104387.000
       171   06 Jun 2027 06:59:01.674   06 Jun 2027 07:00:25.559            83.885         41639.531
       172   06 Jun 2027 07:00:59.302   06 Jun 2027 07:01:01.360             2.058            64.875
       173   06 Jun 2027 07:01:18.915   06 Jun 2027 07:01:20.382             1.467           362.406
       174   06 Jun 2027 07:02:21.665   06 Jun 2027 07:02:21.665             0.000             0.000
       175   06 Jun 2027 07:02:54.668   06 Jun 2027 07:02:58.131             3.463          1595.375
       176   06 Jun 2027 07:04:10.279   06 Jun 2027 07:04:23.095            12.816          2101.469
       177   06 Jun 2027 07:04:45.649   06 Jun 2027 07:04:47.754             2.105           704.812
       178   06 Jun 2027 07:05:34.692   06 Jun 2027 07:05:37.767             3.075          1461.625
       179   06 Jun 2027 07:05:50.404   06 Jun 2027 07:05:53.651             3.247           284.594
       180   06 Jun 2027 07:06:56.969   06 Jun 2027 07:07:00.788             3.819          1514.625
       181   06 Jun 2027 08:36:16.806   06 Jun 2027 08:36:22.795             5.989          2469.906
       182   06 Jun 2027 08:38:19.546   06 Jun 2027 08:38:22.266             2.720           802.000
       183   06 Jun 2027 08:39:07.516   06 Jun 2027 08:39:08.022             0.506            64.125
       184   06 Jun 2027 08:40:45.554   06 Jun 2027 08:40:46.249             0.695            41.437
       185   06 Jun 2027 08:41:01.806   06 Jun 2027 08:41:05.135             3.329           448.469
       186   06 Jun 2027 08:42:14.711   06 Jun 2027 08:42:22.002             7.291          1369.844
       187   06 Jun 2027 10:13:17.766   06 Jun 2027 10:13:31.388            13.622          5759.594
       188   06 Jun 2027 10:16:43.870   06 Jun 2027 10:16:44.188             0.318            31.031
       189   06 Jun 2027 10:16:55.561   06 Jun 2027 10:16:56.336             0.775           213.906
       190   06 Jun 2027 10:17:13.058   06 Jun 2027 10:17:15.971             2.913           227.594
       191   06 Jun 2027 10:17:34.814   06 Jun 2027 10:17:34.822             0.008             4.000
       192   06 Jun 2027 10:17:36.631   06 Jun 2027 10:17:38.152             1.521           584.844
       193   06 Jun 2027 10:18:02.401   06 Jun 2027 10:18:04.315             1.914           265.625
       194   06 Jun 2027 10:18:30.355   06 Jun 2027 10:18:31.848             1.493           717.219
       195   06 Jun 2027 11:50:02.453   06 Jun 2027 11:50:24.985            22.532          8037.031
       196   06 Jun 2027 11:51:52.753   06 Jun 2027 11:51:58.675             5.922           777.344
       197   06 Jun 2027 11:53:00.512   06 Jun 2027 11:53:03.777             3.265          1135.812
       198   07 Jun 2027 04:00:36.282   07 Jun 2027 04:00:41.220             4.938          2469.000
       199   07 Jun 2027 04:02:09.954   07 Jun 2027 04:02:14.322             4.368          2184.000
       200   07 Jun 2027 05:37:13.461   07 Jun 2027 05:38:59.673           106.212         53106.000
       201   07 Jun 2027 05:40:05.823   07 Jun 2027 05:40:37.358            31.535         15767.500
       202   07 Jun 2027 07:12:16.972   07 Jun 2027 07:14:57.121           160.149         77532.438
       203   07 Jun 2027 07:15:40.166   07 Jun 2027 07:15:41.729             1.563           505.094
       204   07 Jun 2027 07:16:20.731   07 Jun 2027 07:16:20.731             0.000             0.000
       205   07 Jun 2027 07:17:31.730   07 Jun 2027 07:17:39.590             7.860          3095.969
       206   07 Jun 2027 07:17:53.421   07 Jun 2027 07:17:54.843             1.422           198.844
       207   07 Jun 2027 07:18:38.440   07 Jun 2027 07:18:41.088             2.648           838.094
       208   07 Jun 2027 07:19:00.066   07 Jun 2027 07:19:01.666             1.600           555.750
       209   07 Jun 2027 08:48:40.047   07 Jun 2027 08:48:49.878             9.831          4905.312
       210   07 Jun 2027 08:50:35.174   07 Jun 2027 08:50:37.331             2.157           852.656
       211   07 Jun 2027 08:54:02.075   07 Jun 2027 08:54:10.347             8.272          2607.906
       212   07 Jun 2027 08:54:14.249   07 Jun 2027 08:54:18.995             4.746           121.937
       213   07 Jun 2027 08:54:49.458   07 Jun 2027 08:54:50.841             1.383           684.094
       214   07 Jun 2027 10:26:09.622   07 Jun 2027 10:26:23.676            14.054          6733.375
       215   07 Jun 2027 10:28:15.943   07 Jun 2027 10:28:16.989             1.046             4.594
       216   07 Jun 2027 10:29:20.446   07 Jun 2027 10:29:23.773             3.327           940.844
       217   07 Jun 2027 10:30:12.061   07 Jun 2027 10:30:17.383             5.322          1139.063
       218   08 Jun 2027 04:12:50.130   08 Jun 2027 04:13:39.933            49.803         24901.500
       219   08 Jun 2027 04:15:37.862   08 Jun 2027 04:15:37.862             0.000             0.000
       220   08 Jun 2027 05:49:23.264   08 Jun 2027 05:52:18.540           175.276         87638.000
       221   08 Jun 2027 07:24:33.582   08 Jun 2027 07:26:00.391            86.809         43337.906
       222   08 Jun 2027 07:26:34.029   08 Jun 2027 07:26:36.191             2.162          1037.031
       223   08 Jun 2027 07:26:59.748   08 Jun 2027 07:27:04.935             5.187           272.375
       224   08 Jun 2027 07:27:26.180   08 Jun 2027 07:27:30.577             4.397           164.187
       225   08 Jun 2027 07:28:20.762   08 Jun 2027 07:28:28.990             8.228          1010.062
       226   08 Jun 2027 07:28:57.682   08 Jun 2027 07:29:00.632             2.950           734.375
       227   08 Jun 2027 07:29:39.497   08 Jun 2027 07:29:40.165             0.668           276.625
       228   08 Jun 2027 07:30:18.394   08 Jun 2027 07:30:22.105             3.711           900.500
       229   08 Jun 2027 07:30:36.186   08 Jun 2027 07:30:36.186             0.000             0.000
       230   08 Jun 2027 07:30:49.692   08 Jun 2027 07:30:52.846             3.154           735.594
       231   08 Jun 2027 07:30:57.168   08 Jun 2027 07:30:58.411             1.243           135.062
       232   08 Jun 2027 09:00:55.168   08 Jun 2027 09:01:08.731            13.563          6250.094
       233   08 Jun 2027 09:03:27.909   08 Jun 2027 09:03:30.918             3.009           149.781
       234   08 Jun 2027 09:03:50.395   08 Jun 2027 09:03:52.106             1.711           473.437
       235   08 Jun 2027 09:05:13.384   08 Jun 2027 09:05:17.744             4.360          2099.469
       236   08 Jun 2027 09:05:57.726   08 Jun 2027 09:06:00.584             2.858          1205.125
       237   08 Jun 2027 09:06:58.926   08 Jun 2027 09:07:05.353             6.427          1819.281
       238   08 Jun 2027 10:38:13.402   08 Jun 2027 10:38:27.280            13.878          6708.062
       239   08 Jun 2027 10:40:51.349   08 Jun 2027 10:40:53.220             1.871            83.344
       240   08 Jun 2027 10:41:22.651   08 Jun 2027 10:41:25.130             2.479           133.438
       241   08 Jun 2027 10:41:50.158   08 Jun 2027 10:41:52.323             2.165           115.656
       242   08 Jun 2027 10:42:39.904   08 Jun 2027 10:42:42.161             2.257           985.875
       243   08 Jun 2027 10:42:43.788   08 Jun 2027 10:42:45.178             1.390            33.969
       244   09 Jun 2027 03:01:25.279   09 Jun 2027 03:02:03.535            38.256         19128.000
       245   09 Jun 2027 03:03:27.197   09 Jun 2027 03:03:30.682             3.485          1742.500
       246   09 Jun 2027 03:04:06.972   09 Jun 2027 03:04:42.643            35.671         17835.500
       247   09 Jun 2027 04:25:19.727   09 Jun 2027 04:26:17.160            57.433         28716.500
       248   09 Jun 2027 06:01:14.540   09 Jun 2027 06:03:48.439           153.899         76949.500
       249   09 Jun 2027 06:04:41.672   09 Jun 2027 06:05:19.469            37.797         16380.125
       250   09 Jun 2027 07:36:08.486   09 Jun 2027 07:36:24.584            16.098          5629.531
       251   09 Jun 2027 07:37:13.390   09 Jun 2027 07:37:15.737             2.347           999.656
       252   09 Jun 2027 07:39:57.322   09 Jun 2027 07:39:59.690             2.368           959.313
       253   09 Jun 2027 07:41:31.443   09 Jun 2027 07:41:35.747             4.304          2130.281
       254   09 Jun 2027 07:42:13.560   09 Jun 2027 07:42:15.256             1.696           655.281
       255   09 Jun 2027 07:42:38.657   09 Jun 2027 07:42:44.909             6.252           731.281
       256   09 Jun 2027 09:12:30.898   09 Jun 2027 09:12:43.145            12.247          5004.812
       257   09 Jun 2027 09:16:48.397   09 Jun 2027 09:16:52.746             4.349          1405.250
       258   09 Jun 2027 09:17:17.958   09 Jun 2027 09:17:19.217             1.259           246.312
       259   09 Jun 2027 09:17:53.856   09 Jun 2027 09:17:55.618             1.762           518.500
       260   09 Jun 2027 10:50:47.770   09 Jun 2027 10:51:00.888            13.118          6025.563
       261   09 Jun 2027 10:52:54.919   09 Jun 2027 10:53:00.201             5.282           101.000
       262   09 Jun 2027 10:53:34.578   09 Jun 2027 10:53:35.781             1.203           393.469
       263   09 Jun 2027 10:54:25.499   09 Jun 2027 10:54:27.652             2.153           774.375
       264   09 Jun 2027 10:54:33.067   09 Jun 2027 10:54:33.730             0.663           169.219
       265   10 Jun 2027 03:02:04.789   10 Jun 2027 03:02:27.185            22.396         11198.000
       266   10 Jun 2027 03:13:21.472   10 Jun 2027 03:15:56.257           154.785         77392.500
       267   10 Jun 2027 03:16:12.520   10 Jun 2027 03:16:24.555            12.035          6017.500
       268   10 Jun 2027 04:35:57.222   10 Jun 2027 04:36:15.831            18.609          9304.500
       269   10 Jun 2027 04:38:43.348   10 Jun 2027 04:38:52.080             8.732          4366.000
       270   10 Jun 2027 04:39:03.968   10 Jun 2027 04:39:26.118            22.150         11075.000
       271   10 Jun 2027 06:11:31.886   10 Jun 2027 06:12:15.741            43.855         21927.500
       272   10 Jun 2027 06:12:58.315   10 Jun 2027 06:13:53.700            55.385         27692.500
       273   10 Jun 2027 06:13:55.863   10 Jun 2027 06:14:04.482             8.619          1336.406
       274   10 Jun 2027 06:14:27.714   10 Jun 2027 06:14:32.220             4.506           726.000
       275   10 Jun 2027 06:16:21.943   10 Jun 2027 06:16:30.700             8.757          3428.844
       276   10 Jun 2027 06:17:11.125   10 Jun 2027 06:17:16.590             5.465           859.219
       277   10 Jun 2027 07:47:44.511   10 Jun 2027 07:47:49.685             5.174          2489.844
       278   10 Jun 2027 07:48:39.727   10 Jun 2027 07:48:47.312             7.585           691.781
       279   10 Jun 2027 07:51:52.213   10 Jun 2027 07:51:55.588             3.375          1540.563
       280   10 Jun 2027 07:52:28.334   10 Jun 2027 07:52:34.580             6.246           907.906
       281   10 Jun 2027 07:53:04.624   10 Jun 2027 07:53:07.824             3.200           691.250
       282   10 Jun 2027 07:53:26.724   10 Jun 2027 07:53:27.543             0.819           221.563
       283   10 Jun 2027 07:53:56.759   10 Jun 2027 07:53:56.759             0.000             0.000
       284   10 Jun 2027 07:53:58.463   10 Jun 2027 07:54:00.782             2.319           878.813
       285   10 Jun 2027 07:55:17.529   10 Jun 2027 07:55:19.105             1.576           788.000
       286   10 Jun 2027 09:24:50.881   10 Jun 2027 09:25:04.623            13.742          6586.375
       287   10 Jun 2027 09:25:29.834   10 Jun 2027 09:25:31.429             1.595           129.688
       288   10 Jun 2027 09:27:24.765   10 Jun 2027 09:27:26.897             2.132           302.281
       289   10 Jun 2027 09:28:58.012   10 Jun 2027 09:29:01.136             3.124           845.281
       290   10 Jun 2027 09:29:21.765   10 Jun 2027 09:29:24.078             2.313           146.000
       291   10 Jun 2027 09:29:42.171   10 Jun 2027 09:29:44.893             2.722           378.875
       292   10 Jun 2027 09:30:36.064   10 Jun 2027 09:30:39.184             3.120          1480.531
       293   10 Jun 2027 09:31:11.551   10 Jun 2027 09:31:13.061             1.510           652.719
       294   10 Jun 2027 11:02:48.872   10 Jun 2027 11:03:01.450            12.578          5599.031
       295   10 Jun 2027 11:03:35.441   10 Jun 2027 11:03:37.690             2.249           833.188
       296   10 Jun 2027 11:04:30.929   10 Jun 2027 11:04:34.463             3.534           551.719
       297   10 Jun 2027 11:05:00.568   10 Jun 2027 11:05:01.961             1.393           290.719
       298   10 Jun 2027 11:06:18.644   10 Jun 2027 11:06:20.280             1.636           139.125
       299   10 Jun 2027 11:06:42.481   10 Jun 2027 11:06:45.606             3.125           693.781
       300   11 Jun 2027 03:13:40.252   11 Jun 2027 03:13:47.732             7.480          3740.000
       301   11 Jun 2027 03:14:03.492   11 Jun 2027 03:14:03.492             0.000             0.000
       302   11 Jun 2027 03:14:47.029   11 Jun 2027 03:15:14.279            27.250         13625.000
       303   11 Jun 2027 03:25:24.068   11 Jun 2027 03:26:33.163            69.095         34547.500
       304   11 Jun 2027 04:47:39.267   11 Jun 2027 04:48:45.793            66.526         33263.000
       305   11 Jun 2027 04:49:36.342   11 Jun 2027 04:50:32.172            55.830         27915.000
       306   11 Jun 2027 04:50:57.648   11 Jun 2027 04:51:09.214            11.566          5783.000
       307   11 Jun 2027 04:51:45.937   11 Jun 2027 04:51:45.937             0.000             0.000
       308   11 Jun 2027 04:52:31.164   11 Jun 2027 04:52:50.319            19.155          9577.500
       309   11 Jun 2027 06:22:38.647   11 Jun 2027 06:23:33.755            55.108         27396.032
       310   11 Jun 2027 06:23:54.739   11 Jun 2027 06:23:56.187             1.448           206.531
       311   11 Jun 2027 06:24:08.993   11 Jun 2027 06:24:13.025             4.032           400.188
       312   11 Jun 2027 06:25:20.096   11 Jun 2027 06:25:23.744             3.648          1389.156
       313   11 Jun 2027 06:25:49.287   11 Jun 2027 06:25:49.287             0.000             0.000
       314   11 Jun 2027 06:25:56.234   11 Jun 2027 06:25:58.906             2.672           243.094
       315   11 Jun 2027 06:26:25.109   11 Jun 2027 06:26:26.995             1.886           818.844
       316   11 Jun 2027 06:27:43.372   11 Jun 2027 06:27:49.000             5.628          2190.531
       317   11 Jun 2027 06:28:04.814   11 Jun 2027 06:28:04.814             0.000             0.000
       318   11 Jun 2027 06:28:23.514   11 Jun 2027 06:28:30.015             6.501           848.469
       319   11 Jun 2027 06:28:51.780   11 Jun 2027 06:28:57.446             5.666           228.000
       320   11 Jun 2027 06:29:11.634   11 Jun 2027 06:29:11.913             0.279           139.500
       321   11 Jun 2027 06:29:51.153   11 Jun 2027 06:29:53.972             2.819          1409.500
       322   11 Jun 2027 08:00:04.440   11 Jun 2027 08:00:14.526            10.086          3171.063
       323   11 Jun 2027 08:00:41.475   11 Jun 2027 08:00:43.242             1.767           835.250
       324   11 Jun 2027 08:03:15.930   11 Jun 2027 08:03:17.467             1.537           402.938
       325   11 Jun 2027 08:04:36.060   11 Jun 2027 08:04:38.400             2.340          1097.625
       326   11 Jun 2027 08:05:52.197   11 Jun 2027 08:05:58.967             6.770          1835.656
       327   11 Jun 2027 08:06:18.439   11 Jun 2027 08:06:19.765             1.326           538.656
       328   11 Jun 2027 08:07:16.006   11 Jun 2027 08:07:21.405             5.399          1463.406
       329   11 Jun 2027 09:36:51.445   11 Jun 2027 09:37:05.377            13.932          5588.719
       330   11 Jun 2027 09:39:24.176   11 Jun 2027 09:39:29.964             5.788            13.125
       331   11 Jun 2027 09:40:47.868   11 Jun 2027 09:40:51.581             3.713           186.531
       332   11 Jun 2027 09:41:38.199   11 Jun 2027 09:41:40.746             2.547           933.281
       333   11 Jun 2027 09:42:39.944   11 Jun 2027 09:42:43.659             3.715          1849.937
       334   11 Jun 2027 09:43:07.783   11 Jun 2027 09:43:12.731             4.948           139.563
       335   11 Jun 2027 11:14:49.411   11 Jun 2027 11:15:01.218            11.807          4925.437
       336   11 Jun 2027 11:15:24.538   11 Jun 2027 11:15:26.038             1.500           241.312
       337   11 Jun 2027 11:16:49.988   11 Jun 2027 11:16:55.231             5.243          1871.281
       338   11 Jun 2027 11:17:14.247   11 Jun 2027 11:17:17.071             2.824           594.250
       339   11 Jun 2027 11:18:03.419   11 Jun 2027 11:18:03.885             0.466            12.812
       340   11 Jun 2027 11:18:34.101   11 Jun 2027 11:18:36.385             2.284           944.250
       341   11 Jun 2027 11:18:50.266   11 Jun 2027 11:18:54.252             3.986           303.875
       342   12 Jun 2027 03:25:12.563   12 Jun 2027 03:25:42.319            29.756         14878.000
       343   12 Jun 2027 03:37:25.145   12 Jun 2027 03:37:56.823            31.678         15839.000
       344   12 Jun 2027 04:59:19.244   12 Jun 2027 05:00:32.349            73.105         36552.500
       345   12 Jun 2027 05:01:22.007   12 Jun 2027 05:03:05.869           103.862         51931.000
       346   12 Jun 2027 05:03:45.246   12 Jun 2027 05:03:45.246             0.000             0.000
       347   12 Jun 2027 05:03:53.769   12 Jun 2027 05:04:07.113            13.344          6672.000
       348   12 Jun 2027 06:34:07.322   12 Jun 2027 06:35:13.032            65.710         32070.906
       349   12 Jun 2027 06:35:29.359   12 Jun 2027 06:35:34.369             5.010           338.594
       350   12 Jun 2027 06:36:12.224   12 Jun 2027 06:36:13.922             1.698           511.094
       351   12 Jun 2027 06:36:45.912   12 Jun 2027 06:36:48.943             3.031           782.344
       352   12 Jun 2027 06:38:14.687   12 Jun 2027 06:38:19.528             4.841          1791.906
       353   12 Jun 2027 06:39:43.355   12 Jun 2027 06:39:52.128             8.773          2452.188
       354   12 Jun 2027 06:40:49.946   12 Jun 2027 06:40:54.284             4.338          1517.813
       355   12 Jun 2027 06:41:25.139   12 Jun 2027 06:41:25.139             0.000             0.000
       356   12 Jun 2027 06:42:28.304   12 Jun 2027 06:42:34.970             6.666          2253.406
       357   12 Jun 2027 06:43:18.017   12 Jun 2027 06:43:20.258             2.241           628.281
       358   12 Jun 2027 08:11:58.501   12 Jun 2027 08:12:01.991             3.490           839.125
       359   12 Jun 2027 08:13:49.291   12 Jun 2027 08:13:57.658             8.367          1985.500
       360   12 Jun 2027 08:15:43.905   12 Jun 2027 08:15:47.480             3.575          1602.594
       361   12 Jun 2027 08:16:46.553   12 Jun 2027 08:17:02.861            16.308          1385.063
       362   12 Jun 2027 08:17:58.163   12 Jun 2027 08:18:01.727             3.564          1298.719
       363   12 Jun 2027 08:19:17.075   12 Jun 2027 08:19:23.247             6.172          1784.500
       364   12 Jun 2027 09:48:43.076   12 Jun 2027 09:48:59.635            16.559          6047.813
       365   12 Jun 2027 09:49:14.835   12 Jun 2027 09:49:16.361             1.526           309.844
       366   12 Jun 2027 09:50:09.392   12 Jun 2027 09:50:09.905             0.513            98.250
       367   12 Jun 2027 09:52:46.238   12 Jun 2027 09:52:49.290             3.052           825.219
       368   12 Jun 2027 09:53:10.065   12 Jun 2027 09:53:12.630             2.565           246.406
       369   12 Jun 2027 09:53:27.052   12 Jun 2027 09:53:28.270             1.218           240.563
       370   12 Jun 2027 09:53:29.591   12 Jun 2027 09:53:30.240             0.649            41.281
       371   12 Jun 2027 09:53:32.444   12 Jun 2027 09:53:34.721             2.277            68.875
       372   12 Jun 2027 09:54:01.421   12 Jun 2027 09:54:03.010             1.589           794.500
       373   12 Jun 2027 09:54:47.237   12 Jun 2027 09:54:52.768             5.531          1421.969
       374   12 Jun 2027 09:55:25.911   12 Jun 2027 09:55:27.069             1.158           579.000
       375   12 Jun 2027 11:26:52.049   12 Jun 2027 11:27:05.607            13.558          5928.562
       376   12 Jun 2027 11:28:56.452   12 Jun 2027 11:29:00.194             3.742           667.594
       377   12 Jun 2027 11:29:38.758   12 Jun 2027 11:29:44.242             5.484           889.875
       378   12 Jun 2027 11:29:58.147   12 Jun 2027 11:30:11.609            13.462            87.313
       379   12 Jun 2027 11:30:21.391   12 Jun 2027 11:30:22.878             1.487           166.094
       380   12 Jun 2027 11:30:43.517   12 Jun 2027 11:30:51.539             8.022           230.156
       381   12 Jun 2027 11:30:57.271   12 Jun 2027 11:30:57.426             0.155            58.125
       382   13 Jun 2027 03:37:10.007   13 Jun 2027 03:37:42.593            32.586         16293.000
       383   13 Jun 2027 05:13:07.858   13 Jun 2027 05:16:07.440           179.582         89791.000
       384   13 Jun 2027 05:16:55.149   13 Jun 2027 05:17:03.077             7.928          3964.000
       385   13 Jun 2027 06:46:56.030   13 Jun 2027 06:48:28.670            92.640         43479.531
       386   13 Jun 2027 06:49:27.552   13 Jun 2027 06:49:29.018             1.466           593.969
       387   13 Jun 2027 06:49:40.507   13 Jun 2027 06:49:40.507             0.000             0.000
       388   13 Jun 2027 06:50:00.704   13 Jun 2027 06:50:02.473             1.769           787.250
       389   13 Jun 2027 06:50:27.124   13 Jun 2027 06:50:28.572             1.448           679.219
       390   13 Jun 2027 06:51:28.577   13 Jun 2027 06:51:28.577             0.000             0.000
       391   13 Jun 2027 06:52:26.194   13 Jun 2027 06:52:35.704             9.510          3393.188
       392   13 Jun 2027 06:53:37.930   13 Jun 2027 06:53:40.810             2.880          1440.000
       393   13 Jun 2027 06:53:53.097   13 Jun 2027 06:53:53.097             0.000             0.000
       394   13 Jun 2027 06:54:29.044   13 Jun 2027 06:54:32.577             3.533          1752.156
       395   13 Jun 2027 08:24:05.602   13 Jun 2027 08:24:12.082             6.480          1516.625
       396   13 Jun 2027 08:26:38.486   13 Jun 2027 08:26:47.699             9.213           795.125
       397   13 Jun 2027 08:28:03.121   13 Jun 2027 08:28:08.520             5.399          2316.719
       398   13 Jun 2027 08:29:24.488   13 Jun 2027 08:29:26.261             1.773           880.281
       399   13 Jun 2027 08:29:49.063   13 Jun 2027 08:29:50.828             1.765           157.094
       400   13 Jun 2027 08:30:19.729   13 Jun 2027 08:30:22.000             2.271           276.281
       401   13 Jun 2027 08:30:42.892   13 Jun 2027 08:30:45.662             2.770            33.219
       402   13 Jun 2027 08:30:57.128   13 Jun 2027 08:30:59.159             2.031            74.000
       403   13 Jun 2027 10:01:09.247   13 Jun 2027 10:01:24.508            15.261          5583.437
       404   13 Jun 2027 10:01:42.237   13 Jun 2027 10:01:49.520             7.283           554.031
       405   13 Jun 2027 10:03:47.836   13 Jun 2027 10:03:52.483             4.647           310.375
       406   13 Jun 2027 10:04:43.006   13 Jun 2027 10:04:45.630             2.624           315.312
       407   13 Jun 2027 10:05:02.056   13 Jun 2027 10:05:03.197             1.141           373.594
       408   13 Jun 2027 10:05:13.935   13 Jun 2027 10:05:16.252             2.317           335.562
       409   13 Jun 2027 10:05:29.605   13 Jun 2027 10:05:31.318             1.713           346.656
       410   13 Jun 2027 10:06:02.905   13 Jun 2027 10:06:07.572             4.667           643.781
       411   13 Jun 2027 10:06:55.060   13 Jun 2027 10:07:02.385             7.325          1385.844
       412   13 Jun 2027 11:38:02.926   13 Jun 2027 11:38:13.938            11.012          5227.375
       413   13 Jun 2027 11:40:44.263   13 Jun 2027 11:40:51.143             6.880          1889.375
       414   13 Jun 2027 11:41:22.258   13 Jun 2027 11:41:23.383             1.125           491.156
       415   13 Jun 2027 11:42:38.278   13 Jun 2027 11:42:43.909             5.631          2340.469
       416   13 Jun 2027 11:42:56.952   13 Jun 2027 11:42:57.910             0.958           358.594
