uniorb/output/strategy_4/Camera/Camera_KinoSat_110506.txt

KinoSat_110506
-------------------------
    Access    *     Start Time (UTCG)     *     Stop Time (UTCG)  *   Duration (s) *   Data (Mbytes)
         1   01 Jun 2027 03:36:56.272   01 Jun 2027 03:37:54.755            58.483         29241.500
         2   01 Jun 2027 03:38:27.927   01 Jun 2027 03:38:49.485            21.558         10779.000
         3   01 Jun 2027 03:39:21.527   01 Jun 2027 03:39:33.572            12.045          6022.500
         4   01 Jun 2027 03:39:51.131   01 Jun 2027 03:39:51.131             0.000             0.000
         5   01 Jun 2027 03:40:27.072   01 Jun 2027 03:40:48.867            21.795         10897.500
         6   01 Jun 2027 03:42:16.178   01 Jun 2027 03:42:16.178             0.000             0.000
         7   01 Jun 2027 03:42:23.230   01 Jun 2027 03:42:28.074             4.844          2422.000
         8   01 Jun 2027 05:13:25.959   01 Jun 2027 05:16:03.803           157.844         78922.000
         9   01 Jun 2027 05:16:19.398   01 Jun 2027 05:16:38.142            18.744          9372.000
        10   01 Jun 2027 05:18:02.939   01 Jun 2027 05:18:19.524            16.585          8292.500
        11   01 Jun 2027 05:20:47.914   01 Jun 2027 05:20:56.556             8.642          4321.000
        12   01 Jun 2027 06:50:30.873   01 Jun 2027 06:52:51.605           140.732         70366.000
        13   01 Jun 2027 06:53:37.933   01 Jun 2027 06:53:47.781             9.848          4924.000
        14   01 Jun 2027 06:54:16.124   01 Jun 2027 06:54:33.853            17.729          8864.500
        15   01 Jun 2027 06:55:04.328   01 Jun 2027 06:55:10.553             6.225          3112.500
        16   01 Jun 2027 08:28:25.065   01 Jun 2027 08:30:50.326           145.261         72630.500
        17   01 Jun 2027 08:31:56.805   01 Jun 2027 08:32:16.988            20.183         10091.500
        18   01 Jun 2027 10:01:33.361   01 Jun 2027 10:04:46.920           193.559         96779.500
        19   01 Jun 2027 10:04:58.974   01 Jun 2027 10:05:07.362             8.388          4194.000
        20   01 Jun 2027 10:07:25.046   01 Jun 2027 10:07:53.224            28.178         14089.000
        21   01 Jun 2027 10:08:36.658   01 Jun 2027 10:08:44.496             7.838          3919.000
        22   02 Jun 2027 03:48:05.792   02 Jun 2027 03:50:08.463           122.671         61335.500
        23   02 Jun 2027 03:50:14.918   02 Jun 2027 03:54:38.837           263.919        131959.500
        24   02 Jun 2027 03:54:48.696   02 Jun 2027 03:54:48.696             0.000             0.000
        25   02 Jun 2027 03:55:18.445   02 Jun 2027 03:55:35.284            16.839          8419.500
        26   02 Jun 2027 03:56:33.616   02 Jun 2027 03:56:35.434             1.818           909.000
        27   02 Jun 2027 05:25:39.329   02 Jun 2027 05:28:24.671           165.342         82671.000
        28   02 Jun 2027 05:28:52.372   02 Jun 2027 05:29:30.161            37.789         18894.500
        29   02 Jun 2027 05:31:17.324   02 Jun 2027 05:32:29.460            72.136         36068.000
        30   02 Jun 2027 05:32:59.553   02 Jun 2027 05:32:59.997             0.444           222.000
        31   02 Jun 2027 07:02:21.798   02 Jun 2027 07:08:35.148           373.350        186675.000
        32   02 Jun 2027 07:08:41.337   02 Jun 2027 07:08:59.689            18.352          9176.000
        33   02 Jun 2027 08:40:37.273   02 Jun 2027 08:44:34.409           237.136        118568.000
        34   02 Jun 2027 10:14:04.283   02 Jun 2027 10:20:56.608           412.325        206162.500
        35   02 Jun 2027 10:21:12.205   02 Jun 2027 10:21:22.999            10.794          5397.000
        36   03 Jun 2027 03:59:36.414   03 Jun 2027 04:07:43.897           487.483        243741.500
        37   03 Jun 2027 04:08:21.971   03 Jun 2027 04:09:02.360            40.389         20194.500
        38   03 Jun 2027 05:37:33.236   03 Jun 2027 05:45:01.387           448.151        224075.500
        39   03 Jun 2027 07:14:30.700   03 Jun 2027 07:19:49.813           319.113        159556.500
        40   03 Jun 2027 07:20:35.233   03 Jun 2027 07:20:59.314            24.081         12040.500
        41   03 Jun 2027 08:52:11.315   03 Jun 2027 08:56:32.931           261.616        130808.000
        42   03 Jun 2027 10:26:27.971   03 Jun 2027 10:27:39.558            71.587         35793.500
        43   03 Jun 2027 10:28:10.845   03 Jun 2027 10:31:45.705           214.860        107430.000
        44   04 Jun 2027 04:12:30.126   04 Jun 2027 04:21:03.465           513.339        256669.500
        45   04 Jun 2027 05:49:53.862   04 Jun 2027 05:56:54.843           420.981        210490.500
        46   04 Jun 2027 07:27:41.514   04 Jun 2027 07:31:27.041           225.527        112763.500
        47   04 Jun 2027 07:31:34.636   04 Jun 2027 07:32:48.071            73.435         36717.500
        48   04 Jun 2027 09:03:48.088   04 Jun 2027 09:08:30.935           282.847        141423.500
        49   04 Jun 2027 10:40:39.426   04 Jun 2027 10:43:30.841           171.415         85707.500
        50   05 Jun 2027 04:25:02.784   05 Jun 2027 04:31:57.631           414.847        207423.500
        51   05 Jun 2027 04:31:59.686   05 Jun 2027 04:32:26.184            26.498         13249.000
        52   05 Jun 2027 04:32:42.021   05 Jun 2027 04:32:43.943             1.922           961.000
        53   05 Jun 2027 04:32:48.495   05 Jun 2027 04:33:00.775            12.280          6140.000
        54   05 Jun 2027 06:02:07.354   05 Jun 2027 06:08:50.008           402.654        201327.000
        55   05 Jun 2027 07:39:31.610   05 Jun 2027 07:43:27.551           235.941        117970.500
        56   05 Jun 2027 07:43:28.317   05 Jun 2027 07:44:03.470            35.153         17576.500
        57   05 Jun 2027 09:15:55.857   05 Jun 2027 09:20:31.917           276.060        138030.000
        58   05 Jun 2027 10:54:28.473   05 Jun 2027 10:54:59.973            31.500         15750.000
        59   06 Jun 2027 03:03:09.301   06 Jun 2027 03:06:39.115           209.814        104907.000
        60   06 Jun 2027 04:38:14.244   06 Jun 2027 04:45:01.971           407.727        203863.500
        61   06 Jun 2027 06:14:36.165   06 Jun 2027 06:20:56.465           380.300        190150.000
        62   06 Jun 2027 07:52:17.551   06 Jun 2027 07:56:32.618           255.067        127533.500
        63   06 Jun 2027 09:28:22.053   06 Jun 2027 09:32:25.626           243.573        121786.500
        64   07 Jun 2027 03:15:13.856   07 Jun 2027 03:18:38.999           205.143        102571.500
        65   07 Jun 2027 04:50:24.270   07 Jun 2027 04:57:00.519           396.249        198124.500
        66   07 Jun 2027 06:27:32.075   07 Jun 2027 06:32:28.988           296.913        148456.500
        67   07 Jun 2027 06:32:37.697   07 Jun 2027 06:32:45.995             8.298          4149.000
        68   07 Jun 2027 08:04:11.997   07 Jun 2027 08:08:43.471           271.474        135737.000
        69   07 Jun 2027 09:40:48.425   07 Jun 2027 09:44:25.239           216.814        108407.000
        70   07 Jun 2027 09:44:29.391   07 Jun 2027 09:45:13.355            43.964         21982.000
        71   08 Jun 2027 03:26:57.529   08 Jun 2027 03:31:11.454           253.925        126962.500
        72   08 Jun 2027 05:01:48.630   08 Jun 2027 05:09:10.877           442.247        221123.500
        73   08 Jun 2027 06:38:33.536   08 Jun 2027 06:44:48.166           374.630        187315.000
        74   08 Jun 2027 08:16:54.659   08 Jun 2027 08:20:36.826           222.167        111083.500
        75   08 Jun 2027 09:50:02.708   08 Jun 2027 09:50:11.382             8.674          4337.000
        76   08 Jun 2027 09:52:24.417   08 Jun 2027 09:56:14.224           229.807        114903.500
        77   08 Jun 2027 09:56:53.349   08 Jun 2027 09:57:31.940            38.591         19295.500
        78   09 Jun 2027 03:37:10.248   09 Jun 2027 03:38:09.609            59.361         29680.500
        79   09 Jun 2027 03:38:42.393   09 Jun 2027 03:43:30.277           287.884        143942.000
        80   09 Jun 2027 05:13:40.987   09 Jun 2027 05:21:02.224           441.237        220618.500
        81   09 Jun 2027 05:21:10.654   09 Jun 2027 05:21:11.227             0.573           286.500
        82   09 Jun 2027 06:50:45.420   09 Jun 2027 06:56:36.036           350.616        175308.000
        83   09 Jun 2027 06:56:38.269   09 Jun 2027 06:56:56.296            18.027          9013.500
        84   09 Jun 2027 08:29:02.837   09 Jun 2027 08:32:39.335           216.498        108249.000
        85   09 Jun 2027 10:01:48.521   09 Jun 2027 10:08:13.360           384.839        192419.500
        86   09 Jun 2027 10:08:35.210   09 Jun 2027 10:09:37.902            62.692         31346.000
        87   09 Jun 2027 10:09:43.141   09 Jun 2027 10:09:44.709             1.568           784.000
        88   10 Jun 2027 03:48:20.080   10 Jun 2027 03:50:23.158           123.078         61539.000
        89   10 Jun 2027 03:50:29.637   10 Jun 2027 03:55:49.973           320.336        160168.000
        90   10 Jun 2027 03:56:48.398   10 Jun 2027 03:56:50.329             1.931           965.500
        91   10 Jun 2027 05:25:53.848   10 Jun 2027 05:33:14.693           440.845        220422.500
        92   10 Jun 2027 07:02:47.844   10 Jun 2027 07:08:49.673           361.829        180914.500
        93   10 Jun 2027 07:08:54.846   10 Jun 2027 07:09:14.334            19.488          9744.000
        94   10 Jun 2027 08:40:51.189   10 Jun 2027 08:44:49.002           237.813        118906.500
        95   10 Jun 2027 10:14:41.067   10 Jun 2027 10:20:20.659           339.592        169796.000
        96   11 Jun 2027 03:59:50.793   11 Jun 2027 04:04:06.229           255.436        127718.000
        97   11 Jun 2027 04:04:25.367   11 Jun 2027 04:07:58.492           213.125        106562.500
        98   11 Jun 2027 04:08:37.984   11 Jun 2027 04:09:17.191            39.207         19603.500
        99   11 Jun 2027 05:37:47.751   11 Jun 2027 05:45:16.069           448.318        224159.000
       100   11 Jun 2027 07:14:45.439   11 Jun 2027 07:20:03.889           318.450        159225.000
       101   11 Jun 2027 07:20:52.705   11 Jun 2027 07:21:13.728            21.023         10511.500
       102   11 Jun 2027 08:52:25.789   11 Jun 2027 08:56:47.501           261.712        130856.000
       103   11 Jun 2027 10:26:42.602   11 Jun 2027 10:27:40.335            57.733         28866.500
       104   11 Jun 2027 10:28:25.329   11 Jun 2027 10:32:00.349           215.020        107510.000
       105   12 Jun 2027 04:12:44.246   12 Jun 2027 04:21:18.024           513.778        256889.000
       106   12 Jun 2027 05:50:08.589   12 Jun 2027 05:57:09.459           420.870        210435.000
       107   12 Jun 2027 07:27:59.094   12 Jun 2027 07:31:41.632           222.538        111269.000
       108   12 Jun 2027 07:31:49.124   12 Jun 2027 07:33:02.637            73.513         36756.500
       109   12 Jun 2027 09:04:02.444   12 Jun 2027 09:08:45.563           283.119        141559.500
       110   12 Jun 2027 10:40:54.465   12 Jun 2027 10:43:45.219           170.754         85377.000
       111   13 Jun 2027 04:25:17.499   13 Jun 2027 04:32:12.200           414.701        207350.500
       112   13 Jun 2027 04:32:14.278   13 Jun 2027 04:32:58.683            44.405         22202.500
       113   13 Jun 2027 04:33:03.203   13 Jun 2027 04:33:15.274            12.071          6035.500
       114   13 Jun 2027 06:02:22.088   13 Jun 2027 06:09:04.627           402.539        201269.500
       115   13 Jun 2027 07:39:45.169   13 Jun 2027 07:44:18.405           273.236        136618.000
       116   13 Jun 2027 09:16:10.806   13 Jun 2027 09:20:46.822           276.016        138008.000
       117   13 Jun 2027 10:54:44.061   13 Jun 2027 10:55:14.322            30.261         15130.500
