uniorb/output/strategy_4/Camera/Camera_KinoSat_111702.txt

KinoSat_111702
-------------------------
    Access    *     Start Time (UTCG)     *     Stop Time (UTCG)  *   Duration (s) *   Data (Mbytes)
         1   01 Jun 2027 03:39:21.857   01 Jun 2027 03:40:15.541            53.684         26842.000
         2   01 Jun 2027 03:40:25.028   01 Jun 2027 03:41:06.760            41.732         20866.000
         3   01 Jun 2027 03:41:07.357   01 Jun 2027 03:41:57.982            50.625         25312.500
         4   01 Jun 2027 03:43:49.619   01 Jun 2027 03:44:00.331            10.712          5356.000
         5   01 Jun 2027 05:17:47.061   01 Jun 2027 05:19:33.625           106.564         53282.000
         6   01 Jun 2027 05:20:42.899   01 Jun 2027 05:21:03.729            20.830         10415.000
         7   01 Jun 2027 06:41:13.096   01 Jun 2027 06:42:25.476            72.380         36190.000
         8   01 Jun 2027 06:43:13.593   01 Jun 2027 06:43:13.593             0.000             0.000
         9   01 Jun 2027 08:17:27.701   01 Jun 2027 08:19:23.830           116.129         58064.500
        10   01 Jun 2027 08:20:03.534   01 Jun 2027 08:20:03.534             0.000             0.000
        11   01 Jun 2027 08:20:32.879   01 Jun 2027 08:20:50.722            17.843          8921.500
        12   01 Jun 2027 09:51:00.177   01 Jun 2027 09:53:20.318           140.141         70070.500
        13   01 Jun 2027 09:53:32.392   01 Jun 2027 09:53:33.005             0.613           306.500
        14   01 Jun 2027 09:59:32.718   01 Jun 2027 09:59:33.752             1.034           517.000
        15   01 Jun 2027 11:28:32.805   01 Jun 2027 11:30:30.509           117.704         58852.000
        16   01 Jun 2027 11:32:29.568   01 Jun 2027 11:33:16.345            46.777         23388.500
        17   01 Jun 2027 11:35:16.014   01 Jun 2027 11:35:17.060             1.046           523.000
        18   02 Jun 2027 03:51:22.770   02 Jun 2027 03:51:50.895            28.125         14062.500
        19   02 Jun 2027 03:51:53.238   02 Jun 2027 03:53:53.627           120.389         60194.500
        20   02 Jun 2027 03:54:25.274   02 Jun 2027 03:54:25.274             0.000             0.000
        21   02 Jun 2027 03:55:48.822   02 Jun 2027 03:55:50.939             2.117          1058.500
        22   02 Jun 2027 03:56:40.391   02 Jun 2027 03:56:47.380             6.989          3494.500
        23   02 Jun 2027 03:56:53.275   02 Jun 2027 03:57:01.933             8.658          4329.000
        24   02 Jun 2027 05:29:25.744   02 Jun 2027 05:31:49.276           143.532         71766.000
        25   02 Jun 2027 05:32:38.542   02 Jun 2027 05:34:08.677            90.135         45067.500
        26   02 Jun 2027 06:53:04.816   02 Jun 2027 06:53:44.194            39.378         19689.000
        27   02 Jun 2027 06:54:04.954   02 Jun 2027 06:54:26.702            21.748         10874.000
        28   02 Jun 2027 08:29:32.020   02 Jun 2027 08:32:19.807           167.787         83893.500
        29   02 Jun 2027 10:01:46.620   02 Jun 2027 10:01:49.971             3.351          1675.500
        30   02 Jun 2027 10:03:39.415   02 Jun 2027 10:05:21.156           101.741         49576.562
        31   02 Jun 2027 10:05:42.116   02 Jun 2027 10:05:43.670             1.554           504.375
        32   02 Jun 2027 10:06:51.575   02 Jun 2027 10:06:56.103             4.528           417.156
        33   02 Jun 2027 10:09:42.344   02 Jun 2027 10:09:52.541            10.197          4179.156
        34   02 Jun 2027 10:10:22.143   02 Jun 2027 10:10:25.986             3.843           570.875
        35   02 Jun 2027 10:10:57.109   02 Jun 2027 10:10:57.109             0.000             0.000
        36   02 Jun 2027 10:10:58.867   02 Jun 2027 10:11:00.932             2.065           990.437
        37   02 Jun 2027 10:11:25.347   02 Jun 2027 10:11:28.451             3.104           762.969
        38   02 Jun 2027 11:40:37.836   02 Jun 2027 11:40:49.651            11.815          5903.125
        39   02 Jun 2027 11:42:46.020   02 Jun 2027 11:42:50.600             4.580          1861.500
        40   02 Jun 2027 11:43:14.537   02 Jun 2027 11:43:19.893             5.356           748.031
        41   02 Jun 2027 11:44:39.776   02 Jun 2027 11:44:46.467             6.691          1836.500
        42   02 Jun 2027 11:44:46.968   02 Jun 2027 11:44:47.946             0.978            15.656
        43   02 Jun 2027 11:44:56.225   02 Jun 2027 11:44:57.548             1.323            79.062
        44   02 Jun 2027 11:45:23.355   02 Jun 2027 11:45:23.730             0.375            77.813
        45   02 Jun 2027 11:45:41.159   02 Jun 2027 11:45:45.396             4.237           351.375
        46   02 Jun 2027 11:45:58.432   02 Jun 2027 11:46:01.317             2.885           370.656
        47   02 Jun 2027 11:46:27.165   02 Jun 2027 11:46:28.235             1.070           232.188
        48   02 Jun 2027 11:46:35.172   02 Jun 2027 11:46:35.491             0.319           135.031
        49   02 Jun 2027 11:47:03.680   02 Jun 2027 11:47:10.744             7.064           858.062
        50   03 Jun 2027 04:03:30.921   03 Jun 2027 04:04:31.286            60.365         30182.500
        51   03 Jun 2027 04:04:39.969   03 Jun 2027 04:05:02.180            22.211         11105.500
        52   03 Jun 2027 04:05:39.117   03 Jun 2027 04:05:48.815             9.698          4849.000
        53   03 Jun 2027 04:06:00.617   03 Jun 2027 04:06:09.490             8.873          4436.500
        54   03 Jun 2027 04:06:20.472   03 Jun 2027 04:06:21.374             0.902           451.000
        55   03 Jun 2027 04:06:25.406   03 Jun 2027 04:06:33.122             7.716          3858.000
        56   03 Jun 2027 04:07:05.998   03 Jun 2027 04:07:19.743            13.745          6872.500
        57   03 Jun 2027 04:07:37.864   03 Jun 2027 04:08:06.639            28.775         14387.500
        58   03 Jun 2027 04:09:07.634   03 Jun 2027 04:09:09.947             2.313          1156.500
        59   03 Jun 2027 05:41:52.509   03 Jun 2027 05:42:17.196            24.687         12343.500
        60   03 Jun 2027 05:42:39.152   03 Jun 2027 05:43:39.435            60.283         30141.500
        61   03 Jun 2027 05:44:00.909   03 Jun 2027 05:45:14.650            73.741         36525.969
        62   03 Jun 2027 07:05:13.154   03 Jun 2027 07:05:33.583            20.429          7813.562
        63   03 Jun 2027 07:06:07.733   03 Jun 2027 07:06:10.413             2.680           754.344
        64   03 Jun 2027 07:06:39.878   03 Jun 2027 07:06:45.653             5.775           920.781
        65   03 Jun 2027 07:07:48.850   03 Jun 2027 07:07:51.733             2.883          1441.500
        66   03 Jun 2027 07:08:02.117   03 Jun 2027 07:08:02.117             0.000             0.000
        67   03 Jun 2027 08:41:42.371   03 Jun 2027 08:41:48.361             5.990          2990.906
        68   03 Jun 2027 08:42:47.716   03 Jun 2027 08:42:50.608             2.892          1368.156
        69   03 Jun 2027 08:43:16.620   03 Jun 2027 08:43:17.684             1.064           469.188
        70   03 Jun 2027 08:44:04.235   03 Jun 2027 08:44:07.859             3.624          1402.094
        71   03 Jun 2027 08:44:41.787   03 Jun 2027 08:44:44.543             2.756          1060.250
        72   03 Jun 2027 10:16:53.740   03 Jun 2027 10:17:03.183             9.443          3252.281
        73   03 Jun 2027 10:18:04.775   03 Jun 2027 10:18:08.492             3.717          1509.187
        74   03 Jun 2027 10:18:47.533   03 Jun 2027 10:18:52.725             5.192          1193.969
        75   03 Jun 2027 10:21:50.878   03 Jun 2027 10:22:00.611             9.733          3777.125
        76   03 Jun 2027 10:23:11.254   03 Jun 2027 10:23:13.240             1.986           553.750
        77   03 Jun 2027 10:23:22.580   03 Jun 2027 10:23:23.252             0.672           211.469
        78   03 Jun 2027 11:53:12.880   03 Jun 2027 11:53:21.917             9.037          4398.375
        79   03 Jun 2027 11:54:59.216   03 Jun 2027 11:55:06.867             7.651          1064.750
        80   03 Jun 2027 11:55:11.548   03 Jun 2027 11:55:12.410             0.862            13.031
        81   03 Jun 2027 11:56:25.171   03 Jun 2027 11:56:28.398             3.227          1092.969
        82   03 Jun 2027 11:56:46.728   03 Jun 2027 11:56:47.171             0.443           149.063
        83   03 Jun 2027 11:57:08.363   03 Jun 2027 11:57:09.377             1.014           355.156
        84   03 Jun 2027 11:58:08.843   03 Jun 2027 11:58:13.005             4.162          1858.313
        85   03 Jun 2027 11:58:23.422   03 Jun 2027 11:58:24.974             1.552           229.188
        86   03 Jun 2027 11:58:36.245   03 Jun 2027 11:58:38.779             2.534           352.219
        87   03 Jun 2027 11:59:22.254   03 Jun 2027 11:59:25.159             2.905          1125.625
        88   04 Jun 2027 04:15:35.667   04 Jun 2027 04:15:51.237            15.570          7785.000
        89   04 Jun 2027 04:16:38.242   04 Jun 2027 04:17:47.733            69.491         34745.500
        90   04 Jun 2027 04:19:03.490   04 Jun 2027 04:19:31.452            27.962         13981.000
        91   04 Jun 2027 04:20:43.793   04 Jun 2027 04:20:51.833             8.040          4020.000
        92   04 Jun 2027 04:21:11.607   04 Jun 2027 04:21:41.247            29.640         14820.000
        93   04 Jun 2027 04:23:50.919   04 Jun 2027 04:24:09.857            18.938          9469.000
        94   04 Jun 2027 05:53:47.009   04 Jun 2027 05:54:24.678            37.669         18834.500
        95   04 Jun 2027 05:54:54.658   04 Jun 2027 05:55:30.304            35.646         17823.000
        96   04 Jun 2027 05:55:54.761   04 Jun 2027 05:57:21.225            86.464         43232.000
        97   04 Jun 2027 07:17:55.981   04 Jun 2027 07:18:10.342            14.361          7180.500
        98   04 Jun 2027 07:18:36.103   04 Jun 2027 07:18:37.928             1.825           897.468
        99   04 Jun 2027 07:19:49.404   04 Jun 2027 07:19:57.485             8.081          2233.625
       100   04 Jun 2027 08:53:39.605   04 Jun 2027 08:53:45.000             5.395          2685.344
       101   04 Jun 2027 08:54:53.793   04 Jun 2027 08:54:57.439             3.646          1564.500
       102   04 Jun 2027 08:55:24.433   04 Jun 2027 08:55:25.862             1.429           488.406
       103   04 Jun 2027 08:57:03.940   04 Jun 2027 08:57:11.116             7.176          2965.219
       104   04 Jun 2027 10:28:38.084   04 Jun 2027 10:28:50.312            12.228          3653.844
       105   04 Jun 2027 10:30:58.082   04 Jun 2027 10:30:59.711             1.629           814.500
       106   04 Jun 2027 10:31:46.346   04 Jun 2027 10:31:46.618             0.272           136.000
       107   04 Jun 2027 10:33:51.043   04 Jun 2027 10:34:03.359            12.316          5232.219
       108   04 Jun 2027 10:35:07.720   04 Jun 2027 10:35:11.424             3.704          1732.406
       109   04 Jun 2027 10:35:33.649   04 Jun 2027 10:35:35.689             2.040           475.281
       110   05 Jun 2027 04:28:41.139   05 Jun 2027 04:30:15.441            94.302         47151.000
       111   05 Jun 2027 04:30:21.464   05 Jun 2027 04:30:29.504             8.040          4020.000
       112   05 Jun 2027 04:30:42.372   05 Jun 2027 04:30:51.838             9.466          4733.000
       113   05 Jun 2027 04:32:42.582   05 Jun 2027 04:32:50.934             8.352          4176.000
       114   05 Jun 2027 04:33:06.617   05 Jun 2027 04:33:47.037            40.420         20210.000
       115   05 Jun 2027 04:34:50.434   05 Jun 2027 04:35:05.893            15.459          7729.500
       116   05 Jun 2027 04:35:16.587   05 Jun 2027 04:36:14.139            57.552         28776.000
       117   05 Jun 2027 05:54:43.975   05 Jun 2027 05:55:04.259            20.284         10142.000
       118   05 Jun 2027 06:05:43.329   05 Jun 2027 06:07:44.983           121.654         58646.093
       119   05 Jun 2027 06:08:24.953   05 Jun 2027 06:08:25.497             0.544           272.000
       120   05 Jun 2027 06:08:39.639   05 Jun 2027 06:08:48.068             8.429           875.313
       121   05 Jun 2027 07:29:39.839   05 Jun 2027 07:29:52.530            12.691          4351.000
       122   05 Jun 2027 07:30:38.390   05 Jun 2027 07:30:40.403             2.013           801.125
       123   05 Jun 2027 07:32:33.741   05 Jun 2027 07:32:38.950             5.209          2604.500
       124   05 Jun 2027 09:04:15.855   05 Jun 2027 09:04:20.672             4.817          2408.500
       125   05 Jun 2027 09:05:24.651   05 Jun 2027 09:05:26.043             1.392           472.625
       126   05 Jun 2027 09:07:45.039   05 Jun 2027 09:07:54.435             9.396          3818.344
       127   05 Jun 2027 09:08:07.354   05 Jun 2027 09:08:10.765             3.411           124.031
       128   05 Jun 2027 09:09:01.480   05 Jun 2027 09:09:05.802             4.322          1579.812
       129   05 Jun 2027 10:40:45.432   05 Jun 2027 10:40:54.486             9.054          3681.281
       130   05 Jun 2027 10:43:02.113   05 Jun 2027 10:43:04.792             2.679           715.250
       131   05 Jun 2027 10:43:57.546   05 Jun 2027 10:44:00.647             3.101          1332.281
       132   05 Jun 2027 10:47:03.807   05 Jun 2027 10:47:16.790            12.983          5627.469
       133   06 Jun 2027 03:02:03.705   06 Jun 2027 03:02:32.457            28.752         14376.000
       134   06 Jun 2027 03:02:45.323   06 Jun 2027 03:03:01.809            16.486          8243.000
       135   06 Jun 2027 03:05:36.270   06 Jun 2027 03:05:43.649             7.379          3689.500
       136   06 Jun 2027 03:06:23.640   06 Jun 2027 03:06:25.067             1.427           713.500
       137   06 Jun 2027 03:06:58.968   06 Jun 2027 03:07:14.407            15.439          7719.500
       138   06 Jun 2027 03:07:34.391   06 Jun 2027 03:07:37.536             3.145          1572.500
       139   06 Jun 2027 04:41:07.115   06 Jun 2027 04:43:26.929           139.814         69907.000
       140   06 Jun 2027 04:46:06.217   06 Jun 2027 04:47:14.741            68.524         34262.000
       141   06 Jun 2027 06:06:04.182   06 Jun 2027 06:06:37.816            33.634         16817.000
       142   06 Jun 2027 06:17:45.558   06 Jun 2027 06:18:13.867            28.309         12711.500
       143   06 Jun 2027 06:18:47.086   06 Jun 2027 06:18:52.269             5.183           426.844
       144   06 Jun 2027 07:40:00.077   06 Jun 2027 07:40:10.209            10.132          5066.000
       145   06 Jun 2027 07:40:35.265   06 Jun 2027 07:40:38.420             3.155           816.813
       146   06 Jun 2027 07:41:01.889   06 Jun 2027 07:41:05.896             4.007           546.219
       147   06 Jun 2027 07:41:58.236   06 Jun 2027 07:41:59.838             1.602           730.312
       148   06 Jun 2027 07:42:41.345   06 Jun 2027 07:42:45.649             4.304           825.500
       149   06 Jun 2027 07:43:34.679   06 Jun 2027 07:43:38.823             4.144           964.500
       150   06 Jun 2027 07:44:28.957   06 Jun 2027 07:44:33.979             5.022          1251.406
       151   06 Jun 2027 09:15:10.642   06 Jun 2027 09:15:15.244             4.602          2257.875
       152   06 Jun 2027 09:15:51.740   06 Jun 2027 09:15:55.237             3.497           709.406
       153   06 Jun 2027 09:17:08.914   06 Jun 2027 09:17:13.133             4.219          1196.406
       154   06 Jun 2027 09:18:43.190   06 Jun 2027 09:18:48.472             5.282          2300.250
       155   06 Jun 2027 09:20:31.185   06 Jun 2027 09:20:35.364             4.179           603.875
       156   06 Jun 2027 09:21:15.702   06 Jun 2027 09:21:17.550             1.848           541.031
       157   06 Jun 2027 09:21:33.838   06 Jun 2027 09:21:33.838             0.000             0.000
       158   06 Jun 2027 09:22:01.427   06 Jun 2027 09:22:04.679             3.252          1371.156
       159   06 Jun 2027 10:52:18.155   06 Jun 2027 10:52:28.430            10.275          1450.250
       160   06 Jun 2027 10:55:25.548   06 Jun 2027 10:55:31.053             5.505          1900.500
       161   06 Jun 2027 10:57:16.926   06 Jun 2027 10:57:27.292            10.366          3237.500
       162   06 Jun 2027 10:57:42.015   06 Jun 2027 10:57:42.530             0.515           248.906
       163   06 Jun 2027 10:57:49.324   06 Jun 2027 10:57:49.324             0.000             0.000
       164   06 Jun 2027 10:58:48.935   06 Jun 2027 10:58:54.904             5.969          2075.156
       165   06 Jun 2027 10:58:56.008   06 Jun 2027 10:58:56.850             0.842            14.687
       166   06 Jun 2027 10:59:06.183   06 Jun 2027 10:59:13.248             7.065           291.656
       167   06 Jun 2027 10:59:41.575   06 Jun 2027 10:59:43.079             1.504           746.781
       168   07 Jun 2027 03:14:21.536   07 Jun 2027 03:16:46.759           145.223         72611.500
       169   07 Jun 2027 03:17:54.440   07 Jun 2027 03:18:15.284            20.844         10422.000
       170   07 Jun 2027 03:19:09.692   07 Jun 2027 03:19:46.002            36.310         18155.000
       171   07 Jun 2027 04:53:22.372   07 Jun 2027 04:55:17.724           115.352         57073.250
       172   07 Jun 2027 04:55:37.647   07 Jun 2027 04:55:41.704             4.057           248.063
       173   07 Jun 2027 04:57:03.999   07 Jun 2027 04:57:10.015             6.016          2486.625
       174   07 Jun 2027 04:58:06.931   07 Jun 2027 04:58:08.267             1.336           208.937
       175   07 Jun 2027 04:58:13.866   07 Jun 2027 04:58:15.522             1.656           174.969
       176   07 Jun 2027 04:58:27.064   07 Jun 2027 04:58:29.321             2.257            83.000
       177   07 Jun 2027 04:59:32.463   07 Jun 2027 04:59:34.323             1.860           930.000
       178   07 Jun 2027 06:17:29.209   07 Jun 2027 06:17:41.412            12.203          5056.844
       179   07 Jun 2027 06:18:39.478   07 Jun 2027 06:18:45.805             6.327          1657.719
       180   07 Jun 2027 06:19:08.915   07 Jun 2027 06:19:09.271             0.356           149.812
       181   07 Jun 2027 06:29:42.577   07 Jun 2027 06:29:47.915             5.338          2626.812
       182   07 Jun 2027 07:51:45.003   07 Jun 2027 07:51:56.594            11.591          5231.406
       183   07 Jun 2027 07:53:48.352   07 Jun 2027 07:53:50.764             2.412          1206.000
       184   07 Jun 2027 07:54:12.280   07 Jun 2027 07:54:15.410             3.130           792.250
       185   07 Jun 2027 07:55:11.529   07 Jun 2027 07:55:16.373             4.844          1708.969
       186   07 Jun 2027 07:56:36.138   07 Jun 2027 07:56:42.450             6.312          2253.719
       187   07 Jun 2027 07:56:50.943   07 Jun 2027 07:56:53.571             2.628             8.969
       188   07 Jun 2027 09:26:37.584   07 Jun 2027 09:26:49.822            12.238          2850.938
       189   07 Jun 2027 09:28:09.678   07 Jun 2027 09:28:12.940             3.262          1527.156
       190   07 Jun 2027 09:28:23.321   07 Jun 2027 09:28:29.727             6.406           278.750
       191   07 Jun 2027 09:29:08.583   07 Jun 2027 09:29:12.639             4.056          1206.281
       192   07 Jun 2027 09:29:58.543   07 Jun 2027 09:30:04.564             6.021          1434.500
       193   07 Jun 2027 09:32:12.305   07 Jun 2027 09:32:31.124            18.819          2752.531
       194   07 Jun 2027 09:33:27.938   07 Jun 2027 09:33:30.538             2.600           764.656
       195   07 Jun 2027 09:34:01.647   07 Jun 2027 09:34:03.616             1.969           893.219
       196   07 Jun 2027 09:34:52.609   07 Jun 2027 09:34:58.598             5.989          1274.187
       197   07 Jun 2027 11:04:20.056   07 Jun 2027 11:04:27.014             6.958          3468.188
       198   07 Jun 2027 11:07:21.146   07 Jun 2027 11:07:23.879             2.733           393.344
       199   07 Jun 2027 11:09:47.166   07 Jun 2027 11:09:57.447            10.281          4451.781
       200   07 Jun 2027 11:10:37.344   07 Jun 2027 11:10:40.803             3.459           965.000
       201   07 Jun 2027 11:11:29.307   07 Jun 2027 11:11:36.162             6.855          1351.750
       202   08 Jun 2027 03:27:07.572   08 Jun 2027 03:27:32.397            24.825         12412.500
       203   08 Jun 2027 03:27:34.990   08 Jun 2027 03:30:34.533           179.543         89771.500
       204   08 Jun 2027 03:31:03.899   08 Jun 2027 03:31:08.222             4.323          2161.500
       205   08 Jun 2027 03:31:17.221   08 Jun 2027 03:31:19.574             2.353          1176.500
       206   08 Jun 2027 03:32:38.574   08 Jun 2027 03:32:41.661             3.087          1543.500
       207   08 Jun 2027 05:05:30.170   08 Jun 2027 05:07:09.488            99.318         49644.625
       208   08 Jun 2027 05:07:42.518   08 Jun 2027 05:07:44.241             1.723           852.937
       209   08 Jun 2027 05:09:09.449   08 Jun 2027 05:09:17.585             8.136          2662.750
       210   08 Jun 2027 06:29:34.394   08 Jun 2027 06:29:51.772            17.378          7221.313
       211   08 Jun 2027 06:30:20.962   08 Jun 2027 06:30:24.136             3.174           698.125
       212   08 Jun 2027 06:30:41.027   08 Jun 2027 06:30:47.431             6.404           455.625
       213   08 Jun 2027 06:31:19.550   08 Jun 2027 06:31:21.724             2.174           125.750
       214   08 Jun 2027 08:03:20.889   08 Jun 2027 08:03:37.149            16.260          7371.719
       215   08 Jun 2027 08:04:24.579   08 Jun 2027 08:04:28.640             4.061           533.875
       216   08 Jun 2027 08:05:24.966   08 Jun 2027 08:05:27.423             2.457          1170.281
       217   08 Jun 2027 08:06:06.165   08 Jun 2027 08:06:10.445             4.280          1162.969
       218   08 Jun 2027 08:06:55.067   08 Jun 2027 08:06:58.359             3.292          1144.625
       219   08 Jun 2027 08:08:36.900   08 Jun 2027 08:08:43.820             6.920          2758.219
       220   08 Jun 2027 09:39:21.162   08 Jun 2027 09:39:27.930             6.768          2249.250
       221   08 Jun 2027 09:40:57.616   08 Jun 2027 09:40:59.431             1.815           521.594
       222   08 Jun 2027 09:44:00.895   08 Jun 2027 09:44:12.175            11.280          5301.187
       223   08 Jun 2027 09:44:14.152   08 Jun 2027 09:44:21.114             6.962            45.000
       224   08 Jun 2027 09:45:40.976   08 Jun 2027 09:45:43.261             2.285           656.500
       225   08 Jun 2027 09:46:05.504   08 Jun 2027 09:46:08.654             3.150           365.906
       226   08 Jun 2027 09:46:50.147   08 Jun 2027 09:46:52.706             2.559           586.625
       227   08 Jun 2027 09:47:31.259   08 Jun 2027 09:47:39.486             8.227          1204.781
       228   08 Jun 2027 11:16:23.669   08 Jun 2027 11:16:51.570            27.901          5928.250
       229   08 Jun 2027 11:19:11.709   08 Jun 2027 11:19:23.755            12.046          4000.812
       230   08 Jun 2027 11:20:34.860   08 Jun 2027 11:20:43.117             8.257           760.125
       231   08 Jun 2027 11:21:08.506   08 Jun 2027 11:21:08.819             0.313           156.500
       232   08 Jun 2027 11:21:53.978   08 Jun 2027 11:22:03.783             9.805          1423.938
       233   08 Jun 2027 11:22:28.533   08 Jun 2027 11:22:30.923             2.390           149.625
       234   08 Jun 2027 11:22:45.704   08 Jun 2027 11:22:48.702             2.998           384.562
       235   08 Jun 2027 11:23:14.295   08 Jun 2027 11:23:21.829             7.534           786.500
       236   08 Jun 2027 11:23:27.801   08 Jun 2027 11:23:29.064             1.263           186.625
       237   09 Jun 2027 03:39:41.948   09 Jun 2027 03:40:31.535            49.587         24793.500
       238   09 Jun 2027 03:40:41.646   09 Jun 2027 03:41:23.858            42.212         21106.000
       239   09 Jun 2027 03:41:24.485   09 Jun 2027 03:42:35.549            71.064         35532.000
       240   09 Jun 2027 03:43:43.269   09 Jun 2027 03:43:44.423             1.154           577.000
       241   09 Jun 2027 05:18:04.304   09 Jun 2027 05:19:07.292            62.988         31494.000
       242   09 Jun 2027 05:19:18.312   09 Jun 2027 05:19:51.823            33.511         16755.500
       243   09 Jun 2027 05:20:56.967   09 Jun 2027 05:21:41.173            44.206         21489.531
       244   09 Jun 2027 06:41:29.403   09 Jun 2027 06:41:45.784            16.381          6190.125
       245   09 Jun 2027 06:42:42.435   09 Jun 2027 06:42:50.366             7.931          1551.937
       246   09 Jun 2027 06:43:45.081   09 Jun 2027 06:43:51.432             6.351          1709.844
       247   09 Jun 2027 08:17:48.281   09 Jun 2027 08:18:06.052            17.771          8504.844
       248   09 Jun 2027 08:18:19.669   09 Jun 2027 08:18:21.939             2.270           425.531
       249   09 Jun 2027 08:19:21.299   09 Jun 2027 08:19:25.942             4.643          1792.156
       250   09 Jun 2027 08:19:42.500   09 Jun 2027 08:19:42.500             0.000             0.000
       251   09 Jun 2027 08:20:05.382   09 Jun 2027 08:20:08.941             3.559           777.531
       252   09 Jun 2027 08:20:50.195   09 Jun 2027 08:20:54.448             4.253           906.844
       253   09 Jun 2027 09:51:18.079   09 Jun 2027 09:51:23.125             5.046          2278.469
       254   09 Jun 2027 09:53:49.439   09 Jun 2027 09:53:49.439             0.000             0.000
       255   09 Jun 2027 09:53:55.894   09 Jun 2027 09:53:56.836             0.942           438.781
       256   09 Jun 2027 09:56:11.374   09 Jun 2027 09:56:17.789             6.415          2541.063
       257   09 Jun 2027 09:58:07.034   09 Jun 2027 09:58:10.651             3.617          1807.125
       258   09 Jun 2027 09:58:24.856   09 Jun 2027 09:58:27.873             3.017           208.281
       259   09 Jun 2027 09:59:49.586   09 Jun 2027 09:59:50.771             1.185           592.500
       260   09 Jun 2027 11:28:49.997   09 Jun 2027 11:29:03.552            13.555          4788.437
       261   09 Jun 2027 11:30:53.196   09 Jun 2027 11:30:55.726             2.530           165.062
       262   09 Jun 2027 11:32:34.033   09 Jun 2027 11:32:39.846             5.813          2831.125
       263   09 Jun 2027 11:33:45.535   09 Jun 2027 11:33:49.982             4.447          1001.531
       264   09 Jun 2027 11:34:10.763   09 Jun 2027 11:34:16.375             5.612           649.406
       265   09 Jun 2027 11:34:59.594   09 Jun 2027 11:35:04.518             4.924          1350.594
       266   09 Jun 2027 11:35:26.105   09 Jun 2027 11:35:29.327             3.222           368.031
       267   10 Jun 2027 03:51:39.821   10 Jun 2027 03:51:47.120             7.299          3649.500
       268   10 Jun 2027 03:51:55.565   10 Jun 2027 03:53:53.119           117.554         58777.000
       269   10 Jun 2027 03:54:49.316   10 Jun 2027 03:56:24.169            94.853         47426.500
       270   10 Jun 2027 03:56:28.540   10 Jun 2027 03:56:28.927             0.387           193.500
       271   10 Jun 2027 03:57:33.223   10 Jun 2027 03:57:39.664             6.441          3220.500
       272   10 Jun 2027 05:29:43.205   10 Jun 2027 05:31:15.388            92.183         46091.500
       273   10 Jun 2027 05:31:30.594   10 Jun 2027 05:31:38.261             7.667          3126.718
       274   10 Jun 2027 05:32:44.131   10 Jun 2027 05:32:47.558             3.427          1581.125
       275   10 Jun 2027 06:53:21.282   10 Jun 2027 06:53:32.553            11.271          4949.187
       276   10 Jun 2027 06:54:43.639   10 Jun 2027 06:54:52.470             8.831          1841.594
       277   10 Jun 2027 06:55:31.244   10 Jun 2027 06:55:35.902             4.658           963.250
       278   10 Jun 2027 08:29:49.919   10 Jun 2027 08:29:57.089             7.170          3585.000
       279   10 Jun 2027 08:30:20.477   10 Jun 2027 08:30:24.123             3.646           939.938
       280   10 Jun 2027 08:31:31.463   10 Jun 2027 08:31:37.853             6.390          1977.500
       281   10 Jun 2027 08:32:23.446   10 Jun 2027 08:32:28.917             5.471          1415.063
       282   10 Jun 2027 10:03:58.013   10 Jun 2027 10:04:06.620             8.607          3565.531
       283   10 Jun 2027 10:05:47.540   10 Jun 2027 10:05:56.049             8.509           165.031
       284   10 Jun 2027 10:06:56.891   10 Jun 2027 10:07:01.797             4.906          1737.844
       285   10 Jun 2027 10:08:09.760   10 Jun 2027 10:08:13.702             3.942          1779.656
       286   10 Jun 2027 10:08:27.362   10 Jun 2027 10:08:28.856             1.494           426.875
       287   10 Jun 2027 10:09:11.333   10 Jun 2027 10:09:17.420             6.087          1274.813
       288   10 Jun 2027 10:09:59.850   10 Jun 2027 10:10:04.252             4.402           350.625
       289   10 Jun 2027 10:10:47.239   10 Jun 2027 10:10:51.271             4.032          1202.281
       290   10 Jun 2027 10:11:09.320   10 Jun 2027 10:11:10.351             1.031           417.594
       291   10 Jun 2027 10:11:41.661   10 Jun 2027 10:11:44.211             2.550           798.250
       292   10 Jun 2027 11:40:56.426   10 Jun 2027 11:41:10.652            14.226          4834.656
       293   10 Jun 2027 11:43:30.872   10 Jun 2027 11:43:32.303             1.431           705.469
       294   10 Jun 2027 11:44:56.159   10 Jun 2027 11:45:01.945             5.786          1857.156
       295   10 Jun 2027 11:45:02.589   10 Jun 2027 11:45:03.393             0.804            20.125
       296   10 Jun 2027 11:45:13.978   10 Jun 2027 11:45:15.991             2.013           143.594
       297   10 Jun 2027 11:46:02.717   10 Jun 2027 11:46:07.367             4.650          1284.187
       298   10 Jun 2027 11:46:34.670   10 Jun 2027 11:46:36.024             1.354           622.531
       299   10 Jun 2027 11:46:52.329   10 Jun 2027 11:46:54.014             1.685           197.344
       300   10 Jun 2027 11:47:01.255   10 Jun 2027 11:47:01.837             0.582           121.125
       301   11 Jun 2027 04:03:48.250   11 Jun 2027 04:04:47.991            59.741         29870.500
       302   11 Jun 2027 04:04:57.460   11 Jun 2027 04:05:03.295             5.835          2917.500
       303   11 Jun 2027 04:05:27.458   11 Jun 2027 04:06:15.973            48.515         24257.500
       304   11 Jun 2027 04:07:23.926   11 Jun 2027 04:07:37.509            13.583          6791.500
       305   11 Jun 2027 04:07:52.416   11 Jun 2027 04:08:15.477            23.061         11530.500
       306   11 Jun 2027 04:08:35.054   11 Jun 2027 04:08:39.007             3.953          1976.500
       307   11 Jun 2027 04:09:03.214   11 Jun 2027 04:09:05.479             2.265          1132.500
       308   11 Jun 2027 04:09:22.000   11 Jun 2027 04:09:27.253             5.253          2626.500
       309   11 Jun 2027 04:09:38.287   11 Jun 2027 04:09:41.220             2.933          1466.500
       310   11 Jun 2027 05:42:07.464   11 Jun 2027 05:42:35.874            28.410         14205.000
       311   11 Jun 2027 05:42:55.952   11 Jun 2027 05:44:57.502           121.550         60517.906
       312   11 Jun 2027 07:05:30.114   11 Jun 2027 07:05:50.652            20.538          9628.250
       313   11 Jun 2027 07:06:24.802   11 Jun 2027 07:06:26.484             1.682           807.531
       314   11 Jun 2027 07:06:56.268   11 Jun 2027 07:07:00.291             4.023           930.750
       315   11 Jun 2027 07:08:04.861   11 Jun 2027 07:08:07.532             2.671          1335.500
       316   11 Jun 2027 08:42:00.529   11 Jun 2027 08:42:08.913             8.384          2895.281
       317   11 Jun 2027 08:43:05.270   11 Jun 2027 08:43:08.107             2.837          1389.500
       318   11 Jun 2027 08:43:43.945   11 Jun 2027 08:43:49.316             5.371          1111.562
       319   11 Jun 2027 08:44:25.452   11 Jun 2027 08:44:29.702             4.250           104.031
       320   11 Jun 2027 08:45:35.237   11 Jun 2027 08:45:35.237             0.000             0.000
       321   11 Jun 2027 10:17:10.692   11 Jun 2027 10:17:23.669            12.977          6411.375
       322   11 Jun 2027 10:18:24.242   11 Jun 2027 10:18:29.184             4.942          1615.000
       323   11 Jun 2027 10:19:06.461   11 Jun 2027 10:19:10.175             3.714          1162.063
       324   11 Jun 2027 10:22:08.818   11 Jun 2027 10:22:19.401            10.583          3801.375
       325   11 Jun 2027 10:23:07.315   11 Jun 2027 10:23:15.477             8.162          1473.656
       326   11 Jun 2027 10:23:35.157   11 Jun 2027 10:23:36.507             1.350           484.563
       327   11 Jun 2027 11:53:32.853   11 Jun 2027 11:53:43.345            10.492          4495.563
       328   11 Jun 2027 11:54:40.298   11 Jun 2027 11:54:45.501             5.203          1252.875
       329   11 Jun 2027 11:55:15.591   11 Jun 2027 11:55:15.847             0.256           128.000
       330   11 Jun 2027 11:55:29.098   11 Jun 2027 11:55:35.838             6.740           861.688
       331   11 Jun 2027 11:56:42.907   11 Jun 2027 11:56:47.664             4.757          1096.656
       332   11 Jun 2027 11:57:01.687   11 Jun 2027 11:57:04.976             3.289           104.625
       333   11 Jun 2027 11:57:27.281   11 Jun 2027 11:57:28.518             1.237           442.688
       334   11 Jun 2027 11:57:47.915   11 Jun 2027 11:57:51.062             3.147           475.250
       335   11 Jun 2027 11:58:39.732   11 Jun 2027 11:58:40.440             0.708           224.375
       336   11 Jun 2027 11:58:54.981   11 Jun 2027 11:58:59.047             4.066           427.531
       337   11 Jun 2027 11:59:39.329   11 Jun 2027 11:59:42.941             3.612          1127.719
       338   12 Jun 2027 04:15:53.212   12 Jun 2027 04:16:05.413            12.201          6100.500
       339   12 Jun 2027 04:16:55.295   12 Jun 2027 04:18:28.902            93.607         46803.500
       340   12 Jun 2027 04:19:08.991   12 Jun 2027 04:19:30.317            21.326         10663.000
       341   12 Jun 2027 04:21:21.579   12 Jun 2027 04:21:28.785             7.206          3603.000
       342   12 Jun 2027 04:24:01.831   12 Jun 2027 04:24:46.068            44.237         22118.500
       343   12 Jun 2027 05:54:03.999   12 Jun 2027 05:54:42.293            38.294         19147.000
       344   12 Jun 2027 05:55:11.027   12 Jun 2027 05:56:50.739            99.712         49608.875
       345   12 Jun 2027 05:57:27.936   12 Jun 2027 05:57:30.819             2.883          1162.406
       346   12 Jun 2027 07:18:10.271   12 Jun 2027 07:18:23.759            13.488          6299.000
       347   12 Jun 2027 07:18:50.381   12 Jun 2027 07:18:53.234             2.853           718.344
       348   12 Jun 2027 07:20:05.391   12 Jun 2027 07:20:05.391             0.000             0.000
       349   12 Jun 2027 07:20:24.631   12 Jun 2027 07:20:33.220             8.589          2817.781
       350   12 Jun 2027 08:53:55.834   12 Jun 2027 08:53:59.856             4.022          1983.500
       351   12 Jun 2027 08:55:35.040   12 Jun 2027 08:55:41.606             6.566          2700.844
       352   12 Jun 2027 08:55:57.486   12 Jun 2027 08:55:58.571             1.085           476.250
       353   12 Jun 2027 08:56:35.155   12 Jun 2027 08:56:37.495             2.340          1134.750
       354   12 Jun 2027 10:28:53.006   12 Jun 2027 10:29:02.114             9.108          2721.844
       355   12 Jun 2027 10:31:18.630   12 Jun 2027 10:31:23.874             5.244           860.437
       356   12 Jun 2027 10:32:03.398   12 Jun 2027 10:32:06.172             2.774            88.625
       357   12 Jun 2027 10:33:55.240   12 Jun 2027 10:33:58.895             3.655           954.781
       358   12 Jun 2027 10:35:31.039   12 Jun 2027 10:35:38.187             7.148          2566.156
       359   13 Jun 2027 04:28:58.567   13 Jun 2027 04:30:58.310           119.743         59871.500
       360   13 Jun 2027 04:31:59.164   13 Jun 2027 04:32:10.683            11.519          5759.500
       361   13 Jun 2027 04:32:22.657   13 Jun 2027 04:32:37.037            14.380          7190.000
       362   13 Jun 2027 04:33:12.928   13 Jun 2027 04:33:30.771            17.843          8921.500
       363   13 Jun 2027 04:34:24.234   13 Jun 2027 04:34:33.048             8.814          4407.000
       364   13 Jun 2027 04:35:32.559   13 Jun 2027 04:35:43.015            10.456          5228.000
       365   13 Jun 2027 04:35:57.441   13 Jun 2027 04:36:29.995            32.554         16277.000
       366   13 Jun 2027 05:54:57.869   13 Jun 2027 05:55:21.190            23.321         11660.500
       367   13 Jun 2027 06:06:00.351   13 Jun 2027 06:07:42.169           101.818         50909.000
       368   13 Jun 2027 06:08:00.585   13 Jun 2027 06:08:24.989            24.404         11766.720
       369   13 Jun 2027 06:08:40.385   13 Jun 2027 06:08:45.299             4.914           266.437
       370   13 Jun 2027 06:08:57.709   13 Jun 2027 06:09:04.627             6.918            75.969
       371   13 Jun 2027 07:28:59.506   13 Jun 2027 07:29:15.019            15.513          7421.250
       372   13 Jun 2027 07:30:45.513   13 Jun 2027 07:30:51.195             5.682          1878.906
       373   13 Jun 2027 07:32:05.414   13 Jun 2027 07:32:15.822            10.408          2198.187
       374   13 Jun 2027 09:04:31.618   13 Jun 2027 09:04:36.815             5.197          1963.531
       375   13 Jun 2027 09:05:41.870   13 Jun 2027 09:05:45.833             3.963          1103.969
       376   13 Jun 2027 09:08:05.087   13 Jun 2027 09:08:16.280            11.193          3943.313
       377   13 Jun 2027 09:08:25.491   13 Jun 2027 09:08:28.451             2.960           123.781
       378   13 Jun 2027 09:09:19.609   13 Jun 2027 09:09:29.646            10.037          1598.687
       379   13 Jun 2027 10:40:26.747   13 Jun 2027 10:40:39.231            12.484          4704.375
       380   13 Jun 2027 10:41:41.882   13 Jun 2027 10:41:47.007             5.125          1285.125
       381   13 Jun 2027 10:42:59.849   13 Jun 2027 10:43:03.109             3.260           645.406
       382   13 Jun 2027 10:43:34.409   13 Jun 2027 10:43:37.054             2.645           378.656
       383   13 Jun 2027 10:44:19.038   13 Jun 2027 10:44:20.545             1.507           653.469
       384   13 Jun 2027 10:46:08.376   13 Jun 2027 10:46:20.053            11.677          3331.281
       385   13 Jun 2027 10:46:30.531   13 Jun 2027 10:46:32.275             1.744             9.719
       386   13 Jun 2027 10:47:34.225   13 Jun 2027 10:47:41.601             7.376           732.063
