uniorb/output/strategy_4/Camera/Camera_KinoSat_110309.txt

KinoSat_110309
-------------------------
    Access    *     Start Time (UTCG)     *     Stop Time (UTCG)  *   Duration (s) *   Data (Mbytes)
         1   01 Jun 2027 03:18:23.544   01 Jun 2027 03:19:49.921            86.377         43188.500
         2   01 Jun 2027 03:21:38.156   01 Jun 2027 03:22:01.289            23.133         11566.500
         3   01 Jun 2027 03:22:51.670   01 Jun 2027 03:23:07.097            15.427          7713.500
         4   01 Jun 2027 03:24:06.441   01 Jun 2027 03:24:13.666             7.225          3612.500
         5   01 Jun 2027 03:24:17.166   01 Jun 2027 03:24:22.641             5.475          2737.500
         6   01 Jun 2027 03:25:11.966   01 Jun 2027 03:25:16.420             4.454          2227.000
         7   01 Jun 2027 04:54:31.693   01 Jun 2027 04:56:57.512           145.819         72909.500
         8   01 Jun 2027 04:56:57.964   01 Jun 2027 04:57:23.975            26.011         13005.500
         9   01 Jun 2027 04:57:54.390   01 Jun 2027 04:58:07.239            12.849          6424.500
        10   01 Jun 2027 05:00:02.049   01 Jun 2027 05:00:20.519            18.470          9235.000
        11   01 Jun 2027 05:00:41.838   01 Jun 2027 05:00:53.947            12.109          6054.500
        12   01 Jun 2027 05:01:04.088   01 Jun 2027 05:01:11.374             7.286          3643.000
        13   01 Jun 2027 06:32:15.941   01 Jun 2027 06:34:58.022           162.081         81040.500
        14   01 Jun 2027 06:35:24.553   01 Jun 2027 06:35:30.831             6.278          3139.000
        15   01 Jun 2027 06:35:58.493   01 Jun 2027 06:36:18.342            19.849          9924.500
        16   01 Jun 2027 08:08:21.397   01 Jun 2027 08:10:57.601           156.204         78102.000
        17   01 Jun 2027 08:11:45.184   01 Jun 2027 08:12:12.918            27.734         13867.000
        18   02 Jun 2027 03:30:40.994   02 Jun 2027 03:36:56.203           375.209        187604.500
        19   02 Jun 2027 03:37:05.064   02 Jun 2027 03:37:17.116            12.052          6026.000
        20   02 Jun 2027 05:07:04.071   02 Jun 2027 05:11:00.354           236.283        118141.500
        21   02 Jun 2027 06:44:21.229   02 Jun 2027 06:48:57.824           276.595        138297.500
        22   02 Jun 2027 08:20:35.455   02 Jun 2027 08:25:18.138           282.683        141341.500
        23   03 Jun 2027 03:42:18.799   03 Jun 2027 03:49:26.032           427.233        213616.500
        24   03 Jun 2027 05:18:38.299   03 Jun 2027 05:25:03.596           385.297        192648.500
        25   03 Jun 2027 06:57:21.946   03 Jun 2027 07:00:47.146           205.200        102600.000
        26   03 Jun 2027 08:32:22.126   03 Jun 2027 08:36:25.608           243.482        121741.000
        27   03 Jun 2027 08:36:51.369   03 Jun 2027 08:37:45.045            53.676         26838.000
        28   04 Jun 2027 03:53:52.342   04 Jun 2027 04:01:26.593           454.251        227125.500
        29   04 Jun 2027 05:30:58.234   04 Jun 2027 05:37:20.613           382.379        191189.500
        30   04 Jun 2027 07:09:05.322   04 Jun 2027 07:12:52.027           226.705        113352.500
        31   04 Jun 2027 08:42:05.335   04 Jun 2027 08:48:19.367           374.032        187016.000
        32   04 Jun 2027 08:48:26.285   04 Jun 2027 08:49:34.311            68.026         34013.000
        33   05 Jun 2027 04:06:11.920   05 Jun 2027 04:13:30.799           438.879        219439.500
        34   05 Jun 2027 05:42:59.636   05 Jun 2027 05:49:28.101           388.465        194232.500
        35   05 Jun 2027 07:21:19.457   05 Jun 2027 07:24:55.377           215.920        107960.000
        36   05 Jun 2027 08:54:32.481   05 Jun 2027 09:01:59.585           447.104        223552.000
        37   06 Jun 2027 04:18:05.756   06 Jun 2027 04:25:31.207           445.451        222725.500
        38   06 Jun 2027 05:54:50.229   06 Jun 2027 06:00:43.617           353.388        176694.000
        39   06 Jun 2027 06:01:11.345   06 Jun 2027 06:01:34.981            23.636         11818.000
        40   06 Jun 2027 07:32:58.823   06 Jun 2027 07:37:04.899           246.076        123038.000
        41   06 Jun 2027 09:06:49.526   06 Jun 2027 09:13:06.392           376.866        188433.000
        42   07 Jun 2027 03:00:00.000   07 Jun 2027 03:00:22.843            22.843         11421.500
        43   07 Jun 2027 03:00:35.275   07 Jun 2027 03:01:35.513            60.238         30119.000
        44   07 Jun 2027 04:30:12.607   07 Jun 2027 04:37:31.869           439.262        219631.000
        45   07 Jun 2027 06:07:15.518   07 Jun 2027 06:12:02.494           286.976        143488.000
        46   07 Jun 2027 06:12:35.471   07 Jun 2027 06:13:21.651            46.180         23090.000
        47   07 Jun 2027 07:44:12.270   07 Jun 2027 07:49:05.090           292.820        146410.000
        48   07 Jun 2027 09:19:18.248   07 Jun 2027 09:19:40.801            22.553         11276.500
        49   07 Jun 2027 09:20:59.387   07 Jun 2027 09:24:07.509           188.122         94061.000
        50   08 Jun 2027 03:03:45.723   08 Jun 2027 03:13:34.251           588.528        294264.000
        51   08 Jun 2027 04:42:38.885   08 Jun 2027 04:49:20.001           401.116        200558.000
        52   08 Jun 2027 06:19:35.589   08 Jun 2027 06:23:57.146           261.557        130778.500
        53   08 Jun 2027 06:24:26.008   08 Jun 2027 06:25:05.779            39.771         19885.500
        54   08 Jun 2027 07:56:25.679   08 Jun 2027 08:00:53.985           268.306        134153.000
        55   08 Jun 2027 09:34:31.602   08 Jun 2027 09:35:42.826            71.224         35612.000
        56   09 Jun 2027 03:18:38.338   09 Jun 2027 03:24:28.491           350.153        175076.500
        57   09 Jun 2027 03:24:31.816   09 Jun 2027 03:25:31.233            59.417         29708.500
        58   09 Jun 2027 04:54:47.989   09 Jun 2027 05:01:26.188           398.199        199099.500
        59   09 Jun 2027 06:32:31.127   09 Jun 2027 06:36:55.253           264.126        132063.000
        60   09 Jun 2027 08:08:36.342   09 Jun 2027 08:12:55.313           258.971        129485.500
        61   10 Jun 2027 03:30:55.843   10 Jun 2027 03:37:31.796           395.953        197976.500
        62   10 Jun 2027 05:07:18.384   10 Jun 2027 05:13:27.904           369.520        184760.000
        63   10 Jun 2027 06:44:35.887   10 Jun 2027 06:49:12.755           276.868        138434.000
        64   10 Jun 2027 08:20:50.473   10 Jun 2027 08:25:33.305           282.832        141416.000
        65   11 Jun 2027 03:42:32.954   11 Jun 2027 03:49:40.809           427.855        213927.500
        66   11 Jun 2027 05:18:52.928   11 Jun 2027 05:25:18.517           385.589        192794.500
        67   11 Jun 2027 06:57:26.568   11 Jun 2027 07:01:01.902           215.334        107667.000
        68   11 Jun 2027 08:32:36.762   11 Jun 2027 08:36:40.294           243.532        121766.000
        69   11 Jun 2027 08:37:01.782   11 Jun 2027 08:37:59.697            57.915         28957.500
        70   12 Jun 2027 03:54:06.881   12 Jun 2027 04:01:41.395           454.514        227257.000
        71   12 Jun 2027 05:31:13.021   12 Jun 2027 05:37:35.374           382.353        191176.500
        72   12 Jun 2027 07:09:22.793   12 Jun 2027 07:13:06.973           224.180        112090.000
        73   12 Jun 2027 08:42:20.072   12 Jun 2027 08:48:34.717           374.645        187322.500
        74   12 Jun 2027 08:48:41.475   12 Jun 2027 08:49:49.517            68.042         34021.000
        75   13 Jun 2027 04:06:26.690   13 Jun 2027 04:13:45.563           438.873        219436.500
        76   13 Jun 2027 05:43:14.268   13 Jun 2027 05:49:43.154           388.886        194443.000
        77   13 Jun 2027 07:21:34.065   13 Jun 2027 07:25:10.012           215.947        107973.500
        78   13 Jun 2027 08:54:47.387   13 Jun 2027 09:02:12.191           444.804        222402.000
