uniorb/output/strategy_4/Camera/Camera_KinoSat_111502.txt

KinoSat_111502
-------------------------
    Access    *     Start Time (UTCG)     *     Stop Time (UTCG)  *   Duration (s) *   Data (Mbytes)
         1   01 Jun 2027 03:48:22.715   01 Jun 2027 03:50:30.260           127.545         63772.500
         2   01 Jun 2027 03:51:28.686   01 Jun 2027 03:51:51.442            22.756         11378.000
         3   01 Jun 2027 03:51:55.760   01 Jun 2027 03:51:59.529             3.769          1884.500
         4   01 Jun 2027 03:52:32.163   01 Jun 2027 03:52:37.137             4.974          2487.000
         5   01 Jun 2027 03:53:21.835   01 Jun 2027 03:53:25.628             3.793          1896.500
         6   01 Jun 2027 03:55:12.502   01 Jun 2027 03:55:47.197            34.695         17347.500
         7   01 Jun 2027 05:13:35.046   01 Jun 2027 05:13:59.083            24.037         12018.500
         8   01 Jun 2027 05:14:31.492   01 Jun 2027 05:14:52.956            21.464         10732.000
         9   01 Jun 2027 05:25:06.474   01 Jun 2027 05:26:05.204            58.730         29365.000
        10   01 Jun 2027 06:47:45.216   01 Jun 2027 06:48:43.713            58.497         29248.500
        11   01 Jun 2027 06:49:20.841   01 Jun 2027 06:49:36.121            15.280          7640.000
        12   01 Jun 2027 06:49:38.368   01 Jun 2027 06:49:38.368             0.000             0.000
        13   01 Jun 2027 06:51:38.676   01 Jun 2027 06:51:49.504            10.828          5414.000
        14   01 Jun 2027 08:22:53.278   01 Jun 2027 08:23:07.206            13.928          6964.000
        15   01 Jun 2027 08:23:50.152   01 Jun 2027 08:24:05.481            15.329          7664.500
        16   01 Jun 2027 08:24:36.152   01 Jun 2027 08:25:40.509            64.357         32178.500
        17   01 Jun 2027 08:26:06.026   01 Jun 2027 08:27:00.153            54.127         27063.500
        18   01 Jun 2027 09:59:37.540   01 Jun 2027 09:59:50.202            12.662          6331.000
        19   01 Jun 2027 10:02:54.588   01 Jun 2027 10:03:01.925             7.337          3668.500
        20   01 Jun 2027 10:04:08.135   01 Jun 2027 10:05:27.155            79.020         39510.000
        21   01 Jun 2027 10:06:16.694   01 Jun 2027 10:07:05.423            48.729         24364.500
        22   01 Jun 2027 11:36:40.315   01 Jun 2027 11:38:47.579           127.264         63632.000
        23   01 Jun 2027 11:40:21.329   01 Jun 2027 11:40:52.355            31.026         15513.000
        24   01 Jun 2027 11:41:52.941   01 Jun 2027 11:41:54.544             1.603           801.500
        25   01 Jun 2027 11:42:46.654   01 Jun 2027 11:42:52.549             5.895          2947.500
        26   02 Jun 2027 04:00:38.470   02 Jun 2027 04:02:55.618           137.148         68574.000
        27   02 Jun 2027 04:04:08.779   02 Jun 2027 04:04:13.841             5.062          2531.000
        28   02 Jun 2027 04:04:33.069   02 Jun 2027 04:04:41.972             8.903          4451.500
        29   02 Jun 2027 04:05:48.878   02 Jun 2027 04:05:52.003             3.125          1562.500
        30   02 Jun 2027 04:06:24.404   02 Jun 2027 04:06:38.552            14.148          7074.000
        31   02 Jun 2027 05:24:52.419   02 Jun 2027 05:25:33.856            41.437         20718.500
        32   02 Jun 2027 05:26:00.654   02 Jun 2027 05:26:18.295            17.641          8820.500
        33   02 Jun 2027 05:37:05.628   02 Jun 2027 05:38:02.645            57.017         28508.500
        34   02 Jun 2027 06:59:20.910   02 Jun 2027 07:00:27.282            66.372         33186.000
        35   02 Jun 2027 07:01:16.409   02 Jun 2027 07:03:18.405           121.996         60998.000
        36   02 Jun 2027 08:34:13.516   02 Jun 2027 08:36:19.938           126.422         63211.000
        37   02 Jun 2027 08:36:24.142   02 Jun 2027 08:37:21.096            56.954         28477.000
        38   02 Jun 2027 08:37:48.842   02 Jun 2027 08:37:56.695             7.853          3926.500
        39   02 Jun 2027 08:41:24.107   02 Jun 2027 08:41:24.107             0.000             0.000
        40   02 Jun 2027 10:11:48.015   02 Jun 2027 10:12:39.208            51.193         23209.155
        41   02 Jun 2027 10:13:42.137   02 Jun 2027 10:13:50.769             8.632           407.812
        42   02 Jun 2027 10:14:33.438   02 Jun 2027 10:14:38.931             5.493          1333.406
        43   02 Jun 2027 10:15:17.744   02 Jun 2027 10:15:21.529             3.785           795.031
        44   02 Jun 2027 10:16:19.560   02 Jun 2027 10:16:24.083             4.523          1423.531
        45   02 Jun 2027 10:16:56.110   02 Jun 2027 10:16:58.094             1.984           347.375
        46   02 Jun 2027 10:17:45.820   02 Jun 2027 10:17:48.455             2.635          1273.594
        47   02 Jun 2027 10:18:32.043   02 Jun 2027 10:18:35.559             3.516          1362.125
        48   02 Jun 2027 10:18:53.712   02 Jun 2027 10:18:56.178             2.466           392.406
        49   02 Jun 2027 11:48:30.790   02 Jun 2027 11:48:43.032            12.242          5390.281
        50   02 Jun 2027 11:49:28.377   02 Jun 2027 11:49:35.929             7.552          1244.812
        51   02 Jun 2027 11:49:59.375   02 Jun 2027 11:50:01.722             2.347           215.531
        52   02 Jun 2027 11:50:24.984   02 Jun 2027 11:50:29.950             4.966           726.937
        53   02 Jun 2027 11:50:33.928   02 Jun 2027 11:50:36.417             2.489           124.312
        54   02 Jun 2027 11:50:39.614   02 Jun 2027 11:50:40.206             0.592            99.906
        55   02 Jun 2027 11:51:21.919   02 Jun 2027 11:51:25.567             3.648          1026.750
        56   02 Jun 2027 11:51:44.597   02 Jun 2027 11:51:45.825             1.228           518.094
        57   02 Jun 2027 11:52:36.221   02 Jun 2027 11:52:40.879             4.658          1039.594
        58   02 Jun 2027 11:52:52.550   02 Jun 2027 11:52:55.028             2.478             6.406
        59   02 Jun 2027 11:54:15.882   02 Jun 2027 11:54:21.333             5.451          2368.594
        60   02 Jun 2027 11:54:31.046   02 Jun 2027 11:54:31.723             0.677           303.531
        61   02 Jun 2027 11:54:42.493   02 Jun 2027 11:54:43.367             0.874           336.562
        62   02 Jun 2027 11:54:52.362   02 Jun 2027 11:54:53.864             1.502           224.281
        63   02 Jun 2027 11:55:02.737   02 Jun 2027 11:55:04.480             1.743           277.281
        64   03 Jun 2027 04:12:43.394   03 Jun 2027 04:14:18.937            95.543         47771.500
        65   03 Jun 2027 04:14:35.268   03 Jun 2027 04:14:50.676            15.408          7704.000
        66   03 Jun 2027 04:15:24.579   03 Jun 2027 04:15:29.940             5.361          2680.500
        67   03 Jun 2027 04:16:38.901   03 Jun 2027 04:17:57.270            78.369         39184.500
        68   03 Jun 2027 05:36:58.393   03 Jun 2027 05:37:37.047            38.654         19327.000
        69   03 Jun 2027 05:37:46.129   03 Jun 2027 05:37:48.250             2.121          1060.500
        70   03 Jun 2027 05:49:26.836   03 Jun 2027 05:49:32.894             6.058          3029.000
        71   03 Jun 2027 07:10:49.399   03 Jun 2027 07:12:12.540            83.141         41570.500
        72   03 Jun 2027 07:12:51.980   03 Jun 2027 07:13:10.214            18.234          9048.406
        73   03 Jun 2027 07:13:38.154   03 Jun 2027 07:13:43.155             5.001           859.750
        74   03 Jun 2027 07:14:14.751   03 Jun 2027 07:14:18.236             3.485           927.000
        75   03 Jun 2027 07:14:51.552   03 Jun 2027 07:14:54.185             2.633           340.063
        76   03 Jun 2027 07:15:32.068   03 Jun 2027 07:15:35.872             3.804           491.750
        77   03 Jun 2027 07:16:12.479   03 Jun 2027 07:16:16.291             3.812           885.938
        78   03 Jun 2027 08:45:43.637   03 Jun 2027 08:45:50.082             6.445          2631.719
        79   03 Jun 2027 08:46:36.691   03 Jun 2027 08:46:39.787             3.096          1351.625
        80   03 Jun 2027 08:48:10.705   03 Jun 2027 08:48:11.843             1.138           557.750
        81   03 Jun 2027 08:49:27.221   03 Jun 2027 08:49:27.221             0.000             0.000
        82   03 Jun 2027 08:49:51.352   03 Jun 2027 08:49:57.845             6.493          1054.469
        83   03 Jun 2027 08:51:38.139   03 Jun 2027 08:51:45.905             7.766          2319.094
        84   03 Jun 2027 08:52:45.001   03 Jun 2027 08:52:47.989             2.988           485.906
        85   03 Jun 2027 08:53:43.504   03 Jun 2027 08:53:50.776             7.272          1645.125
        86   03 Jun 2027 08:54:42.034   03 Jun 2027 08:54:48.739             6.705          1548.281
        87   03 Jun 2027 10:23:42.812   03 Jun 2027 10:23:52.563             9.751          4813.000
        88   03 Jun 2027 10:25:40.824   03 Jun 2027 10:25:47.098             6.274          3106.563
        89   03 Jun 2027 10:27:22.739   03 Jun 2027 10:27:26.473             3.734          1139.813
        90   03 Jun 2027 10:27:58.619   03 Jun 2027 10:27:59.689             1.070           339.375
        91   03 Jun 2027 10:28:41.506   03 Jun 2027 10:28:42.598             1.092           287.813
        92   03 Jun 2027 10:29:04.595   03 Jun 2027 10:29:06.073             1.478           624.187
        93   03 Jun 2027 10:29:21.160   03 Jun 2027 10:29:21.478             0.318           159.000
        94   03 Jun 2027 10:29:28.961   03 Jun 2027 10:29:30.291             1.330           442.969
        95   03 Jun 2027 10:30:35.891   03 Jun 2027 10:30:42.602             6.711          1034.563
        96   03 Jun 2027 10:30:54.934   03 Jun 2027 10:30:57.879             2.945           385.375
        97   04 Jun 2027 04:25:06.002   04 Jun 2027 04:27:10.996           124.994         62497.000
        98   04 Jun 2027 04:28:34.653   04 Jun 2027 04:29:52.996            78.343         39171.500
        99   04 Jun 2027 05:48:54.422   04 Jun 2027 05:49:15.542            21.120         10560.000
       100   04 Jun 2027 07:25:06.921   04 Jun 2027 07:26:49.565           102.644         49970.094
       101   04 Jun 2027 07:28:02.942   04 Jun 2027 07:28:12.436             9.494          1982.875
       102   04 Jun 2027 08:58:38.674   04 Jun 2027 08:58:45.762             7.088          3517.687
       103   04 Jun 2027 09:01:53.619   04 Jun 2027 09:01:58.979             5.360          1491.156
       104   04 Jun 2027 09:05:12.808   04 Jun 2027 09:05:25.476            12.668          5808.562
       105   04 Jun 2027 09:05:46.555   04 Jun 2027 09:05:46.555             0.000             0.000
       106   04 Jun 2027 09:05:50.495   04 Jun 2027 09:05:52.868             2.373           733.813
       107   04 Jun 2027 09:06:50.352   04 Jun 2027 09:06:57.849             7.497          1786.469
       108   04 Jun 2027 10:36:04.681   04 Jun 2027 10:36:16.422            11.741          5840.625
       109   04 Jun 2027 10:37:39.053   04 Jun 2027 10:37:40.306             1.253           160.906
       110   04 Jun 2027 10:37:52.754   04 Jun 2027 10:37:54.080             1.326           389.000
       111   04 Jun 2027 10:38:38.079   04 Jun 2027 10:38:41.642             3.563           885.000
       112   04 Jun 2027 10:40:18.962   04 Jun 2027 10:40:21.357             2.395           766.312
       113   04 Jun 2027 10:40:33.915   04 Jun 2027 10:40:35.028             1.113           357.781
       114   04 Jun 2027 10:41:09.728   04 Jun 2027 10:41:13.310             3.582           784.375
       115   04 Jun 2027 10:41:52.630   04 Jun 2027 10:41:58.557             5.927          1228.750
       116   04 Jun 2027 10:42:35.362   04 Jun 2027 10:42:36.875             1.513           650.313
       117   05 Jun 2027 03:00:00.000   05 Jun 2027 03:00:41.915            41.915         20957.500
       118   05 Jun 2027 03:01:22.525   05 Jun 2027 03:01:25.806             3.281          1640.500
       119   05 Jun 2027 03:03:05.571   05 Jun 2027 03:03:09.991             4.420          2210.000
       120   05 Jun 2027 03:03:58.024   05 Jun 2027 03:04:00.432             2.408          1204.000
       121   05 Jun 2027 03:04:35.379   05 Jun 2027 03:04:37.693             2.314          1157.000
       122   05 Jun 2027 03:04:54.399   05 Jun 2027 03:05:10.246            15.847          7923.500
       123   05 Jun 2027 03:05:16.008   05 Jun 2027 03:05:17.186             1.178           589.000
       124   05 Jun 2027 04:37:06.355   05 Jun 2027 04:37:43.939            37.584         18792.000
       125   05 Jun 2027 04:39:24.658   05 Jun 2027 04:40:45.225            80.567         40283.500
       126   05 Jun 2027 06:00:46.167   05 Jun 2027 06:02:24.786            98.619         49309.500
       127   05 Jun 2027 06:03:14.538   05 Jun 2027 06:03:14.538             0.000             0.000
       128   05 Jun 2027 07:37:10.094   05 Jun 2027 07:37:50.568            40.474         18971.031
       129   05 Jun 2027 07:38:00.295   05 Jun 2027 07:38:01.483             1.188           266.594
       130   05 Jun 2027 07:38:18.282   05 Jun 2027 07:38:19.441             1.159           411.281
       131   05 Jun 2027 07:39:09.649   05 Jun 2027 07:39:13.750             4.101          1425.156
       132   05 Jun 2027 07:39:48.815   05 Jun 2027 07:39:52.216             3.401           948.781
       133   05 Jun 2027 07:40:37.498   05 Jun 2027 07:40:39.906             2.408          1082.031
       134   05 Jun 2027 09:11:16.208   05 Jun 2027 09:11:23.513             7.305          2414.094
       135   05 Jun 2027 09:12:55.816   05 Jun 2027 09:12:59.632             3.816          1860.437
       136   05 Jun 2027 09:13:21.813   05 Jun 2027 09:13:24.218             2.405           488.375
       137   05 Jun 2027 09:14:16.661   05 Jun 2027 09:14:19.372             2.711           658.125
       138   05 Jun 2027 09:15:35.911   05 Jun 2027 09:15:40.361             4.450          1904.406
       139   05 Jun 2027 09:17:45.960   05 Jun 2027 09:17:55.411             9.451          2694.719
       140   05 Jun 2027 09:18:21.545   05 Jun 2027 09:18:23.349             1.804           690.469
       141   05 Jun 2027 09:19:02.039   05 Jun 2027 09:19:04.702             2.663           476.875
       142   05 Jun 2027 10:48:16.497   05 Jun 2027 10:48:28.071            11.574          5741.750
       143   05 Jun 2027 10:50:32.570   05 Jun 2027 10:50:37.537             4.967          1422.281
       144   05 Jun 2027 10:51:58.363   05 Jun 2027 10:52:08.869            10.506           874.000
       145   05 Jun 2027 10:52:44.983   05 Jun 2027 10:52:53.223             8.240           750.094
       146   05 Jun 2027 10:53:20.090   05 Jun 2027 10:53:21.399             1.309           607.187
       147   05 Jun 2027 10:54:21.625   05 Jun 2027 10:54:25.754             4.129          1657.688
       148   05 Jun 2027 10:54:42.106   05 Jun 2027 10:54:44.364             2.258           511.000
       149   06 Jun 2027 03:11:13.593   06 Jun 2027 03:12:15.358            61.765         30882.500
       150   06 Jun 2027 03:12:21.833   06 Jun 2027 03:12:44.761            22.928         11464.000
       151   06 Jun 2027 03:12:55.965   06 Jun 2027 03:13:13.555            17.590          8795.000
       152   06 Jun 2027 03:13:43.830   06 Jun 2027 03:14:26.799            42.969         21484.500
       153   06 Jun 2027 03:15:48.883   06 Jun 2027 03:16:09.083            20.200         10100.000
       154   06 Jun 2027 03:16:43.285   06 Jun 2027 03:16:46.351             3.066          1533.000
       155   06 Jun 2027 04:50:19.533   06 Jun 2027 04:52:36.881           137.348         68152.312
       156   06 Jun 2027 06:12:51.442   06 Jun 2027 06:13:12.015            20.573          8409.156
       157   06 Jun 2027 06:14:59.605   06 Jun 2027 06:15:08.213             8.608          3256.188
       158   06 Jun 2027 06:15:35.165   06 Jun 2027 06:15:35.891             0.726           363.000
       159   06 Jun 2027 06:15:38.003   06 Jun 2027 06:15:38.003             0.000             0.000
       160   06 Jun 2027 07:49:20.671   06 Jun 2027 07:49:30.568             9.897          2870.687
       161   06 Jun 2027 07:50:13.560   06 Jun 2027 07:50:15.789             2.229          1097.938
       162   06 Jun 2027 07:51:22.123   06 Jun 2027 07:51:26.340             4.217          1942.906
       163   06 Jun 2027 07:52:19.854   06 Jun 2027 07:52:22.397             2.543           908.531
       164   06 Jun 2027 09:24:28.030   06 Jun 2027 09:24:36.586             8.556          2693.438
       165   06 Jun 2027 09:25:35.178   06 Jun 2027 09:25:41.504             6.326          1182.187
       166   06 Jun 2027 09:25:57.254   06 Jun 2027 09:26:00.361             3.107           422.875
       167   06 Jun 2027 09:27:33.491   06 Jun 2027 09:27:36.643             3.152          1529.594
       168   06 Jun 2027 09:28:18.406   06 Jun 2027 09:28:21.423             3.017           482.594
       169   06 Jun 2027 09:29:35.847   06 Jun 2027 09:29:41.413             5.566          2307.000
       170   06 Jun 2027 09:30:30.756   06 Jun 2027 09:30:34.764             4.008          1382.563
       171   06 Jun 2027 09:30:50.189   06 Jun 2027 09:30:51.505             1.316           241.219
       172   06 Jun 2027 09:31:03.646   06 Jun 2027 09:31:03.996             0.350             5.281
       173   06 Jun 2027 09:31:05.807   06 Jun 2027 09:31:06.129             0.322            56.594
       174   06 Jun 2027 11:00:49.380   06 Jun 2027 11:00:58.621             9.241          4319.656
       175   06 Jun 2027 11:02:56.237   06 Jun 2027 11:02:57.444             1.207           492.438
       176   06 Jun 2027 11:03:03.802   06 Jun 2027 11:03:05.173             1.371           128.625
       177   06 Jun 2027 11:03:42.258   06 Jun 2027 11:03:48.296             6.038           461.563
       178   06 Jun 2027 11:04:52.765   06 Jun 2027 11:04:56.581             3.816          1550.687
       179   06 Jun 2027 11:05:25.986   06 Jun 2027 11:05:29.747             3.761           918.906
       180   06 Jun 2027 11:06:13.002   06 Jun 2027 11:06:14.090             1.088            69.469
       181   06 Jun 2027 11:06:15.217   06 Jun 2027 11:06:16.154             0.937            35.219
       182   06 Jun 2027 11:06:23.951   06 Jun 2027 11:06:25.440             1.489           206.000
       183   06 Jun 2027 11:06:43.399   06 Jun 2027 11:06:44.444             1.045           312.406
       184   06 Jun 2027 11:06:59.913   06 Jun 2027 11:07:07.172             7.259           483.406
       185   07 Jun 2027 03:23:14.232   07 Jun 2027 03:23:56.709            42.477         21238.500
       186   07 Jun 2027 03:24:19.428   07 Jun 2027 03:26:44.142           144.714         72357.000
       187   07 Jun 2027 03:26:56.058   07 Jun 2027 03:27:21.547            25.489         12744.500
       188   07 Jun 2027 03:28:42.189   07 Jun 2027 03:28:46.673             4.484          2242.000
       189   07 Jun 2027 05:01:26.518   07 Jun 2027 05:02:04.677            38.159         19079.500
       190   07 Jun 2027 05:02:17.421   07 Jun 2027 05:03:07.710            50.289         24954.250
       191   07 Jun 2027 05:03:44.402   07 Jun 2027 05:03:48.213             3.811           745.500
       192   07 Jun 2027 05:04:43.267   07 Jun 2027 05:04:47.631             4.364           528.813
       193   07 Jun 2027 06:24:55.106   07 Jun 2027 06:25:06.958            11.852          5537.750
       194   07 Jun 2027 06:25:40.532   07 Jun 2027 06:25:45.167             4.635           880.063
       195   07 Jun 2027 06:25:49.906   07 Jun 2027 06:25:52.491             2.585            58.687
       196   07 Jun 2027 06:26:25.002   07 Jun 2027 06:26:25.002             0.000             0.000
       197   07 Jun 2027 06:26:57.754   07 Jun 2027 06:27:01.515             3.761          1609.250
       198   07 Jun 2027 06:27:56.321   07 Jun 2027 06:28:02.989             6.668           695.813
       199   07 Jun 2027 08:01:24.083   07 Jun 2027 08:01:27.750             3.667          1591.281
       200   07 Jun 2027 08:01:58.164   07 Jun 2027 08:02:00.580             2.416           505.844
       201   07 Jun 2027 08:02:54.289   07 Jun 2027 08:03:00.674             6.385          1025.906
       202   07 Jun 2027 08:03:12.668   07 Jun 2027 08:03:13.045             0.377           159.156
       203   07 Jun 2027 08:04:00.971   07 Jun 2027 08:04:04.326             3.355           748.781
       204   07 Jun 2027 09:36:35.158   07 Jun 2027 09:36:44.053             8.895          3256.000
       205   07 Jun 2027 09:37:58.522   07 Jun 2027 09:38:03.432             4.910          2285.094
       206   07 Jun 2027 09:38:21.436   07 Jun 2027 09:38:23.038             1.602           375.688
       207   07 Jun 2027 09:39:29.943   07 Jun 2027 09:39:32.333             2.390          1029.406
       208   07 Jun 2027 09:40:19.526   07 Jun 2027 09:40:23.584             4.058          1396.656
       209   07 Jun 2027 09:42:32.839   07 Jun 2027 09:42:36.701             3.862          1854.719
       210   07 Jun 2027 11:12:31.669   07 Jun 2027 11:12:43.944            12.275          5594.062
       211   07 Jun 2027 11:14:57.237   07 Jun 2027 11:14:59.333             2.096           515.250
       212   07 Jun 2027 11:15:34.901   07 Jun 2027 11:15:38.897             3.996           844.344
       213   07 Jun 2027 11:16:42.304   07 Jun 2027 11:16:46.610             4.306          1860.656
       214   07 Jun 2027 11:17:06.919   07 Jun 2027 11:17:09.759             2.840           634.656
       215   07 Jun 2027 11:17:41.321   07 Jun 2027 11:17:49.347             8.026           947.594
       216   07 Jun 2027 11:18:09.667   07 Jun 2027 11:18:15.488             5.821           625.188
       217   07 Jun 2027 11:18:32.622   07 Jun 2027 11:18:35.203             2.581           535.437
       218   07 Jun 2027 11:18:48.846   07 Jun 2027 11:18:51.697             2.851           387.156
       219   08 Jun 2027 03:36:18.996   08 Jun 2027 03:40:04.185           225.189        112594.500
       220   08 Jun 2027 03:42:36.750   08 Jun 2027 03:42:36.750             0.000             0.000
       221   08 Jun 2027 03:43:13.995   08 Jun 2027 03:43:24.562            10.567          5283.500
       222   08 Jun 2027 05:13:24.210   08 Jun 2027 05:15:03.369            99.159         48279.063
       223   08 Jun 2027 05:15:50.568   08 Jun 2027 05:15:54.037             3.469           813.500
       224   08 Jun 2027 05:16:19.291   08 Jun 2027 05:16:20.705             1.414           148.281
       225   08 Jun 2027 06:37:21.966   08 Jun 2027 06:37:37.708            15.742          4234.344
       226   08 Jun 2027 06:37:50.381   08 Jun 2027 06:37:51.217             0.836           382.781
       227   08 Jun 2027 06:37:53.095   08 Jun 2027 06:37:56.846             3.751            32.063
       228   08 Jun 2027 06:38:26.811   08 Jun 2027 06:38:26.811             0.000             0.000
       229   08 Jun 2027 06:38:57.753   08 Jun 2027 06:39:01.315             3.562          1599.844
       230   08 Jun 2027 08:13:08.481   08 Jun 2027 08:13:17.171             8.690          2570.094
       231   08 Jun 2027 08:14:01.192   08 Jun 2027 08:14:06.188             4.996           624.969
       232   08 Jun 2027 08:15:22.583   08 Jun 2027 08:15:28.432             5.849          1869.594
       233   08 Jun 2027 08:15:49.819   08 Jun 2027 08:15:53.760             3.941           452.156
       234   08 Jun 2027 08:16:37.906   08 Jun 2027 08:16:37.906             0.000             0.000
       235   08 Jun 2027 08:17:17.492   08 Jun 2027 08:17:22.704             5.212          2606.000
       236   08 Jun 2027 09:47:51.206   08 Jun 2027 09:47:59.931             8.725          2902.188
       237   08 Jun 2027 09:49:59.354   08 Jun 2027 09:50:09.525            10.171          2827.219
       238   08 Jun 2027 09:50:43.305   08 Jun 2027 09:50:43.560             0.255           124.937
       239   08 Jun 2027 09:51:17.196   08 Jun 2027 09:51:17.731             0.535           147.219
       240   08 Jun 2027 09:52:23.181   08 Jun 2027 09:52:27.604             4.423          1818.531
       241   08 Jun 2027 09:52:52.920   08 Jun 2027 09:52:54.505             1.585           456.063
       242   08 Jun 2027 09:53:04.095   08 Jun 2027 09:53:06.695             2.600           141.625
       243   08 Jun 2027 09:53:20.908   08 Jun 2027 09:53:21.249             0.341           102.375
       244   08 Jun 2027 09:53:56.702   08 Jun 2027 09:54:04.522             7.820          1107.906
       245   08 Jun 2027 09:54:38.660   08 Jun 2027 09:54:39.124             0.464           210.500
       246   08 Jun 2027 09:55:09.365   08 Jun 2027 09:55:17.220             7.855           945.031
       247   08 Jun 2027 11:24:37.123   08 Jun 2027 11:24:48.911            11.788          5034.281
       248   08 Jun 2027 11:26:57.313   08 Jun 2027 11:26:58.410             1.097           459.969
       249   08 Jun 2027 11:27:29.957   08 Jun 2027 11:27:35.247             5.290           876.469
       250   08 Jun 2027 11:27:36.829   08 Jun 2027 11:27:37.840             1.011            29.781
       251   08 Jun 2027 11:28:47.819   08 Jun 2027 11:28:49.697             1.878           644.094
       252   08 Jun 2027 11:29:27.507   08 Jun 2027 11:29:31.615             4.108           928.375
       253   08 Jun 2027 11:29:47.271   08 Jun 2027 11:29:50.402             3.131           489.250
       254   08 Jun 2027 11:30:47.405   08 Jun 2027 11:30:52.181             4.776          1781.344
       255   09 Jun 2027 03:48:39.741   09 Jun 2027 03:52:10.228           210.487        105243.500
       256   09 Jun 2027 03:54:02.960   09 Jun 2027 03:54:33.874            30.914         15457.000
       257   09 Jun 2027 05:14:01.664   09 Jun 2027 05:14:06.183             4.519          2259.500
       258   09 Jun 2027 05:25:23.737   09 Jun 2027 05:26:36.890            73.153         36255.031
       259   09 Jun 2027 06:47:59.709   09 Jun 2027 06:48:07.139             7.430          3715.000
       260   09 Jun 2027 06:48:32.647   09 Jun 2027 06:48:32.647             0.000             0.000
       261   09 Jun 2027 06:49:37.513   09 Jun 2027 06:49:42.770             5.257          1935.156
       262   09 Jun 2027 06:50:19.056   09 Jun 2027 06:50:21.234             2.178           829.562
       263   09 Jun 2027 06:51:21.026   09 Jun 2027 06:51:21.026             0.000             0.000
       264   09 Jun 2027 06:52:17.725   09 Jun 2027 06:52:28.632            10.907          3407.500
       265   09 Jun 2027 08:23:09.046   09 Jun 2027 08:23:12.850             3.804          1902.000
       266   09 Jun 2027 08:23:23.879   09 Jun 2027 08:23:26.633             2.754           412.782
       267   09 Jun 2027 08:24:51.687   09 Jun 2027 08:24:55.184             3.497          1744.812
       268   09 Jun 2027 08:25:39.651   09 Jun 2027 08:25:43.884             4.233          1216.000
       269   09 Jun 2027 08:26:23.782   09 Jun 2027 08:26:27.967             4.185           673.438
       270   09 Jun 2027 08:27:54.666   09 Jun 2027 08:28:00.628             5.962          2612.719
       271   09 Jun 2027 08:28:39.970   09 Jun 2027 08:28:46.261             6.291          1189.688
       272   09 Jun 2027 08:29:05.052   09 Jun 2027 08:29:13.571             8.519           432.000
       273   09 Jun 2027 09:59:56.795   09 Jun 2027 10:00:04.864             8.069          3578.781
       274   09 Jun 2027 10:01:59.673   09 Jun 2027 10:02:08.007             8.334          3587.781
       275   09 Jun 2027 10:03:29.251   09 Jun 2027 10:03:31.211             1.960           541.469
       276   09 Jun 2027 10:04:28.917   09 Jun 2027 10:04:34.239             5.322          1803.312
       277   09 Jun 2027 10:05:20.477   09 Jun 2027 10:05:22.021             1.544           491.250
       278   09 Jun 2027 10:05:31.060   09 Jun 2027 10:05:32.713             1.653           282.469
       279   09 Jun 2027 10:06:32.257   09 Jun 2027 10:06:40.143             7.886          1494.719
       280   09 Jun 2027 10:06:56.307   09 Jun 2027 10:07:02.609             6.302           490.656
       281   09 Jun 2027 11:36:57.794   09 Jun 2027 11:37:11.423            13.629          5582.219
       282   09 Jun 2027 11:39:35.900   09 Jun 2027 11:39:42.161             6.261          2150.937
       283   09 Jun 2027 11:40:32.316   09 Jun 2027 11:40:36.620             4.304           639.750
       284   09 Jun 2027 11:40:54.493   09 Jun 2027 11:40:59.245             4.752           558.531
       285   09 Jun 2027 11:41:13.726   09 Jun 2027 11:41:15.555             1.829           452.531
       286   09 Jun 2027 11:42:30.089   09 Jun 2027 11:42:36.423             6.334          2329.187
       287   09 Jun 2027 11:42:37.638   09 Jun 2027 11:42:40.879             3.241            37.969
       288   09 Jun 2027 11:42:54.633   09 Jun 2027 11:42:57.271             2.638           210.000
       289   10 Jun 2027 04:00:55.587   10 Jun 2027 04:03:48.149           172.562         86281.000
       290   10 Jun 2027 04:04:15.377   10 Jun 2027 04:04:56.644            41.267         20633.500
       291   10 Jun 2027 04:07:43.958   10 Jun 2027 04:07:45.864             1.906           953.000
       292   10 Jun 2027 05:25:08.472   10 Jun 2027 05:25:49.921            41.449         20724.500
       293   10 Jun 2027 05:37:22.358   10 Jun 2027 05:38:18.117            55.759         27879.500
       294   10 Jun 2027 06:59:35.427   10 Jun 2027 06:59:53.193            17.766          8123.812
       295   10 Jun 2027 07:01:32.215   10 Jun 2027 07:01:36.568             4.353          1715.750
       296   10 Jun 2027 07:02:23.770   10 Jun 2027 07:02:25.586             1.816           751.312
       297   10 Jun 2027 07:03:03.588   10 Jun 2027 07:03:06.911             3.323          1031.094
       298   10 Jun 2027 07:04:18.741   10 Jun 2027 07:04:31.277            12.536          2131.750
       299   10 Jun 2027 08:34:28.812   10 Jun 2027 08:34:33.896             5.084          2285.344
       300   10 Jun 2027 08:35:42.225   10 Jun 2027 08:35:44.287             2.062          1031.000
       301   10 Jun 2027 08:35:59.015   10 Jun 2027 08:36:08.325             9.310           627.312
       302   10 Jun 2027 08:37:37.197   10 Jun 2027 08:37:40.302             3.105          1365.375
       303   10 Jun 2027 08:38:11.323   10 Jun 2027 08:38:13.252             1.929           142.375
       304   10 Jun 2027 08:39:51.020   10 Jun 2027 08:39:59.085             8.065          2704.406
       305   10 Jun 2027 08:40:32.027   10 Jun 2027 08:40:32.766             0.739           369.500
       306   10 Jun 2027 08:40:54.769   10 Jun 2027 08:41:02.294             7.525          1328.094
       307   10 Jun 2027 08:41:08.023   10 Jun 2027 08:41:08.023             0.000             0.000
       308   10 Jun 2027 08:41:41.842   10 Jun 2027 08:41:45.826             3.984          1068.937
       309   10 Jun 2027 08:42:33.550   10 Jun 2027 08:42:36.029             2.479          1031.562
       310   10 Jun 2027 10:12:03.841   10 Jun 2027 10:12:11.418             7.577          3045.844
       311   10 Jun 2027 10:13:56.649   10 Jun 2027 10:13:59.381             2.732           356.562
       312   10 Jun 2027 10:15:09.132   10 Jun 2027 10:15:15.533             6.401          2179.719
       313   10 Jun 2027 10:16:38.432   10 Jun 2027 10:16:41.201             2.769          1376.062
       314   10 Jun 2027 10:17:11.799   10 Jun 2027 10:17:13.846             2.047           302.094
       315   10 Jun 2027 10:17:21.049   10 Jun 2027 10:17:23.329             2.280           192.344
       316   10 Jun 2027 10:18:07.269   10 Jun 2027 10:18:10.118             2.849           987.719
       317   10 Jun 2027 10:18:15.540   10 Jun 2027 10:18:19.988             4.448            98.687
       318   10 Jun 2027 10:18:34.042   10 Jun 2027 10:18:37.794             3.752             4.156
       319   10 Jun 2027 10:19:18.679   10 Jun 2027 10:19:25.967             7.288          1277.656
       320   10 Jun 2027 11:48:47.070   10 Jun 2027 11:48:58.151            11.081          5390.438
       321   10 Jun 2027 11:51:44.476   10 Jun 2027 11:51:46.936             2.460           334.094
       322   10 Jun 2027 11:52:31.784   10 Jun 2027 11:52:34.046             2.262           964.937
       323   10 Jun 2027 11:53:17.248   10 Jun 2027 11:53:19.037             1.789           788.625
       324   10 Jun 2027 11:54:47.669   10 Jun 2027 11:54:54.248             6.579          2138.437
       325   10 Jun 2027 11:55:09.602   10 Jun 2027 11:55:17.395             7.793           475.906
       326   11 Jun 2027 04:13:01.610   11 Jun 2027 04:15:17.535           135.925         67962.500
       327   11 Jun 2027 04:16:45.424   11 Jun 2027 04:17:10.489            25.065         12532.500
       328   11 Jun 2027 04:17:18.658   11 Jun 2027 04:17:42.420            23.762         11881.000
       329   11 Jun 2027 05:37:14.242   11 Jun 2027 05:37:57.410            43.168         21584.000
       330   11 Jun 2027 05:38:01.618   11 Jun 2027 05:38:10.577             8.959          4479.500
       331   11 Jun 2027 05:49:44.933   11 Jun 2027 05:49:49.560             4.627          2313.500
       332   11 Jun 2027 07:11:04.597   11 Jun 2027 07:12:33.558            88.961         43748.281
       333   11 Jun 2027 07:12:54.819   11 Jun 2027 07:12:57.145             2.326           601.437
       334   11 Jun 2027 07:13:17.319   11 Jun 2027 07:13:18.720             1.401           630.437
       335   11 Jun 2027 07:13:55.968   11 Jun 2027 07:14:01.747             5.779           912.531
       336   11 Jun 2027 07:15:31.671   11 Jun 2027 07:15:37.440             5.769          2767.937
       337   11 Jun 2027 07:16:01.186   11 Jun 2027 07:16:03.147             1.961           403.688
       338   11 Jun 2027 07:16:54.493   11 Jun 2027 07:16:54.493             0.000             0.000
       339   11 Jun 2027 08:45:59.288   11 Jun 2027 08:46:08.104             8.816          2481.625
       340   11 Jun 2027 08:46:51.808   11 Jun 2027 08:46:54.504             2.696          1255.406
       341   11 Jun 2027 08:48:10.579   11 Jun 2027 08:48:17.896             7.317          2376.875
       342   11 Jun 2027 08:49:05.932   11 Jun 2027 08:49:12.431             6.499          1173.813
       343   11 Jun 2027 08:49:41.367   11 Jun 2027 08:49:42.372             1.005           241.438
       344   11 Jun 2027 08:50:41.613   11 Jun 2027 08:50:43.997             2.384          1011.188
       345   11 Jun 2027 08:52:46.697   11 Jun 2027 08:52:50.470             3.773          1616.375
       346   11 Jun 2027 08:53:08.616   11 Jun 2027 08:53:09.136             0.520           251.781
       347   11 Jun 2027 08:54:01.071   11 Jun 2027 08:54:09.378             8.307          1054.219
       348   11 Jun 2027 08:54:57.476   11 Jun 2027 08:55:05.244             7.768          1490.812
       349   11 Jun 2027 10:23:59.763   11 Jun 2027 10:24:12.489            12.726          6166.656
       350   11 Jun 2027 10:26:56.747   11 Jun 2027 10:27:00.550             3.803          1824.094
       351   11 Jun 2027 10:27:39.935   11 Jun 2027 10:27:43.212             3.277          1202.437
       352   11 Jun 2027 10:28:15.000   11 Jun 2027 10:28:18.536             3.536           365.156
       353   11 Jun 2027 10:29:23.682   11 Jun 2027 10:29:24.091             0.409            94.719
       354   11 Jun 2027 10:29:43.214   11 Jun 2027 10:29:43.593             0.379           145.563
       355   11 Jun 2027 10:30:52.046   11 Jun 2027 10:30:57.317             5.271           959.969
       356   11 Jun 2027 10:31:10.280   11 Jun 2027 10:31:13.833             3.553           405.094
       357   12 Jun 2027 04:25:27.152   12 Jun 2027 04:27:59.148           151.996         75998.000
       358   12 Jun 2027 04:28:49.333   12 Jun 2027 04:29:08.877            19.544          9772.000
       359   12 Jun 2027 04:29:32.217   12 Jun 2027 04:29:38.710             6.493          3246.500
       360   12 Jun 2027 05:49:10.892   12 Jun 2027 05:49:51.552            40.660         20330.000
       361   12 Jun 2027 07:25:22.907   12 Jun 2027 07:27:07.441           104.534         51346.125
       362   12 Jun 2027 07:27:34.367   12 Jun 2027 07:27:38.099             3.732           181.031
       363   12 Jun 2027 07:28:03.624   12 Jun 2027 07:28:09.125             5.501           256.375
       364   12 Jun 2027 08:58:56.238   12 Jun 2027 08:59:03.212             6.974          2307.344
       365   12 Jun 2027 09:01:28.707   12 Jun 2027 09:01:31.024             2.317           146.406
       366   12 Jun 2027 09:02:24.558   12 Jun 2027 09:02:27.804             3.246          1457.844
       367   12 Jun 2027 09:03:54.197   12 Jun 2027 09:03:59.439             5.242          2130.281
       368   12 Jun 2027 09:04:50.541   12 Jun 2027 09:04:51.569             1.028           301.594
       369   12 Jun 2027 09:05:46.621   12 Jun 2027 09:05:46.621             0.000             0.000
       370   12 Jun 2027 09:06:07.699   12 Jun 2027 09:06:19.029            11.330          1090.969
       371   12 Jun 2027 09:07:29.568   12 Jun 2027 09:07:30.545             0.977           488.500
       372   12 Jun 2027 10:36:22.069   12 Jun 2027 10:36:35.360            13.291          6239.594
       373   12 Jun 2027 10:38:39.495   12 Jun 2027 10:38:43.535             4.040          1281.813
       374   12 Jun 2027 10:40:45.998   12 Jun 2027 10:40:51.432             5.434          1983.437
       375   12 Jun 2027 10:40:59.075   12 Jun 2027 10:40:59.622             0.547            53.781
       376   12 Jun 2027 10:41:31.356   12 Jun 2027 10:41:32.883             1.527           380.437
       377   12 Jun 2027 10:42:32.921   12 Jun 2027 10:42:36.036             3.115          1095.562
       378   12 Jun 2027 10:42:46.091   12 Jun 2027 10:42:46.943             0.852           291.031
       379   12 Jun 2027 10:43:06.552   12 Jun 2027 10:43:07.941             1.389           589.562
       380   13 Jun 2027 03:00:00.000   13 Jun 2027 03:00:06.183             6.183          3091.500
       381   13 Jun 2027 03:00:56.749   13 Jun 2027 03:01:00.527             3.778          1889.000
       382   13 Jun 2027 03:01:02.275   13 Jun 2027 03:01:09.843             7.568          3784.000
       383   13 Jun 2027 03:01:22.739   13 Jun 2027 03:01:39.193            16.454          8227.000
       384   13 Jun 2027 03:02:44.402   13 Jun 2027 03:02:50.356             5.954          2977.000
       385   13 Jun 2027 03:02:58.621   13 Jun 2027 03:02:58.980             0.359           179.500
       386   13 Jun 2027 03:03:24.838   13 Jun 2027 03:03:24.838             0.000             0.000
       387   13 Jun 2027 03:03:35.803   13 Jun 2027 03:03:38.661             2.858          1429.000
       388   13 Jun 2027 03:04:14.712   13 Jun 2027 03:04:24.172             9.460          4730.000
       389   13 Jun 2027 03:04:43.160   13 Jun 2027 03:04:52.183             9.023          4511.500
       390   13 Jun 2027 03:04:59.105   13 Jun 2027 03:05:05.184             6.079          3039.500
       391   13 Jun 2027 04:37:22.200   13 Jun 2027 04:39:10.856           108.656         54328.000
       392   13 Jun 2027 04:40:05.673   13 Jun 2027 04:40:11.847             6.174          3087.000
       393   13 Jun 2027 04:40:59.809   13 Jun 2027 04:41:02.664             2.855          1427.500
       394   13 Jun 2027 04:41:09.776   13 Jun 2027 04:41:19.243             9.467          4733.500
       395   13 Jun 2027 04:41:31.251   13 Jun 2027 04:41:31.251             0.000             0.000
       396   13 Jun 2027 06:01:02.038   13 Jun 2027 06:02:39.559            97.521         48760.500
       397   13 Jun 2027 07:37:29.484   13 Jun 2027 07:37:55.628            26.144         13072.000
       398   13 Jun 2027 07:37:58.969   13 Jun 2027 07:38:01.908             2.939          1413.030
       399   13 Jun 2027 07:38:16.674   13 Jun 2027 07:38:18.081             1.407           216.125
       400   13 Jun 2027 07:38:36.115   13 Jun 2027 07:38:37.194             1.079           395.719
       401   13 Jun 2027 07:39:22.578   13 Jun 2027 07:39:24.260             1.682           841.000
       402   13 Jun 2027 07:39:34.797   13 Jun 2027 07:39:37.108             2.311           374.250
       403   13 Jun 2027 07:40:31.675   13 Jun 2027 07:40:37.597             5.922           807.656
       404   13 Jun 2027 09:09:40.587   13 Jun 2027 09:09:47.134             6.547          3273.500
       405   13 Jun 2027 09:11:34.936   13 Jun 2027 09:11:39.067             4.131           837.094
       406   13 Jun 2027 09:13:14.042   13 Jun 2027 09:13:18.069             4.027          1894.375
       407   13 Jun 2027 09:13:40.067   13 Jun 2027 09:13:42.991             2.924           563.906
       408   13 Jun 2027 09:14:35.673   13 Jun 2027 09:14:37.150             1.477           694.594
       409   13 Jun 2027 09:15:52.638   13 Jun 2027 09:15:56.613             3.975          1860.969
       410   13 Jun 2027 09:16:24.032   13 Jun 2027 09:16:28.018             3.986           179.031
       411   13 Jun 2027 09:18:03.454   13 Jun 2027 09:18:12.080             8.626          2703.969
       412   13 Jun 2027 09:18:40.026   13 Jun 2027 09:18:43.451             3.425           694.625
       413   13 Jun 2027 09:19:15.855   13 Jun 2027 09:19:16.680             0.825           336.437
       414   13 Jun 2027 10:48:32.843   13 Jun 2027 10:48:42.951            10.108          4301.750
       415   13 Jun 2027 10:51:01.027   13 Jun 2027 10:51:02.582             1.555           373.344
       416   13 Jun 2027 10:53:16.473   13 Jun 2027 10:53:20.320             3.847          1916.906
       417   13 Jun 2027 10:53:30.336   13 Jun 2027 10:53:35.538             5.202           190.531
       418   13 Jun 2027 10:53:42.977   13 Jun 2027 10:53:43.709             0.732           153.750
       419   13 Jun 2027 10:54:38.482   13 Jun 2027 10:54:41.439             2.957          1268.625
       420   13 Jun 2027 10:54:58.208   13 Jun 2027 10:54:58.386             0.178            89.000
