uniorb/output/strategy_4/Camera/Camera_KinoSat_111807.txt

KinoSat_111807
-------------------------
    Access    *     Start Time (UTCG)     *     Stop Time (UTCG)  *   Duration (s) *   Data (Mbytes)
         1   01 Jun 2027 04:23:42.737   01 Jun 2027 04:24:44.086            61.349         30674.500
         2   01 Jun 2027 04:24:49.706   01 Jun 2027 04:25:19.003            29.297         14648.500
         3   01 Jun 2027 04:25:20.262   01 Jun 2027 04:25:58.548            38.286         19143.000
         4   01 Jun 2027 04:27:01.433   01 Jun 2027 04:27:10.351             8.918          4459.000
         5   01 Jun 2027 04:28:14.098   01 Jun 2027 04:28:26.191            12.093          6046.500
         6   01 Jun 2027 06:02:44.657   01 Jun 2027 06:04:57.432           132.775         66387.500
         7   01 Jun 2027 06:06:04.995   01 Jun 2027 06:06:14.444             9.449          4724.500
         8   01 Jun 2027 07:25:16.135   01 Jun 2027 07:27:28.458           132.323         66161.500
         9   01 Jun 2027 09:01:42.040   01 Jun 2027 09:02:10.837            28.797         14398.500
        10   01 Jun 2027 09:02:40.535   01 Jun 2027 09:04:23.789           103.254         51627.000
        11   01 Jun 2027 10:36:50.354   01 Jun 2027 10:39:55.596           185.242         92621.000
        12   01 Jun 2027 10:43:32.758   01 Jun 2027 10:43:37.683             4.925          2462.500
        13   02 Jun 2027 03:01:06.103   02 Jun 2027 03:01:19.333            13.230          6615.000
        14   02 Jun 2027 03:01:29.246   02 Jun 2027 03:01:59.376            30.130         15065.000
        15   02 Jun 2027 03:02:54.910   02 Jun 2027 03:03:02.802             7.892          3946.000
        16   02 Jun 2027 03:03:43.813   02 Jun 2027 03:03:45.618             1.805           902.500
        17   02 Jun 2027 03:04:11.552   02 Jun 2027 03:04:17.108             5.556          2778.000
        18   02 Jun 2027 03:04:21.539   02 Jun 2027 03:04:31.450             9.911          4955.500
        19   02 Jun 2027 04:35:40.363   02 Jun 2027 04:36:29.051            48.688         24344.000
        20   02 Jun 2027 04:36:46.906   02 Jun 2027 04:37:29.703            42.797         21398.500
        21   02 Jun 2027 04:38:04.690   02 Jun 2027 04:38:22.989            18.299          9149.500
        22   02 Jun 2027 04:39:15.601   02 Jun 2027 04:39:27.833            12.232          6116.000
        23   02 Jun 2027 04:40:00.073   02 Jun 2027 04:40:06.583             6.510          3255.000
        24   02 Jun 2027 04:41:24.226   02 Jun 2027 04:41:41.929            17.703          8851.500
        25   02 Jun 2027 06:13:54.397   02 Jun 2027 06:17:12.738           198.341         99170.500
        26   02 Jun 2027 07:37:16.011   02 Jun 2027 07:38:06.620            50.609         25304.500
        27   02 Jun 2027 07:38:18.714   02 Jun 2027 07:38:37.671            18.957          9478.500
        28   02 Jun 2027 09:13:52.583   02 Jun 2027 09:16:22.906           150.323         75161.500
        29   02 Jun 2027 10:49:02.627   02 Jun 2027 10:50:40.818            98.191         48447.906
        30   02 Jun 2027 10:51:52.616   02 Jun 2027 10:51:52.616             0.000             0.000
        31   02 Jun 2027 10:52:11.109   02 Jun 2027 10:52:21.381            10.272          2610.875
        32   02 Jun 2027 10:55:23.427   02 Jun 2027 10:55:38.153            14.726          5688.938
        33   03 Jun 2027 03:09:28.256   03 Jun 2027 03:09:45.208            16.952          8476.000
        34   03 Jun 2027 03:09:52.309   03 Jun 2027 03:10:32.151            39.842         19921.000
        35   03 Jun 2027 03:10:50.655   03 Jun 2027 03:10:54.069             3.414          1707.000
        36   03 Jun 2027 03:11:18.859   03 Jun 2027 03:11:23.322             4.463          2231.500
        37   03 Jun 2027 03:14:53.138   03 Jun 2027 03:15:46.616            53.478         26739.000
        38   03 Jun 2027 04:48:45.866   03 Jun 2027 04:51:16.518           150.652         75326.000
        39   03 Jun 2027 04:55:03.056   03 Jun 2027 04:55:25.277            22.221         11110.500
        40   03 Jun 2027 04:55:36.819   03 Jun 2027 04:56:02.221            25.402         12509.531
        41   03 Jun 2027 06:15:08.840   03 Jun 2027 06:15:12.508             3.668          1834.000
        42   03 Jun 2027 06:25:51.826   03 Jun 2027 06:26:12.356            20.530         10198.500
        43   03 Jun 2027 07:49:52.105   03 Jun 2027 07:50:08.834            16.729          6761.031
        44   03 Jun 2027 07:50:22.625   03 Jun 2027 07:50:26.023             3.398            42.687
        45   03 Jun 2027 07:51:54.953   03 Jun 2027 07:52:01.157             6.204          2399.188
        46   03 Jun 2027 09:25:36.925   03 Jun 2027 09:25:41.398             4.473          1888.437
        47   03 Jun 2027 09:27:33.405   03 Jun 2027 09:27:39.973             6.568          3020.562
        48   03 Jun 2027 09:28:05.128   03 Jun 2027 09:28:05.790             0.662           148.813
        49   03 Jun 2027 09:28:21.246   03 Jun 2027 09:28:22.199             0.953           447.469
        50   03 Jun 2027 11:00:30.470   03 Jun 2027 11:00:39.824             9.354          2634.438
        51   03 Jun 2027 11:02:49.834   03 Jun 2027 11:02:57.077             7.243          3337.937
        52   03 Jun 2027 11:03:42.345   03 Jun 2027 11:03:43.848             1.503           575.344
        53   03 Jun 2027 11:07:16.458   03 Jun 2027 11:07:32.581            16.123          6504.000
        54   04 Jun 2027 03:22:08.918   04 Jun 2027 03:25:31.764           202.846        101423.000
        55   04 Jun 2027 03:26:44.668   04 Jun 2027 03:27:05.538            20.870         10435.000
        56   04 Jun 2027 05:01:06.524   04 Jun 2027 05:02:32.851            86.327         42771.906
        57   04 Jun 2027 05:03:27.788   04 Jun 2027 05:03:32.742             4.954          1675.625
        58   04 Jun 2027 05:07:01.758   04 Jun 2027 05:07:13.945            12.187          5864.375
        59   04 Jun 2027 06:26:26.346   04 Jun 2027 06:26:40.595            14.249          7094.656
        60   04 Jun 2027 06:27:10.604   04 Jun 2027 06:27:15.209             4.605           748.281
        61   04 Jun 2027 06:37:50.345   04 Jun 2027 06:37:56.074             5.729          2021.469
        62   04 Jun 2027 06:38:06.377   04 Jun 2027 06:38:07.626             1.249           321.969
        63   04 Jun 2027 08:00:27.880   04 Jun 2027 08:00:35.521             7.641          3492.531
        64   04 Jun 2027 08:00:43.540   04 Jun 2027 08:00:44.961             1.421           218.344
        65   04 Jun 2027 08:01:48.395   04 Jun 2027 08:01:53.164             4.769          1601.187
        66   04 Jun 2027 08:02:50.731   04 Jun 2027 08:02:54.044             3.313           848.187
        67   04 Jun 2027 08:04:38.617   04 Jun 2027 08:04:42.908             4.291          1572.844
        68   04 Jun 2027 09:35:51.205   04 Jun 2027 09:35:55.129             3.924          1877.906
        69   04 Jun 2027 09:36:32.730   04 Jun 2027 09:36:35.563             2.833           373.437
        70   04 Jun 2027 09:39:00.343   04 Jun 2027 09:39:04.322             3.979          1524.844
        71   04 Jun 2027 09:40:31.514   04 Jun 2027 09:40:32.674             1.160           496.750
        72   04 Jun 2027 09:41:16.394   04 Jun 2027 09:41:19.429             3.035           884.875
        73   04 Jun 2027 11:15:23.017   04 Jun 2027 11:15:42.401            19.384          8754.687
        74   04 Jun 2027 11:16:51.992   04 Jun 2027 11:16:56.779             4.787          2174.719
        75   04 Jun 2027 11:17:30.342   04 Jun 2027 11:17:36.134             5.792          1048.844
        76   04 Jun 2027 11:17:52.383   04 Jun 2027 11:17:54.168             1.785           416.188
        77   04 Jun 2027 11:18:43.241   04 Jun 2027 11:18:46.266             3.025           948.844
        78   04 Jun 2027 11:19:24.570   04 Jun 2027 11:19:27.402             2.832           645.125
        79   05 Jun 2027 03:34:16.772   05 Jun 2027 03:35:51.226            94.454         47227.000
        80   05 Jun 2027 03:35:52.012   05 Jun 2027 03:37:20.817            88.805         44402.500
        81   05 Jun 2027 03:37:50.446   05 Jun 2027 03:38:19.830            29.384         14692.000
        82   05 Jun 2027 03:39:57.603   05 Jun 2027 03:40:05.313             7.710          3855.000
        83   05 Jun 2027 05:13:21.323   05 Jun 2027 05:15:08.646           107.323         50982.219
        84   05 Jun 2027 05:16:02.156   05 Jun 2027 05:16:04.324             2.168           881.844
        85   05 Jun 2027 05:17:46.178   05 Jun 2027 05:17:51.074             4.896          1588.625
        86   05 Jun 2027 05:18:08.445   05 Jun 2027 05:18:10.188             1.743           334.344
        87   05 Jun 2027 05:18:36.962   05 Jun 2027 05:18:37.788             0.826           321.594
        88   05 Jun 2027 05:19:08.575   05 Jun 2027 05:19:10.711             2.136           479.938
        89   05 Jun 2027 06:37:59.583   05 Jun 2027 06:38:05.896             6.313          3156.500
        90   05 Jun 2027 06:38:36.255   05 Jun 2027 06:38:36.592             0.337           168.500
        91   05 Jun 2027 06:39:27.442   05 Jun 2027 06:39:36.745             9.303          2824.125
        92   05 Jun 2027 06:49:49.720   05 Jun 2027 06:49:56.721             7.001          2578.719
        93   05 Jun 2027 08:12:06.775   05 Jun 2027 08:12:17.284            10.509          4928.562
        94   05 Jun 2027 08:12:52.820   05 Jun 2027 08:12:57.006             4.186          1064.375
        95   05 Jun 2027 08:14:01.423   05 Jun 2027 08:14:05.794             4.371          1537.688
        96   05 Jun 2027 08:14:25.664   05 Jun 2027 08:14:26.612             0.948           383.437
        97   05 Jun 2027 08:15:38.996   05 Jun 2027 08:15:44.245             5.249          1912.156
        98   05 Jun 2027 08:16:18.596   05 Jun 2027 08:16:23.819             5.223           628.906
        99   05 Jun 2027 09:47:00.496   05 Jun 2027 09:47:08.033             7.537          2888.313
       100   05 Jun 2027 09:48:05.548   05 Jun 2027 09:48:14.805             9.257           933.156
       101   05 Jun 2027 09:48:22.615   05 Jun 2027 09:48:23.187             0.572           244.063
       102   05 Jun 2027 09:50:09.360   05 Jun 2027 09:50:14.637             5.277          1815.531
       103   05 Jun 2027 09:52:16.371   05 Jun 2027 09:52:25.376             9.005          2924.719
       104   05 Jun 2027 09:53:02.186   05 Jun 2027 09:53:03.737             1.551           560.375
       105   05 Jun 2027 09:53:39.325   05 Jun 2027 09:53:41.223             1.898           949.000
       106   05 Jun 2027 09:53:46.012   05 Jun 2027 09:53:46.012             0.000             0.000
       107   05 Jun 2027 09:55:04.629   05 Jun 2027 09:55:09.977             5.348          2026.500
       108   05 Jun 2027 09:55:20.984   05 Jun 2027 09:55:24.788             3.804            84.875
       109   05 Jun 2027 11:24:33.426   05 Jun 2027 11:24:44.013            10.587          4643.406
       110   05 Jun 2027 11:27:15.920   05 Jun 2027 11:27:20.539             4.619          2129.594
       111   05 Jun 2027 11:28:01.564   05 Jun 2027 11:28:04.471             2.907           851.125
       112   05 Jun 2027 11:29:53.202   05 Jun 2027 11:29:57.278             4.076          2019.969
       113   05 Jun 2027 11:30:43.039   05 Jun 2027 11:30:46.491             3.452          1335.188
       114   05 Jun 2027 11:31:31.944   05 Jun 2027 11:31:40.209             8.265          1035.375
       115   05 Jun 2027 11:31:53.027   05 Jun 2027 11:31:53.502             0.475           237.500
       116   06 Jun 2027 03:46:43.882   06 Jun 2027 03:47:01.171            17.289          8644.500
       117   06 Jun 2027 03:47:09.592   06 Jun 2027 03:47:38.975            29.383         14691.500
       118   06 Jun 2027 03:47:43.773   06 Jun 2027 03:48:37.823            54.050         27025.000
       119   06 Jun 2027 03:48:40.032   06 Jun 2027 03:50:02.989            82.957         41478.500
       120   06 Jun 2027 03:51:15.599   06 Jun 2027 03:51:27.288            11.689          5844.500
       121   06 Jun 2027 03:52:05.859   06 Jun 2027 03:52:05.859             0.000             0.000
       122   06 Jun 2027 03:52:34.751   06 Jun 2027 03:52:38.866             4.115          2057.500
       123   06 Jun 2027 05:25:26.632   06 Jun 2027 05:27:07.621           100.989         50292.187
       124   06 Jun 2027 05:30:00.467   06 Jun 2027 05:30:11.066            10.599          5126.563
       125   06 Jun 2027 05:30:53.986   06 Jun 2027 05:30:58.573             4.587          1017.406
       126   06 Jun 2027 05:31:44.077   06 Jun 2027 05:31:46.957             2.880          1316.938
       127   06 Jun 2027 05:32:13.786   06 Jun 2027 05:32:15.338             1.552           539.406
       128   06 Jun 2027 06:49:43.504   06 Jun 2027 06:49:55.054            11.550          5199.750
       129   06 Jun 2027 06:50:50.056   06 Jun 2027 06:50:53.394             3.338          1360.281
       130   06 Jun 2027 06:51:11.739   06 Jun 2027 06:51:12.730             0.991           184.750
       131   06 Jun 2027 07:02:05.872   06 Jun 2027 07:02:13.799             7.927          2225.687
       132   06 Jun 2027 08:23:36.885   06 Jun 2027 08:23:44.969             8.084          3922.438
       133   06 Jun 2027 08:24:22.827   06 Jun 2027 08:24:26.390             3.563           127.250
       134   06 Jun 2027 08:25:47.710   06 Jun 2027 08:25:51.560             3.850          1159.312
       135   06 Jun 2027 08:26:36.708   06 Jun 2027 08:26:43.637             6.929          1079.031
       136   06 Jun 2027 08:27:37.887   06 Jun 2027 08:27:43.864             5.977          1100.969
       137   06 Jun 2027 08:28:21.453   06 Jun 2027 08:28:24.418             2.965           771.062
       138   06 Jun 2027 09:58:31.433   06 Jun 2027 09:58:36.145             4.712          2191.156
       139   06 Jun 2027 10:00:39.863   06 Jun 2027 10:00:49.236             9.373           493.063
       140   06 Jun 2027 10:01:22.871   06 Jun 2027 10:01:26.689             3.818          1004.625
       141   06 Jun 2027 10:02:16.846   06 Jun 2027 10:02:18.208             1.362           336.219
       142   06 Jun 2027 10:05:34.120   06 Jun 2027 10:05:47.549            13.429          2422.656
       143   06 Jun 2027 10:06:58.464   06 Jun 2027 10:07:02.178             3.714          1745.625
       144   06 Jun 2027 11:36:28.190   06 Jun 2027 11:36:37.600             9.410          4705.000
       145   06 Jun 2027 11:38:50.288   06 Jun 2027 11:39:01.929            11.641          4598.312
       146   06 Jun 2027 11:41:53.055   06 Jun 2027 11:41:58.715             5.660          2174.844
       147   06 Jun 2027 11:42:47.343   06 Jun 2027 11:42:53.109             5.766          1458.688
       148   06 Jun 2027 11:43:02.673   06 Jun 2027 11:43:05.055             2.382           281.563
       149   06 Jun 2027 11:43:16.200   06 Jun 2027 11:43:17.936             1.736           297.969
       150   07 Jun 2027 03:59:20.189   07 Jun 2027 03:59:31.917            11.728          5864.000
       151   07 Jun 2027 03:59:43.091   07 Jun 2027 04:00:43.884            60.793         30396.500
       152   07 Jun 2027 04:00:51.040   07 Jun 2027 04:01:21.176            30.136         15068.000
       153   07 Jun 2027 04:01:28.737   07 Jun 2027 04:02:45.997            77.260         38630.000
       154   07 Jun 2027 04:03:17.991   07 Jun 2027 04:03:28.995            11.004          5502.000
       155   07 Jun 2027 04:03:53.294   07 Jun 2027 04:03:58.780             5.486          2743.000
       156   07 Jun 2027 04:04:29.172   07 Jun 2027 04:04:35.264             6.092          3046.000
       157   07 Jun 2027 05:37:50.546   07 Jun 2027 05:39:03.720            73.174         36587.000
       158   07 Jun 2027 05:39:51.494   07 Jun 2027 05:40:58.244            66.750         33060.220
       159   07 Jun 2027 05:42:14.016   07 Jun 2027 05:42:15.502             1.486           101.656
       160   07 Jun 2027 05:42:36.732   07 Jun 2027 05:42:37.289             0.557           153.625
       161   07 Jun 2027 07:01:39.774   07 Jun 2027 07:02:01.601            21.827          7851.063
       162   07 Jun 2027 07:03:50.812   07 Jun 2027 07:03:55.663             4.851          2425.500
       163   07 Jun 2027 08:37:39.125   07 Jun 2027 08:37:52.378            13.253          6268.000
       164   07 Jun 2027 08:37:57.798   07 Jun 2027 08:37:59.706             1.908           165.531
       165   07 Jun 2027 08:38:28.882   07 Jun 2027 08:38:33.029             4.147           656.469
       166   07 Jun 2027 08:39:05.888   07 Jun 2027 08:39:09.687             3.799           971.781
       167   07 Jun 2027 08:39:54.147   07 Jun 2027 08:39:58.705             4.558          1295.438
       168   07 Jun 2027 08:40:56.909   07 Jun 2027 08:40:59.427             2.518          1024.813
       169   07 Jun 2027 10:11:25.811   07 Jun 2027 10:11:35.265             9.454          2814.812
       170   07 Jun 2027 10:13:09.034   07 Jun 2027 10:13:12.044             3.010          1371.625
       171   07 Jun 2027 10:13:37.470   07 Jun 2027 10:13:37.955             0.485           170.969
       172   07 Jun 2027 10:14:01.459   07 Jun 2027 10:14:02.633             1.174           518.125
       173   07 Jun 2027 10:15:20.303   07 Jun 2027 10:15:20.560             0.257            50.938
       174   07 Jun 2027 10:17:24.525   07 Jun 2027 10:17:29.349             4.824          2135.188
       175   07 Jun 2027 10:17:44.588   07 Jun 2027 10:17:47.142             2.554           369.156
       176   07 Jun 2027 10:18:19.300   07 Jun 2027 10:18:21.809             2.509           149.781
       177   07 Jun 2027 10:18:40.461   07 Jun 2027 10:18:46.019             5.558           139.312
       178   07 Jun 2027 10:18:52.891   07 Jun 2027 10:18:53.713             0.822           122.062
       179   07 Jun 2027 11:48:47.819   07 Jun 2027 11:49:02.141            14.322          6807.750
       180   07 Jun 2027 11:50:57.352   07 Jun 2027 11:51:00.776             3.424          1648.250
       181   07 Jun 2027 11:52:04.085   07 Jun 2027 11:52:07.081             2.996          1366.375
       182   07 Jun 2027 11:52:58.287   07 Jun 2027 11:52:59.507             1.220           599.562
       183   07 Jun 2027 11:53:13.547   07 Jun 2027 11:53:15.249             1.702           285.938
       184   07 Jun 2027 11:53:51.634   07 Jun 2027 11:53:56.127             4.493          1137.031
       185   07 Jun 2027 11:54:48.530   07 Jun 2027 11:54:53.103             4.573           559.969
       186   07 Jun 2027 11:55:20.114   07 Jun 2027 11:55:22.493             2.379           393.281
       187   07 Jun 2027 11:55:27.284   07 Jun 2027 11:55:28.421             1.137           149.719
       188   08 Jun 2027 04:11:52.496   08 Jun 2027 04:12:01.035             8.539          4269.500
       189   08 Jun 2027 04:12:04.678   08 Jun 2027 04:12:18.741            14.063          7031.500
       190   08 Jun 2027 04:12:26.344   08 Jun 2027 04:14:19.224           112.880         56440.000
       191   08 Jun 2027 04:15:51.311   08 Jun 2027 04:15:59.444             8.133          4066.500
       192   08 Jun 2027 04:17:01.564   08 Jun 2027 04:17:10.440             8.876          4438.000
       193   08 Jun 2027 05:50:09.325   08 Jun 2027 05:50:29.971            20.646         10323.000
       194   08 Jun 2027 05:51:10.327   08 Jun 2027 05:53:43.268           152.941         75284.688
       195   08 Jun 2027 05:54:33.008   08 Jun 2027 05:54:34.374             1.366           295.500
       196   08 Jun 2027 07:13:31.596   08 Jun 2027 07:13:50.712            19.116          9066.844
       197   08 Jun 2027 07:16:06.089   08 Jun 2027 07:16:06.915             0.826           413.000
       198   08 Jun 2027 08:49:53.824   08 Jun 2027 08:50:14.901            21.077          8686.719
       199   08 Jun 2027 08:51:03.168   08 Jun 2027 08:51:06.161             2.993          1206.937
       200   08 Jun 2027 08:51:50.369   08 Jun 2027 08:51:52.494             2.125           773.156
       201   08 Jun 2027 08:52:59.201   08 Jun 2027 08:53:03.117             3.916          1019.812
       202   08 Jun 2027 10:22:10.672   08 Jun 2027 10:22:21.734            11.062          2646.406
       203   08 Jun 2027 10:23:57.885   08 Jun 2027 10:24:02.798             4.913           703.000
       204   08 Jun 2027 10:25:42.898   08 Jun 2027 10:25:54.813            11.915          2411.969
       205   08 Jun 2027 10:26:53.488   08 Jun 2027 10:27:02.787             9.299          1823.937
       206   08 Jun 2027 10:29:11.442   08 Jun 2027 10:29:15.978             4.536          1761.781
       207   08 Jun 2027 10:31:08.352   08 Jun 2027 10:31:10.199             1.847           848.719
       208   08 Jun 2027 10:31:54.874   08 Jun 2027 10:31:57.417             2.543            39.656
       209   09 Jun 2027 04:23:58.614   09 Jun 2027 04:25:00.301            61.687         30843.500
       210   09 Jun 2027 04:25:06.687   09 Jun 2027 04:25:33.741            27.054         13527.000
       211   09 Jun 2027 04:26:38.073   09 Jun 2027 04:27:32.824            54.751         27375.500
       212   09 Jun 2027 04:28:48.747   09 Jun 2027 04:28:48.747             0.000             0.000
       213   09 Jun 2027 04:29:13.775   09 Jun 2027 04:29:24.899            11.124          5562.000
       214   09 Jun 2027 06:03:03.418   09 Jun 2027 06:05:59.387           175.969         87970.031
       215   09 Jun 2027 07:25:35.288   09 Jun 2027 07:25:48.347            13.059          6529.500
       216   09 Jun 2027 07:27:20.493   09 Jun 2027 07:27:26.806             6.313          3107.406
       217   09 Jun 2027 07:28:23.921   09 Jun 2027 07:28:27.006             3.085          1172.875
       218   09 Jun 2027 09:02:04.659   09 Jun 2027 09:02:12.491             7.832          3480.875
       219   09 Jun 2027 09:02:39.057   09 Jun 2027 09:02:40.875             1.818           267.687
       220   09 Jun 2027 09:03:00.620   09 Jun 2027 09:03:03.162             2.542             9.875
       221   09 Jun 2027 09:03:41.626   09 Jun 2027 09:03:44.583             2.957          1202.000
       222   09 Jun 2027 09:03:53.423   09 Jun 2027 09:03:54.141             0.718           258.375
       223   09 Jun 2027 09:05:04.047   09 Jun 2027 09:05:09.116             5.069          1102.750
       224   09 Jun 2027 10:37:09.528   09 Jun 2027 10:37:20.414            10.886          3866.031
       225   09 Jun 2027 10:38:16.408   09 Jun 2027 10:38:18.805             2.397           933.344
       226   09 Jun 2027 10:40:13.048   09 Jun 2027 10:40:23.324            10.276          3461.750
       227   09 Jun 2027 10:40:53.102   09 Jun 2027 10:40:56.407             3.305           314.969
       228   09 Jun 2027 10:41:56.027   09 Jun 2027 10:41:59.705             3.678          1463.594
       229   09 Jun 2027 10:42:30.890   09 Jun 2027 10:42:33.518             2.628           903.250
       230   09 Jun 2027 10:43:12.200   09 Jun 2027 10:43:15.261             3.061           902.094
       231   09 Jun 2027 10:43:42.564   09 Jun 2027 10:43:44.388             1.824           736.781
       232   09 Jun 2027 10:43:50.070   09 Jun 2027 10:43:50.476             0.406             0.250
       233   10 Jun 2027 03:01:24.847   10 Jun 2027 03:02:04.116            39.269         19634.500
       234   10 Jun 2027 03:02:40.001   10 Jun 2027 03:03:08.703            28.702         14351.000
       235   10 Jun 2027 04:35:58.661   10 Jun 2027 04:36:42.743            44.082         22041.000
       236   10 Jun 2027 04:37:04.330   10 Jun 2027 04:38:45.829           101.499         50749.500
       237   10 Jun 2027 04:40:36.129   10 Jun 2027 04:40:48.650            12.521          6260.500
       238   10 Jun 2027 04:41:23.867   10 Jun 2027 04:41:23.867             0.000             0.000
       239   10 Jun 2027 06:14:11.375   10 Jun 2027 06:14:49.410            38.035         19017.500
       240   10 Jun 2027 06:15:01.831   10 Jun 2027 06:16:12.372            70.541         34941.844
       241   10 Jun 2027 07:37:32.157   10 Jun 2027 07:37:42.103             9.946          4689.469
       242   10 Jun 2027 07:38:54.873   10 Jun 2027 07:38:59.574             4.701          2184.313
       243   10 Jun 2027 07:39:05.781   10 Jun 2027 07:39:08.140             2.359            92.906
       244   10 Jun 2027 07:40:19.278   10 Jun 2027 07:40:23.384             4.106           911.062
       245   10 Jun 2027 07:40:39.998   10 Jun 2027 07:40:41.605             1.607           399.438
       246   10 Jun 2027 09:14:21.565   10 Jun 2027 09:14:32.922            11.357          5488.781
       247   10 Jun 2027 09:16:40.461   10 Jun 2027 09:16:47.106             6.645          2345.437
       248   10 Jun 2027 09:17:11.559   10 Jun 2027 09:17:14.377             2.818            58.313
       249   10 Jun 2027 10:49:34.880   10 Jun 2027 10:49:49.904            15.024          4207.250
       250   10 Jun 2027 10:52:09.960   10 Jun 2027 10:52:16.999             7.039          2771.062
       251   10 Jun 2027 10:55:42.578   10 Jun 2027 10:55:55.218            12.640          6155.594
       252   11 Jun 2027 03:09:46.076   11 Jun 2027 03:10:00.506            14.430          7215.000
       253   11 Jun 2027 03:10:07.618   11 Jun 2027 03:10:08.237             0.619           309.500
       254   11 Jun 2027 03:10:10.938   11 Jun 2027 03:11:31.449            80.511         40255.500
       255   11 Jun 2027 03:12:42.212   11 Jun 2027 03:12:52.451            10.239          5119.500
       256   11 Jun 2027 03:13:07.597   11 Jun 2027 03:13:08.234             0.637           318.500
       257   11 Jun 2027 03:15:31.334   11 Jun 2027 03:15:52.499            21.165         10582.500
       258   11 Jun 2027 03:16:04.378   11 Jun 2027 03:16:09.457             5.079          2539.500
       259   11 Jun 2027 04:49:03.722   11 Jun 2027 04:51:30.719           146.997         73498.500
       260   11 Jun 2027 04:54:13.835   11 Jun 2027 04:54:20.046             6.211          3105.500
       261   11 Jun 2027 04:55:18.462   11 Jun 2027 04:55:43.314            24.852         12426.000
       262   11 Jun 2027 04:55:52.020   11 Jun 2027 04:55:57.879             5.859          2495.843
       263   11 Jun 2027 06:15:23.145   11 Jun 2027 06:15:34.555            11.410          5705.000
       264   11 Jun 2027 06:26:09.234   11 Jun 2027 06:26:15.328             6.094          2587.000
       265   11 Jun 2027 06:26:20.386   11 Jun 2027 06:26:20.799             0.413           108.563
       266   11 Jun 2027 06:27:07.736   11 Jun 2027 06:27:12.894             5.158          1466.781
       267   11 Jun 2027 07:50:08.517   11 Jun 2027 07:50:17.738             9.221          3456.469
       268   11 Jun 2027 07:52:15.897   11 Jun 2027 07:52:22.579             6.682          3040.094
       269   11 Jun 2027 09:25:53.696   11 Jun 2027 09:25:58.645             4.949          2239.969
       270   11 Jun 2027 09:27:53.744   11 Jun 2027 09:28:00.374             6.630          3144.500
       271   11 Jun 2027 09:28:23.676   11 Jun 2027 09:28:27.853             4.177           146.406
       272   11 Jun 2027 09:29:21.835   11 Jun 2027 09:29:26.955             5.120          1550.344
       273   11 Jun 2027 11:01:18.712   11 Jun 2027 11:01:18.712             0.000             0.000
       274   11 Jun 2027 11:03:10.259   11 Jun 2027 11:03:29.592            19.333          8098.625
       275   11 Jun 2027 11:07:32.953   11 Jun 2027 11:07:47.868            14.915          7413.063
       276   12 Jun 2027 03:22:26.632   12 Jun 2027 03:25:19.096           172.464         86232.000
       277   12 Jun 2027 03:28:48.154   12 Jun 2027 03:28:53.010             4.856          2428.000
       278   12 Jun 2027 05:01:24.529   12 Jun 2027 05:03:37.191           132.662         64087.313
       279   12 Jun 2027 05:04:13.092   12 Jun 2027 05:04:15.996             2.904          1031.562
       280   12 Jun 2027 05:04:26.735   12 Jun 2027 05:04:27.712             0.977            76.719
       281   12 Jun 2027 05:07:16.895   12 Jun 2027 05:07:28.001            11.106          4818.125
       282   12 Jun 2027 05:08:41.386   12 Jun 2027 05:08:45.769             4.383          2036.594
       283   12 Jun 2027 06:26:39.745   12 Jun 2027 06:26:52.298            12.553          4457.031
       284   12 Jun 2027 06:38:08.309   12 Jun 2027 06:38:14.687             6.378          3005.031
       285   12 Jun 2027 08:00:47.128   12 Jun 2027 08:00:55.295             8.167          4083.500
       286   12 Jun 2027 08:01:01.618   12 Jun 2027 08:01:03.581             1.963           272.875
       287   12 Jun 2027 08:02:22.968   12 Jun 2027 08:02:27.736             4.768          1601.781
       288   12 Jun 2027 08:03:07.840   12 Jun 2027 08:03:11.151             3.311           841.187
       289   12 Jun 2027 08:04:56.415   12 Jun 2027 08:05:03.741             7.326          1634.906
       290   12 Jun 2027 09:36:06.298   12 Jun 2027 09:36:13.877             7.579          3482.250
       291   12 Jun 2027 09:36:50.440   12 Jun 2027 09:36:52.291             1.851           691.438
       292   12 Jun 2027 09:38:28.567   12 Jun 2027 09:38:34.597             6.030          2116.344
       293   12 Jun 2027 09:40:25.626   12 Jun 2027 09:40:33.384             7.758          2798.437
       294   12 Jun 2027 09:40:50.338   12 Jun 2027 09:40:52.821             2.483           529.812
       295   12 Jun 2027 09:41:35.028   12 Jun 2027 09:41:38.817             3.789           870.938
       296   12 Jun 2027 09:42:02.999   12 Jun 2027 09:42:02.999             0.000             0.000
       297   12 Jun 2027 11:12:55.160   12 Jun 2027 11:13:07.446            12.286          5304.625
       298   12 Jun 2027 11:15:43.885   12 Jun 2027 11:15:53.094             9.209          4077.969
       299   12 Jun 2027 11:16:20.706   12 Jun 2027 11:16:23.161             2.455           453.469
       300   12 Jun 2027 11:17:14.312   12 Jun 2027 11:17:14.879             0.567           138.063
       301   12 Jun 2027 11:17:16.718   12 Jun 2027 11:17:17.856             1.138            50.031
       302   12 Jun 2027 11:18:00.212   12 Jun 2027 11:18:05.565             5.353           518.750
       303   12 Jun 2027 11:18:34.320   12 Jun 2027 11:18:42.986             8.666           780.625
       304   12 Jun 2027 11:19:22.778   12 Jun 2027 11:19:32.360             9.582          1094.062
       305   13 Jun 2027 03:34:35.153   13 Jun 2027 03:36:07.502            92.349         46174.500
       306   13 Jun 2027 03:36:09.786   13 Jun 2027 03:37:27.240            77.454         38727.000
       307   13 Jun 2027 03:37:35.423   13 Jun 2027 03:37:38.201             2.778          1389.000
       308   13 Jun 2027 03:38:05.525   13 Jun 2027 03:38:36.270            30.745         15372.500
       309   13 Jun 2027 03:39:30.258   13 Jun 2027 03:39:30.738             0.480           240.000
       310   13 Jun 2027 03:39:46.796   13 Jun 2027 03:39:52.187             5.391          2695.500
       311   13 Jun 2027 03:40:09.063   13 Jun 2027 03:40:09.116             0.053            26.500
       312   13 Jun 2027 05:13:40.396   13 Jun 2027 05:15:33.259           112.863         56312.469
       313   13 Jun 2027 05:16:17.541   13 Jun 2027 05:16:22.971             5.430           912.531
       314   13 Jun 2027 05:17:41.209   13 Jun 2027 05:17:43.845             2.636          1318.000
       315   13 Jun 2027 05:18:50.409   13 Jun 2027 05:18:55.641             5.232          2462.344
       316   13 Jun 2027 05:19:47.381   13 Jun 2027 05:19:51.769             4.388           725.781
       317   13 Jun 2027 05:20:28.373   13 Jun 2027 05:20:30.250             1.877           214.313
       318   13 Jun 2027 06:37:54.961   13 Jun 2027 06:38:11.867            16.906          5088.844
       319   13 Jun 2027 06:38:38.611   13 Jun 2027 06:38:38.611             0.000             0.000
       320   13 Jun 2027 06:38:51.853   13 Jun 2027 06:38:57.660             5.807           944.719
       321   13 Jun 2027 06:50:07.464   13 Jun 2027 06:50:14.527             7.063          2957.031
       322   13 Jun 2027 08:12:23.155   13 Jun 2027 08:12:35.342            12.187          5066.781
       323   13 Jun 2027 08:12:37.820   13 Jun 2027 08:12:38.662             0.842            77.438
       324   13 Jun 2027 08:14:18.884   13 Jun 2027 08:14:24.252             5.368          1983.656
       325   13 Jun 2027 08:14:42.974   13 Jun 2027 08:14:44.453             1.479           390.406
       326   13 Jun 2027 08:15:54.632   13 Jun 2027 08:15:58.533             3.901          1866.906
       327   13 Jun 2027 08:16:36.552   13 Jun 2027 08:16:38.136             1.584           684.063
       328   13 Jun 2027 09:47:16.155   13 Jun 2027 09:47:24.457             8.302          2964.656
       329   13 Jun 2027 09:50:57.878   13 Jun 2027 09:50:59.539             1.661           686.469
       330   13 Jun 2027 09:52:54.892   13 Jun 2027 09:53:01.502             6.610           650.031
       331   13 Jun 2027 09:53:51.301   13 Jun 2027 09:53:53.903             2.602           936.813
       332   13 Jun 2027 09:55:21.287   13 Jun 2027 09:55:25.412             4.125          1925.719
       333   13 Jun 2027 11:26:23.738   13 Jun 2027 11:26:41.735            17.997          8251.250
       334   13 Jun 2027 11:27:49.247   13 Jun 2027 11:27:56.953             7.706          1665.844
       335   13 Jun 2027 11:31:01.219   13 Jun 2027 11:31:12.660            11.441          4945.625
       336   13 Jun 2027 11:31:50.392   13 Jun 2027 11:31:55.525             5.133          1127.094
       337   13 Jun 2027 11:32:10.775   13 Jun 2027 11:32:11.008             0.233           116.500
