uniorb/output/strategy_4/Camera/Camera_KinoSat_110606.txt

KinoSat_110606
-------------------------
    Access    *     Start Time (UTCG)     *     Stop Time (UTCG)  *   Duration (s) *   Data (Mbytes)
         1   01 Jun 2027 03:34:28.878   01 Jun 2027 03:35:32.054            63.176         31588.000
         2   01 Jun 2027 03:35:49.668   01 Jun 2027 03:36:00.449            10.781          5390.500
         3   01 Jun 2027 03:36:31.453   01 Jun 2027 03:36:34.744             3.291          1645.500
         4   01 Jun 2027 03:36:44.515   01 Jun 2027 03:36:44.515             0.000             0.000
         5   01 Jun 2027 05:09:35.162   01 Jun 2027 05:11:41.962           126.800         63400.000
         6   01 Jun 2027 05:11:52.678   01 Jun 2027 05:12:04.905            12.227          6113.500
         7   01 Jun 2027 05:14:52.724   01 Jun 2027 05:14:52.724             0.000             0.000
         8   01 Jun 2027 05:15:31.004   01 Jun 2027 05:15:45.480            14.476          7238.000
         9   01 Jun 2027 05:16:03.803   01 Jun 2027 05:16:24.873            21.070         10535.000
        10   01 Jun 2027 06:45:55.882   01 Jun 2027 06:47:46.887           111.005         55502.500
        11   01 Jun 2027 06:48:42.291   01 Jun 2027 06:48:51.539             9.248          4624.000
        12   01 Jun 2027 06:50:06.559   01 Jun 2027 06:50:17.831            11.272          5636.000
        13   01 Jun 2027 08:23:25.799   01 Jun 2027 08:26:08.464           162.665         81332.500
        14   01 Jun 2027 09:59:30.256   01 Jun 2027 10:02:01.743           151.487         75743.500
        15   01 Jun 2027 10:03:40.515   01 Jun 2027 10:03:47.870             7.355          3677.500
        16   02 Jun 2027 03:46:39.191   02 Jun 2027 03:46:55.398            16.207          8103.500
        17   02 Jun 2027 03:47:35.331   02 Jun 2027 03:47:59.946            24.615         12307.500
        18   02 Jun 2027 05:21:49.159   02 Jun 2027 05:23:59.814           130.655         65327.500
        19   02 Jun 2027 05:24:39.574   02 Jun 2027 05:25:34.052            54.478         27239.000
        20   02 Jun 2027 05:26:53.033   02 Jun 2027 05:26:53.033             0.000             0.000
        21   02 Jun 2027 05:28:05.021   02 Jun 2027 05:28:25.053            20.032         10016.000
        22   02 Jun 2027 06:58:10.646   02 Jun 2027 07:04:19.835           369.189        184594.500
        23   02 Jun 2027 08:35:29.077   02 Jun 2027 08:37:15.672           106.595         50444.156
        24   02 Jun 2027 08:37:34.313   02 Jun 2027 08:37:41.751             7.438           423.719
        25   02 Jun 2027 08:37:58.113   02 Jun 2027 08:37:59.301             1.188           511.313
        26   02 Jun 2027 08:39:02.080   02 Jun 2027 08:39:06.204             4.124          1575.813
        27   02 Jun 2027 08:39:15.083   02 Jun 2027 08:39:15.915             0.832           146.844
        28   02 Jun 2027 10:11:41.192   02 Jun 2027 10:11:59.828            18.636          9232.250
        29   02 Jun 2027 10:13:31.176   02 Jun 2027 10:13:36.910             5.734          1219.188
        30   03 Jun 2027 03:58:29.867   03 Jun 2027 03:58:54.466            24.599         12299.500
        31   03 Jun 2027 03:59:11.612   03 Jun 2027 03:59:12.478             0.866           433.000
        32   03 Jun 2027 05:33:23.747   03 Jun 2027 05:35:56.778           153.031         76515.500
        33   03 Jun 2027 05:39:58.502   03 Jun 2027 05:40:34.028            35.526         17763.000
        34   03 Jun 2027 07:09:46.606   03 Jun 2027 07:11:38.232           111.626         55791.781
        35   03 Jun 2027 07:13:10.214   03 Jun 2027 07:13:11.706             1.492           443.875
        36   03 Jun 2027 07:13:25.866   03 Jun 2027 07:13:27.216             1.350           277.000
        37   03 Jun 2027 07:14:08.739   03 Jun 2027 07:14:11.250             2.511           926.125
        38   03 Jun 2027 07:14:42.697   03 Jun 2027 07:14:46.764             4.067           374.906
        39   03 Jun 2027 07:15:44.736   03 Jun 2027 07:15:51.285             6.549          1364.937
        40   03 Jun 2027 08:48:03.351   03 Jun 2027 08:48:13.428            10.077          4705.563
        41   03 Jun 2027 08:48:30.462   03 Jun 2027 08:48:34.367             3.905            66.094
        42   03 Jun 2027 08:49:09.265   03 Jun 2027 08:49:15.564             6.299           358.812
        43   03 Jun 2027 08:49:21.626   03 Jun 2027 08:49:24.547             2.921           189.438
        44   03 Jun 2027 08:49:59.386   03 Jun 2027 08:50:05.893             6.507           468.562
        45   03 Jun 2027 08:51:01.884   03 Jun 2027 08:51:06.493             4.609           202.781
        46   03 Jun 2027 10:23:25.379   03 Jun 2027 10:23:37.378            11.999          5482.719
        47   04 Jun 2027 04:08:47.310   04 Jun 2027 04:09:17.937            30.627         15313.500
        48   04 Jun 2027 04:09:27.339   04 Jun 2027 04:09:33.105             5.766          2883.000
        49   04 Jun 2027 04:11:53.586   04 Jun 2027 04:11:53.586             0.000             0.000
        50   04 Jun 2027 04:13:32.484   04 Jun 2027 04:13:53.596            21.112         10556.000
        51   04 Jun 2027 05:45:00.000   04 Jun 2027 05:47:28.293           148.292         74146.000
        52   04 Jun 2027 05:48:04.054   04 Jun 2027 05:48:39.660            35.606         17803.000
        53   04 Jun 2027 05:49:02.768   04 Jun 2027 05:49:15.542            12.774          6387.000
        54   04 Jun 2027 05:51:50.491   04 Jun 2027 05:51:58.252             7.761          3880.500
        55   04 Jun 2027 05:52:34.543   04 Jun 2027 05:52:34.728             0.185            92.500
        56   04 Jun 2027 07:22:06.368   04 Jun 2027 07:23:32.252            85.884         41905.124
        57   04 Jun 2027 07:25:31.933   04 Jun 2027 07:25:39.843             7.910          2328.750
        58   04 Jun 2027 07:25:53.536   04 Jun 2027 07:25:56.355             2.819           251.062
        59   04 Jun 2027 07:26:43.836   04 Jun 2027 07:26:49.565             5.729           537.625
        60   04 Jun 2027 07:28:05.232   04 Jun 2027 07:28:12.436             7.204          2292.219
        61   04 Jun 2027 09:00:04.331   04 Jun 2027 09:00:13.776             9.445          4677.469
        62   04 Jun 2027 09:01:15.038   04 Jun 2027 09:01:15.482             0.444           183.406
        63   04 Jun 2027 09:01:39.483   04 Jun 2027 09:01:44.262             4.779           720.906
        64   04 Jun 2027 09:02:10.925   04 Jun 2027 09:02:14.596             3.671           833.219
        65   04 Jun 2027 09:03:04.759   04 Jun 2027 09:03:09.561             4.802           883.531
        66   04 Jun 2027 10:33:12.028   04 Jun 2027 10:33:26.543            14.515          4756.313
        67   04 Jun 2027 10:37:35.394   04 Jun 2027 10:37:35.523             0.129            61.375
        68   05 Jun 2027 04:19:54.022   05 Jun 2027 04:21:23.900            89.878         44939.000
        69   05 Jun 2027 04:25:02.811   05 Jun 2027 04:25:02.811             0.000             0.000
        70   05 Jun 2027 04:25:16.987   05 Jun 2027 04:25:27.010            10.023          5011.500
        71   05 Jun 2027 04:26:27.787   05 Jun 2027 04:26:37.444             9.657          4828.500
        72   05 Jun 2027 04:27:56.712   05 Jun 2027 04:28:05.892             9.180          4590.000
        73   05 Jun 2027 05:57:19.845   05 Jun 2027 05:59:59.780           159.935         79967.500
        74   05 Jun 2027 06:00:43.157   05 Jun 2027 06:00:44.367             1.210           605.000
        75   05 Jun 2027 06:03:34.602   05 Jun 2027 06:04:13.985            39.383         19691.500
        76   05 Jun 2027 06:04:38.326   05 Jun 2027 06:04:38.806             0.480           240.000
        77   05 Jun 2027 07:34:06.806   05 Jun 2027 07:34:41.354            34.548         17053.343
        78   05 Jun 2027 07:37:47.135   05 Jun 2027 07:37:50.568             3.433          1527.813
        79   05 Jun 2027 07:38:42.745   05 Jun 2027 07:38:45.739             2.994          1457.844
        80   05 Jun 2027 07:40:21.173   05 Jun 2027 07:40:25.376             4.203          1548.844
        81   05 Jun 2027 09:12:04.824   05 Jun 2027 09:12:17.887            13.063          5685.625
        82   05 Jun 2027 09:12:57.866   05 Jun 2027 09:12:59.632             1.766           523.437
        83   05 Jun 2027 09:14:20.750   05 Jun 2027 09:14:25.709             4.959            16.250
        84   05 Jun 2027 09:15:55.965   05 Jun 2027 09:15:56.343             0.378             3.375
        85   05 Jun 2027 10:45:42.165   05 Jun 2027 10:45:50.534             8.369          1899.406
        86   06 Jun 2027 03:00:00.000   06 Jun 2027 03:00:00.606             0.606           303.000
        87   06 Jun 2027 03:00:31.087   06 Jun 2027 03:00:39.866             8.779          4389.500
        88   06 Jun 2027 03:01:43.062   06 Jun 2027 03:01:53.191            10.129          5064.500
        89   06 Jun 2027 04:31:22.680   06 Jun 2027 04:31:54.140            31.460         15730.000
        90   06 Jun 2027 04:32:49.751   06 Jun 2027 04:34:43.863           114.112         57056.000
        91   06 Jun 2027 04:40:08.379   06 Jun 2027 04:40:41.580            33.201         16600.500
        92   06 Jun 2027 06:09:13.835   06 Jun 2027 06:11:24.483           130.648         64444.937
        93   06 Jun 2027 06:11:45.378   06 Jun 2027 06:11:50.767             5.389           559.219
        94   06 Jun 2027 06:12:11.422   06 Jun 2027 06:12:15.812             4.390           645.469
        95   06 Jun 2027 06:12:26.875   06 Jun 2027 06:12:27.424             0.549           205.375
        96   06 Jun 2027 06:13:12.015   06 Jun 2027 06:13:15.385             3.370           294.094
        97   06 Jun 2027 06:14:30.598   06 Jun 2027 06:14:34.893             4.295          1630.594
        98   06 Jun 2027 06:15:08.213   06 Jun 2027 06:15:13.383             5.170           706.406
        99   06 Jun 2027 07:45:58.392   06 Jun 2027 07:46:04.484             6.092          1227.094
       100   06 Jun 2027 07:46:28.807   06 Jun 2027 07:46:29.223             0.416             3.625
       101   06 Jun 2027 07:49:31.817   06 Jun 2027 07:49:37.375             5.558          1044.844
       102   06 Jun 2027 07:50:16.261   06 Jun 2027 07:50:19.950             3.689            97.844
       103   06 Jun 2027 07:50:55.347   06 Jun 2027 07:50:56.229             0.882            93.812
       104   06 Jun 2027 09:24:07.418   06 Jun 2027 09:24:13.726             6.308          2850.562
       105   06 Jun 2027 10:57:59.028   06 Jun 2027 10:58:04.210             5.182           888.656
       106   07 Jun 2027 03:10:23.209   07 Jun 2027 03:10:38.547            15.338          7669.000
       107   07 Jun 2027 04:44:11.285   07 Jun 2027 04:47:22.052           190.767         95383.500
       108   07 Jun 2027 04:51:43.132   07 Jun 2027 04:52:23.627            40.495         20247.500
       109   07 Jun 2027 06:21:20.853   07 Jun 2027 06:22:21.516            60.663         29699.907
       110   07 Jun 2027 06:22:39.530   07 Jun 2027 06:22:43.449             3.919           454.563
       111   07 Jun 2027 06:23:38.697   07 Jun 2027 06:23:46.866             8.169          1669.781
       112   07 Jun 2027 06:23:48.440   07 Jun 2027 06:23:55.087             6.647            49.188
       113   07 Jun 2027 06:24:27.782   07 Jun 2027 06:24:29.639             1.857           859.531
       114   07 Jun 2027 06:25:48.028   07 Jun 2027 06:25:49.906             1.878           193.719
       115   07 Jun 2027 06:26:17.154   07 Jun 2027 06:26:19.677             2.523           851.500
       116   07 Jun 2027 06:28:12.480   07 Jun 2027 06:28:14.383             1.903           611.500
       117   07 Jun 2027 06:28:36.471   07 Jun 2027 06:28:39.692             3.221           212.938
       118   07 Jun 2027 07:58:24.467   07 Jun 2027 07:58:28.423             3.956          1192.688
       119   07 Jun 2027 08:02:07.711   07 Jun 2027 08:02:09.502             1.791           780.250
       120   07 Jun 2027 08:02:28.275   07 Jun 2027 08:02:30.487             2.212           586.656
       121   07 Jun 2027 09:35:18.184   07 Jun 2027 09:35:23.446             5.262          2628.750
       122   07 Jun 2027 11:10:28.203   07 Jun 2027 11:10:29.684             1.481           235.781
       123   08 Jun 2027 03:22:40.139   08 Jun 2027 03:23:02.297            22.158         11079.000
       124   08 Jun 2027 03:25:34.850   08 Jun 2027 03:25:34.850             0.000             0.000
       125   08 Jun 2027 04:56:32.470   08 Jun 2027 04:59:12.379           159.909         79954.500
       126   08 Jun 2027 05:03:07.701   08 Jun 2027 05:03:40.030            32.329         16164.500
       127   08 Jun 2027 05:03:41.084   08 Jun 2027 05:04:20.143            39.059         19529.500
       128   08 Jun 2027 05:04:39.253   08 Jun 2027 05:04:41.702             2.449          1224.500
       129   08 Jun 2027 06:33:47.318   08 Jun 2027 06:34:49.448            62.130         28762.750
       130   08 Jun 2027 08:10:49.156   08 Jun 2027 08:10:55.374             6.218          1627.437
       131   08 Jun 2027 08:13:58.270   08 Jun 2027 08:14:01.192             2.922           803.219
       132   08 Jun 2027 08:14:15.568   08 Jun 2027 08:14:16.980             1.412           284.406
       133   08 Jun 2027 08:15:59.376   08 Jun 2027 08:16:02.025             2.649          1076.063
       134   08 Jun 2027 09:47:32.912   08 Jun 2027 09:47:45.489            12.577          3713.406
       135   08 Jun 2027 11:25:42.002   08 Jun 2027 11:25:43.723             1.721           309.469
       136   09 Jun 2027 03:34:43.394   09 Jun 2027 03:34:55.753            12.359          6179.500
       137   09 Jun 2027 03:35:58.408   09 Jun 2027 03:36:05.843             7.435          3717.500
       138   09 Jun 2027 05:09:50.192   09 Jun 2027 05:10:26.259            36.067         18033.500
       139   09 Jun 2027 05:11:12.316   09 Jun 2027 05:11:41.305            28.989         14494.500
       140   09 Jun 2027 05:12:54.459   09 Jun 2027 05:13:35.729            41.270         20635.000
       141   09 Jun 2027 05:13:46.422   09 Jun 2027 05:15:36.676           110.254         55127.000
       142   09 Jun 2027 05:15:39.249   09 Jun 2027 05:15:42.922             3.673          1836.500
       143   09 Jun 2027 05:16:19.004   09 Jun 2027 05:16:39.806            20.802         10401.000
       144   09 Jun 2027 06:46:10.760   09 Jun 2027 06:47:06.446            55.686         24280.532
       145   09 Jun 2027 08:23:40.951   09 Jun 2027 08:23:44.337             3.386          1068.156
       146   09 Jun 2027 08:24:40.238   09 Jun 2027 08:24:42.201             1.963           366.813
       147   09 Jun 2027 08:25:20.854   09 Jun 2027 08:25:23.838             2.984           845.906
       148   09 Jun 2027 08:26:02.747   09 Jun 2027 08:26:03.968             1.221           459.906
       149   09 Jun 2027 08:26:09.252   09 Jun 2027 08:26:13.782             4.530           164.125
       150   09 Jun 2027 08:27:47.080   09 Jun 2027 08:27:49.822             2.742           359.094
       151   09 Jun 2027 09:59:45.416   09 Jun 2027 09:59:56.795            11.379          4964.250
       152   09 Jun 2027 10:01:05.926   09 Jun 2027 10:01:06.537             0.611            22.719
       153   09 Jun 2027 10:02:47.267   09 Jun 2027 10:02:56.652             9.385          1945.906
       154   10 Jun 2027 03:46:54.256   10 Jun 2027 03:46:58.751             4.495          2247.500
       155   10 Jun 2027 03:48:17.677   10 Jun 2027 03:48:31.030            13.353          6676.500
       156   10 Jun 2027 05:22:03.765   10 Jun 2027 05:24:54.231           170.466         85233.000
       157   10 Jun 2027 05:28:12.478   10 Jun 2027 05:28:39.718            27.240         13620.000
       158   10 Jun 2027 06:58:25.139   10 Jun 2027 07:00:08.980           103.841         51094.750
       159   10 Jun 2027 07:01:08.682   10 Jun 2027 07:01:10.945             2.263           381.250
       160   10 Jun 2027 07:02:50.184   10 Jun 2027 07:02:52.079             1.895            73.125
       161   10 Jun 2027 08:35:43.156   10 Jun 2027 08:35:47.714             4.558          2214.219
       162   10 Jun 2027 08:37:33.355   10 Jun 2027 08:37:36.478             3.123           672.531
       163   10 Jun 2027 08:37:49.939   10 Jun 2027 08:37:56.354             6.415           401.312
       164   10 Jun 2027 08:38:02.048   10 Jun 2027 08:38:02.471             0.423           177.938
       165   10 Jun 2027 08:38:27.442   10 Jun 2027 08:38:31.385             3.943           780.344
       166   10 Jun 2027 08:39:15.070   10 Jun 2027 08:39:16.572             1.502           106.219
       167   10 Jun 2027 08:39:31.657   10 Jun 2027 08:39:32.699             1.042           461.688
       168   10 Jun 2027 10:11:55.124   10 Jun 2027 10:12:07.269            12.145          5321.656
       169   10 Jun 2027 10:13:45.833   10 Jun 2027 10:13:50.289             4.456          1219.094
       170   11 Jun 2027 03:58:44.275   11 Jun 2027 03:59:09.261            24.986         12493.000
       171   11 Jun 2027 03:59:14.283   11 Jun 2027 03:59:16.021             1.738           869.000
       172   11 Jun 2027 03:59:19.159   11 Jun 2027 03:59:22.543             3.384          1692.000
       173   11 Jun 2027 04:02:17.594   11 Jun 2027 04:02:22.498             4.904          2452.000
       174   11 Jun 2027 05:33:38.003   11 Jun 2027 05:36:37.976           179.973         89986.500
       175   11 Jun 2027 05:38:30.146   11 Jun 2027 05:38:56.950            26.804         13402.000
       176   11 Jun 2027 05:40:17.516   11 Jun 2027 05:40:48.683            31.167         15583.500
       177   11 Jun 2027 07:10:01.722   11 Jun 2027 07:10:51.090            49.368         23973.844
       178   11 Jun 2027 07:13:32.789   11 Jun 2027 07:13:39.301             6.512           691.906
       179   11 Jun 2027 07:14:34.969   11 Jun 2027 07:14:40.198             5.229          1601.594
       180   11 Jun 2027 07:14:58.479   11 Jun 2027 07:15:04.480             6.001           407.500
       181   11 Jun 2027 07:16:01.859   11 Jun 2027 07:16:05.861             4.002          1448.312
       182   11 Jun 2027 08:48:18.136   11 Jun 2027 08:48:28.331            10.195          4631.563
       183   11 Jun 2027 08:48:45.005   11 Jun 2027 08:48:47.866             2.861            20.531
       184   11 Jun 2027 08:49:33.206   11 Jun 2027 08:49:35.928             2.722           238.687
       185   11 Jun 2027 08:49:43.572   11 Jun 2027 08:49:46.095             2.523           197.187
       186   11 Jun 2027 08:50:16.387   11 Jun 2027 08:50:20.633             4.246           539.906
       187   11 Jun 2027 08:51:10.172   11 Jun 2027 08:51:16.957             6.785           883.750
       188   11 Jun 2027 08:51:31.098   11 Jun 2027 08:51:32.487             1.389           441.906
       189   11 Jun 2027 10:23:43.345   11 Jun 2027 10:23:55.726            12.381          5664.562
       190   12 Jun 2027 04:09:01.925   12 Jun 2027 04:09:32.723            30.798         15399.000
       191   12 Jun 2027 04:09:42.212   12 Jun 2027 04:09:48.131             5.919          2959.500
       192   12 Jun 2027 04:10:28.288   12 Jun 2027 04:10:29.097             0.809           404.500
       193   12 Jun 2027 04:10:40.227   12 Jun 2027 04:10:46.794             6.567          3283.500
       194   12 Jun 2027 04:11:13.649   12 Jun 2027 04:11:14.278             0.629           314.500
       195   12 Jun 2027 04:12:53.852   12 Jun 2027 04:12:54.256             0.404           202.000
       196   12 Jun 2027 04:14:10.548   12 Jun 2027 04:14:12.426             1.878           939.000
       197   12 Jun 2027 04:14:56.899   12 Jun 2027 04:15:03.971             7.072          3536.000
       198   12 Jun 2027 05:45:14.729   12 Jun 2027 05:47:42.937           148.208         74104.000
       199   12 Jun 2027 05:48:18.879   12 Jun 2027 05:48:35.018            16.139          8069.500
       200   12 Jun 2027 05:52:49.242   12 Jun 2027 05:52:49.411             0.169            84.500
       201   12 Jun 2027 07:22:21.085   12 Jun 2027 07:24:22.991           121.906         59681.126
       202   12 Jun 2027 07:25:47.032   12 Jun 2027 07:25:52.350             5.318          2340.625
       203   12 Jun 2027 07:26:08.151   12 Jun 2027 07:26:11.253             3.102           243.969
       204   12 Jun 2027 07:26:58.224   12 Jun 2027 07:27:00.621             2.397           525.000
       205   12 Jun 2027 07:28:22.069   12 Jun 2027 07:28:28.897             6.828          2326.875
       206   12 Jun 2027 09:00:18.985   12 Jun 2027 09:00:33.392            14.407          6080.594
       207   12 Jun 2027 09:01:24.821   12 Jun 2027 09:01:25.858             1.037           352.094
       208   12 Jun 2027 09:01:54.667   12 Jun 2027 09:01:57.363             2.696           688.219
       209   12 Jun 2027 09:02:27.804   12 Jun 2027 09:02:30.596             2.792           901.156
       210   12 Jun 2027 09:03:19.815   12 Jun 2027 09:03:24.350             4.535           889.562
       211   12 Jun 2027 10:33:25.823   12 Jun 2027 10:33:35.187             9.364          4681.062
       212   12 Jun 2027 10:38:10.672   12 Jun 2027 10:38:12.129             1.457           621.937
       213   13 Jun 2027 04:20:08.491   13 Jun 2027 04:21:38.723            90.232         45116.000
       214   13 Jun 2027 04:23:00.089   13 Jun 2027 04:23:00.089             0.000             0.000
       215   13 Jun 2027 04:23:41.748   13 Jun 2027 04:23:54.655            12.907          6453.500
       216   13 Jun 2027 04:25:17.573   13 Jun 2027 04:25:40.455            22.882         11441.000
       217   13 Jun 2027 04:26:41.745   13 Jun 2027 04:26:55.020            13.275          6637.500
       218   13 Jun 2027 05:57:34.608   13 Jun 2027 06:00:14.366           159.758         79879.000
       219   13 Jun 2027 06:00:58.010   13 Jun 2027 06:01:02.452             4.442          2221.000
       220   13 Jun 2027 06:04:11.601   13 Jun 2027 06:04:53.491            41.890         20945.000
       221   13 Jun 2027 07:34:21.317   13 Jun 2027 07:34:36.170            14.853          3520.845
       222   13 Jun 2027 07:36:00.991   13 Jun 2027 07:36:02.717             1.726           521.000
       223   13 Jun 2027 07:38:01.908   13 Jun 2027 07:38:07.869             5.961          1532.563
       224   13 Jun 2027 07:38:57.581   13 Jun 2027 07:39:01.318             3.737          1469.375
       225   13 Jun 2027 07:39:53.247   13 Jun 2027 07:39:55.083             1.836           565.250
       226   13 Jun 2027 09:12:19.437   13 Jun 2027 09:12:31.483            12.046          5969.594
       227   13 Jun 2027 09:13:58.031   13 Jun 2027 09:14:04.318             6.287          1905.437
       228   13 Jun 2027 09:14:37.550   13 Jun 2027 09:14:40.379             2.829            74.094
       229   13 Jun 2027 09:16:10.893   13 Jun 2027 09:16:12.029             1.136             2.719
       230   13 Jun 2027 10:45:56.993   13 Jun 2027 10:46:05.749             8.756          1880.500
