uniorb/output/strategy_4/Camera/Camera_KinoSat_110406.txt

KinoSat_110406
-------------------------
    Access    *     Start Time (UTCG)     *     Stop Time (UTCG)  *   Duration (s) *   Data (Mbytes)
         1   01 Jun 2027 03:40:58.918   01 Jun 2027 03:42:08.333            69.415         34707.500
         2   01 Jun 2027 03:42:16.178   01 Jun 2027 03:42:23.230             7.052          3526.000
         3   01 Jun 2027 03:42:48.276   01 Jun 2027 03:43:17.507            29.231         14615.500
         4   01 Jun 2027 03:44:04.111   01 Jun 2027 03:44:04.111             0.000             0.000
         5   01 Jun 2027 03:44:27.866   01 Jun 2027 03:44:27.866             0.000             0.000
         6   01 Jun 2027 03:44:46.766   01 Jun 2027 03:44:54.359             7.593          3796.500
         7   01 Jun 2027 03:46:06.013   01 Jun 2027 03:46:37.435            31.422         15711.000
         8   01 Jun 2027 03:47:39.106   01 Jun 2027 03:47:58.178            19.072          9536.000
         9   01 Jun 2027 03:48:22.821   01 Jun 2027 03:48:57.009            34.188         17094.000
        10   01 Jun 2027 03:49:27.846   01 Jun 2027 03:49:29.823             1.977           988.500
        11   01 Jun 2027 05:18:29.731   01 Jun 2027 05:20:47.914           138.183         69091.500
        12   01 Jun 2027 05:20:55.988   01 Jun 2027 05:21:10.792            14.804          7402.000
        13   01 Jun 2027 05:21:18.347   01 Jun 2027 05:21:21.081             2.734          1367.000
        14   01 Jun 2027 05:23:51.255   01 Jun 2027 05:24:34.025            42.770         21385.000
        15   01 Jun 2027 05:25:04.813   01 Jun 2027 05:25:14.818            10.005          5002.500
        16   01 Jun 2027 06:55:26.057   01 Jun 2027 06:57:49.203           143.146         71573.000
        17   01 Jun 2027 06:58:21.032   01 Jun 2027 06:58:24.838             3.806          1903.000
        18   01 Jun 2027 06:58:45.409   01 Jun 2027 06:59:02.130            16.721          8360.500
        19   01 Jun 2027 06:59:40.294   01 Jun 2027 06:59:49.641             9.347          4673.500
        20   01 Jun 2027 06:59:57.614   01 Jun 2027 07:00:10.264            12.650          6325.000
        21   01 Jun 2027 07:00:45.716   01 Jun 2027 07:00:50.615             4.899          2449.500
        22   01 Jun 2027 08:32:16.512   01 Jun 2027 08:34:57.344           160.832         80416.000
        23   01 Jun 2027 08:35:22.310   01 Jun 2027 08:35:31.268             8.958          4479.000
        24   01 Jun 2027 08:36:32.280   01 Jun 2027 08:36:48.958            16.678          8339.000
        25   01 Jun 2027 10:09:53.525   01 Jun 2027 10:11:36.161           102.636         51318.000
        26   02 Jun 2027 03:53:48.459   02 Jun 2027 04:00:23.967           395.508        197754.000
        27   02 Jun 2027 04:01:22.967   02 Jun 2027 04:01:25.005             2.038          1019.000
        28   02 Jun 2027 05:30:36.220   02 Jun 2027 05:34:16.205           219.985        109992.500
        29   02 Jun 2027 05:35:17.635   02 Jun 2027 05:35:42.820            25.185         12592.500
        30   02 Jun 2027 05:36:36.150   02 Jun 2027 05:36:49.018            12.868          6434.000
        31   02 Jun 2027 07:08:17.204   02 Jun 2027 07:12:44.986           267.782        133891.000
        32   02 Jun 2027 08:44:29.610   02 Jun 2027 08:49:06.905           277.295        138647.500
        33   03 Jun 2027 04:06:49.762   03 Jun 2027 04:13:26.681           396.919        198459.500
        34   03 Jun 2027 05:43:12.166   03 Jun 2027 05:49:25.347           373.181        186590.500
        35   03 Jun 2027 07:20:35.969   03 Jun 2027 07:25:05.452           269.483        134741.500
        36   03 Jun 2027 08:56:42.141   03 Jun 2027 09:01:25.346           283.205        141602.500
        37   04 Jun 2027 04:18:31.561   04 Jun 2027 04:25:33.968           422.407        211203.500
        38   04 Jun 2027 05:54:44.163   04 Jun 2027 06:01:11.745           387.582        193791.000
        39   04 Jun 2027 07:33:22.000   04 Jun 2027 07:36:55.846           213.846        106923.000
        40   04 Jun 2027 09:08:37.748   04 Jun 2027 09:12:48.744           250.996        125498.000
        41   04 Jun 2027 09:13:10.676   04 Jun 2027 09:13:52.728            42.052         21026.000
        42   05 Jun 2027 04:30:05.055   05 Jun 2027 04:37:38.902           453.847        226923.500
        43   05 Jun 2027 06:07:06.080   05 Jun 2027 06:13:13.742           367.662        183831.000
        44   05 Jun 2027 07:45:46.653   05 Jun 2027 07:49:03.311           196.658         98329.000
        45   05 Jun 2027 09:18:20.154   05 Jun 2027 09:26:13.093           472.939        236469.500
        46   06 Jun 2027 03:05:01.503   06 Jun 2027 03:06:35.799            94.296         47148.000
        47   06 Jun 2027 03:07:03.105   06 Jun 2027 03:12:01.405           298.300        149150.000
        48   06 Jun 2027 03:13:00.793   06 Jun 2027 03:13:12.113            11.320          5660.000
        49   06 Jun 2027 04:42:14.088   06 Jun 2027 04:49:39.857           445.769        222884.500
        50   06 Jun 2027 06:19:11.055   06 Jun 2027 06:25:19.797           368.742        184371.000
        51   06 Jun 2027 07:57:13.854   06 Jun 2027 08:01:05.625           231.771        115885.500
        52   06 Jun 2027 09:30:38.612   06 Jun 2027 09:37:58.164           439.552        219776.000
        53   07 Jun 2027 03:16:31.057   07 Jun 2027 03:24:22.067           471.010        235505.000
        54   07 Jun 2027 03:24:47.567   07 Jun 2027 03:25:40.628            53.061         26530.500
        55   07 Jun 2027 04:54:15.934   07 Jun 2027 05:01:41.599           445.665        222832.500
        56   07 Jun 2027 06:31:10.210   07 Jun 2027 06:36:57.024           346.814        173407.000
        57   07 Jun 2027 06:37:04.922   07 Jun 2027 06:37:46.169            41.247         20623.500
        58   07 Jun 2027 08:09:07.423   07 Jun 2027 08:13:15.020           247.597        123798.500
        59   07 Jun 2027 09:43:08.920   07 Jun 2027 09:49:38.554           389.634        194817.000
        60   08 Jun 2027 03:29:15.694   08 Jun 2027 03:36:35.314           439.620        219810.000
        61   08 Jun 2027 03:36:58.673   08 Jun 2027 03:37:45.192            46.519         23259.500
        62   08 Jun 2027 05:06:18.840   08 Jun 2027 05:13:38.881           440.041        220020.500
        63   08 Jun 2027 06:43:30.389   08 Jun 2027 06:48:16.162           285.773        142886.500
        64   08 Jun 2027 06:48:27.118   08 Jun 2027 06:49:33.755            66.637         33318.500
        65   08 Jun 2027 08:20:28.293   08 Jun 2027 08:25:12.883           284.590        142295.000
        66   08 Jun 2027 09:55:21.098   08 Jun 2027 09:56:04.316            43.218         21609.000
        67   08 Jun 2027 09:57:16.357   08 Jun 2027 10:00:20.579           184.222         92111.000
        68   09 Jun 2027 03:41:13.645   09 Jun 2027 03:49:44.448           510.803        255401.500
        69   09 Jun 2027 05:18:44.561   09 Jun 2027 05:25:29.427           404.866        202433.000
        70   09 Jun 2027 06:55:54.642   09 Jun 2027 07:00:04.050           249.408        124704.000
        71   09 Jun 2027 07:00:09.933   09 Jun 2027 07:01:27.495            77.562         38781.000
        72   09 Jun 2027 08:32:36.386   09 Jun 2027 08:37:03.661           267.275        133637.500
        73   09 Jun 2027 10:10:08.190   09 Jun 2027 10:11:51.169           102.979         51489.500
        74   10 Jun 2027 03:54:03.393   10 Jun 2027 04:00:38.595           395.202        197601.000
        75   10 Jun 2027 04:00:41.858   10 Jun 2027 04:01:39.742            57.884         28942.000
        76   10 Jun 2027 05:30:51.434   10 Jun 2027 05:37:34.150           402.716        201358.000
        77   10 Jun 2027 07:08:49.668   10 Jun 2027 07:13:00.839           251.171        125585.500
        78   10 Jun 2027 08:44:44.946   10 Jun 2027 08:49:21.313           276.367        138183.500
        79   11 Jun 2027 04:07:04.418   11 Jun 2027 04:13:41.385           396.967        198483.500
        80   11 Jun 2027 05:43:27.026   11 Jun 2027 05:49:39.949           372.923        186461.500
        81   11 Jun 2027 07:20:50.500   11 Jun 2027 07:25:20.187           269.687        134843.500
        82   11 Jun 2027 08:56:56.998   11 Jun 2027 09:01:40.492           283.494        141747.000
        83   12 Jun 2027 04:18:46.199   12 Jun 2027 04:25:48.618           422.419        211209.500
        84   12 Jun 2027 05:54:58.820   12 Jun 2027 06:01:26.535           387.715        193857.500
        85   12 Jun 2027 07:33:39.905   12 Jun 2027 07:37:10.372           210.467        105233.500
        86   12 Jun 2027 09:08:53.053   12 Jun 2027 09:13:03.179           250.126        125063.000
        87   12 Jun 2027 09:13:29.187   12 Jun 2027 09:14:07.597            38.410         19205.000
        88   13 Jun 2027 03:00:00.000   13 Jun 2027 03:00:03.392             3.392          1696.000
        89   13 Jun 2027 04:30:19.509   13 Jun 2027 04:37:53.437           453.928        226964.000
        90   13 Jun 2027 06:07:20.808   13 Jun 2027 06:13:28.546           367.738        183869.000
        91   13 Jun 2027 07:46:04.085   13 Jun 2027 07:49:17.909           193.824         96912.000
        92   13 Jun 2027 09:18:34.355   13 Jun 2027 09:24:44.478           370.123        185061.500
        93   13 Jun 2027 09:24:46.103   13 Jun 2027 09:26:27.632           101.529         50764.500
