uniorb/output/strategy_4/Camera/Camera_KinoSat_111708.txt

KinoSat_111708
-------------------------
    Access    *     Start Time (UTCG)     *     Stop Time (UTCG)  *   Duration (s) *   Data (Mbytes)
         1   01 Jun 2027 04:17:54.068   01 Jun 2027 04:18:01.645             7.577          3788.500
         2   01 Jun 2027 04:18:55.190   01 Jun 2027 04:21:08.546           133.356         66678.000
         3   01 Jun 2027 04:22:20.287   01 Jun 2027 04:22:27.516             7.229          3614.500
         4   01 Jun 2027 04:22:37.954   01 Jun 2027 04:22:42.073             4.119          2059.500
         5   01 Jun 2027 04:25:41.597   01 Jun 2027 04:25:46.047             4.450          2225.000
         6   01 Jun 2027 05:56:03.849   01 Jun 2027 05:56:42.865            39.016         19508.000
         7   01 Jun 2027 05:57:06.157   01 Jun 2027 05:58:11.129            64.972         32486.000
         8   01 Jun 2027 05:58:50.997   01 Jun 2027 05:59:00.090             9.093          4546.500
         9   01 Jun 2027 07:20:07.703   01 Jun 2027 07:22:04.552           116.849         58424.500
        10   01 Jun 2027 08:55:54.942   01 Jun 2027 08:57:53.774           118.832         59416.000
        11   01 Jun 2027 08:59:17.875   01 Jun 2027 08:59:50.580            32.705         16352.500
        12   01 Jun 2027 10:30:52.243   01 Jun 2027 10:31:18.119            25.876         12938.000
        13   01 Jun 2027 10:32:53.153   01 Jun 2027 10:33:56.325            63.172         31586.000
        14   01 Jun 2027 10:36:07.849   01 Jun 2027 10:37:17.789            69.940         34970.000
        15   01 Jun 2027 10:37:26.724   01 Jun 2027 10:37:48.771            22.047         11023.500
        16   02 Jun 2027 04:30:58.985   02 Jun 2027 04:33:01.803           122.818         61409.000
        17   02 Jun 2027 04:33:38.379   02 Jun 2027 04:33:56.877            18.498          9249.000
        18   02 Jun 2027 04:35:17.283   02 Jun 2027 04:35:17.283             0.000             0.000
        19   02 Jun 2027 04:37:12.300   02 Jun 2027 04:37:44.443            32.143         16071.500
        20   02 Jun 2027 05:56:53.863   02 Jun 2027 05:57:38.075            44.212         22106.000
        21   02 Jun 2027 06:08:00.311   02 Jun 2027 06:09:41.322           101.011         50505.500
        22   02 Jun 2027 06:11:13.915   02 Jun 2027 06:11:17.184             3.269          1634.500
        23   02 Jun 2027 07:30:57.507   02 Jun 2027 07:32:56.095           118.588         59294.000
        24   02 Jun 2027 09:06:14.413   02 Jun 2027 09:06:43.714            29.301         14650.500
        25   02 Jun 2027 09:07:39.810   02 Jun 2027 09:09:52.097           132.287         66143.500
        26   02 Jun 2027 09:10:31.376   02 Jun 2027 09:10:33.544             2.168          1084.000
        27   02 Jun 2027 09:11:20.815   02 Jun 2027 09:11:54.872            34.057         17028.500
        28   02 Jun 2027 10:42:25.333   02 Jun 2027 10:43:39.982            74.649         37266.469
        29   02 Jun 2027 10:45:34.511   02 Jun 2027 10:45:44.179             9.668          2221.625
        30   02 Jun 2027 10:46:26.606   02 Jun 2027 10:46:39.198            12.592           918.156
        31   02 Jun 2027 10:48:07.260   02 Jun 2027 10:48:07.260             0.000             0.000
        32   02 Jun 2027 10:49:18.763   02 Jun 2027 10:49:32.464            13.701          4761.688
        33   03 Jun 2027 03:04:22.299   03 Jun 2027 03:05:02.666            40.367         20183.500
        34   03 Jun 2027 03:06:27.128   03 Jun 2027 03:06:31.326             4.198          2099.000
        35   03 Jun 2027 03:06:42.221   03 Jun 2027 03:06:49.283             7.062          3531.000
        36   03 Jun 2027 03:08:48.595   03 Jun 2027 03:08:50.256             1.661           830.500
        37   03 Jun 2027 03:08:59.746   03 Jun 2027 03:09:07.650             7.904          3952.000
        38   03 Jun 2027 03:09:28.547   03 Jun 2027 03:09:33.361             4.814          2407.000
        39   03 Jun 2027 03:09:59.725   03 Jun 2027 03:10:04.922             5.197          2598.500
        40   03 Jun 2027 03:10:32.151   03 Jun 2027 03:10:38.526             6.375          3187.500
        41   03 Jun 2027 04:43:28.707   03 Jun 2027 04:45:34.566           125.859         62929.500
        42   03 Jun 2027 04:45:50.309   03 Jun 2027 04:45:57.189             6.880          3440.000
        43   03 Jun 2027 04:46:04.804   03 Jun 2027 04:46:18.881            14.077          7038.500
        44   03 Jun 2027 04:47:18.630   03 Jun 2027 04:47:24.805             6.175          3087.500
        45   03 Jun 2027 04:47:38.291   03 Jun 2027 04:48:14.028            35.737         17868.500
        46   03 Jun 2027 04:48:42.468   03 Jun 2027 04:49:07.513            25.045         12522.500
        47   03 Jun 2027 04:49:21.799   03 Jun 2027 04:49:29.305             7.506          3753.000
        48   03 Jun 2027 06:08:20.489   03 Jun 2027 06:08:55.362            34.873         17436.500
        49   03 Jun 2027 06:20:03.042   03 Jun 2027 06:20:19.247            16.205          7242.625
        50   03 Jun 2027 07:42:16.211   03 Jun 2027 07:42:24.505             8.294          4147.000
        51   03 Jun 2027 07:42:33.970   03 Jun 2027 07:42:37.462             3.492          1645.250
        52   03 Jun 2027 07:43:26.567   03 Jun 2027 07:43:28.145             1.578           789.000
        53   03 Jun 2027 07:44:45.658   03 Jun 2027 07:44:54.466             8.808          1715.656
        54   03 Jun 2027 07:46:06.350   03 Jun 2027 07:46:11.603             5.253          2089.219
        55   03 Jun 2027 07:46:42.711   03 Jun 2027 07:46:44.127             1.416           379.062
        56   03 Jun 2027 09:17:21.519   03 Jun 2027 09:17:30.643             9.124          2540.156
        57   03 Jun 2027 09:18:12.640   03 Jun 2027 09:18:14.755             2.115           603.406
        58   03 Jun 2027 09:19:23.993   03 Jun 2027 09:19:27.816             3.823          1314.125
        59   03 Jun 2027 09:20:18.055   03 Jun 2027 09:20:21.520             3.465          1329.719
        60   03 Jun 2027 09:21:01.582   03 Jun 2027 09:21:01.582             0.000             0.000
        61   03 Jun 2027 09:22:28.999   03 Jun 2027 09:22:36.798             7.799          2829.063
        62   03 Jun 2027 09:23:24.636   03 Jun 2027 09:23:26.734             2.098           961.156
        63   03 Jun 2027 09:25:21.062   03 Jun 2027 09:25:25.196             4.134          1858.594
        64   03 Jun 2027 10:54:39.200   03 Jun 2027 10:54:47.051             7.851          2135.469
        65   03 Jun 2027 10:55:45.030   03 Jun 2027 10:55:51.439             6.409          1091.844
        66   03 Jun 2027 10:56:42.822   03 Jun 2027 10:56:45.637             2.815           887.156
        67   03 Jun 2027 10:57:59.868   03 Jun 2027 10:58:01.420             1.552           543.406
        68   03 Jun 2027 10:59:52.012   03 Jun 2027 10:59:57.290             5.278          2639.000
        69   03 Jun 2027 11:01:11.713   03 Jun 2027 11:01:24.337            12.624          3142.719
        70   04 Jun 2027 03:16:41.366   04 Jun 2027 03:18:53.892           132.526         66263.000
        71   04 Jun 2027 03:18:54.442   04 Jun 2027 03:19:16.852            22.410         11205.000
        72   04 Jun 2027 03:19:24.567   04 Jun 2027 03:19:35.694            11.127          5563.500
        73   04 Jun 2027 03:21:27.264   04 Jun 2027 03:22:10.297            43.033         21516.500
        74   04 Jun 2027 04:55:29.311   04 Jun 2027 04:55:33.604             4.293          2146.500
        75   04 Jun 2027 04:56:24.645   04 Jun 2027 04:57:52.646            88.001         44000.500
        76   04 Jun 2027 04:57:56.755   04 Jun 2027 04:58:03.480             6.725          2106.250
        77   04 Jun 2027 04:58:34.707   04 Jun 2027 04:58:36.858             2.151           975.844
        78   04 Jun 2027 05:00:06.099   04 Jun 2027 05:00:15.092             8.993          1387.563
        79   04 Jun 2027 05:01:40.217   04 Jun 2027 05:01:41.194             0.977           425.469
        80   04 Jun 2027 05:02:06.733   04 Jun 2027 05:02:09.547             2.814           457.438
        81   04 Jun 2027 06:19:49.653   04 Jun 2027 06:19:59.833            10.180          3698.344
        82   04 Jun 2027 06:20:57.006   04 Jun 2027 06:21:00.905             3.899          1456.469
        83   04 Jun 2027 06:21:33.049   04 Jun 2027 06:21:37.198             4.149           260.188
        84   04 Jun 2027 06:21:44.269   04 Jun 2027 06:21:46.844             2.575           154.219
        85   04 Jun 2027 06:32:04.563   04 Jun 2027 06:32:08.975             4.412          1311.531
        86   04 Jun 2027 07:54:01.301   04 Jun 2027 07:54:08.354             7.053          2790.250
        87   04 Jun 2027 07:55:11.713   04 Jun 2027 07:55:13.263             1.550           265.000
        88   04 Jun 2027 07:56:10.189   04 Jun 2027 07:56:15.400             5.211          1563.594
        89   04 Jun 2027 07:57:05.481   04 Jun 2027 07:57:11.619             6.138           971.531
        90   04 Jun 2027 07:58:53.316   04 Jun 2027 07:58:58.846             5.530          2753.750
        91   04 Jun 2027 07:59:07.635   04 Jun 2027 07:59:10.188             2.553            63.719
        92   04 Jun 2027 09:28:49.927   04 Jun 2027 09:28:57.325             7.398          2865.406
        93   04 Jun 2027 09:30:35.134   04 Jun 2027 09:30:40.467             5.333          1838.062
        94   04 Jun 2027 09:31:31.642   04 Jun 2027 09:31:35.197             3.555          1599.219
        95   04 Jun 2027 09:32:36.793   04 Jun 2027 09:32:41.523             4.730           673.656
        96   04 Jun 2027 09:34:29.357   04 Jun 2027 09:34:47.966            18.609          2756.219
        97   04 Jun 2027 09:35:44.081   04 Jun 2027 09:35:46.144             2.063           533.063
        98   04 Jun 2027 09:36:32.730   04 Jun 2027 09:36:35.563             2.833          1226.813
        99   04 Jun 2027 11:06:38.026   04 Jun 2027 11:06:48.960            10.934          3908.937
       100   04 Jun 2027 11:09:16.228   04 Jun 2027 11:09:19.200             2.972           854.219
       101   04 Jun 2027 11:10:10.754   04 Jun 2027 11:10:15.105             4.351          1030.500
       102   04 Jun 2027 11:12:03.561   04 Jun 2027 11:12:11.902             8.341          3363.469
       103   04 Jun 2027 11:13:10.836   04 Jun 2027 11:13:13.695             2.859          1322.813
       104   04 Jun 2027 11:13:36.789   04 Jun 2027 11:13:42.201             5.412           721.688
       105   05 Jun 2027 03:29:25.933   05 Jun 2027 03:31:05.730            99.797         49898.500
       106   05 Jun 2027 03:31:27.636   05 Jun 2027 03:32:51.088            83.452         41726.000
       107   05 Jun 2027 03:33:17.732   05 Jun 2027 03:33:18.617             0.885           442.500
       108   05 Jun 2027 03:33:27.401   05 Jun 2027 03:33:37.671            10.270          5135.000
       109   05 Jun 2027 03:33:51.779   05 Jun 2027 03:33:59.139             7.360          3680.000
       110   05 Jun 2027 05:07:49.117   05 Jun 2027 05:09:36.976           107.859         53736.531
       111   05 Jun 2027 05:10:01.038   05 Jun 2027 05:10:06.324             5.286           191.094
       112   05 Jun 2027 05:11:47.790   05 Jun 2027 05:11:50.669             2.879           642.469
       113   05 Jun 2027 06:31:50.551   05 Jun 2027 06:32:08.844            18.293          7558.344
       114   05 Jun 2027 06:32:45.711   05 Jun 2027 06:32:45.711             0.000             0.000
       115   05 Jun 2027 06:32:48.178   05 Jun 2027 06:32:50.715             2.537          1020.969
       116   05 Jun 2027 06:33:51.026   05 Jun 2027 06:33:51.026             0.000             0.000
       117   05 Jun 2027 06:33:53.521   05 Jun 2027 06:33:55.831             2.310          1155.000
       118   05 Jun 2027 08:07:48.337   05 Jun 2027 08:08:01.498            13.161          6433.594
       119   05 Jun 2027 08:08:06.631   05 Jun 2027 08:08:08.019             1.388            76.063
       120   05 Jun 2027 08:08:43.212   05 Jun 2027 08:08:47.012             3.800           537.469
       121   05 Jun 2027 08:10:02.724   05 Jun 2027 08:10:07.238             4.514          1517.562
       122   05 Jun 2027 08:10:36.118   05 Jun 2027 08:10:40.367             4.249           847.062
       123   05 Jun 2027 08:11:06.456   05 Jun 2027 08:11:08.369             1.913           637.000
       124   05 Jun 2027 09:41:37.915   05 Jun 2027 09:41:46.092             8.177          2444.469
       125   05 Jun 2027 09:43:24.628   05 Jun 2027 09:43:26.156             1.528           670.344
       126   05 Jun 2027 09:46:16.573   05 Jun 2027 09:46:27.907            11.334          4938.813
       127   05 Jun 2027 09:47:35.687   05 Jun 2027 09:47:40.875             5.188          2080.188
       128   05 Jun 2027 09:48:14.805   05 Jun 2027 09:48:22.615             7.810           289.281
       129   05 Jun 2027 09:49:11.263   05 Jun 2027 09:49:14.853             3.590          1520.250
       130   05 Jun 2027 09:49:45.627   05 Jun 2027 09:49:47.989             2.362           161.781
       131   05 Jun 2027 11:18:44.455   05 Jun 2027 11:19:01.688            17.233          4949.781
       132   05 Jun 2027 11:22:42.225   05 Jun 2027 11:22:47.781             5.556          2377.937
       133   05 Jun 2027 11:23:19.075   05 Jun 2027 11:23:21.770             2.695           289.500
       134   05 Jun 2027 11:23:26.720   05 Jun 2027 11:23:27.748             1.028            28.750
       135   05 Jun 2027 11:23:54.462   05 Jun 2027 11:23:59.034             4.572           756.187
       136   05 Jun 2027 11:24:48.367   05 Jun 2027 11:24:58.468            10.101          1541.656
       137   05 Jun 2027 11:25:06.018   05 Jun 2027 11:25:07.643             1.625           235.937
       138   05 Jun 2027 11:25:16.268   05 Jun 2027 11:25:17.900             1.632           147.469
       139   06 Jun 2027 03:42:03.580   06 Jun 2027 03:42:46.587            43.007         21503.500
       140   06 Jun 2027 03:42:52.154   06 Jun 2027 03:43:39.201            47.047         23523.500
       141   06 Jun 2027 03:43:41.294   06 Jun 2027 03:44:45.836            64.542         32271.000
       142   06 Jun 2027 03:46:34.428   06 Jun 2027 03:46:48.546            14.118          7059.000
       143   06 Jun 2027 05:20:22.930   06 Jun 2027 05:22:35.389           132.459         65880.250
       144   06 Jun 2027 05:22:42.489   06 Jun 2027 05:22:42.919             0.430           129.281
       145   06 Jun 2027 05:23:33.998   06 Jun 2027 05:23:36.817             2.819           395.437
       146   06 Jun 2027 06:43:45.399   06 Jun 2027 06:43:57.804            12.405          5532.406
       147   06 Jun 2027 06:44:59.912   06 Jun 2027 06:45:06.842             6.930          1581.656
       148   06 Jun 2027 06:45:25.608   06 Jun 2027 06:45:29.019             3.411           405.125
       149   06 Jun 2027 06:46:05.096   06 Jun 2027 06:46:05.096             0.000             0.000
       150   06 Jun 2027 08:20:08.701   06 Jun 2027 08:20:25.870            17.169          8500.781
       151   06 Jun 2027 08:20:51.671   06 Jun 2027 08:20:55.279             3.608           455.531
       152   06 Jun 2027 08:21:39.633   06 Jun 2027 08:21:43.796             4.163          1352.844
       153   06 Jun 2027 08:22:16.583   06 Jun 2027 08:22:18.772             2.189           536.000
       154   06 Jun 2027 08:23:07.720   06 Jun 2027 08:23:10.793             3.073           910.125
       155   06 Jun 2027 09:53:36.588   06 Jun 2027 09:53:44.073             7.485          2243.094
       156   06 Jun 2027 09:55:34.808   06 Jun 2027 09:55:39.036             4.228          1642.969
       157   06 Jun 2027 09:56:25.327   06 Jun 2027 09:56:30.329             5.002           732.313
       158   06 Jun 2027 09:58:28.194   06 Jun 2027 09:58:36.145             7.951          2511.594
       159   06 Jun 2027 10:00:24.085   06 Jun 2027 10:00:28.157             4.072          1867.250
       160   06 Jun 2027 10:00:50.723   06 Jun 2027 10:00:53.834             3.111           339.375
       161   06 Jun 2027 10:02:06.087   06 Jun 2027 10:02:07.791             1.704           852.000
       162   06 Jun 2027 11:31:10.584   06 Jun 2027 11:31:22.715            12.131          5816.938
       163   06 Jun 2027 11:33:22.381   06 Jun 2027 11:33:23.351             0.970           332.156
       164   06 Jun 2027 11:34:17.103   06 Jun 2027 11:34:19.541             2.438           448.938
       165   06 Jun 2027 11:34:51.609   06 Jun 2027 11:34:56.867             5.258          1002.125
       166   06 Jun 2027 11:35:11.893   06 Jun 2027 11:35:12.785             0.892           243.687
       167   06 Jun 2027 11:35:33.492   06 Jun 2027 11:35:35.144             1.652            81.344
       168   06 Jun 2027 11:35:57.137   06 Jun 2027 11:35:58.921             1.784           129.531
       169   06 Jun 2027 11:36:37.532   06 Jun 2027 11:36:45.250             7.718           971.219
       170   06 Jun 2027 11:37:21.973   06 Jun 2027 11:37:25.002             3.029           703.062
       171   06 Jun 2027 11:37:44.383   06 Jun 2027 11:37:51.897             7.514           484.063
       172   07 Jun 2027 03:53:56.911   07 Jun 2027 03:54:01.875             4.964          2482.000
       173   07 Jun 2027 03:54:26.658   07 Jun 2027 03:56:02.444            95.786         47893.000
       174   07 Jun 2027 03:56:08.446   07 Jun 2027 03:57:28.446            80.000         40000.000
       175   07 Jun 2027 03:59:41.245   07 Jun 2027 03:59:43.160             1.915           957.500
       176   07 Jun 2027 05:32:37.978   07 Jun 2027 05:34:38.458           120.480         60240.000
       177   07 Jun 2027 05:34:50.423   07 Jun 2027 05:35:09.945            19.522          9648.719
       178   07 Jun 2027 06:55:33.246   07 Jun 2027 06:55:43.671            10.425          5212.500
       179   07 Jun 2027 06:57:01.083   07 Jun 2027 06:57:13.829            12.746          3183.625
       180   07 Jun 2027 06:57:46.507   07 Jun 2027 06:57:46.507             0.000             0.000
       181   07 Jun 2027 08:32:10.200   07 Jun 2027 08:32:16.950             6.750          3134.187
       182   07 Jun 2027 08:32:51.622   07 Jun 2027 08:32:54.534             2.912           456.844
       183   07 Jun 2027 08:33:20.585   07 Jun 2027 08:33:25.090             4.505           753.125
       184   07 Jun 2027 08:33:43.601   07 Jun 2027 08:33:45.738             2.137           107.875
       185   07 Jun 2027 08:33:54.837   07 Jun 2027 08:33:54.837             0.000             0.000
       186   07 Jun 2027 08:34:40.826   07 Jun 2027 08:34:46.217             5.391          1721.500
       187   07 Jun 2027 10:07:05.562   07 Jun 2027 10:07:13.944             8.382          3185.906
       188   07 Jun 2027 10:08:11.537   07 Jun 2027 10:08:13.450             1.913           421.562
       189   07 Jun 2027 10:09:15.093   07 Jun 2027 10:09:20.555             5.462          1662.750
       190   07 Jun 2027 10:10:26.433   07 Jun 2027 10:10:29.106             2.673          1204.656
       191   07 Jun 2027 10:10:53.154   07 Jun 2027 10:10:58.210             5.056           729.313
       192   07 Jun 2027 10:12:25.142   07 Jun 2027 10:12:30.880             5.738          2388.719
       193   07 Jun 2027 10:13:31.999   07 Jun 2027 10:13:35.364             3.365           717.656
       194   07 Jun 2027 10:13:44.879   07 Jun 2027 10:13:46.475             1.596           231.531
       195   07 Jun 2027 10:13:56.525   07 Jun 2027 10:13:58.300             1.775           314.063
       196   07 Jun 2027 11:43:18.142   07 Jun 2027 11:43:28.386            10.244          4846.688
       197   07 Jun 2027 11:45:50.196   07 Jun 2027 11:45:54.678             4.482           997.000
       198   07 Jun 2027 11:46:31.664   07 Jun 2027 11:46:35.097             3.433          1057.375
       199   07 Jun 2027 11:47:53.910   07 Jun 2027 11:47:59.759             5.849          1846.500
       200   07 Jun 2027 11:48:05.166   07 Jun 2027 11:48:05.970             0.804           168.969
       201   07 Jun 2027 11:48:59.407   07 Jun 2027 11:49:02.141             2.734          1301.625
       202   07 Jun 2027 11:49:07.136   07 Jun 2027 11:49:12.472             5.336            86.313
       203   07 Jun 2027 11:49:25.168   07 Jun 2027 11:49:37.408            12.240           197.719
       204   08 Jun 2027 04:06:05.712   08 Jun 2027 04:07:07.895            62.183         31091.500
       205   08 Jun 2027 04:07:14.474   08 Jun 2027 04:07:23.352             8.878          4439.000
       206   08 Jun 2027 04:07:46.428   08 Jun 2027 04:08:17.359            30.931         15465.500
       207   08 Jun 2027 04:08:45.225   08 Jun 2027 04:08:58.502            13.277          6638.500
       208   08 Jun 2027 04:09:40.420   08 Jun 2027 04:09:57.380            16.960          8480.000
       209   08 Jun 2027 04:11:21.500   08 Jun 2027 04:11:44.649            23.149         11574.500
       210   08 Jun 2027 04:11:57.295   08 Jun 2027 04:12:20.719            23.424         11712.000
       211   08 Jun 2027 05:44:24.173   08 Jun 2027 05:44:55.889            31.716         15858.000
       212   08 Jun 2027 05:45:13.769   08 Jun 2027 05:46:10.256            56.487         28243.500
       213   08 Jun 2027 05:46:33.205   08 Jun 2027 05:47:29.048            55.843         27524.281
       214   08 Jun 2027 07:07:46.789   08 Jun 2027 07:08:04.486            17.697          8280.219
       215   08 Jun 2027 07:08:40.772   08 Jun 2027 07:08:40.772             0.000             0.000
       216   08 Jun 2027 07:09:13.151   08 Jun 2027 07:09:18.338             5.187          1772.438
       217   08 Jun 2027 07:10:22.603   08 Jun 2027 07:10:23.940             1.337           668.500
       218   08 Jun 2027 07:10:40.843   08 Jun 2027 07:10:40.843             0.000             0.000
       219   08 Jun 2027 08:44:18.716   08 Jun 2027 08:44:28.553             9.837          2646.375
       220   08 Jun 2027 08:45:29.186   08 Jun 2027 08:45:33.509             4.323          1597.531
       221   08 Jun 2027 08:45:48.612   08 Jun 2027 08:45:48.612             0.000             0.000
       222   08 Jun 2027 08:45:57.786   08 Jun 2027 08:45:59.436             1.650           739.094
       223   08 Jun 2027 08:47:50.264   08 Jun 2027 08:47:52.043             1.779           889.500
       224   08 Jun 2027 10:19:28.606   08 Jun 2027 10:19:34.261             5.655          2461.406
       225   08 Jun 2027 10:20:45.477   08 Jun 2027 10:20:49.136             3.659          1801.500
       226   08 Jun 2027 10:21:25.121   08 Jun 2027 10:21:28.763             3.642           958.906
       227   08 Jun 2027 10:23:00.070   08 Jun 2027 10:23:04.876             4.806          1745.313
       228   08 Jun 2027 10:23:54.876   08 Jun 2027 10:23:57.885             3.009          1196.875
       229   08 Jun 2027 10:24:38.005   08 Jun 2027 10:24:42.140             4.135           867.000
       230   08 Jun 2027 10:25:54.813   08 Jun 2027 10:25:58.020             3.207           875.156
       231   08 Jun 2027 11:55:54.137   08 Jun 2027 11:56:06.066            11.929          5465.656
       232   08 Jun 2027 11:57:15.255   08 Jun 2027 11:57:19.798             4.543          1742.406
       233   08 Jun 2027 11:57:50.601   08 Jun 2027 11:57:53.649             3.048           626.875
       234   08 Jun 2027 11:59:01.407   08 Jun 2027 11:59:04.186             2.779          1131.844
       235   08 Jun 2027 11:59:19.577   08 Jun 2027 11:59:24.113             4.536           104.719
       236   08 Jun 2027 11:59:45.192   08 Jun 2027 11:59:46.724             1.532           457.125
       237   09 Jun 2027 04:19:12.423   09 Jun 2027 04:20:33.245            80.822         40411.000
       238   09 Jun 2027 04:20:56.912   09 Jun 2027 04:21:21.685            24.773         12386.500
       239   09 Jun 2027 04:21:58.290   09 Jun 2027 04:22:22.029            23.739         11869.500
       240   09 Jun 2027 04:22:58.222   09 Jun 2027 04:22:58.222             0.000             0.000
       241   09 Jun 2027 04:25:44.631   09 Jun 2027 04:25:49.643             5.012          2506.000
       242   09 Jun 2027 04:26:12.828   09 Jun 2027 04:26:44.182            31.354         15677.000
       243   09 Jun 2027 05:56:21.017   09 Jun 2027 05:57:00.210            39.193         19596.500
       244   09 Jun 2027 05:57:21.995   09 Jun 2027 05:59:09.053           107.058         53529.000
       245   09 Jun 2027 05:59:45.405   09 Jun 2027 05:59:54.030             8.625          4312.500
       246   09 Jun 2027 07:20:22.466   09 Jun 2027 07:20:39.015            16.549          8155.938
       247   09 Jun 2027 07:21:11.763   09 Jun 2027 07:21:13.963             2.200           290.656
       248   09 Jun 2027 07:22:20.268   09 Jun 2027 07:22:23.047             2.779          1359.687
       249   09 Jun 2027 07:22:42.180   09 Jun 2027 07:22:42.180             0.000             0.000
       250   09 Jun 2027 08:56:11.871   09 Jun 2027 08:56:21.335             9.464          3003.625
       251   09 Jun 2027 08:57:26.899   09 Jun 2027 08:57:31.867             4.968          1537.375
       252   09 Jun 2027 08:58:07.201   09 Jun 2027 08:58:11.211             4.010           842.031
       253   09 Jun 2027 08:58:14.118   09 Jun 2027 08:58:14.413             0.295             8.687
       254   09 Jun 2027 08:58:51.878   09 Jun 2027 08:58:56.174             4.296          1048.281
       255   09 Jun 2027 10:31:07.969   09 Jun 2027 10:31:22.431            14.462          4520.813
       256   09 Jun 2027 10:33:13.020   09 Jun 2027 10:33:20.769             7.749          3099.219
       257   09 Jun 2027 10:34:09.935   09 Jun 2027 10:34:17.374             7.439           996.063
       258   09 Jun 2027 10:36:25.721   09 Jun 2027 10:36:36.650            10.929          3939.219
       259   09 Jun 2027 10:37:40.131   09 Jun 2027 10:37:45.056             4.925          1818.313
       260   10 Jun 2027 04:31:16.203   10 Jun 2027 04:33:33.385           137.182         68591.000
       261   10 Jun 2027 04:35:30.464   10 Jun 2027 04:35:31.753             1.289           644.500
       262   10 Jun 2027 04:35:50.208   10 Jun 2027 04:36:24.266            34.058         17029.000
       263   10 Jun 2027 04:37:44.695   10 Jun 2027 04:37:59.850            15.155          7577.500
       264   10 Jun 2027 04:38:16.785   10 Jun 2027 04:38:16.785             0.000             0.000
       265   10 Jun 2027 04:38:17.336   10 Jun 2027 04:38:48.565            31.229         15614.500
       266   10 Jun 2027 05:57:07.639   10 Jun 2027 05:57:39.632            31.993         15996.500
       267   10 Jun 2027 06:08:17.149   10 Jun 2027 06:09:57.998           100.849         49978.375
       268   10 Jun 2027 06:10:38.028   10 Jun 2027 06:10:40.377             2.349           942.094
       269   10 Jun 2027 06:10:55.944   10 Jun 2027 06:10:58.148             2.204           250.437
       270   10 Jun 2027 06:11:24.361   10 Jun 2027 06:11:24.458             0.097            48.500
       271   10 Jun 2027 07:30:55.909   10 Jun 2027 07:31:11.602            15.693          7422.281
       272   10 Jun 2027 07:32:04.064   10 Jun 2027 07:32:09.374             5.310          1448.375
       273   10 Jun 2027 07:32:17.379   10 Jun 2027 07:32:18.213             0.834           153.687
       274   10 Jun 2027 07:33:12.806   10 Jun 2027 07:33:15.634             2.828           793.031
       275   10 Jun 2027 07:34:14.345   10 Jun 2027 07:34:17.170             2.825          1164.688
       276   10 Jun 2027 07:34:45.284   10 Jun 2027 07:34:47.082             1.798           697.344
       277   10 Jun 2027 09:06:30.738   10 Jun 2027 09:06:38.259             7.521          2770.656
       278   10 Jun 2027 09:09:58.238   10 Jun 2027 09:10:06.550             8.312          3253.656
       279   10 Jun 2027 09:10:45.660   10 Jun 2027 09:10:46.245             0.585            66.500
       280   10 Jun 2027 09:11:38.986   10 Jun 2027 09:11:42.293             3.307          1476.000
       281   10 Jun 2027 09:12:22.990   10 Jun 2027 09:12:26.180             3.190           368.719
       282   10 Jun 2027 10:43:14.049   10 Jun 2027 10:43:27.342            13.293          3249.187
       283   10 Jun 2027 10:45:45.002   10 Jun 2027 10:45:54.059             9.057          3802.187
       284   10 Jun 2027 10:46:14.111   10 Jun 2027 10:46:16.742             2.631           626.625
       285   10 Jun 2027 10:46:42.193   10 Jun 2027 10:46:44.617             2.424           795.344
       286   10 Jun 2027 10:47:03.864   10 Jun 2027 10:47:03.864             0.000             0.000
       287   10 Jun 2027 10:48:25.061   10 Jun 2027 10:48:32.415             7.354          3022.563
       288   10 Jun 2027 10:48:49.281   10 Jun 2027 10:48:51.331             2.050           406.687
       289   10 Jun 2027 10:49:51.511   10 Jun 2027 10:49:57.927             6.416           728.031
       290   11 Jun 2027 03:04:40.027   11 Jun 2027 03:05:20.923            40.896         20448.000
       291   11 Jun 2027 03:05:46.245   11 Jun 2027 03:05:49.306             3.061          1530.500
       292   11 Jun 2027 03:05:56.257   11 Jun 2027 03:06:00.949             4.692          2346.000
       293   11 Jun 2027 03:06:05.779   11 Jun 2027 03:06:06.287             0.508           254.000
       294   11 Jun 2027 03:06:46.322   11 Jun 2027 03:06:53.534             7.212          3606.000
       295   11 Jun 2027 03:08:41.030   11 Jun 2027 03:08:59.856            18.826          9413.000
       296   11 Jun 2027 03:09:29.784   11 Jun 2027 03:09:47.731            17.947          8973.500
       297   11 Jun 2027 04:43:45.633   11 Jun 2027 04:46:03.133           137.500         68750.000
       298   11 Jun 2027 04:46:33.358   11 Jun 2027 04:46:38.947             5.589          2794.500
       299   11 Jun 2027 04:47:32.667   11 Jun 2027 04:48:31.265            58.598         29299.000
       300   11 Jun 2027 04:49:04.538   11 Jun 2027 04:49:13.651             9.113          4458.406
       301   11 Jun 2027 04:49:37.239   11 Jun 2027 04:49:38.197             0.958           448.312
       302   11 Jun 2027 06:08:37.702   11 Jun 2027 06:09:06.754            29.052         13133.906
       303   11 Jun 2027 06:20:19.899   11 Jun 2027 06:20:26.615             6.716          3250.750
       304   11 Jun 2027 07:42:33.567   11 Jun 2027 07:42:44.739            11.172          4475.313
       305   11 Jun 2027 07:43:43.266   11 Jun 2027 07:43:44.256             0.990           495.000
       306   11 Jun 2027 07:45:02.474   11 Jun 2027 07:45:10.986             8.512          1966.906
       307   11 Jun 2027 07:46:22.272   11 Jun 2027 07:46:26.618             4.346          2059.844
       308   11 Jun 2027 07:46:58.853   11 Jun 2027 07:46:59.548             0.695           330.687
       309   11 Jun 2027 09:17:37.021   11 Jun 2027 09:17:42.521             5.500          2539.531
       310   11 Jun 2027 09:18:30.987   11 Jun 2027 09:18:32.585             1.598           603.437
       311   11 Jun 2027 09:19:40.736   11 Jun 2027 09:19:48.047             7.311          1325.688
       312   11 Jun 2027 09:20:34.753   11 Jun 2027 09:20:38.759             4.006          1233.750
       313   11 Jun 2027 09:21:19.348   11 Jun 2027 09:21:21.544             2.196           180.312
       314   11 Jun 2027 09:23:12.333   11 Jun 2027 09:23:18.788             6.455           807.969
       315   11 Jun 2027 09:23:45.076   11 Jun 2027 09:23:46.289             1.213           229.250
       316   11 Jun 2027 09:24:06.530   11 Jun 2027 09:24:06.530             0.000             0.000
       317   11 Jun 2027 09:24:36.760   11 Jun 2027 09:24:41.297             4.537          1337.531
       318   11 Jun 2027 10:55:00.310   11 Jun 2027 10:55:07.250             6.940          2874.250
       319   11 Jun 2027 10:56:59.670   11 Jun 2027 10:57:09.632             9.962           880.281
       320   11 Jun 2027 10:58:22.131   11 Jun 2027 10:58:23.108             0.977           487.031
       321   11 Jun 2027 10:58:54.856   11 Jun 2027 10:58:57.035             2.179           744.625
       322   11 Jun 2027 10:59:30.857   11 Jun 2027 10:59:31.761             0.904           406.719
       323   11 Jun 2027 10:59:48.640   11 Jun 2027 10:59:50.463             1.823           527.469
       324   11 Jun 2027 11:01:12.494   11 Jun 2027 11:01:18.712             6.218          2444.781
       325   11 Jun 2027 11:01:46.359   11 Jun 2027 11:01:51.818             5.459           603.250
       326   11 Jun 2027 11:02:13.402   11 Jun 2027 11:02:14.940             1.538           674.500
       327   11 Jun 2027 11:02:18.830   11 Jun 2027 11:02:19.274             0.444            17.313
       328   12 Jun 2027 03:16:59.564   12 Jun 2027 03:18:08.415            68.851         34425.500
       329   12 Jun 2027 03:18:11.030   12 Jun 2027 03:19:09.936            58.906         29453.000
       330   12 Jun 2027 03:19:12.334   12 Jun 2027 03:19:17.703             5.369          2684.500
       331   12 Jun 2027 03:19:44.696   12 Jun 2027 03:20:07.468            22.772         11386.000
       332   12 Jun 2027 03:21:25.338   12 Jun 2027 03:21:44.971            19.633          9816.500
       333   12 Jun 2027 04:55:47.273   12 Jun 2027 04:56:00.974            13.701          6850.500
       334   12 Jun 2027 04:56:42.409   12 Jun 2027 04:58:11.905            89.496         44748.000
       335   12 Jun 2027 04:59:40.081   12 Jun 2027 05:00:12.426            32.345         14607.187
       336   12 Jun 2027 05:00:39.537   12 Jun 2027 05:00:41.825             2.288           567.312
       337   12 Jun 2027 05:02:10.758   12 Jun 2027 05:02:16.017             5.259           522.375
       338   12 Jun 2027 05:02:48.462   12 Jun 2027 05:02:51.242             2.780           645.656
       339   12 Jun 2027 06:20:08.317   12 Jun 2027 06:20:20.986            12.669          5682.437
       340   12 Jun 2027 06:21:56.556   12 Jun 2027 06:22:08.863            12.307          2800.938
       341   12 Jun 2027 06:32:22.014   12 Jun 2027 06:32:25.726             3.712          1856.000
       342   12 Jun 2027 07:54:17.486   12 Jun 2027 07:54:31.499            14.013          4361.375
       343   12 Jun 2027 07:56:20.500   12 Jun 2027 07:56:24.960             4.460          1499.437
       344   12 Jun 2027 07:57:01.572   12 Jun 2027 07:57:05.198             3.626          1023.219
       345   12 Jun 2027 07:57:43.592   12 Jun 2027 07:57:47.364             3.772          1199.813
       346   12 Jun 2027 07:59:10.810   12 Jun 2027 07:59:16.760             5.950          2382.281
       347   12 Jun 2027 07:59:24.630   12 Jun 2027 07:59:32.037             7.407           134.531
       348   12 Jun 2027 09:29:05.409   12 Jun 2027 09:29:12.305             6.896          2369.812
       349   12 Jun 2027 09:30:58.265   12 Jun 2027 09:31:00.474             2.209           116.062
       350   12 Jun 2027 09:31:35.914   12 Jun 2027 09:31:38.351             2.437           994.375
       351   12 Jun 2027 09:32:51.494   12 Jun 2027 09:32:57.086             5.592           613.750
       352   12 Jun 2027 09:34:46.788   12 Jun 2027 09:35:02.547            15.759          2738.625
       353   12 Jun 2027 09:36:00.185   12 Jun 2027 09:36:01.239             1.054           450.188
       354   12 Jun 2027 09:36:38.874   12 Jun 2027 09:36:43.141             4.267           835.937
       355   12 Jun 2027 09:37:26.248   12 Jun 2027 09:37:29.660             3.412           892.281
       356   12 Jun 2027 09:37:47.290   12 Jun 2027 09:37:53.004             5.714            95.656
       357   12 Jun 2027 11:06:55.051   12 Jun 2027 11:07:26.542            31.491          4755.500
       358   12 Jun 2027 11:09:53.485   12 Jun 2027 11:09:55.746             2.261           739.500
       359   12 Jun 2027 11:10:36.139   12 Jun 2027 11:10:45.497             9.358          1245.500
       360   12 Jun 2027 11:11:11.714   12 Jun 2027 11:11:12.624             0.910           259.375
       361   12 Jun 2027 11:11:33.057   12 Jun 2027 11:11:36.267             3.210            71.281
       362   12 Jun 2027 11:13:14.487   12 Jun 2027 11:13:22.711             8.224          2699.625
       363   12 Jun 2027 11:13:39.060   12 Jun 2027 11:13:43.840             4.780           410.781
       364   12 Jun 2027 11:14:15.271   12 Jun 2027 11:14:21.314             6.043           934.219
       365   13 Jun 2027 03:29:43.657   13 Jun 2027 03:31:21.995            98.338         49169.000
       366   13 Jun 2027 03:31:46.605   13 Jun 2027 03:33:08.549            81.944         40972.000
       367   13 Jun 2027 05:08:09.752   13 Jun 2027 05:10:19.163           129.411         64705.500
       368   13 Jun 2027 05:11:45.663   13 Jun 2027 05:11:54.044             8.381          3748.469
       369   13 Jun 2027 06:32:07.323   13 Jun 2027 06:32:23.386            16.063          6723.906
       370   13 Jun 2027 06:33:02.379   13 Jun 2027 06:33:04.581             2.202           988.812
       371   13 Jun 2027 06:33:15.499   13 Jun 2027 06:33:18.441             2.942           321.250
       372   13 Jun 2027 06:33:53.865   13 Jun 2027 06:33:55.068             1.203           207.625
       373   13 Jun 2027 06:34:22.981   13 Jun 2027 06:34:23.559             0.578           289.000
       374   13 Jun 2027 08:08:04.002   13 Jun 2027 08:08:21.203            17.201          7737.750
       375   13 Jun 2027 08:08:52.893   13 Jun 2027 08:08:59.917             7.024           920.875
       376   13 Jun 2027 08:09:37.703   13 Jun 2027 08:09:40.535             2.832          1180.813
       377   13 Jun 2027 08:11:11.486   13 Jun 2027 08:11:17.631             6.145          2548.594
       378   13 Jun 2027 09:41:54.141   13 Jun 2027 09:42:01.014             6.873          2241.031
       379   13 Jun 2027 09:43:43.823   13 Jun 2027 09:43:45.977             2.154           680.062
       380   13 Jun 2027 09:44:28.518   13 Jun 2027 09:44:33.920             5.402           880.375
       381   13 Jun 2027 09:46:46.496   13 Jun 2027 09:46:57.091            10.595          2657.906
       382   13 Jun 2027 09:48:24.667   13 Jun 2027 09:48:33.722             9.055          1032.312
       383   13 Jun 2027 09:48:40.674   13 Jun 2027 09:48:46.128             5.454           217.250
       384   13 Jun 2027 09:49:25.451   13 Jun 2027 09:49:26.499             1.048           448.813
       385   13 Jun 2027 11:19:02.008   13 Jun 2027 11:19:11.053             9.045          4118.500
       386   13 Jun 2027 11:21:42.180   13 Jun 2027 11:21:59.017            16.837          3212.125
       387   13 Jun 2027 11:22:39.462   13 Jun 2027 11:22:40.007             0.545           191.469
       388   13 Jun 2027 11:23:03.865   13 Jun 2027 11:23:07.460             3.595           399.563
       389   13 Jun 2027 11:24:03.948   13 Jun 2027 11:24:09.951             6.003          1726.094
       390   13 Jun 2027 11:25:03.430   13 Jun 2027 11:25:06.578             3.148          1497.219
       391   13 Jun 2027 11:25:21.051   13 Jun 2027 11:25:22.404             1.353           206.812
       392   13 Jun 2027 11:25:33.649   13 Jun 2027 11:25:34.697             1.048           145.219
