uniorb/output/strategy_4/Camera/Camera_KinoSat_112006.txt

KinoSat_112006
-------------------------
    Access    *     Start Time (UTCG)     *     Stop Time (UTCG)  *   Duration (s) *   Data (Mbytes)
         1   01 Jun 2027 04:23:52.702   01 Jun 2027 04:25:34.185           101.483         50741.500
         2   01 Jun 2027 04:25:34.335   01 Jun 2027 04:26:20.805            46.470         23235.000
         3   01 Jun 2027 06:02:56.996   01 Jun 2027 06:05:14.808           137.812         68906.000
         4   01 Jun 2027 06:07:14.644   01 Jun 2027 06:07:14.644             0.000             0.000
         5   01 Jun 2027 06:08:09.881   01 Jun 2027 06:08:18.050             8.169          4084.500
         6   01 Jun 2027 06:09:43.925   01 Jun 2027 06:09:59.453            15.528          7764.000
         7   01 Jun 2027 07:27:49.257   01 Jun 2027 07:29:19.701            90.444         45222.000
         8   01 Jun 2027 07:39:31.418   01 Jun 2027 07:40:31.953            60.535         30267.500
         9   01 Jun 2027 09:01:44.961   01 Jun 2027 09:02:56.141            71.180         35590.000
        10   01 Jun 2027 09:03:45.859   01 Jun 2027 09:05:32.338           106.479         53239.500
        11   01 Jun 2027 09:06:18.383   01 Jun 2027 09:06:39.508            21.125         10562.500
        12   01 Jun 2027 10:36:49.018   01 Jun 2027 10:37:26.674            37.656         18828.000
        13   02 Jun 2027 03:00:01.799   02 Jun 2027 03:00:19.390            17.591          8795.500
        14   02 Jun 2027 03:01:15.941   02 Jun 2027 03:01:15.941             0.000             0.000
        15   02 Jun 2027 03:01:35.754   02 Jun 2027 03:01:45.651             9.897          4948.500
        16   02 Jun 2027 03:02:32.596   02 Jun 2027 03:02:54.910            22.314         11157.000
        17   02 Jun 2027 03:04:31.450   02 Jun 2027 03:04:49.105            17.655          8827.500
        18   02 Jun 2027 03:06:40.545   02 Jun 2027 03:06:41.708             1.163           581.500
        19   02 Jun 2027 04:36:13.214   02 Jun 2027 04:36:39.615            26.401         13200.500
        20   02 Jun 2027 04:36:44.465   02 Jun 2027 04:37:19.542            35.077         17538.500
        21   02 Jun 2027 04:37:22.892   02 Jun 2027 04:38:04.690            41.798         20899.000
        22   02 Jun 2027 04:38:22.989   02 Jun 2027 04:38:50.638            27.649         13824.500
        23   02 Jun 2027 04:39:59.578   02 Jun 2027 04:40:00.073             0.495           247.500
        24   02 Jun 2027 04:40:06.583   02 Jun 2027 04:40:21.397            14.814          7407.000
        25   02 Jun 2027 04:41:17.903   02 Jun 2027 04:41:20.393             2.490          1245.000
        26   02 Jun 2027 06:14:59.226   02 Jun 2027 06:18:38.488           219.262        109631.000
        27   02 Jun 2027 06:20:48.246   02 Jun 2027 06:20:49.501             1.255           627.500
        28   02 Jun 2027 06:22:00.449   02 Jun 2027 06:22:02.267             1.818           909.000
        29   02 Jun 2027 07:39:19.422   02 Jun 2027 07:40:23.590            64.168         32084.000
        30   02 Jun 2027 07:40:57.853   02 Jun 2027 07:41:25.888            28.035         14017.500
        31   02 Jun 2027 07:51:33.763   02 Jun 2027 07:51:36.252             2.489          1244.500
        32   02 Jun 2027 09:13:29.376   02 Jun 2027 09:14:44.655            75.279         37639.500
        33   02 Jun 2027 09:15:32.310   02 Jun 2027 09:17:21.407           109.097         54548.500
        34   02 Jun 2027 09:18:36.118   02 Jun 2027 09:19:07.048            30.930         15465.000
        35   02 Jun 2027 10:48:17.279   02 Jun 2027 10:48:43.801            26.522         10891.750
        36   02 Jun 2027 10:50:21.237   02 Jun 2027 10:50:21.237             0.000             0.000
        37   02 Jun 2027 10:50:47.561   02 Jun 2027 10:50:53.610             6.049          2774.938
        38   02 Jun 2027 10:52:21.381   02 Jun 2027 10:52:21.381             0.000             0.000
        39   02 Jun 2027 10:55:23.427   02 Jun 2027 10:55:38.153            14.726          6587.844
        40   02 Jun 2027 10:56:50.956   02 Jun 2027 10:56:55.833             4.877           344.750
        41   02 Jun 2027 10:56:58.054   02 Jun 2027 10:56:58.375             0.321            57.469
        42   03 Jun 2027 03:11:16.718   03 Jun 2027 03:11:30.454            13.736          6868.000
        43   03 Jun 2027 03:13:32.848   03 Jun 2027 03:13:32.848             0.000             0.000
        44   03 Jun 2027 03:14:00.086   03 Jun 2027 03:15:05.536            65.450         32725.000
        45   03 Jun 2027 03:15:12.888   03 Jun 2027 03:15:42.189            29.301         14650.500
        46   03 Jun 2027 03:15:46.616   03 Jun 2027 03:15:49.332             2.716          1358.000
        47   03 Jun 2027 03:16:03.880   03 Jun 2027 03:16:15.514            11.634          5817.000
        48   03 Jun 2027 03:16:17.599   03 Jun 2027 03:16:51.231            33.632         16816.000
        49   03 Jun 2027 03:17:00.121   03 Jun 2027 03:17:08.955             8.834          4417.000
        50   03 Jun 2027 03:18:08.049   03 Jun 2027 03:18:17.299             9.250          4625.000
        51   03 Jun 2027 03:18:26.213   03 Jun 2027 03:18:36.213            10.000          5000.000
        52   03 Jun 2027 04:48:55.798   03 Jun 2027 04:49:14.993            19.195          9597.500
        53   03 Jun 2027 04:49:20.480   03 Jun 2027 04:50:33.187            72.707         36353.500
        54   03 Jun 2027 04:50:59.897   03 Jun 2027 04:51:25.402            25.505         12752.500
        55   03 Jun 2027 06:27:22.779   03 Jun 2027 06:28:36.269            73.490         36714.594
        56   03 Jun 2027 06:30:32.893   03 Jun 2027 06:30:36.210             3.317          1617.156
        57   03 Jun 2027 06:31:10.810   03 Jun 2027 06:31:12.566             1.756           847.156
        58   03 Jun 2027 06:31:52.742   03 Jun 2027 06:31:56.302             3.560           949.969
        59   03 Jun 2027 07:51:19.008   03 Jun 2027 07:51:29.607            10.599          4203.219
        60   03 Jun 2027 07:52:37.137   03 Jun 2027 07:52:37.137             0.000             0.000
        61   03 Jun 2027 07:52:37.953   03 Jun 2027 07:52:44.353             6.400          1343.750
        62   03 Jun 2027 09:27:15.809   03 Jun 2027 09:27:29.245            13.436          5979.750
        63   03 Jun 2027 09:28:06.927   03 Jun 2027 09:28:09.463             2.536          1047.562
        64   03 Jun 2027 09:29:03.446   03 Jun 2027 09:29:08.021             4.575          1532.156
        65   03 Jun 2027 09:30:16.363   03 Jun 2027 09:30:18.854             2.491           816.906
        66   03 Jun 2027 11:01:06.311   03 Jun 2027 11:01:12.358             6.047          2760.313
        67   03 Jun 2027 11:03:23.934   03 Jun 2027 11:03:26.973             3.039          1065.625
        68   03 Jun 2027 11:03:50.536   03 Jun 2027 11:03:52.676             2.140           255.969
        69   03 Jun 2027 11:07:26.540   03 Jun 2027 11:07:28.179             1.639           737.906
        70   03 Jun 2027 11:07:39.226   03 Jun 2027 11:07:41.578             2.352           328.500
        71   03 Jun 2027 11:08:36.863   03 Jun 2027 11:08:41.661             4.798          1367.344
        72   03 Jun 2027 11:08:42.550   03 Jun 2027 11:08:42.659             0.109            23.875
        73   03 Jun 2027 11:09:04.746   03 Jun 2027 11:09:08.584             3.838           388.625
        74   04 Jun 2027 03:23:16.805   04 Jun 2027 03:23:32.947            16.142          8071.000
        75   04 Jun 2027 03:25:27.380   04 Jun 2027 03:28:32.713           185.333         92666.500
        76   04 Jun 2027 03:29:28.300   04 Jun 2027 03:30:09.865            41.565         20782.500
        77   04 Jun 2027 05:01:40.748   04 Jun 2027 05:02:00.618            19.870          9935.000
        78   04 Jun 2027 05:02:17.708   04 Jun 2027 05:03:00.528            42.820         21410.000
        79   04 Jun 2027 05:04:01.323   04 Jun 2027 05:04:18.724            17.401          8700.500
        80   04 Jun 2027 05:05:56.967   04 Jun 2027 05:06:24.115            27.148         13503.656
        81   04 Jun 2027 05:06:45.522   04 Jun 2027 05:06:49.120             3.598           336.062
        82   04 Jun 2027 05:07:08.429   04 Jun 2027 05:07:10.221             1.792           390.844
        83   04 Jun 2027 06:39:49.077   04 Jun 2027 06:40:19.991            30.914         15298.500
        84   04 Jun 2027 06:42:29.026   04 Jun 2027 06:42:32.488             3.462          1006.938
        85   04 Jun 2027 06:43:53.946   04 Jun 2027 06:43:59.606             5.660          2338.469
        86   04 Jun 2027 08:03:13.615   04 Jun 2027 08:03:27.199            13.584          6755.469
        87   04 Jun 2027 08:04:38.617   04 Jun 2027 08:04:42.908             4.291          1572.844
        88   04 Jun 2027 08:05:11.604   04 Jun 2027 08:05:12.730             1.126           218.250
        89   04 Jun 2027 08:05:19.617   04 Jun 2027 08:05:20.727             1.110           126.406
        90   04 Jun 2027 08:05:34.120   04 Jun 2027 08:05:34.414             0.294            41.344
        91   04 Jun 2027 09:39:37.897   04 Jun 2027 09:39:48.960            11.063          3628.187
        92   04 Jun 2027 09:41:00.450   04 Jun 2027 09:41:06.235             5.785          1733.969
        93   04 Jun 2027 09:41:45.671   04 Jun 2027 09:41:46.454             0.783           391.500
        94   04 Jun 2027 09:42:36.781   04 Jun 2027 09:42:41.676             4.895          2096.125
        95   04 Jun 2027 11:15:42.401   04 Jun 2027 11:16:06.114            23.713          8979.156
        96   04 Jun 2027 11:19:03.632   04 Jun 2027 11:19:03.632             0.000             0.000
        97   04 Jun 2027 11:20:10.593   04 Jun 2027 11:20:23.974            13.381          6206.281
        98   04 Jun 2027 11:20:53.393   04 Jun 2027 11:20:55.158             1.765           301.000
        99   04 Jun 2027 11:21:35.136   04 Jun 2027 11:21:36.800             1.664           832.000
       100   05 Jun 2027 03:35:29.644   05 Jun 2027 03:35:51.076            21.432         10716.000
       101   05 Jun 2027 03:36:54.965   05 Jun 2027 03:40:06.475           191.510         95755.000
       102   05 Jun 2027 03:41:12.042   05 Jun 2027 03:41:20.151             8.109          4054.500
       103   05 Jun 2027 05:14:38.917   05 Jun 2027 05:14:40.316             1.399           699.500
       104   05 Jun 2027 05:14:46.568   05 Jun 2027 05:15:34.855            48.287         24143.500
       105   05 Jun 2027 05:16:45.678   05 Jun 2027 05:17:23.125            37.447         18723.500
       106   05 Jun 2027 05:19:00.199   05 Jun 2027 05:19:40.690            40.491         20245.500
       107   05 Jun 2027 06:52:07.014   05 Jun 2027 06:52:43.583            36.569         17501.250
       108   05 Jun 2027 06:53:50.257   05 Jun 2027 06:53:55.124             4.867          2027.344
       109   05 Jun 2027 06:54:44.727   05 Jun 2027 06:54:46.885             2.158           981.188
       110   05 Jun 2027 06:55:01.027   05 Jun 2027 06:55:06.906             5.879           392.125
       111   05 Jun 2027 06:55:26.990   05 Jun 2027 06:55:33.361             6.371           520.938
       112   05 Jun 2027 08:15:01.137   05 Jun 2027 08:15:14.022            12.885          6383.875
       113   05 Jun 2027 08:16:39.874   05 Jun 2027 08:16:48.865             8.991          1902.437
       114   05 Jun 2027 08:17:00.649   05 Jun 2027 08:17:02.687             2.038            30.063
       115   05 Jun 2027 09:51:40.418   05 Jun 2027 09:51:48.616             8.198          3314.812
       116   05 Jun 2027 09:52:44.254   05 Jun 2027 09:52:50.677             6.423           871.344
       117   05 Jun 2027 09:53:41.223   05 Jun 2027 09:53:46.012             4.789          1219.906
       118   05 Jun 2027 09:54:40.851   05 Jun 2027 09:54:44.676             3.825          1713.719
       119   05 Jun 2027 11:26:40.297   05 Jun 2027 11:26:49.656             9.359          4450.094
       120   05 Jun 2027 11:27:34.328   05 Jun 2027 11:27:35.836             1.508           403.531
       121   05 Jun 2027 11:30:45.633   05 Jun 2027 11:30:45.633             0.000             0.000
       122   05 Jun 2027 11:30:46.491   05 Jun 2027 11:30:57.336            10.845          5153.969
       123   05 Jun 2027 11:31:29.163   05 Jun 2027 11:31:29.991             0.828           245.563
       124   05 Jun 2027 11:31:41.056   05 Jun 2027 11:31:43.845             2.789           284.750
       125   05 Jun 2027 11:32:25.639   05 Jun 2027 11:32:28.504             2.865          1019.125
       126   05 Jun 2027 11:32:34.682   05 Jun 2027 11:32:38.480             3.798            93.531
       127   05 Jun 2027 11:33:30.559   05 Jun 2027 11:33:31.766             1.207           603.500
       128   06 Jun 2027 03:47:26.509   06 Jun 2027 03:51:15.599           229.090        114545.000
       129   06 Jun 2027 03:51:36.333   06 Jun 2027 03:51:45.720             9.387          4693.500
       130   06 Jun 2027 05:25:34.832   06 Jun 2027 05:26:36.118            61.286         30643.000
       131   06 Jun 2027 05:26:42.812   06 Jun 2027 05:27:46.676            63.864         30802.500
       132   06 Jun 2027 05:30:05.190   06 Jun 2027 05:30:11.066             5.876          2901.000
       133   06 Jun 2027 05:30:21.429   06 Jun 2027 05:30:26.405             4.976           323.844
       134   06 Jun 2027 07:03:52.277   06 Jun 2027 07:04:10.279            18.002          6823.406
       135   06 Jun 2027 07:04:27.155   06 Jun 2027 07:04:27.946             0.791            89.156
       136   06 Jun 2027 07:04:59.402   06 Jun 2027 07:05:02.649             3.247           964.719
       137   06 Jun 2027 07:06:50.317   06 Jun 2027 07:06:55.255             4.938           205.844
       138   06 Jun 2027 07:07:12.533   06 Jun 2027 07:07:14.243             1.710           367.031
       139   06 Jun 2027 07:07:14.474   06 Jun 2027 07:07:16.817             2.343             7.219
       140   06 Jun 2027 08:27:15.923   06 Jun 2027 08:27:32.624            16.701          7520.219
       141   06 Jun 2027 08:28:21.453   06 Jun 2027 08:28:24.418             2.965           771.062
       142   06 Jun 2027 08:28:57.099   06 Jun 2027 08:29:00.854             3.755           355.469
       143   06 Jun 2027 10:03:47.744   06 Jun 2027 10:03:58.962            11.218          3559.594
       144   06 Jun 2027 10:05:34.120   06 Jun 2027 10:05:47.549            13.429          2422.656
       145   06 Jun 2027 10:06:47.556   06 Jun 2027 10:06:53.036             5.480          1745.625
       146   06 Jun 2027 11:38:58.181   06 Jun 2027 11:39:13.113            14.932          5453.625
       147   06 Jun 2027 11:42:18.673   06 Jun 2027 11:42:26.598             7.925          2873.656
       148   06 Jun 2027 11:42:47.660   06 Jun 2027 11:42:49.673             2.013           346.844
       149   06 Jun 2027 11:43:31.477   06 Jun 2027 11:43:32.846             1.369           477.406
       150   06 Jun 2027 11:44:47.968   06 Jun 2027 11:44:54.458             6.490          1846.938
       151   06 Jun 2027 11:44:54.529   06 Jun 2027 11:44:55.671             1.142             2.219
       152   07 Jun 2027 03:59:23.814   07 Jun 2027 03:59:53.581            29.767         14883.500
       153   07 Jun 2027 03:59:53.703   07 Jun 2027 04:02:33.742           160.039         80019.500
       154   07 Jun 2027 04:03:00.695   07 Jun 2027 04:03:17.705            17.010          8505.000
       155   07 Jun 2027 05:38:41.596   07 Jun 2027 05:41:11.701           150.105         73776.719
       156   07 Jun 2027 05:42:10.763   07 Jun 2027 05:42:14.016             3.253          1608.313
       157   07 Jun 2027 05:42:31.816   07 Jun 2027 05:42:36.732             4.916           556.250
       158   07 Jun 2027 05:42:42.964   07 Jun 2027 05:42:43.881             0.917           194.750
       159   07 Jun 2027 05:45:20.096   07 Jun 2027 05:45:31.196            11.100          4262.031
       160   07 Jun 2027 07:15:49.305   07 Jun 2027 07:16:06.821            17.516          7907.219
       161   07 Jun 2027 07:16:28.953   07 Jun 2027 07:16:29.693             0.740           287.062
       162   07 Jun 2027 07:17:02.510   07 Jun 2027 07:17:02.956             0.446           204.156
       163   07 Jun 2027 07:17:42.177   07 Jun 2027 07:17:45.316             3.139           663.156
       164   07 Jun 2027 07:18:11.621   07 Jun 2027 07:18:14.925             3.304           578.906
       165   07 Jun 2027 07:19:00.149   07 Jun 2027 07:19:01.666             1.517           678.406
       166   07 Jun 2027 07:19:02.254   07 Jun 2027 07:19:02.527             0.273            16.250
       167   07 Jun 2027 08:39:46.055   07 Jun 2027 08:40:05.142            19.087          9128.937
       168   07 Jun 2027 08:40:56.909   07 Jun 2027 08:40:59.427             2.518          1010.875
       169   07 Jun 2027 10:15:40.622   07 Jun 2027 10:15:50.500             9.878          2620.937
       170   07 Jun 2027 10:17:24.525   07 Jun 2027 10:17:29.349             4.824          2135.188
       171   07 Jun 2027 10:18:19.300   07 Jun 2027 10:18:21.809             2.509           149.781
       172   07 Jun 2027 11:50:35.672   07 Jun 2027 11:50:49.975            14.303          6854.688
       173   07 Jun 2027 11:57:15.627   07 Jun 2027 11:57:33.278            17.651          7041.906
       174   08 Jun 2027 04:12:05.204   08 Jun 2027 04:14:35.153           149.949         74974.500
       175   08 Jun 2027 04:15:59.444   08 Jun 2027 04:15:59.878             0.434           217.000
       176   08 Jun 2027 05:50:45.822   08 Jun 2027 05:53:35.760           169.938         84969.000
       177   08 Jun 2027 05:56:21.821   08 Jun 2027 05:56:23.702             1.881           940.500
       178   08 Jun 2027 05:56:33.206   08 Jun 2027 05:56:41.703             8.497          4248.500
       179   08 Jun 2027 05:57:19.280   08 Jun 2027 05:57:46.476            27.196         12567.938
       180   08 Jun 2027 07:16:34.702   08 Jun 2027 07:16:52.934            18.232          8963.844
       181   08 Jun 2027 07:27:46.081   08 Jun 2027 07:27:52.750             6.669          3313.781
       182   08 Jun 2027 07:29:22.199   08 Jun 2027 07:29:24.608             2.409           908.406
       183   08 Jun 2027 07:30:27.043   08 Jun 2027 07:30:29.111             2.068           276.625
       184   08 Jun 2027 08:50:23.234   08 Jun 2027 08:50:43.457            20.223          8742.219
       185   08 Jun 2027 08:51:25.628   08 Jun 2027 08:51:30.719             5.091           940.812
       186   08 Jun 2027 08:52:26.567   08 Jun 2027 08:52:30.202             3.635          1131.188
       187   08 Jun 2027 08:54:00.476   08 Jun 2027 08:54:10.633            10.157          2461.594
       188   08 Jun 2027 10:25:58.020   08 Jun 2027 10:26:07.825             9.805          4554.437
       189   08 Jun 2027 10:28:15.065   08 Jun 2027 10:28:20.978             5.913          2549.281
       190   08 Jun 2027 10:30:41.193   08 Jun 2027 10:30:48.416             7.223          2804.719
       191   08 Jun 2027 10:31:53.605   08 Jun 2027 10:31:54.874             1.269           634.500
       192   09 Jun 2027 04:24:11.349   09 Jun 2027 04:26:31.823           140.474         70237.000
       193   09 Jun 2027 04:27:29.238   09 Jun 2027 04:28:00.057            30.819         15409.500
       194   09 Jun 2027 06:03:50.908   09 Jun 2027 06:06:28.534           157.626         78813.000
       195   09 Jun 2027 06:07:01.496   09 Jun 2027 06:07:28.563            27.067         12284.844
       196   09 Jun 2027 06:08:32.264   09 Jun 2027 06:08:37.416             5.152          1670.531
       197   09 Jun 2027 07:28:06.719   09 Jun 2027 07:28:19.214            12.495          6031.063
       198   09 Jun 2027 07:28:44.215   09 Jun 2027 07:28:44.215             0.000             0.000
       199   09 Jun 2027 07:29:36.275   09 Jun 2027 07:29:39.817             3.542          1771.000
       200   09 Jun 2027 07:39:47.004   09 Jun 2027 07:39:53.045             6.041          2455.875
       201   09 Jun 2027 09:02:04.515   09 Jun 2027 09:02:30.375            25.860         12324.813
       202   09 Jun 2027 09:02:39.057   09 Jun 2027 09:02:40.875             1.818           267.687
       203   09 Jun 2027 09:04:41.404   09 Jun 2027 09:04:49.278             7.874          3149.500
       204   09 Jun 2027 09:06:11.245   09 Jun 2027 09:06:16.838             5.593          2099.938
       205   09 Jun 2027 09:07:05.997   09 Jun 2027 09:07:06.571             0.574           281.062
       206   09 Jun 2027 10:37:46.541   09 Jun 2027 10:38:00.868            14.327          4495.156
       207   09 Jun 2027 10:38:22.272   09 Jun 2027 10:38:22.272             0.000             0.000
       208   09 Jun 2027 10:40:13.048   09 Jun 2027 10:40:23.324            10.276          3645.000
       209   09 Jun 2027 10:40:53.102   09 Jun 2027 10:40:56.407             3.305           314.969
       210   09 Jun 2027 10:42:43.333   09 Jun 2027 10:42:50.935             7.602          2119.938
       211   09 Jun 2027 10:43:49.675   09 Jun 2027 10:43:52.710             3.035          1171.094
       212   10 Jun 2027 03:00:11.085   10 Jun 2027 03:00:21.288            10.203          5101.500
       213   10 Jun 2027 03:00:23.458   10 Jun 2027 03:00:36.750            13.292          6646.000
       214   10 Jun 2027 03:02:18.038   10 Jun 2027 03:02:40.001            21.963         10981.500
       215   10 Jun 2027 03:02:53.273   10 Jun 2027 03:03:09.744            16.471          8235.500
       216   10 Jun 2027 03:06:11.716   10 Jun 2027 03:06:31.923            20.207         10103.500
       217   10 Jun 2027 04:36:31.593   10 Jun 2027 04:36:55.670            24.077         12038.500
       218   10 Jun 2027 04:37:20.967   10 Jun 2027 04:37:37.279            16.312          8156.000
       219   10 Jun 2027 04:37:41.195   10 Jun 2027 04:37:47.847             6.652          3326.000
       220   10 Jun 2027 04:41:26.452   10 Jun 2027 04:42:14.922            48.470         24235.000
       221   10 Jun 2027 06:15:18.323   10 Jun 2027 06:18:16.360           178.037         88530.032
       222   10 Jun 2027 06:18:55.682   10 Jun 2027 06:18:59.807             4.125           462.094
       223   10 Jun 2027 06:19:21.662   10 Jun 2027 06:19:22.527             0.865             4.344
       224   10 Jun 2027 06:20:20.394   10 Jun 2027 06:20:24.378             3.984          1040.906
       225   10 Jun 2027 07:39:38.606   10 Jun 2027 07:39:57.139            18.533          7101.875
       226   10 Jun 2027 07:40:27.216   10 Jun 2027 07:40:28.058             0.842           362.281
       227   10 Jun 2027 07:41:14.519   10 Jun 2027 07:41:17.223             2.704          1078.781
       228   10 Jun 2027 07:41:41.130   10 Jun 2027 07:41:41.488             0.358           102.656
       229   10 Jun 2027 07:51:54.975   10 Jun 2027 07:52:01.831             6.856          2820.969
       230   10 Jun 2027 09:13:45.583   10 Jun 2027 09:14:09.927            24.344          7521.625
       231   10 Jun 2027 09:15:49.045   10 Jun 2027 09:15:53.083             4.038          1995.062
       232   10 Jun 2027 09:16:30.664   10 Jun 2027 09:16:34.890             4.226           930.437
       233   10 Jun 2027 09:17:37.100   10 Jun 2027 09:17:41.959             4.859          1769.969
       234   10 Jun 2027 09:18:50.271   10 Jun 2027 09:18:55.473             5.202          2133.750
       235   10 Jun 2027 10:48:33.405   10 Jun 2027 10:48:41.377             7.972          3438.438
       236   10 Jun 2027 10:51:08.507   10 Jun 2027 10:51:15.119             6.612          2925.844
       237   10 Jun 2027 10:52:25.599   10 Jun 2027 10:52:25.599             0.000             0.000
       238   10 Jun 2027 10:55:42.578   10 Jun 2027 10:55:56.084            13.506          6644.313
       239   10 Jun 2027 10:56:55.747   10 Jun 2027 10:56:59.846             4.099          1802.438
       240   10 Jun 2027 10:57:23.033   10 Jun 2027 10:57:25.875             2.842           533.156
       241   11 Jun 2027 03:11:34.630   11 Jun 2027 03:11:46.283            11.653          5826.500
       242   11 Jun 2027 03:12:49.488   11 Jun 2027 03:12:49.488             0.000             0.000
       243   11 Jun 2027 03:13:47.732   11 Jun 2027 03:14:03.492            15.760          7880.000
       244   11 Jun 2027 03:14:15.008   11 Jun 2027 03:15:48.948            93.940         46970.000
       245   11 Jun 2027 03:16:09.457   11 Jun 2027 03:16:21.497            12.040          6020.000
       246   11 Jun 2027 03:16:30.200   11 Jun 2027 03:16:34.175             3.975          1987.500
       247   11 Jun 2027 03:17:07.789   11 Jun 2027 03:17:12.376             4.587          2293.500
       248   11 Jun 2027 03:19:01.642   11 Jun 2027 03:19:19.041            17.399          8699.500
       249   11 Jun 2027 04:49:14.548   11 Jun 2027 04:49:28.936            14.388          7194.000
       250   11 Jun 2027 04:49:38.197   11 Jun 2027 04:50:49.904            71.707         35853.500
       251   11 Jun 2027 04:51:19.297   11 Jun 2027 04:51:39.704            20.407         10203.500
       252   11 Jun 2027 04:53:36.844   11 Jun 2027 04:54:13.835            36.991         18495.500
       253   11 Jun 2027 06:27:43.967   11 Jun 2027 06:28:44.484            60.517         29609.469
       254   11 Jun 2027 06:30:49.101   11 Jun 2027 06:30:51.361             2.260          1107.813
       255   11 Jun 2027 06:31:25.165   11 Jun 2027 06:31:26.818             1.653           757.469
       256   11 Jun 2027 06:32:07.617   11 Jun 2027 06:32:11.833             4.216           928.656
       257   11 Jun 2027 07:51:36.837   11 Jun 2027 07:51:44.815             7.978          2471.250
       258   11 Jun 2027 07:52:54.955   11 Jun 2027 07:52:59.428             4.473          1377.094
       259   11 Jun 2027 09:27:34.133   11 Jun 2027 09:27:46.755            12.622          5910.375
       260   11 Jun 2027 09:28:38.714   11 Jun 2027 09:28:42.968             4.254          1405.312
       261   11 Jun 2027 11:01:22.763   11 Jun 2027 11:01:40.063            17.300          5625.344
       262   11 Jun 2027 11:04:04.145   11 Jun 2027 11:04:05.541             1.396           698.000
       263   11 Jun 2027 11:07:32.953   11 Jun 2027 11:07:49.137            16.184          7467.563
       264   11 Jun 2027 11:08:30.147   11 Jun 2027 11:08:34.531             4.384           777.531
       265   11 Jun 2027 11:08:55.105   11 Jun 2027 11:08:56.073             0.968           123.094
       266   11 Jun 2027 11:09:07.318   11 Jun 2027 11:09:08.767             1.449           286.156
       267   11 Jun 2027 11:09:34.490   11 Jun 2027 11:09:38.270             3.780           377.531
       268   12 Jun 2027 03:23:35.412   12 Jun 2027 03:23:47.699            12.287          6143.500
       269   12 Jun 2027 03:24:51.551   12 Jun 2027 03:27:20.014           148.463         74231.500
       270   12 Jun 2027 03:28:22.546   12 Jun 2027 03:28:48.154            25.608         12804.000
       271   12 Jun 2027 05:03:14.872   12 Jun 2027 05:03:26.615            11.743          5871.500
       272   12 Jun 2027 05:03:26.733   12 Jun 2027 05:04:33.472            66.739         33369.500
       273   12 Jun 2027 05:05:41.859   12 Jun 2027 05:06:07.247            25.388         12694.000
       274   12 Jun 2027 05:06:09.207   12 Jun 2027 05:07:00.624            51.417         25601.438
       275   12 Jun 2027 05:07:10.485   12 Jun 2027 05:07:13.433             2.948           291.344
       276   12 Jun 2027 05:07:51.309   12 Jun 2027 05:07:54.126             2.817          1075.437
       277   12 Jun 2027 06:40:06.075   12 Jun 2027 06:40:29.647            23.572         11786.000
       278   12 Jun 2027 06:41:00.142   12 Jun 2027 06:41:03.145             3.003          1459.594
       279   12 Jun 2027 06:42:14.300   12 Jun 2027 06:42:17.731             3.431          1651.750
       280   12 Jun 2027 06:43:17.488   12 Jun 2027 06:43:20.258             2.770           281.844
       281   12 Jun 2027 06:43:27.890   12 Jun 2027 06:43:30.823             2.933            53.031
       282   12 Jun 2027 06:43:54.742   12 Jun 2027 06:43:56.928             2.186            82.719
       283   12 Jun 2027 08:03:29.798   12 Jun 2027 08:03:40.982            11.184          4913.438
       284   12 Jun 2027 08:04:56.415   12 Jun 2027 08:05:03.741             7.326          1634.906
       285   12 Jun 2027 08:05:26.703   12 Jun 2027 08:05:27.419             0.716           160.594
       286   12 Jun 2027 08:05:38.285   12 Jun 2027 08:05:39.563             1.278           122.625
       287   12 Jun 2027 08:05:51.093   12 Jun 2027 08:05:53.270             2.177            48.250
       288   12 Jun 2027 09:39:52.096   12 Jun 2027 09:39:59.583             7.487          3654.125
       289   12 Jun 2027 09:42:05.759   12 Jun 2027 09:42:16.398            10.639          3129.156
       290   12 Jun 2027 11:13:45.083   12 Jun 2027 11:13:55.116            10.033          4941.281
       291   12 Jun 2027 11:15:44.919   12 Jun 2027 11:15:45.738             0.819            32.312
       292   12 Jun 2027 11:19:19.776   12 Jun 2027 11:19:32.360            12.584          6260.469
       293   12 Jun 2027 11:20:19.867   12 Jun 2027 11:20:24.275             4.408          1084.750
       294   12 Jun 2027 11:21:52.658   12 Jun 2027 11:21:54.664             2.006          1003.000
       295   13 Jun 2027 03:35:44.760   13 Jun 2027 03:36:05.738            20.978         10489.000
       296   13 Jun 2027 03:37:09.967   13 Jun 2027 03:39:33.460           143.493         71746.500
       297   13 Jun 2027 03:41:22.778   13 Jun 2027 03:42:27.551            64.773         32386.500
       298   13 Jun 2027 05:14:53.302   13 Jun 2027 05:14:58.526             5.224          2612.000
       299   13 Jun 2027 05:15:04.253   13 Jun 2027 05:15:49.595            45.342         22671.000
       300   13 Jun 2027 05:16:55.321   13 Jun 2027 05:17:37.827            42.506         21253.000
       301   13 Jun 2027 05:17:43.845   13 Jun 2027 05:18:33.270            49.425         24517.344
       302   13 Jun 2027 05:18:54.001   13 Jun 2027 05:18:55.641             1.640           401.719
       303   13 Jun 2027 05:19:24.156   13 Jun 2027 05:19:25.915             1.759           477.437
       304   13 Jun 2027 06:52:29.265   13 Jun 2027 06:52:50.737            21.472         10679.656
       305   13 Jun 2027 06:53:31.198   13 Jun 2027 06:53:33.807             2.609           869.781
       306   13 Jun 2027 06:54:40.914   13 Jun 2027 06:54:43.237             2.323           972.000
       307   13 Jun 2027 06:55:41.043   13 Jun 2027 06:55:47.961             6.918          1293.938
       308   13 Jun 2027 08:15:18.958   13 Jun 2027 08:15:33.298            14.340          6229.719
       309   13 Jun 2027 08:16:57.647   13 Jun 2027 08:17:03.537             5.890          1969.219
       310   13 Jun 2027 08:17:16.823   13 Jun 2027 08:17:17.726             0.903            37.094
       311   13 Jun 2027 09:51:55.724   13 Jun 2027 09:52:04.193             8.469          3230.094
       312   13 Jun 2027 09:52:54.892   13 Jun 2027 09:53:01.502             6.610           650.031
       313   13 Jun 2027 11:27:30.626   13 Jun 2027 11:27:48.361            17.735          8767.187
       314   13 Jun 2027 11:28:22.959   13 Jun 2027 11:28:27.410             4.451           994.313
       315   13 Jun 2027 11:30:17.809   13 Jun 2027 11:30:20.272             2.463           241.125
       316   13 Jun 2027 11:30:55.639   13 Jun 2027 11:30:57.668             2.029          1006.875
       317   13 Jun 2027 11:31:14.325   13 Jun 2027 11:31:17.514             3.189           432.125
       318   13 Jun 2027 11:31:46.148   13 Jun 2027 11:31:50.392             4.244           319.281
       319   13 Jun 2027 11:31:57.101   13 Jun 2027 11:31:58.088             0.987           209.656
       320   13 Jun 2027 11:33:47.928   13 Jun 2027 11:33:50.531             2.603          1301.500
