uniorb/output/strategy_4/Camera/Camera_KinoSat_111409.txt

KinoSat_111409
-------------------------
    Access    *     Start Time (UTCG)     *     Stop Time (UTCG)  *   Duration (s) *   Data (Mbytes)
         1   01 Jun 2027 04:22:07.998   01 Jun 2027 04:24:22.166           134.168         67084.000
         2   01 Jun 2027 04:24:24.191   01 Jun 2027 04:24:25.965             1.774           887.000
         3   01 Jun 2027 04:25:11.408   01 Jun 2027 04:25:26.086            14.678          7339.000
         4   01 Jun 2027 05:45:04.722   01 Jun 2027 05:45:56.453            51.731         25865.500
         5   01 Jun 2027 05:46:30.351   01 Jun 2027 05:47:19.736            49.385         24692.500
         6   01 Jun 2027 07:21:38.404   01 Jun 2027 07:24:06.043           147.639         73819.500
         7   01 Jun 2027 07:24:14.185   01 Jun 2027 07:24:26.291            12.106          6053.000
         8   01 Jun 2027 08:56:47.315   01 Jun 2027 08:59:51.265           183.950         91975.000
         9   01 Jun 2027 09:00:44.165   01 Jun 2027 09:00:52.042             7.877          3938.500
        10   01 Jun 2027 09:03:29.223   01 Jun 2027 09:03:34.099             4.876          2438.000
        11   01 Jun 2027 10:33:07.362   01 Jun 2027 10:35:00.128           112.766         56383.000
        12   01 Jun 2027 10:35:23.307   01 Jun 2027 10:35:55.046            31.739         15869.500
        13   01 Jun 2027 10:38:33.909   01 Jun 2027 10:38:40.775             6.866          3433.000
        14   02 Jun 2027 03:00:21.663   02 Jun 2027 03:00:43.765            22.102         11051.000
        15   02 Jun 2027 03:01:11.758   02 Jun 2027 03:01:14.879             3.121          1560.500
        16   02 Jun 2027 04:33:52.755   02 Jun 2027 04:34:27.332            34.577         17288.500
        17   02 Jun 2027 04:34:41.407   02 Jun 2027 04:36:35.587           114.180         57090.000
        18   02 Jun 2027 05:57:13.945   02 Jun 2027 05:58:08.955            55.010         27505.000
        19   02 Jun 2027 06:00:04.295   02 Jun 2027 06:00:18.927            14.632          7316.000
        20   02 Jun 2027 07:33:49.087   02 Jun 2027 07:37:17.714           208.627        104313.500
        21   02 Jun 2027 09:08:59.200   02 Jun 2027 09:11:50.689           171.489         85744.500
        22   02 Jun 2027 09:12:45.867   02 Jun 2027 09:12:52.975             7.108          3554.000
        23   02 Jun 2027 09:14:13.387   02 Jun 2027 09:14:13.387             0.000             0.000
        24   02 Jun 2027 09:15:22.295   02 Jun 2027 09:15:34.827            12.532          6266.000
        25   02 Jun 2027 10:45:20.042   02 Jun 2027 10:45:52.445            32.403         15829.406
        26   02 Jun 2027 10:47:14.287   02 Jun 2027 10:47:14.849             0.562           111.000
        27   02 Jun 2027 10:47:23.618   02 Jun 2027 10:47:27.673             4.055           255.625
        28   02 Jun 2027 10:47:47.254   02 Jun 2027 10:47:49.399             2.145           553.125
        29   02 Jun 2027 10:48:17.802   02 Jun 2027 10:48:19.461             1.659           737.906
        30   02 Jun 2027 10:48:32.527   02 Jun 2027 10:48:34.441             1.914           408.312
        31   02 Jun 2027 10:49:11.265   02 Jun 2027 10:49:16.515             5.250           509.094
        32   02 Jun 2027 10:49:19.633   02 Jun 2027 10:49:20.877             1.244            97.438
        33   02 Jun 2027 10:50:24.784   02 Jun 2027 10:50:29.521             4.737           870.000
        34   02 Jun 2027 10:50:31.478   02 Jun 2027 10:50:32.902             1.424            61.156
        35   03 Jun 2027 03:08:41.978   03 Jun 2027 03:09:51.197            69.219         34609.500
        36   03 Jun 2027 03:10:04.922   03 Jun 2027 03:10:16.165            11.243          5621.500
        37   03 Jun 2027 03:10:57.018   03 Jun 2027 03:11:05.185             8.167          4083.500
        38   03 Jun 2027 03:11:07.533   03 Jun 2027 03:11:09.154             1.621           810.500
        39   03 Jun 2027 03:11:22.988   03 Jun 2027 03:11:23.748             0.760           380.000
        40   03 Jun 2027 03:12:27.134   03 Jun 2027 03:12:40.738            13.604          6802.000
        41   03 Jun 2027 03:13:45.670   03 Jun 2027 03:13:47.480             1.810           905.000
        42   03 Jun 2027 03:15:07.338   03 Jun 2027 03:15:38.390            31.052         15526.000
        43   03 Jun 2027 03:15:48.913   03 Jun 2027 03:15:55.460             6.547          3273.500
        44   03 Jun 2027 04:45:49.593   03 Jun 2027 04:46:30.098            40.505         20252.500
        45   03 Jun 2027 04:46:47.371   03 Jun 2027 04:49:01.625           134.254         66879.063
        46   03 Jun 2027 06:09:46.933   03 Jun 2027 06:10:07.187            20.254          9878.969
        47   03 Jun 2027 06:12:02.778   03 Jun 2027 06:12:06.224             3.446          1723.000
        48   03 Jun 2027 07:45:36.959   03 Jun 2027 07:45:44.920             7.961          3713.312
        49   03 Jun 2027 07:46:52.290   03 Jun 2027 07:46:58.895             6.605          1926.938
        50   03 Jun 2027 07:47:19.541   03 Jun 2027 07:47:21.112             1.571           260.969
        51   03 Jun 2027 07:48:17.124   03 Jun 2027 07:48:19.635             2.511          1236.656
        52   03 Jun 2027 07:48:58.465   03 Jun 2027 07:49:00.897             2.432          1128.875
        53   03 Jun 2027 09:20:29.619   03 Jun 2027 09:20:36.330             6.711          3046.344
        54   03 Jun 2027 09:21:01.582   03 Jun 2027 09:21:02.266             0.684            97.281
        55   03 Jun 2027 09:21:41.963   03 Jun 2027 09:21:45.700             3.737           964.156
        56   03 Jun 2027 09:22:53.879   03 Jun 2027 09:22:55.496             1.617           777.500
        57   03 Jun 2027 09:23:35.558   03 Jun 2027 09:23:35.558             0.000             0.000
        58   03 Jun 2027 09:23:50.305   03 Jun 2027 09:23:50.305             0.000             0.000
        59   03 Jun 2027 09:24:18.639   03 Jun 2027 09:24:22.920             4.281          1687.594
        60   03 Jun 2027 09:26:12.839   03 Jun 2027 09:26:17.905             5.066          2387.656
        61   03 Jun 2027 09:27:33.325   03 Jun 2027 09:27:39.973             6.648          2209.719
        62   03 Jun 2027 10:56:58.996   03 Jun 2027 10:57:10.016            11.020          5036.281
        63   03 Jun 2027 10:59:01.265   03 Jun 2027 10:59:05.923             4.658          1753.063
        64   03 Jun 2027 10:59:26.189   03 Jun 2027 10:59:27.219             1.030           327.219
        65   03 Jun 2027 11:00:21.128   03 Jun 2027 11:00:24.914             3.786          1348.562
        66   03 Jun 2027 11:01:11.713   03 Jun 2027 11:01:14.261             2.548           890.125
        67   03 Jun 2027 11:01:24.337   03 Jun 2027 11:01:25.147             0.810           314.875
        68   03 Jun 2027 11:01:58.843   03 Jun 2027 11:02:01.358             2.515           739.344
        69   03 Jun 2027 11:02:02.408   03 Jun 2027 11:02:06.255             3.847            32.812
        70   03 Jun 2027 11:02:13.275   03 Jun 2027 11:02:22.675             9.400            76.500
        71   03 Jun 2027 11:03:13.765   03 Jun 2027 11:03:17.172             3.407          1596.562
        72   03 Jun 2027 11:03:20.569   03 Jun 2027 11:03:22.596             2.027            96.687
        73   04 Jun 2027 03:20:45.957   04 Jun 2027 03:23:18.821           152.864         76432.000
        74   04 Jun 2027 03:24:14.876   04 Jun 2027 03:24:40.520            25.644         12822.000
        75   04 Jun 2027 03:25:31.764   04 Jun 2027 03:25:49.199            17.435          8717.500
        76   04 Jun 2027 03:27:49.221   04 Jun 2027 03:28:23.081            33.860         16930.000
        77   04 Jun 2027 04:46:26.264   04 Jun 2027 04:46:39.957            13.693          6846.500
        78   04 Jun 2027 04:46:49.982   04 Jun 2027 04:46:49.982             0.000             0.000
        79   04 Jun 2027 04:47:05.295   04 Jun 2027 04:47:31.875            26.580         13290.000
        80   04 Jun 2027 04:57:46.230   04 Jun 2027 04:58:51.512            65.282         31138.406
        81   04 Jun 2027 04:59:14.370   04 Jun 2027 04:59:17.654             3.284            58.000
        82   04 Jun 2027 06:20:21.576   04 Jun 2027 06:20:30.808             9.232          3333.375
        83   04 Jun 2027 06:21:24.723   04 Jun 2027 06:21:25.696             0.973           486.500
        84   04 Jun 2027 06:21:56.680   04 Jun 2027 06:22:00.270             3.590          1352.562
        85   04 Jun 2027 06:22:16.236   04 Jun 2027 06:22:19.019             2.783           472.187
        86   04 Jun 2027 06:24:08.632   04 Jun 2027 06:24:17.835             9.203          3213.031
        87   04 Jun 2027 06:24:53.341   04 Jun 2027 06:24:58.536             5.195          1078.250
        88   04 Jun 2027 06:25:03.181   04 Jun 2027 06:25:03.634             0.453            50.594
        89   04 Jun 2027 07:55:53.080   04 Jun 2027 07:55:59.433             6.353          2518.156
        90   04 Jun 2027 07:57:22.127   04 Jun 2027 07:57:24.396             2.269          1081.750
        91   04 Jun 2027 07:57:39.278   04 Jun 2027 07:57:41.504             2.226           440.063
        92   04 Jun 2027 07:58:04.970   04 Jun 2027 07:58:08.870             3.900           538.719
        93   04 Jun 2027 07:58:33.441   04 Jun 2027 07:58:34.351             0.910           268.375
        94   04 Jun 2027 08:00:09.043   04 Jun 2027 08:00:14.847             5.804          2366.469
        95   04 Jun 2027 08:00:18.234   04 Jun 2027 08:00:20.299             2.065            61.625
        96   04 Jun 2027 08:00:36.553   04 Jun 2027 08:00:37.702             1.149           507.937
        97   04 Jun 2027 08:00:44.961   04 Jun 2027 08:00:46.598             1.637            44.406
        98   04 Jun 2027 08:01:12.110   04 Jun 2027 08:01:12.110             0.000             0.000
        99   04 Jun 2027 08:01:38.948   04 Jun 2027 08:01:41.440             2.492           877.469
       100   04 Jun 2027 09:32:12.735   04 Jun 2027 09:32:22.636             9.901          3505.625
       101   04 Jun 2027 09:34:29.357   04 Jun 2027 09:34:47.966            18.609          2756.219
       102   04 Jun 2027 09:35:44.081   04 Jun 2027 09:35:46.144             2.063           533.063
       103   04 Jun 2027 09:35:51.324   04 Jun 2027 09:35:53.335             2.011           161.875
       104   04 Jun 2027 09:36:20.780   04 Jun 2027 09:36:28.090             7.310           853.375
       105   04 Jun 2027 09:37:02.493   04 Jun 2027 09:37:08.748             6.255           930.094
       106   04 Jun 2027 09:37:29.366   04 Jun 2027 09:37:30.266             0.900             3.500
       107   04 Jun 2027 09:38:10.544   04 Jun 2027 09:38:13.858             3.314           727.156
       108   04 Jun 2027 09:38:31.308   04 Jun 2027 09:38:33.520             2.212           372.875
       109   04 Jun 2027 09:39:44.763   04 Jun 2027 09:39:44.944             0.181            90.500
       110   04 Jun 2027 11:09:19.200   04 Jun 2027 11:09:28.830             9.630          4430.875
       111   04 Jun 2027 11:11:36.394   04 Jun 2027 11:11:41.128             4.734          1296.625
       112   04 Jun 2027 11:12:59.002   04 Jun 2027 11:13:03.859             4.857          2300.281
       113   04 Jun 2027 11:13:25.307   04 Jun 2027 11:13:28.550             3.243           452.219
       114   04 Jun 2027 11:13:59.728   04 Jun 2027 11:14:04.182             4.454           974.312
       115   04 Jun 2027 11:14:34.325   04 Jun 2027 11:14:36.467             2.142           916.500
       116   04 Jun 2027 11:14:54.395   04 Jun 2027 11:14:55.319             0.924           361.187
       117   04 Jun 2027 11:15:17.796   04 Jun 2027 11:15:18.650             0.854           361.250
       118   05 Jun 2027 03:33:15.886   05 Jun 2027 03:34:47.945            92.059         46029.500
       119   05 Jun 2027 03:35:12.793   05 Jun 2027 03:36:54.061           101.268         50634.000
       120   05 Jun 2027 03:37:20.817   05 Jun 2027 03:37:40.112            19.295          9647.500
       121   05 Jun 2027 03:38:33.910   05 Jun 2027 03:38:34.213             0.303           151.500
       122   05 Jun 2027 03:38:37.549   05 Jun 2027 03:38:39.215             1.666           833.000
       123   05 Jun 2027 03:39:10.067   05 Jun 2027 03:39:15.898             5.831          2915.500
       124   05 Jun 2027 04:58:05.524   05 Jun 2027 04:58:23.315            17.791          8895.500
       125   05 Jun 2027 04:58:46.296   05 Jun 2027 04:58:46.296             0.000             0.000
       126   05 Jun 2027 04:59:21.200   05 Jun 2027 04:59:38.158            16.958          8479.000
       127   05 Jun 2027 05:09:47.431   05 Jun 2027 05:10:48.071            60.640         30320.000
       128   05 Jun 2027 06:32:04.443   05 Jun 2027 06:32:19.085            14.642          6382.719
       129   05 Jun 2027 06:32:33.895   05 Jun 2027 06:32:35.434             1.539           462.813
       130   05 Jun 2027 06:32:48.178   05 Jun 2027 06:32:48.475             0.297            77.094
       131   05 Jun 2027 06:33:59.757   05 Jun 2027 06:34:07.483             7.726          1718.375
       132   05 Jun 2027 06:34:09.024   05 Jun 2027 06:34:09.024             0.000             0.000
       133   05 Jun 2027 06:34:18.830   05 Jun 2027 06:34:21.036             2.206           354.594
       134   05 Jun 2027 06:36:07.883   05 Jun 2027 06:36:11.396             3.513          1756.500
       135   05 Jun 2027 06:36:21.611   05 Jun 2027 06:36:25.598             3.987          1649.750
       136   05 Jun 2027 08:07:01.371   05 Jun 2027 08:07:10.979             9.608          2607.469
       137   05 Jun 2027 08:08:04.197   05 Jun 2027 08:08:06.631             2.434           906.969
       138   05 Jun 2027 08:08:35.931   05 Jun 2027 08:08:43.212             7.281           915.625
       139   05 Jun 2027 08:09:22.731   05 Jun 2027 08:09:27.871             5.140          1234.969
       140   05 Jun 2027 08:10:54.024   05 Jun 2027 08:11:01.560             7.536          2583.969
       141   05 Jun 2027 08:12:18.760   05 Jun 2027 08:12:24.048             5.288          2259.500
       142   05 Jun 2027 08:12:58.790   05 Jun 2027 08:13:03.020             4.230           446.781
       143   05 Jun 2027 08:13:28.891   05 Jun 2027 08:13:32.293             3.402            81.094
       144   05 Jun 2027 08:14:13.394   05 Jun 2027 08:14:17.262             3.868          1162.813
       145   05 Jun 2027 09:45:03.212   05 Jun 2027 09:45:12.842             9.630          4525.937
       146   05 Jun 2027 09:46:11.011   05 Jun 2027 09:46:13.259             2.248           232.000
       147   05 Jun 2027 09:47:01.312   05 Jun 2027 09:47:04.593             3.281          1501.656
       148   05 Jun 2027 09:47:40.875   05 Jun 2027 09:47:48.576             7.701           621.969
       149   05 Jun 2027 09:48:14.805   05 Jun 2027 09:48:22.615             7.810           289.281
       150   05 Jun 2027 09:49:11.263   05 Jun 2027 09:49:14.853             3.590          1520.250
       151   05 Jun 2027 09:49:30.751   05 Jun 2027 09:49:32.370             1.619           111.250
       152   05 Jun 2027 09:49:47.989   05 Jun 2027 09:49:48.982             0.993           259.969
       153   05 Jun 2027 09:50:12.778   05 Jun 2027 09:50:14.637             1.859           106.813
       154   05 Jun 2027 09:50:43.774   05 Jun 2027 09:50:44.775             1.001             4.156
       155   05 Jun 2027 09:51:15.756   05 Jun 2027 09:51:21.671             5.915           968.156
       156   05 Jun 2027 09:51:48.783   05 Jun 2027 09:51:49.267             0.484             5.219
       157   05 Jun 2027 11:21:15.380   05 Jun 2027 11:21:29.884            14.504          5731.437
       158   05 Jun 2027 11:23:45.250   05 Jun 2027 11:23:54.462             9.212          1674.500
       159   05 Jun 2027 11:25:00.936   05 Jun 2027 11:25:06.018             5.082          2072.469
       160   05 Jun 2027 11:25:32.279   05 Jun 2027 11:25:34.340             2.061           820.656
       161   05 Jun 2027 11:26:03.544   05 Jun 2027 11:26:07.773             4.229           751.500
       162   05 Jun 2027 11:26:38.650   05 Jun 2027 11:26:41.213             2.563           962.344
       163   05 Jun 2027 11:27:18.449   05 Jun 2027 11:27:19.994             1.545           685.781
       164   05 Jun 2027 11:27:27.650   05 Jun 2027 11:27:28.311             0.661           222.219
       165   06 Jun 2027 03:45:17.920   06 Jun 2027 03:47:00.031           102.111         51055.500
       166   06 Jun 2027 03:47:19.653   06 Jun 2027 03:48:10.957            51.304         25652.000
       167   06 Jun 2027 03:48:40.454   06 Jun 2027 03:50:03.318            82.864         41432.000
       168   06 Jun 2027 05:09:39.040   06 Jun 2027 05:10:17.712            38.672         19336.000
       169   06 Jun 2027 05:21:54.780   06 Jun 2027 05:22:22.430            27.650         13825.000
       170   06 Jun 2027 06:43:36.506   06 Jun 2027 06:44:20.201            43.695         21639.062
       171   06 Jun 2027 06:45:45.299   06 Jun 2027 06:45:48.701             3.402          1258.750
       172   06 Jun 2027 06:46:20.441   06 Jun 2027 06:46:21.907             1.466           656.875
       173   06 Jun 2027 06:47:29.914   06 Jun 2027 06:47:34.253             4.339          1887.750
       174   06 Jun 2027 06:48:50.254   06 Jun 2027 06:48:53.207             2.953          1476.500
       175   06 Jun 2027 06:48:54.960   06 Jun 2027 06:49:00.185             5.225           937.250
       176   06 Jun 2027 08:18:30.100   06 Jun 2027 08:18:34.064             3.964          1751.281
       177   06 Jun 2027 08:19:23.530   06 Jun 2027 08:19:27.517             3.987          1204.750
       178   06 Jun 2027 08:20:51.671   06 Jun 2027 08:20:55.279             3.608           455.531
       179   06 Jun 2027 08:21:39.633   06 Jun 2027 08:21:43.796             4.163          1352.844
       180   06 Jun 2027 08:21:59.431   06 Jun 2027 08:22:00.937             1.506           130.812
       181   06 Jun 2027 08:22:38.596   06 Jun 2027 08:22:52.672            14.076           687.906
       182   06 Jun 2027 08:24:10.170   06 Jun 2027 08:24:16.339             6.169          2369.750
       183   06 Jun 2027 08:24:22.827   06 Jun 2027 08:24:26.390             3.563           127.250
       184   06 Jun 2027 08:26:02.179   06 Jun 2027 08:26:11.428             9.249          2351.750
       185   06 Jun 2027 08:27:02.656   06 Jun 2027 08:27:05.926             3.270          1100.281
       186   06 Jun 2027 09:56:24.509   06 Jun 2027 09:56:36.218            11.709          5589.969
       187   06 Jun 2027 09:58:25.542   06 Jun 2027 09:58:26.383             0.841           276.656
       188   06 Jun 2027 09:59:45.176   06 Jun 2027 09:59:48.533             3.357           295.094
       189   06 Jun 2027 10:00:39.863   06 Jun 2027 10:00:49.236             9.373           493.063
       190   06 Jun 2027 10:01:22.871   06 Jun 2027 10:01:26.689             3.818          1004.625
       191   06 Jun 2027 10:01:48.673   06 Jun 2027 10:01:54.067             5.394            28.688
       192   06 Jun 2027 10:02:02.922   06 Jun 2027 10:02:05.636             2.714           276.719
       193   06 Jun 2027 10:02:16.846   06 Jun 2027 10:02:18.208             1.362           336.219
       194   06 Jun 2027 10:02:59.754   06 Jun 2027 10:03:02.407             2.653          1198.313
       195   06 Jun 2027 10:03:03.618   06 Jun 2027 10:03:08.238             4.620            37.844
       196   06 Jun 2027 10:03:40.106   06 Jun 2027 10:03:45.497             5.391           638.250
       197   06 Jun 2027 11:33:08.655   06 Jun 2027 11:33:22.238            13.583          6547.812
       198   06 Jun 2027 11:34:02.737   06 Jun 2027 11:34:05.314             2.577          1261.125
       199   06 Jun 2027 11:34:19.541   06 Jun 2027 11:34:19.719             0.178            76.187
       200   06 Jun 2027 11:35:52.992   06 Jun 2027 11:35:57.137             4.145          1918.219
       201   06 Jun 2027 11:36:30.347   06 Jun 2027 11:36:37.532             7.185          1037.813
       202   06 Jun 2027 11:37:02.770   06 Jun 2027 11:37:07.980             5.210           788.687
       203   06 Jun 2027 11:37:39.309   06 Jun 2027 11:37:40.926             1.617           771.187
       204   06 Jun 2027 11:38:58.643   06 Jun 2027 11:39:04.030             5.387          2320.625
       205   06 Jun 2027 11:39:31.339   06 Jun 2027 11:39:35.186             3.847           548.250
       206   06 Jun 2027 11:39:51.216   06 Jun 2027 11:39:52.626             1.410           154.031
       207   07 Jun 2027 03:57:43.120   07 Jun 2027 03:58:48.468            65.348         32674.000
       208   07 Jun 2027 03:59:20.463   07 Jun 2027 04:00:18.305            57.842         28921.000
       209   07 Jun 2027 04:00:43.934   07 Jun 2027 04:01:31.291            47.357         23678.500
       210   07 Jun 2027 04:01:43.471   07 Jun 2027 04:02:19.028            35.557         17778.500
       211   07 Jun 2027 05:21:34.941   07 Jun 2027 05:22:05.758            30.817         15408.500
       212   07 Jun 2027 06:57:35.334   07 Jun 2027 06:59:07.034            91.700         45850.000
       213   07 Jun 2027 07:00:43.349   07 Jun 2027 07:00:52.064             8.715          4357.500
       214   07 Jun 2027 08:31:23.296   07 Jun 2027 08:31:32.745             9.449          2878.250
       215   07 Jun 2027 08:32:56.485   07 Jun 2027 08:32:58.002             1.517           582.969
       216   07 Jun 2027 08:34:54.166   07 Jun 2027 08:35:01.960             7.794          2252.969
       217   07 Jun 2027 08:36:25.958   07 Jun 2027 08:36:25.958             0.000             0.000
       218   07 Jun 2027 08:37:14.671   07 Jun 2027 08:37:22.412             7.741          3848.937
       219   07 Jun 2027 08:38:18.868   07 Jun 2027 08:38:24.913             6.045           823.969
       220   07 Jun 2027 08:39:12.693   07 Jun 2027 08:39:16.465             3.772          1369.094
       221   07 Jun 2027 10:08:33.316   07 Jun 2027 10:08:45.684            12.368          6056.656
       222   07 Jun 2027 10:11:08.703   07 Jun 2027 10:11:16.308             7.605          2525.594
       223   07 Jun 2027 10:13:09.034   07 Jun 2027 10:13:12.044             3.010          1371.625
       224   07 Jun 2027 10:13:26.572   07 Jun 2027 10:13:28.639             2.067           454.000
       225   07 Jun 2027 10:14:02.809   07 Jun 2027 10:14:04.176             1.367           196.375
       226   07 Jun 2027 10:15:16.682   07 Jun 2027 10:15:20.303             3.621          1007.500
       227   07 Jun 2027 11:45:47.576   07 Jun 2027 11:46:02.174            14.598          5869.875
       228   07 Jun 2027 11:47:53.910   07 Jun 2027 11:47:59.759             5.849          1846.500
       229   07 Jun 2027 11:48:05.166   07 Jun 2027 11:48:05.970             0.804           168.969
       230   07 Jun 2027 11:48:50.750   07 Jun 2027 11:48:59.407             8.657           477.500
       231   07 Jun 2027 11:49:18.841   07 Jun 2027 11:49:25.168             6.327           449.438
       232   07 Jun 2027 11:49:50.472   07 Jun 2027 11:49:53.140             2.668           790.750
       233   07 Jun 2027 11:51:11.896   07 Jun 2027 11:51:17.538             5.642          2086.969
       234   07 Jun 2027 11:51:20.593   07 Jun 2027 11:51:22.060             1.467            95.469
       235   08 Jun 2027 04:10:05.433   08 Jun 2027 04:13:25.843           200.410        100205.000
       236   08 Jun 2027 05:33:27.730   08 Jun 2027 05:34:23.374            55.644         27822.000
       237   08 Jun 2027 07:09:48.579   08 Jun 2027 07:10:59.614            71.035         35456.562
       238   08 Jun 2027 07:11:52.131   08 Jun 2027 07:11:56.198             4.067          1458.844
       239   08 Jun 2027 07:12:03.295   08 Jun 2027 07:12:03.295             0.000             0.000
       240   08 Jun 2027 07:12:20.917   08 Jun 2027 07:12:22.698             1.781           704.500
       241   08 Jun 2027 07:12:32.551   08 Jun 2027 07:12:32.551             0.000             0.000
       242   08 Jun 2027 08:43:50.613   08 Jun 2027 08:43:57.909             7.296          3046.406
       243   08 Jun 2027 08:45:34.135   08 Jun 2027 08:45:40.968             6.833           154.656
       244   08 Jun 2027 08:46:42.782   08 Jun 2027 08:46:49.504             6.722          1692.813
       245   08 Jun 2027 08:47:17.906   08 Jun 2027 08:47:21.801             3.895           733.938
       246   08 Jun 2027 08:48:06.105   08 Jun 2027 08:48:08.095             1.990           929.938
       247   08 Jun 2027 08:48:28.940   08 Jun 2027 08:48:33.855             4.915           380.500
       248   08 Jun 2027 08:50:24.546   08 Jun 2027 08:50:30.991             6.445          2969.063
       249   08 Jun 2027 08:50:55.522   08 Jun 2027 08:51:01.972             6.450           703.781
       250   08 Jun 2027 08:51:50.369   08 Jun 2027 08:51:52.494             2.125           773.156
       251   08 Jun 2027 10:20:58.157   08 Jun 2027 10:21:13.247            15.090          5040.937
       252   08 Jun 2027 10:23:04.876   08 Jun 2027 10:23:05.431             0.555            75.313
       253   08 Jun 2027 10:23:26.755   08 Jun 2027 10:23:29.809             3.054           288.625
       254   08 Jun 2027 10:23:44.346   08 Jun 2027 10:23:46.740             2.394           355.875
       255   08 Jun 2027 10:24:57.614   08 Jun 2027 10:25:02.249             4.635          2018.437
       256   08 Jun 2027 10:25:26.808   08 Jun 2027 10:25:33.403             6.595           637.250
       257   08 Jun 2027 10:26:03.378   08 Jun 2027 10:26:04.864             1.486           605.500
       258   08 Jun 2027 10:27:05.389   08 Jun 2027 10:27:12.179             6.790          1435.969
       259   08 Jun 2027 10:27:38.087   08 Jun 2027 10:27:39.286             1.199           355.344
       260   08 Jun 2027 11:57:56.075   08 Jun 2027 11:58:16.128            20.053          5349.781
       261   08 Jun 2027 11:59:01.407   08 Jun 2027 11:59:04.186             2.779          1131.844
       262   09 Jun 2027 04:22:25.814   09 Jun 2027 04:24:37.529           131.715         65857.500
       263   09 Jun 2027 04:25:56.149   09 Jun 2027 04:26:18.430            22.281         11140.500
       264   09 Jun 2027 05:45:28.212   09 Jun 2027 05:46:01.799            33.587         16793.500
       265   09 Jun 2027 05:46:26.035   09 Jun 2027 05:46:46.365            20.330         10165.000
       266   09 Jun 2027 07:21:54.792   09 Jun 2027 07:23:39.978           105.186         51957.531
       267   09 Jun 2027 07:23:41.644   09 Jun 2027 07:23:41.644             0.000             0.000
       268   09 Jun 2027 07:23:52.553   09 Jun 2027 07:23:54.258             1.705           392.969
       269   09 Jun 2027 07:24:42.794   09 Jun 2027 07:24:52.016             9.222          1206.000
       270   09 Jun 2027 08:57:03.361   09 Jun 2027 08:57:14.480            11.119          3445.031
       271   09 Jun 2027 08:58:07.201   09 Jun 2027 08:58:11.211             4.010           842.031
       272   09 Jun 2027 08:58:44.412   09 Jun 2027 08:58:44.412             0.000             0.000
       273   09 Jun 2027 08:59:27.019   09 Jun 2027 08:59:31.320             4.301          2131.563
       274   09 Jun 2027 09:00:31.762   09 Jun 2027 09:00:36.363             4.601           539.000
       275   09 Jun 2027 09:00:49.141   09 Jun 2027 09:00:50.414             1.273           105.656
       276   09 Jun 2027 09:02:30.491   09 Jun 2027 09:02:37.719             7.228          2524.406
       277   09 Jun 2027 09:03:03.162   09 Jun 2027 09:03:06.252             3.090           753.281
       278   09 Jun 2027 09:03:44.583   09 Jun 2027 09:03:46.709             2.126           323.969
       279   09 Jun 2027 10:33:23.862   09 Jun 2027 10:33:35.998            12.136          4267.344
       280   09 Jun 2027 10:35:08.665   09 Jun 2027 10:35:10.901             2.236           236.656
       281   09 Jun 2027 10:35:23.320   09 Jun 2027 10:35:28.563             5.243           118.656
       282   09 Jun 2027 10:35:44.008   09 Jun 2027 10:35:45.839             1.831           482.656
       283   09 Jun 2027 10:36:10.657   09 Jun 2027 10:36:13.042             2.385           775.562
       284   09 Jun 2027 10:36:37.271   09 Jun 2027 10:36:41.945             4.674           757.156
       285   09 Jun 2027 10:37:40.131   09 Jun 2027 10:37:45.056             4.925          1818.313
       286   09 Jun 2027 10:38:57.192   09 Jun 2027 10:39:04.544             7.352          1495.500
       287   09 Jun 2027 10:39:41.875   09 Jun 2027 10:39:45.892             4.017          1126.469
       288   10 Jun 2027 03:00:00.000   10 Jun 2027 03:00:11.085            11.085          5542.500
       289   10 Jun 2027 03:00:36.750   10 Jun 2027 03:00:38.738             1.988           994.000
       290   10 Jun 2027 03:01:28.322   10 Jun 2027 03:01:39.182            10.860          5430.000
       291   10 Jun 2027 04:34:08.879   10 Jun 2027 04:34:43.911            35.032         17516.000
       292   10 Jun 2027 04:34:57.446   10 Jun 2027 04:37:27.274           149.828         74914.000
       293   10 Jun 2027 05:57:29.272   10 Jun 2027 05:58:28.554            59.282         29641.000
       294   10 Jun 2027 07:34:05.306   10 Jun 2027 07:35:06.353            61.047         28340.156
       295   10 Jun 2027 07:35:26.100   10 Jun 2027 07:35:27.767             1.667           548.500
       296   10 Jun 2027 07:36:18.673   10 Jun 2027 07:36:23.018             4.345          1590.813
       297   10 Jun 2027 07:36:32.562   10 Jun 2027 07:36:37.240             4.678           151.531
       298   10 Jun 2027 07:37:31.893   10 Jun 2027 07:37:33.069             1.176           588.000
       299   10 Jun 2027 09:09:15.513   10 Jun 2027 09:09:21.951             6.438          2939.437
       300   10 Jun 2027 09:09:29.002   10 Jun 2027 09:09:33.185             4.183           220.344
       301   10 Jun 2027 09:10:45.660   10 Jun 2027 09:10:46.245             0.585            66.500
       302   10 Jun 2027 09:11:38.986   10 Jun 2027 09:11:42.293             3.307          1476.000
       303   10 Jun 2027 09:12:22.990   10 Jun 2027 09:12:26.180             3.190           368.719
       304   10 Jun 2027 09:13:10.866   10 Jun 2027 09:13:13.734             2.868          1140.187
       305   10 Jun 2027 09:13:59.118   10 Jun 2027 09:14:09.927            10.809           713.219
       306   10 Jun 2027 09:15:38.112   10 Jun 2027 09:15:48.349            10.237          2112.000
       307   10 Jun 2027 10:45:33.644   10 Jun 2027 10:45:44.770            11.126          5130.500
       308   10 Jun 2027 10:47:28.128   10 Jun 2027 10:47:29.485             1.357           267.375
       309   10 Jun 2027 10:47:46.234   10 Jun 2027 10:47:47.047             0.813           400.000
       310   10 Jun 2027 10:48:15.015   10 Jun 2027 10:48:22.406             7.391           405.875
       311   10 Jun 2027 10:48:36.267   10 Jun 2027 10:48:38.522             2.255           278.969
       312   10 Jun 2027 10:49:10.467   10 Jun 2027 10:49:15.166             4.699           799.406
       313   10 Jun 2027 10:49:51.511   10 Jun 2027 10:49:57.927             6.416           728.031
       314   10 Jun 2027 10:50:40.358   10 Jun 2027 10:50:45.162             4.804           808.719
       315   10 Jun 2027 10:50:46.787   10 Jun 2027 10:50:48.249             1.462            50.781
       316   11 Jun 2027 03:08:58.303   11 Jun 2027 03:10:08.189            69.886         34943.000
       317   11 Jun 2027 03:11:00.508   11 Jun 2027 03:11:08.333             7.825          3912.500
       318   11 Jun 2027 03:11:12.561   11 Jun 2027 03:11:31.449            18.888          9444.000
       319   11 Jun 2027 03:12:42.212   11 Jun 2027 03:12:56.018            13.806          6903.000
       320   11 Jun 2027 03:14:02.140   11 Jun 2027 03:14:03.605             1.465           732.500
       321   11 Jun 2027 04:35:21.895   11 Jun 2027 04:35:24.590             2.695          1347.500
       322   11 Jun 2027 04:46:05.391   11 Jun 2027 04:49:12.632           187.241         93420.750
       323   11 Jun 2027 06:10:03.811   11 Jun 2027 06:10:24.010            20.199          8326.906
       324   11 Jun 2027 06:12:17.778   11 Jun 2027 06:12:24.398             6.620          3310.000
       325   11 Jun 2027 06:12:32.703   11 Jun 2027 06:12:33.814             1.111           359.625
       326   11 Jun 2027 07:45:50.851   11 Jun 2027 07:45:56.967             6.116          3016.625
       327   11 Jun 2027 07:47:09.812   11 Jun 2027 07:47:15.179             5.367          1990.281
       328   11 Jun 2027 07:47:34.395   11 Jun 2027 07:47:36.011             1.616           199.719
       329   11 Jun 2027 07:48:11.207   11 Jun 2027 07:48:13.954             2.747           476.937
       330   11 Jun 2027 07:48:31.122   11 Jun 2027 07:48:33.904             2.782           536.500
       331   11 Jun 2027 07:48:38.769   11 Jun 2027 07:48:39.625             0.856           152.031
       332   11 Jun 2027 07:48:59.761   11 Jun 2027 07:48:59.761             0.000             0.000
       333   11 Jun 2027 07:49:45.127   11 Jun 2027 07:49:50.378             5.251          2046.938
       334   11 Jun 2027 09:20:44.490   11 Jun 2027 09:20:50.719             6.229          2760.375
       335   11 Jun 2027 09:21:19.348   11 Jun 2027 09:21:19.348             0.000             0.000
       336   11 Jun 2027 09:22:46.478   11 Jun 2027 09:22:52.964             6.486          2903.125
       337   11 Jun 2027 09:23:37.740   11 Jun 2027 09:23:40.462             2.722           793.969
       338   11 Jun 2027 09:23:53.959   11 Jun 2027 09:23:55.757             1.798           277.594
       339   11 Jun 2027 09:24:04.172   11 Jun 2027 09:24:04.371             0.199            82.469
       340   11 Jun 2027 09:24:36.760   11 Jun 2027 09:24:41.297             4.537           944.688
       341   11 Jun 2027 09:25:21.570   11 Jun 2027 09:25:27.391             5.821           440.594
       342   11 Jun 2027 09:25:58.645   11 Jun 2027 09:26:01.062             2.417           731.094
       343   11 Jun 2027 09:26:01.470   11 Jun 2027 09:26:01.723             0.253            12.750
       344   11 Jun 2027 09:26:38.277   11 Jun 2027 09:26:41.595             3.318           680.656
       345   11 Jun 2027 09:27:21.162   11 Jun 2027 09:27:23.932             2.770          1146.125
       346   11 Jun 2027 09:27:56.535   11 Jun 2027 09:28:00.374             3.839           261.344
       347   11 Jun 2027 10:57:15.176   11 Jun 2027 10:57:25.758            10.582          5058.000
       348   11 Jun 2027 10:58:23.108   11 Jun 2027 10:58:24.775             1.667           280.500
       349   11 Jun 2027 10:59:19.308   11 Jun 2027 10:59:20.724             1.416           194.187
       350   11 Jun 2027 10:59:45.150   11 Jun 2027 10:59:46.804             1.654           446.656
       351   11 Jun 2027 11:00:12.053   11 Jun 2027 11:00:14.180             2.127           378.313
       352   11 Jun 2027 11:00:16.144   11 Jun 2027 11:00:16.635             0.491            61.375
       353   11 Jun 2027 11:01:29.377   11 Jun 2027 11:01:33.944             4.567          1849.156
       354   11 Jun 2027 11:02:25.018   11 Jun 2027 11:02:29.149             4.131          1369.406
       355   11 Jun 2027 11:02:38.010   11 Jun 2027 11:02:48.340            10.330           276.906
       356   12 Jun 2027 03:21:02.669   12 Jun 2027 03:23:33.646           150.977         75488.500
       357   12 Jun 2027 03:24:01.550   12 Jun 2027 03:24:45.250            43.700         21850.000
       358   12 Jun 2027 03:27:23.759   12 Jun 2027 03:27:23.928             0.169            84.500
       359   12 Jun 2027 03:28:06.304   12 Jun 2027 03:28:40.532            34.228         17114.000
       360   12 Jun 2027 04:46:39.945   12 Jun 2027 04:46:56.003            16.058          8029.000
       361   12 Jun 2027 04:58:02.624   12 Jun 2027 04:59:24.293            81.669         40041.032
       362   12 Jun 2027 04:59:39.821   12 Jun 2027 04:59:42.011             2.190           243.219
       363   12 Jun 2027 06:20:38.613   12 Jun 2027 06:20:46.966             8.353          3912.656
       364   12 Jun 2027 06:21:40.312   12 Jun 2027 06:21:41.224             0.912           456.000
       365   12 Jun 2027 06:22:18.929   12 Jun 2027 06:22:23.440             4.511          1880.656
       366   12 Jun 2027 06:22:33.016   12 Jun 2027 06:22:33.688             0.672            64.688
       367   12 Jun 2027 06:24:24.341   12 Jun 2027 06:24:31.955             7.614          3149.625
       368   12 Jun 2027 06:25:09.048   12 Jun 2027 06:25:12.455             3.407          1045.313
       369   12 Jun 2027 06:25:19.264   12 Jun 2027 06:25:20.179             0.915            55.313
       370   12 Jun 2027 07:56:08.392   12 Jun 2027 07:56:14.298             5.906          2857.781
       371   12 Jun 2027 07:57:37.338   12 Jun 2027 07:57:39.537             2.199          1023.219
       372   12 Jun 2027 07:59:10.810   12 Jun 2027 07:59:16.760             5.950          2725.562
       373   12 Jun 2027 07:59:24.630   12 Jun 2027 07:59:32.037             7.407           134.531
       374   12 Jun 2027 08:00:55.295   12 Jun 2027 08:00:57.860             2.565           863.563
       375   12 Jun 2027 08:01:03.581   12 Jun 2027 08:01:04.994             1.413            61.344
       376   12 Jun 2027 08:01:28.789   12 Jun 2027 08:01:33.672             4.883            28.187
       377   12 Jun 2027 08:01:56.010   12 Jun 2027 08:01:56.940             0.930           109.313
       378   12 Jun 2027 09:32:29.458   12 Jun 2027 09:32:38.681             9.223          3521.750
       379   12 Jun 2027 09:34:46.788   12 Jun 2027 09:35:02.547            15.759          2738.625
       380   12 Jun 2027 09:36:00.185   12 Jun 2027 09:36:01.239             1.054           450.188
       381   12 Jun 2027 09:36:38.874   12 Jun 2027 09:36:43.141             4.267           835.937
       382   12 Jun 2027 09:38:28.567   12 Jun 2027 09:38:34.597             6.030          2116.344
       383   12 Jun 2027 09:38:47.085   12 Jun 2027 09:38:48.495             1.410           228.375
       384   12 Jun 2027 09:40:01.280   12 Jun 2027 09:40:01.374             0.094            47.000
       385   12 Jun 2027 11:09:35.427   12 Jun 2027 11:09:53.269            17.842          7652.062
       386   12 Jun 2027 11:11:37.318   12 Jun 2027 11:11:39.569             2.251           213.969
       387   12 Jun 2027 11:12:17.173   12 Jun 2027 11:12:21.006             3.833          1021.906
       388   12 Jun 2027 11:13:25.915   12 Jun 2027 11:13:30.670             4.755          1186.594
       389   12 Jun 2027 11:13:45.376   12 Jun 2027 11:13:46.633             1.257           197.375
       390   12 Jun 2027 11:14:07.483   12 Jun 2027 11:14:12.598             5.115           436.594
       391   12 Jun 2027 11:14:23.050   12 Jun 2027 11:14:30.565             7.515           243.094
       392   12 Jun 2027 11:15:45.738   12 Jun 2027 11:15:50.946             5.208          1698.438
       393   13 Jun 2027 03:33:32.569   13 Jun 2027 03:36:51.567           198.998         99499.000
       394   13 Jun 2027 03:37:15.842   13 Jun 2027 03:37:27.240            11.398          5699.000
       395   13 Jun 2027 03:37:38.201   13 Jun 2027 03:37:54.761            16.560          8280.000
       396   13 Jun 2027 03:40:20.730   13 Jun 2027 03:40:21.548             0.818           409.000
       397   13 Jun 2027 04:58:22.000   13 Jun 2027 04:58:39.030            17.030          8515.000
       398   13 Jun 2027 05:10:02.416   13 Jun 2027 05:11:03.527            61.111         30555.500
       399   13 Jun 2027 06:32:20.018   13 Jun 2027 06:32:43.900            23.882         11937.343
       400   13 Jun 2027 06:34:13.780   13 Jun 2027 06:34:17.779             3.999          1757.156
       401   13 Jun 2027 06:34:23.694   13 Jun 2027 06:34:23.952             0.258            22.281
       402   13 Jun 2027 06:34:46.832   13 Jun 2027 06:34:46.832             0.000             0.000
       403   13 Jun 2027 06:35:05.469   13 Jun 2027 06:35:15.359             9.890           955.594
       404   13 Jun 2027 06:35:46.812   13 Jun 2027 06:35:46.812             0.000             0.000
       405   13 Jun 2027 06:35:59.657   13 Jun 2027 06:36:02.988             3.331          1313.719
       406   13 Jun 2027 06:36:29.621   13 Jun 2027 06:36:33.592             3.971           206.094
       407   13 Jun 2027 06:37:12.282   13 Jun 2027 06:37:24.047            11.765          1060.094
       408   13 Jun 2027 08:07:15.563   13 Jun 2027 08:07:22.149             6.586          1944.313
       409   13 Jun 2027 08:08:21.203   13 Jun 2027 08:08:23.425             2.222           967.219
       410   13 Jun 2027 08:08:52.893   13 Jun 2027 08:08:59.917             7.024           920.875
       411   13 Jun 2027 08:09:37.703   13 Jun 2027 08:09:40.535             2.832          1180.813
       412   13 Jun 2027 08:11:11.486   13 Jun 2027 08:11:17.631             6.145          2548.594
       413   13 Jun 2027 08:12:35.342   13 Jun 2027 08:12:39.826             4.484          2241.031
       414   13 Jun 2027 08:14:06.838   13 Jun 2027 08:14:10.952             4.114          1983.656
       415   13 Jun 2027 09:44:46.263   13 Jun 2027 09:44:53.742             7.479          2922.781
       416   13 Jun 2027 09:47:51.633   13 Jun 2027 09:48:03.486            11.853          4693.438
       417   13 Jun 2027 09:49:01.377   13 Jun 2027 09:49:07.863             6.486          1474.938
       418   13 Jun 2027 09:49:57.583   13 Jun 2027 09:50:01.032             3.449          1307.625
       419   13 Jun 2027 09:50:24.807   13 Jun 2027 09:50:26.297             1.490           742.969
       420   13 Jun 2027 09:50:57.878   13 Jun 2027 09:50:59.539             1.661           686.469
       421   13 Jun 2027 09:50:59.568   13 Jun 2027 09:51:01.549             1.981             0.906
       422   13 Jun 2027 09:51:30.488   13 Jun 2027 09:51:36.221             5.733           815.750
       423   13 Jun 2027 09:52:05.256   13 Jun 2027 09:52:05.695             0.439            33.219
       424   13 Jun 2027 11:21:31.470   13 Jun 2027 11:21:47.141            15.671          7808.000
       425   13 Jun 2027 11:22:39.462   13 Jun 2027 11:22:40.007             0.545           191.469
       426   13 Jun 2027 11:23:41.689   13 Jun 2027 11:23:44.766             3.077          1182.000
       427   13 Jun 2027 11:24:15.519   13 Jun 2027 11:24:16.318             0.799           361.594
       428   13 Jun 2027 11:25:01.806   13 Jun 2027 11:25:06.578             4.772          1137.719
       429   13 Jun 2027 11:25:49.072   13 Jun 2027 11:25:52.278             3.206           875.656
       430   13 Jun 2027 11:26:19.711   13 Jun 2027 11:26:23.738             4.027           764.656
       431   13 Jun 2027 11:26:55.940   13 Jun 2027 11:27:02.936             6.996           960.563
       432   13 Jun 2027 11:27:35.338   13 Jun 2027 11:27:36.825             1.487           711.375
       433   13 Jun 2027 11:28:04.210   13 Jun 2027 11:28:04.752             0.542           271.000
