uniorb/output/strategy_4/Camera/Camera_KinoSat_111510.txt

KinoSat_111510
-------------------------
    Access    *     Start Time (UTCG)     *     Stop Time (UTCG)  *   Duration (s) *   Data (Mbytes)
         1   01 Jun 2027 04:07:44.354   01 Jun 2027 04:10:02.988           138.634         69317.000
         2   01 Jun 2027 04:10:09.469   01 Jun 2027 04:10:10.353             0.884           442.000
         3   01 Jun 2027 04:11:50.063   01 Jun 2027 04:11:53.549             3.486          1743.000
         4   01 Jun 2027 04:12:37.150   01 Jun 2027 04:13:04.118            26.968         13484.000
         5   01 Jun 2027 04:14:42.673   01 Jun 2027 04:14:48.845             6.172          3086.000
         6   01 Jun 2027 05:32:05.992   01 Jun 2027 05:32:56.463            50.471         25235.500
         7   01 Jun 2027 05:33:54.739   01 Jun 2027 05:34:14.751            20.012         10006.000
         8   01 Jun 2027 05:44:19.281   01 Jun 2027 05:44:50.756            31.475         15737.500
         9   01 Jun 2027 07:06:14.283   01 Jun 2027 07:07:28.351            74.068         37034.000
        10   01 Jun 2027 07:08:17.400   01 Jun 2027 07:08:47.744            30.344         15172.000
        11   01 Jun 2027 07:10:26.195   01 Jun 2027 07:10:47.050            20.855         10427.500
        12   01 Jun 2027 08:41:02.441   01 Jun 2027 08:42:50.857           108.416         54208.000
        13   01 Jun 2027 08:44:27.937   01 Jun 2027 08:44:27.937             0.000             0.000
        14   01 Jun 2027 08:44:58.796   01 Jun 2027 08:45:15.477            16.681          8340.500
        15   01 Jun 2027 08:49:23.273   01 Jun 2027 08:49:58.294            35.021         17510.500
        16   01 Jun 2027 10:18:52.312   01 Jun 2027 10:20:49.776           117.464         58732.000
        17   01 Jun 2027 10:24:51.158   01 Jun 2027 10:25:12.480            21.322         10661.000
        18   01 Jun 2027 10:26:01.202   01 Jun 2027 10:26:18.372            17.170          8585.000
        19   01 Jun 2027 11:55:36.801   01 Jun 2027 11:56:53.616            76.815         38407.500
        20   01 Jun 2027 11:57:52.107   01 Jun 2027 11:57:58.384             6.277          3138.500
        21   01 Jun 2027 11:58:43.477   01 Jun 2027 11:59:01.305            17.828          8914.000
        22   02 Jun 2027 04:20:06.304   02 Jun 2027 04:20:49.867            43.563         21781.500
        23   02 Jun 2027 04:22:12.016   02 Jun 2027 04:22:52.522            40.506         20253.000
        24   02 Jun 2027 04:23:32.029   02 Jun 2027 04:23:42.965            10.936          5468.000
        25   02 Jun 2027 04:23:51.791   02 Jun 2027 04:24:00.495             8.704          4352.000
        26   02 Jun 2027 04:25:08.416   02 Jun 2027 04:25:08.416             0.000             0.000
        27   02 Jun 2027 05:44:04.483   02 Jun 2027 05:45:49.333           104.850         52425.000
        28   02 Jun 2027 07:20:01.320   02 Jun 2027 07:23:44.580           223.260        111630.000
        29   02 Jun 2027 08:53:50.772   02 Jun 2027 08:56:23.683           152.911         76455.500
        30   02 Jun 2027 08:59:34.092   02 Jun 2027 08:59:48.334            14.242          7121.000
        31   02 Jun 2027 09:00:52.899   02 Jun 2027 09:00:59.958             7.059          3529.500
        32   02 Jun 2027 09:01:39.086   02 Jun 2027 09:02:22.367            43.281         21640.500
        33   02 Jun 2027 10:30:59.519   02 Jun 2027 10:31:57.909            58.390         27930.720
        34   02 Jun 2027 10:32:48.370   02 Jun 2027 10:32:52.922             4.552          1560.156
        35   02 Jun 2027 10:33:44.428   02 Jun 2027 10:33:46.439             2.011           175.875
        36   02 Jun 2027 10:34:33.931   02 Jun 2027 10:34:37.266             3.335           325.938
        37   02 Jun 2027 10:35:05.902   02 Jun 2027 10:35:12.692             6.790           703.219
        38   02 Jun 2027 10:35:47.625   02 Jun 2027 10:35:49.091             1.466           704.000
        39   02 Jun 2027 10:36:18.707   02 Jun 2027 10:36:19.327             0.620           183.844
        40   02 Jun 2027 10:36:27.103   02 Jun 2027 10:36:29.426             2.323           243.000
        41   02 Jun 2027 10:37:29.117   02 Jun 2027 10:37:36.250             7.133           619.875
        42   02 Jun 2027 10:37:46.159   02 Jun 2027 10:37:47.262             1.103           297.156
        43   02 Jun 2027 10:37:52.180   02 Jun 2027 10:37:53.123             0.943           144.094
        44   03 Jun 2027 04:32:36.356   03 Jun 2027 04:34:41.080           124.724         62362.000
        45   03 Jun 2027 04:35:21.218   03 Jun 2027 04:36:00.165            38.947         19473.500
        46   03 Jun 2027 05:55:58.015   03 Jun 2027 05:56:40.813            42.798         21399.000
        47   03 Jun 2027 05:58:13.791   03 Jun 2027 05:58:25.880            12.089          6044.500
        48   03 Jun 2027 07:32:22.979   03 Jun 2027 07:34:13.575           110.596         53166.249
        49   03 Jun 2027 07:35:11.589   03 Jun 2027 07:35:16.353             4.764          1810.438
        50   03 Jun 2027 09:06:11.197   03 Jun 2027 09:06:19.360             8.163          3583.844
        51   03 Jun 2027 09:08:22.397   03 Jun 2027 09:08:22.995             0.598           141.375
        52   03 Jun 2027 09:09:03.270   03 Jun 2027 09:09:10.017             6.747           289.406
        53   03 Jun 2027 09:11:55.494   03 Jun 2027 09:12:03.707             8.213          2945.375
        54   03 Jun 2027 09:12:56.529   03 Jun 2027 09:12:57.382             0.853            75.938
        55   03 Jun 2027 09:13:49.343   03 Jun 2027 09:13:58.365             9.022          1255.938
        56   03 Jun 2027 09:14:20.592   03 Jun 2027 09:14:21.888             1.296           449.344
        57   03 Jun 2027 10:43:26.061   03 Jun 2027 10:43:37.290            11.229          5562.781
        58   03 Jun 2027 10:44:51.752   03 Jun 2027 10:44:53.739             1.987           365.094
        59   03 Jun 2027 10:45:40.889   03 Jun 2027 10:45:43.524             2.635          1132.688
        60   03 Jun 2027 10:46:08.418   03 Jun 2027 10:46:10.826             2.408           711.406
        61   03 Jun 2027 10:46:58.370   03 Jun 2027 10:47:04.719             6.349          1480.187
        62   03 Jun 2027 10:48:10.708   03 Jun 2027 10:48:18.068             7.360          2020.719
        63   03 Jun 2027 10:48:33.593   03 Jun 2027 10:48:34.371             0.778           240.938
        64   03 Jun 2027 10:49:34.236   03 Jun 2027 10:49:38.739             4.503          1434.719
        65   03 Jun 2027 10:49:57.541   03 Jun 2027 10:49:58.693             1.152           515.469
        66   04 Jun 2027 03:06:40.866   04 Jun 2027 03:07:19.963            39.097         19548.500
        67   04 Jun 2027 03:07:59.713   04 Jun 2027 03:08:13.550            13.837          6918.500
        68   04 Jun 2027 03:09:07.292   04 Jun 2027 03:09:31.429            24.137         12068.500
        69   04 Jun 2027 03:10:35.143   04 Jun 2027 03:10:40.915             5.772          2886.000
        70   04 Jun 2027 03:11:09.243   04 Jun 2027 03:11:11.107             1.864           932.000
        71   04 Jun 2027 03:11:38.780   04 Jun 2027 03:11:50.536            11.756          5878.000
        72   04 Jun 2027 03:12:06.539   04 Jun 2027 03:12:14.908             8.369          4184.500
        73   04 Jun 2027 04:44:52.269   04 Jun 2027 04:48:11.353           199.084         98943.531
        74   04 Jun 2027 06:07:46.152   04 Jun 2027 06:08:01.737            15.585          7792.500
        75   04 Jun 2027 06:10:09.425   04 Jun 2027 06:10:21.392            11.967          5619.812
        76   04 Jun 2027 07:44:25.306   04 Jun 2027 07:44:34.227             8.921          3246.469
        77   04 Jun 2027 07:45:06.982   04 Jun 2027 07:45:10.054             3.072           555.375
        78   04 Jun 2027 07:46:25.150   04 Jun 2027 07:46:30.869             5.719          1826.594
        79   04 Jun 2027 07:47:06.629   04 Jun 2027 07:47:09.535             2.906           250.156
        80   04 Jun 2027 07:47:47.600   04 Jun 2027 07:47:47.600             0.000             0.000
        81   04 Jun 2027 09:19:25.751   04 Jun 2027 09:19:35.497             9.746          2705.813
        82   04 Jun 2027 09:20:27.013   04 Jun 2027 09:20:29.040             2.027           530.281
        83   04 Jun 2027 09:21:05.069   04 Jun 2027 09:21:09.201             4.132           694.531
        84   04 Jun 2027 09:22:23.443   04 Jun 2027 09:22:25.917             2.474          1084.875
        85   04 Jun 2027 09:23:20.271   04 Jun 2027 09:23:24.801             4.530          1157.031
        86   04 Jun 2027 09:24:54.859   04 Jun 2027 09:25:03.195             8.336          2742.969
        87   04 Jun 2027 09:25:35.812   04 Jun 2027 09:25:39.762             3.950           307.594
        88   04 Jun 2027 09:26:14.829   04 Jun 2027 09:26:15.602             0.773           332.156
        89   04 Jun 2027 10:55:35.624   04 Jun 2027 10:55:49.635            14.011          4672.187
        90   04 Jun 2027 10:57:27.936   04 Jun 2027 10:57:38.088            10.152          1765.750
        91   04 Jun 2027 10:58:40.679   04 Jun 2027 10:58:45.710             5.031          1032.312
        92   04 Jun 2027 11:00:07.248   04 Jun 2027 11:00:13.495             6.247          1806.094
        93   04 Jun 2027 11:00:18.190   04 Jun 2027 11:00:20.054             1.864            57.344
        94   04 Jun 2027 11:01:25.405   04 Jun 2027 11:01:31.928             6.523          1664.406
        95   04 Jun 2027 11:01:42.529   04 Jun 2027 11:01:47.805             5.276           331.281
        96   04 Jun 2027 11:01:52.356   04 Jun 2027 11:01:52.566             0.210            42.844
        97   05 Jun 2027 03:18:20.129   05 Jun 2027 03:19:22.100            61.971         30985.500
        98   05 Jun 2027 03:19:28.556   05 Jun 2027 03:20:17.504            48.948         24474.000
        99   05 Jun 2027 03:20:50.765   05 Jun 2027 03:21:28.082            37.317         18658.500
       100   05 Jun 2027 03:21:50.478   05 Jun 2027 03:22:38.788            48.310         24155.000
       101   05 Jun 2027 04:56:38.579   05 Jun 2027 04:57:10.837            32.258         16129.000
       102   05 Jun 2027 04:57:27.674   05 Jun 2027 04:58:41.486            73.812         35829.750
       103   05 Jun 2027 04:59:32.432   05 Jun 2027 04:59:38.158             5.726          1341.938
       104   05 Jun 2027 05:00:03.053   05 Jun 2027 05:00:04.442             1.389           514.781
       105   05 Jun 2027 06:20:00.540   05 Jun 2027 06:20:09.361             8.821          4233.469
       106   05 Jun 2027 06:21:14.775   05 Jun 2027 06:21:18.675             3.900          1885.000
       107   05 Jun 2027 06:21:37.859   05 Jun 2027 06:21:41.109             3.250           346.813
       108   05 Jun 2027 06:22:44.425   05 Jun 2027 06:22:44.742             0.317           158.500
       109   05 Jun 2027 06:22:56.431   05 Jun 2027 06:22:57.143             0.712           356.000
       110   05 Jun 2027 07:56:32.966   05 Jun 2027 07:56:39.723             6.757          3130.750
       111   05 Jun 2027 07:57:29.317   05 Jun 2027 07:57:33.073             3.756          1424.844
       112   05 Jun 2027 07:58:39.022   05 Jun 2027 07:58:42.780             3.758          1666.844
       113   05 Jun 2027 07:59:32.706   05 Jun 2027 07:59:32.706             0.000             0.000
       114   05 Jun 2027 09:31:43.493   05 Jun 2027 09:31:49.585             6.092          2805.031
       115   05 Jun 2027 09:33:06.504   05 Jun 2027 09:33:11.809             5.305          2093.750
       116   05 Jun 2027 09:34:40.195   05 Jun 2027 09:34:42.725             2.530          1257.188
       117   05 Jun 2027 09:35:27.171   05 Jun 2027 09:35:32.022             4.851           950.750
       118   05 Jun 2027 09:36:26.187   05 Jun 2027 09:36:27.765             1.578            55.969
       119   05 Jun 2027 09:38:00.143   05 Jun 2027 09:38:06.108             5.965          2032.469
       120   05 Jun 2027 09:38:18.278   05 Jun 2027 09:38:19.554             1.276           230.281
       121   05 Jun 2027 11:08:05.475   05 Jun 2027 11:08:19.016            13.541          4736.156
       122   05 Jun 2027 11:10:33.099   05 Jun 2027 11:10:35.241             2.142           835.500
       123   05 Jun 2027 11:11:16.232   05 Jun 2027 11:11:21.718             5.486          1042.844
       124   05 Jun 2027 11:12:02.198   05 Jun 2027 11:12:11.279             9.081          1035.281
       125   05 Jun 2027 11:12:40.087   05 Jun 2027 11:12:42.181             2.094           635.719
       126   05 Jun 2027 11:13:33.837   05 Jun 2027 11:13:38.054             4.217          1111.750
       127   05 Jun 2027 11:13:48.573   05 Jun 2027 11:13:50.275             1.702           149.719
       128   06 Jun 2027 03:31:26.627   06 Jun 2027 03:35:16.280           229.653        114826.500
       129   06 Jun 2027 03:38:15.503   06 Jun 2027 03:38:16.036             0.533           266.500
       130   06 Jun 2027 03:38:23.513   06 Jun 2027 03:38:40.007            16.494          8247.000
       131   06 Jun 2027 05:08:34.978   06 Jun 2027 05:09:14.497            39.519         19759.500
       132   06 Jun 2027 05:09:34.738   06 Jun 2027 05:10:30.944            56.206         27501.469
       133   06 Jun 2027 05:11:26.980   06 Jun 2027 05:11:30.386             3.406          1519.594
       134   06 Jun 2027 05:11:39.622   06 Jun 2027 05:11:41.199             1.577           129.875
       135   06 Jun 2027 06:32:02.046   06 Jun 2027 06:32:10.707             8.661          4181.719
       136   06 Jun 2027 06:33:15.229   06 Jun 2027 06:33:21.141             5.912          1923.156
       137   06 Jun 2027 06:34:44.627   06 Jun 2027 06:34:50.060             5.433          2472.781
       138   06 Jun 2027 08:08:25.062   06 Jun 2027 08:08:33.405             8.343          2910.563
       139   06 Jun 2027 08:09:08.406   06 Jun 2027 08:09:10.854             2.448           564.438
       140   06 Jun 2027 08:10:18.780   06 Jun 2027 08:10:18.780             0.000             0.000
       141   06 Jun 2027 08:10:55.368   06 Jun 2027 08:11:01.892             6.524          2645.625
       142   06 Jun 2027 08:11:41.955   06 Jun 2027 08:11:43.980             2.025          1012.500
       143   06 Jun 2027 08:11:58.684   06 Jun 2027 08:12:10.545            11.861           698.969
       144   06 Jun 2027 09:43:19.252   06 Jun 2027 09:43:26.556             7.304          3550.688
       145   06 Jun 2027 09:45:07.528   06 Jun 2027 09:45:12.804             5.276          2575.688
       146   06 Jun 2027 09:46:14.167   06 Jun 2027 09:46:17.161             2.994           391.844
       147   06 Jun 2027 09:46:35.858   06 Jun 2027 09:46:43.388             7.530           548.281
       148   06 Jun 2027 09:48:54.732   06 Jun 2027 09:49:08.599            13.867          2655.437
       149   06 Jun 2027 09:49:45.813   06 Jun 2027 09:49:49.434             3.621           827.719
       150   06 Jun 2027 09:50:24.037   06 Jun 2027 09:50:27.239             3.202           556.062
       151   06 Jun 2027 11:19:40.911   06 Jun 2027 11:19:57.874            16.963          7545.219
       152   06 Jun 2027 11:21:17.318   06 Jun 2027 11:21:28.214            10.896           183.656
       153   06 Jun 2027 11:21:43.764   06 Jun 2027 11:21:44.467             0.703           235.438
       154   06 Jun 2027 11:22:33.118   06 Jun 2027 11:22:37.305             4.187          1520.344
       155   06 Jun 2027 11:23:50.010   06 Jun 2027 11:23:55.225             5.215          2272.031
       156   06 Jun 2027 11:24:42.180   06 Jun 2027 11:24:47.454             5.274          1467.344
       157   06 Jun 2027 11:24:58.984   06 Jun 2027 11:25:01.685             2.701           234.250
       158   06 Jun 2027 11:25:14.941   06 Jun 2027 11:25:17.107             2.166           276.875
       159   07 Jun 2027 03:43:30.501   07 Jun 2027 03:47:06.338           215.837        107918.500
       160   07 Jun 2027 03:47:23.339   07 Jun 2027 03:47:41.488            18.149          9074.500
       161   07 Jun 2027 03:50:32.324   07 Jun 2027 03:51:08.122            35.798         17899.000
       162   07 Jun 2027 05:09:17.119   07 Jun 2027 05:09:25.713             8.594          4297.000
       163   07 Jun 2027 05:20:31.072   07 Jun 2027 05:22:02.405            91.333         43926.782
       164   07 Jun 2027 05:23:10.726   07 Jun 2027 05:23:12.922             2.196           411.344
       165   07 Jun 2027 06:43:07.712   07 Jun 2027 06:43:18.077            10.365          4665.250
       166   07 Jun 2027 06:43:54.351   07 Jun 2027 06:43:59.484             5.133           489.656
       167   07 Jun 2027 06:45:15.282   07 Jun 2027 06:45:21.723             6.441          1637.125
       168   07 Jun 2027 06:45:55.526   07 Jun 2027 06:46:00.766             5.240           901.969
       169   07 Jun 2027 06:46:33.314   07 Jun 2027 06:46:36.117             2.803           817.656
       170   07 Jun 2027 06:47:03.188   07 Jun 2027 06:47:10.696             7.508           590.656
       171   07 Jun 2027 08:18:42.314   07 Jun 2027 08:18:45.166             2.852          1426.000
       172   07 Jun 2027 08:20:08.923   07 Jun 2027 08:20:16.671             7.748          1921.094
       173   07 Jun 2027 08:21:31.856   07 Jun 2027 08:21:36.873             5.017          2077.031
       174   07 Jun 2027 08:21:49.811   07 Jun 2027 08:21:50.883             1.072           111.719
       175   07 Jun 2027 08:23:05.729   07 Jun 2027 08:23:13.807             8.078           494.969
       176   07 Jun 2027 08:24:07.441   07 Jun 2027 08:24:12.664             5.223          1661.469
       177   07 Jun 2027 08:24:24.202   07 Jun 2027 08:24:25.808             1.606           180.719
       178   07 Jun 2027 09:54:54.822   07 Jun 2027 09:54:59.574             4.752          2376.000
       179   07 Jun 2027 09:57:08.070   07 Jun 2027 09:57:17.222             9.152          4128.313
       180   07 Jun 2027 09:58:29.911   07 Jun 2027 09:58:31.517             1.606           695.688
       181   07 Jun 2027 09:59:05.463   07 Jun 2027 09:59:16.274            10.811          1060.812
       182   07 Jun 2027 10:00:53.642   07 Jun 2027 10:01:00.909             7.267          2460.312
       183   07 Jun 2027 10:02:26.213   07 Jun 2027 10:02:28.209             1.996           826.156
       184   07 Jun 2027 11:32:01.206   07 Jun 2027 11:32:11.192             9.986          4956.469
       185   07 Jun 2027 11:34:01.570   07 Jun 2027 11:34:05.379             3.809           116.438
       186   07 Jun 2027 11:34:41.756   07 Jun 2027 11:34:44.635             2.879           932.250
       187   07 Jun 2027 11:35:05.515   07 Jun 2027 11:35:11.992             6.477           652.500
       188   07 Jun 2027 11:35:56.440   07 Jun 2027 11:35:59.927             3.487           598.563
       189   07 Jun 2027 11:36:20.801   07 Jun 2027 11:36:21.321             0.520           250.281
       190   07 Jun 2027 11:37:33.592   07 Jun 2027 11:37:40.860             7.268          2258.469
       191   07 Jun 2027 11:37:56.325   07 Jun 2027 11:37:57.601             1.276           343.812
       192   08 Jun 2027 03:55:59.672   08 Jun 2027 03:58:52.729           173.057         86528.500
       193   08 Jun 2027 04:01:25.862   08 Jun 2027 04:01:48.362            22.500         11250.000
       194   08 Jun 2027 04:02:47.119   08 Jun 2027 04:03:08.111            20.992         10496.000
       195   08 Jun 2027 05:20:50.941   08 Jun 2027 05:20:51.217             0.276           138.000
       196   08 Jun 2027 05:21:13.310   08 Jun 2027 05:21:25.124            11.814          5907.000
       197   08 Jun 2027 05:32:34.032   08 Jun 2027 05:33:34.572            60.540         30270.000
       198   08 Jun 2027 06:54:49.768   08 Jun 2027 06:55:42.138            52.370         24250.406
       199   08 Jun 2027 06:56:47.189   08 Jun 2027 06:56:50.946             3.757          1632.031
       200   08 Jun 2027 06:57:30.332   08 Jun 2027 06:57:32.543             2.211           873.062
       201   08 Jun 2027 06:58:24.148   08 Jun 2027 06:58:27.662             3.514          1434.156
       202   08 Jun 2027 06:59:41.590   08 Jun 2027 06:59:45.693             4.103          1821.469
       203   08 Jun 2027 08:29:49.139   08 Jun 2027 08:29:52.243             3.104          1439.375
       204   08 Jun 2027 08:30:44.851   08 Jun 2027 08:30:48.616             3.765           328.563
       205   08 Jun 2027 08:31:27.448   08 Jun 2027 08:31:31.365             3.917           846.031
       206   08 Jun 2027 08:33:14.130   08 Jun 2027 08:33:16.854             2.724           845.500
       207   08 Jun 2027 08:33:29.146   08 Jun 2027 08:33:29.864             0.718           171.437
       208   08 Jun 2027 08:35:03.608   08 Jun 2027 08:35:09.513             5.905          2356.125
       209   08 Jun 2027 08:35:28.380   08 Jun 2027 08:35:30.907             2.527           155.125
       210   08 Jun 2027 08:36:21.329   08 Jun 2027 08:36:23.760             2.431          1215.500
       211   08 Jun 2027 10:07:14.958   08 Jun 2027 10:07:23.648             8.690          3603.094
       212   08 Jun 2027 10:08:44.396   08 Jun 2027 10:08:48.792             4.396           331.656
       213   08 Jun 2027 10:10:21.867   08 Jun 2027 10:10:30.340             8.473          2306.906
       214   08 Jun 2027 10:11:42.751   08 Jun 2027 10:11:46.196             3.445          1578.656
       215   08 Jun 2027 10:12:19.360   08 Jun 2027 10:12:27.054             7.694           996.531
       216   08 Jun 2027 10:12:56.898   08 Jun 2027 10:13:00.033             3.135           848.969
       217   08 Jun 2027 10:13:55.278   08 Jun 2027 10:14:00.497             5.219          1450.875
       218   08 Jun 2027 10:14:20.727   08 Jun 2027 10:14:33.157            12.430           476.500
       219   08 Jun 2027 11:44:01.987   08 Jun 2027 11:44:15.227            13.240          5529.438
       220   08 Jun 2027 11:46:49.282   08 Jun 2027 11:46:49.524             0.242            75.156
       221   08 Jun 2027 11:47:44.725   08 Jun 2027 11:47:46.571             1.846           357.969
       222   08 Jun 2027 11:48:07.549   08 Jun 2027 11:48:08.529             0.980           275.250
       223   08 Jun 2027 11:48:24.824   08 Jun 2027 11:48:25.712             0.888           255.781
       224   08 Jun 2027 11:49:21.620   08 Jun 2027 11:49:26.209             4.589          1016.812
       225   08 Jun 2027 11:49:45.429   08 Jun 2027 11:49:45.961             0.532           166.156
       226   08 Jun 2027 11:49:56.935   08 Jun 2027 11:49:58.883             1.948            83.125
       227   08 Jun 2027 11:50:29.197   08 Jun 2027 11:50:30.645             1.448           724.000
       228   09 Jun 2027 04:08:01.581   09 Jun 2027 04:09:50.731           109.150         54575.000
       229   09 Jun 2027 04:12:04.927   09 Jun 2027 04:12:11.410             6.483          3241.500
       230   09 Jun 2027 04:12:51.614   09 Jun 2027 04:12:55.351             3.737          1868.500
       231   09 Jun 2027 04:14:20.164   09 Jun 2027 04:14:53.331            33.167         16583.500
       232   09 Jun 2027 05:32:23.172   09 Jun 2027 05:33:01.020            37.848         18924.000
       233   09 Jun 2027 05:33:05.139   09 Jun 2027 05:33:09.158             4.019          2009.500
       234   09 Jun 2027 05:44:40.133   09 Jun 2027 05:45:07.387            27.254         13627.000
       235   09 Jun 2027 07:06:29.922   09 Jun 2027 07:07:43.241            73.319         36659.500
       236   09 Jun 2027 07:08:32.973   09 Jun 2027 07:09:04.101            31.128         15048.094
       237   09 Jun 2027 07:09:10.146   09 Jun 2027 07:09:13.779             3.633           188.906
       238   09 Jun 2027 07:10:23.997   09 Jun 2027 07:10:30.049             6.052          2194.313
       239   09 Jun 2027 07:11:03.180   09 Jun 2027 07:11:05.056             1.876           675.969
       240   09 Jun 2027 07:11:38.327   09 Jun 2027 07:11:38.327             0.000             0.000
       241   09 Jun 2027 07:11:49.702   09 Jun 2027 07:11:49.702             0.000             0.000
       242   09 Jun 2027 08:41:17.739   09 Jun 2027 08:41:30.605            12.866          3760.250
       243   09 Jun 2027 08:43:08.492   09 Jun 2027 08:43:14.463             5.971          1951.344
       244   09 Jun 2027 08:44:09.058   09 Jun 2027 08:44:15.156             6.098          1508.313
       245   09 Jun 2027 08:45:04.225   09 Jun 2027 08:45:08.020             3.795           632.000
       246   09 Jun 2027 08:45:49.043   09 Jun 2027 08:45:51.824             2.781          1010.438
       247   09 Jun 2027 08:47:58.224   09 Jun 2027 08:48:02.099             3.875          1703.000
       248   09 Jun 2027 08:48:12.690   09 Jun 2027 08:48:13.459             0.769           330.969
       249   09 Jun 2027 08:49:08.894   09 Jun 2027 08:49:15.908             7.014          1293.875
       250   09 Jun 2027 08:49:43.242   09 Jun 2027 08:49:44.975             1.733           761.125
       251   09 Jun 2027 10:19:09.239   09 Jun 2027 10:19:21.488            12.249          4857.812
       252   09 Jun 2027 10:20:46.529   09 Jun 2027 10:20:46.899             0.370            45.469
       253   09 Jun 2027 10:22:10.977   09 Jun 2027 10:22:17.908             6.931          1988.031
       254   09 Jun 2027 10:23:25.237   09 Jun 2027 10:23:25.999             0.762           113.844
       255   09 Jun 2027 10:24:10.447   09 Jun 2027 10:24:12.040             1.593           496.125
       256   09 Jun 2027 10:24:29.741   09 Jun 2027 10:24:30.407             0.666            33.313
       257   09 Jun 2027 10:25:05.859   09 Jun 2027 10:25:07.635             1.776           536.594
       258   09 Jun 2027 10:25:33.608   09 Jun 2027 10:25:33.865             0.257            44.969
       259   09 Jun 2027 10:25:39.469   09 Jun 2027 10:25:40.150             0.681           175.125
       260   09 Jun 2027 11:55:53.765   09 Jun 2027 11:56:05.326            11.561          5405.219
       261   09 Jun 2027 11:56:25.595   09 Jun 2027 11:56:29.380             3.785           633.406
       262   09 Jun 2027 11:59:00.026   09 Jun 2027 11:59:05.140             5.114          1317.844
       263   09 Jun 2027 11:59:53.690   09 Jun 2027 11:59:57.877             4.187          1166.562
       264   10 Jun 2027 04:20:24.500   10 Jun 2027 04:21:41.463            76.963         38481.500
       265   10 Jun 2027 04:22:26.856   10 Jun 2027 04:23:01.961            35.105         17552.500
       266   10 Jun 2027 04:23:20.422   10 Jun 2027 04:23:54.696            34.274         17137.000
       267   10 Jun 2027 05:44:21.016   10 Jun 2027 05:44:52.439            31.423         15711.500
       268   10 Jun 2027 07:20:18.587   10 Jun 2027 07:22:42.225           143.638         71083.157
       269   10 Jun 2027 07:23:11.261   10 Jun 2027 07:23:13.155             1.894           713.906
       270   10 Jun 2027 08:54:06.972   10 Jun 2027 08:54:15.697             8.725          4126.531
       271   10 Jun 2027 08:55:36.101   10 Jun 2027 08:55:38.005             1.904           451.719
       272   10 Jun 2027 08:56:39.669   10 Jun 2027 08:56:41.401             1.732           538.500
       273   10 Jun 2027 08:57:52.392   10 Jun 2027 08:57:54.714             2.322          1041.875
       274   10 Jun 2027 08:59:51.463   10 Jun 2027 08:59:57.354             5.891          1507.219
       275   10 Jun 2027 09:00:41.333   10 Jun 2027 09:00:47.649             6.316          1172.406
       276   10 Jun 2027 09:01:10.448   10 Jun 2027 09:01:10.448             0.000             0.000
       277   10 Jun 2027 09:01:54.979   10 Jun 2027 09:01:59.199             4.220          2054.125
       278   10 Jun 2027 10:31:16.510   10 Jun 2027 10:31:33.351            16.841          5868.406
       279   10 Jun 2027 10:33:05.874   10 Jun 2027 10:33:09.146             3.272          1407.375
       280   10 Jun 2027 10:33:54.047   10 Jun 2027 10:33:56.672             2.625          1233.031
       281   10 Jun 2027 10:36:28.727   10 Jun 2027 10:36:33.411             4.684          2072.812
       282   10 Jun 2027 10:36:35.103   10 Jun 2027 10:36:35.548             0.445            52.875
       283   10 Jun 2027 10:37:23.983   10 Jun 2027 10:37:30.153             6.170          1474.656
       284   10 Jun 2027 10:37:52.184   10 Jun 2027 10:37:53.187             1.003           479.688
       285   10 Jun 2027 10:38:02.318   10 Jun 2027 10:38:04.297             1.979           285.344
       286   11 Jun 2027 03:00:00.000   11 Jun 2027 03:00:15.078            15.078          7539.000
       287   11 Jun 2027 03:00:28.870   11 Jun 2027 03:00:35.140             6.270          3135.000
       288   11 Jun 2027 03:00:36.487   11 Jun 2027 03:00:43.319             6.832          3416.000
       289   11 Jun 2027 04:32:51.622   11 Jun 2027 04:33:41.144            49.522         24761.000
       290   11 Jun 2027 04:34:46.450   11 Jun 2027 04:36:10.519            84.069         42034.500
       291   11 Jun 2027 04:36:43.420   11 Jun 2027 04:36:59.718            16.298          8149.000
       292   11 Jun 2027 05:56:13.688   11 Jun 2027 05:57:06.827            53.139         26569.500
       293   11 Jun 2027 05:57:51.938   11 Jun 2027 05:57:51.938             0.000             0.000
       294   11 Jun 2027 07:32:36.019   11 Jun 2027 07:34:14.873            98.854         48388.625
       295   11 Jun 2027 07:34:28.100   11 Jun 2027 07:34:31.703             3.603           248.219
       296   11 Jun 2027 07:35:28.437   11 Jun 2027 07:35:32.595             4.158          1765.094
       297   11 Jun 2027 09:06:28.968   11 Jun 2027 09:06:34.897             5.929          2896.188
       298   11 Jun 2027 09:08:33.763   11 Jun 2027 09:08:37.607             3.844           799.781
       299   11 Jun 2027 09:09:12.560   11 Jun 2027 09:09:15.499             2.939          1000.063
       300   11 Jun 2027 09:09:58.335   11 Jun 2027 09:10:01.051             2.716          1162.656
       301   11 Jun 2027 09:12:09.178   11 Jun 2027 09:12:16.773             7.595          2875.250
       302   11 Jun 2027 09:13:14.771   11 Jun 2027 09:13:21.165             6.394            98.750
       303   11 Jun 2027 09:14:07.558   11 Jun 2027 09:14:13.171             5.613          1253.500
       304   11 Jun 2027 09:14:35.438   11 Jun 2027 09:14:37.929             2.491           427.844
       305   11 Jun 2027 10:43:42.978   11 Jun 2027 10:43:53.416            10.438          4971.875
       306   11 Jun 2027 10:47:22.734   11 Jun 2027 10:47:24.654             1.920           872.906
       307   11 Jun 2027 10:47:44.781   11 Jun 2027 10:47:45.537             0.756            75.438
       308   11 Jun 2027 10:49:11.268   11 Jun 2027 10:49:23.241            11.973          1924.187
       309   11 Jun 2027 10:49:47.386   11 Jun 2027 10:49:49.385             1.999           628.781
       310   11 Jun 2027 10:50:01.840   11 Jun 2027 10:50:03.735             1.895           350.375
       311   12 Jun 2027 03:06:28.769   12 Jun 2027 03:06:31.894             3.125          1562.500
       312   12 Jun 2027 03:06:57.038   12 Jun 2027 03:07:34.769            37.731         18865.500
       313   12 Jun 2027 03:07:41.147   12 Jun 2027 03:07:42.710             1.563           781.500
       314   12 Jun 2027 03:07:47.953   12 Jun 2027 03:08:05.736            17.783          8891.500
       315   12 Jun 2027 03:09:51.090   12 Jun 2027 03:09:51.090             0.000             0.000
       316   12 Jun 2027 03:09:57.550   12 Jun 2027 03:09:58.178             0.628           314.000
       317   12 Jun 2027 03:10:10.707   12 Jun 2027 03:10:34.296            23.589         11794.500
       318   12 Jun 2027 03:11:53.304   12 Jun 2027 03:11:53.304             0.000             0.000
       319   12 Jun 2027 03:12:14.563   12 Jun 2027 03:12:17.414             2.851          1425.500
       320   12 Jun 2027 04:45:08.929   12 Jun 2027 04:48:38.926           209.997        104338.969
       321   12 Jun 2027 06:08:02.983   12 Jun 2027 06:08:18.882            15.899          7949.500
       322   12 Jun 2027 07:44:39.498   12 Jun 2027 07:44:56.287            16.789          5863.188
       323   12 Jun 2027 07:45:20.114   12 Jun 2027 07:45:21.296             1.182           408.219
       324   12 Jun 2027 07:45:45.150   12 Jun 2027 07:45:45.560             0.410           205.000
       325   12 Jun 2027 07:46:28.546   12 Jun 2027 07:46:34.195             5.649          1761.344
       326   12 Jun 2027 07:47:28.024   12 Jun 2027 07:47:30.819             2.795          1387.125
       327   12 Jun 2027 09:19:46.732   12 Jun 2027 09:19:54.852             8.120          3644.719
       328   12 Jun 2027 09:20:45.429   12 Jun 2027 09:20:50.882             5.453           613.219
       329   12 Jun 2027 09:21:22.896   12 Jun 2027 09:21:24.323             1.427           676.719
       330   12 Jun 2027 09:22:43.937   12 Jun 2027 09:22:48.100             4.163          1154.938
       331   12 Jun 2027 09:23:35.313   12 Jun 2027 09:23:40.485             5.172          1105.750
       332   12 Jun 2027 09:23:40.764   12 Jun 2027 09:23:42.149             1.385             6.344
       333   12 Jun 2027 09:25:12.329   12 Jun 2027 09:25:18.567             6.238          2732.281
       334   12 Jun 2027 09:25:48.213   12 Jun 2027 09:25:49.229             1.016           116.656
       335   12 Jun 2027 09:26:23.172   12 Jun 2027 09:26:23.172             0.000             0.000
       336   12 Jun 2027 09:26:31.030   12 Jun 2027 09:26:34.836             3.806           250.156
       337   12 Jun 2027 10:56:07.202   12 Jun 2027 10:56:20.488            13.286          6229.562
       338   12 Jun 2027 10:58:01.218   12 Jun 2027 10:58:03.756             2.538           573.562
       339   12 Jun 2027 10:59:00.116   12 Jun 2027 10:59:05.344             5.228          1019.187
       340   12 Jun 2027 11:00:23.020   12 Jun 2027 11:00:26.958             3.938          1771.281
       341   12 Jun 2027 11:00:32.872   12 Jun 2027 11:00:33.869             0.997            31.844
       342   12 Jun 2027 11:00:59.364   12 Jun 2027 11:01:00.853             1.489           676.750
       343   12 Jun 2027 11:01:48.295   12 Jun 2027 11:01:50.602             2.307           655.344
       344   12 Jun 2027 11:02:13.169   12 Jun 2027 11:02:15.431             2.262           705.219
       345   13 Jun 2027 03:18:36.702   13 Jun 2027 03:19:38.288            61.586         30793.000
       346   13 Jun 2027 03:19:45.113   13 Jun 2027 03:21:12.894            87.781         43890.500
       347   13 Jun 2027 03:23:42.945   13 Jun 2027 03:23:47.435             4.490          2245.000
       348   13 Jun 2027 03:24:06.755   13 Jun 2027 03:24:09.605             2.850          1425.000
       349   13 Jun 2027 04:56:54.418   13 Jun 2027 04:57:28.251            33.833         16916.500
       350   13 Jun 2027 04:57:42.969   13 Jun 2027 04:59:34.657           111.688         55070.188
       351   13 Jun 2027 05:00:17.666   13 Jun 2027 05:00:21.478             3.812          1111.313
       352   13 Jun 2027 06:20:16.323   13 Jun 2027 06:20:28.993            12.670          5040.906
       353   13 Jun 2027 06:21:31.068   13 Jun 2027 06:21:37.031             5.963          1939.844
       354   13 Jun 2027 06:22:59.868   13 Jun 2027 06:23:06.597             6.729          2413.719
       355   13 Jun 2027 07:56:50.658   13 Jun 2027 07:56:57.500             6.842          2332.438
       356   13 Jun 2027 07:57:47.126   13 Jun 2027 07:57:52.377             5.251          1484.906
       357   13 Jun 2027 07:58:57.702   13 Jun 2027 07:59:02.445             4.743          1672.844
       358   13 Jun 2027 07:59:49.763   13 Jun 2027 07:59:49.763             0.000             0.000
       359   13 Jun 2027 09:32:00.052   13 Jun 2027 09:32:08.472             8.420          2770.250
       360   13 Jun 2027 09:33:24.293   13 Jun 2027 09:33:29.012             4.719          2162.781
       361   13 Jun 2027 09:34:18.453   13 Jun 2027 09:34:26.323             7.870          1545.031
       362   13 Jun 2027 09:35:11.325   13 Jun 2027 09:35:14.834             3.509           454.063
       363   13 Jun 2027 09:37:12.521   13 Jun 2027 09:37:28.702            16.181          2728.406
       364   13 Jun 2027 09:38:24.281   13 Jun 2027 09:38:25.995             1.714           166.063
       365   13 Jun 2027 09:38:35.242   13 Jun 2027 09:38:36.183             0.941           288.969
       366   13 Jun 2027 11:08:21.385   13 Jun 2027 11:08:32.373            10.988          4950.938
       367   13 Jun 2027 11:10:23.460   13 Jun 2027 11:10:25.008             1.548           389.531
       368   13 Jun 2027 11:10:59.852   13 Jun 2027 11:11:05.391             5.539           298.062
       369   13 Jun 2027 11:12:03.756   13 Jun 2027 11:12:07.224             3.468          1360.875
       370   13 Jun 2027 11:12:20.866   13 Jun 2027 11:12:26.237             5.371           426.312
       371   13 Jun 2027 11:12:36.581   13 Jun 2027 11:12:39.835             3.254           159.406
       372   13 Jun 2027 11:13:23.906   13 Jun 2027 11:13:26.561             2.655           890.344
       373   13 Jun 2027 11:13:48.021   13 Jun 2027 11:13:50.216             2.195           659.375
       374   13 Jun 2027 11:13:58.784   13 Jun 2027 11:14:01.023             2.239           267.750
       375   13 Jun 2027 11:14:13.810   13 Jun 2027 11:14:18.546             4.736           310.844
