uniorb/output/strategy_4/Camera/Camera_KinoSat_110604.txt

KinoSat_110604
-------------------------
    Access    *     Start Time (UTCG)     *     Stop Time (UTCG)  *   Duration (s) *   Data (Mbytes)
         1   01 Jun 2027 03:53:42.974   01 Jun 2027 03:55:41.456           118.482         59241.000
         2   01 Jun 2027 05:28:47.635   01 Jun 2027 05:30:45.352           117.717         58858.500
         3   01 Jun 2027 05:30:54.886   01 Jun 2027 05:31:14.728            19.842          9921.000
         4   01 Jun 2027 05:34:46.938   01 Jun 2027 05:35:00.801            13.863          6931.500
         5   01 Jun 2027 05:35:34.365   01 Jun 2027 05:35:40.218             5.853          2926.500
         6   01 Jun 2027 07:04:52.981   01 Jun 2027 07:06:17.479            84.498         42249.000
         7   01 Jun 2027 07:07:21.406   01 Jun 2027 07:08:12.849            51.443         25721.500
         8   01 Jun 2027 07:08:24.031   01 Jun 2027 07:08:27.017             2.986          1493.000
         9   01 Jun 2027 07:10:28.778   01 Jun 2027 07:10:28.778             0.000             0.000
        10   01 Jun 2027 07:10:50.011   01 Jun 2027 07:11:12.544            22.533         11266.500
        11   01 Jun 2027 08:42:51.116   01 Jun 2027 08:45:14.006           142.890         71445.000
        12   01 Jun 2027 08:45:23.057   01 Jun 2027 08:45:55.440            32.383         16191.500
        13   01 Jun 2027 08:46:04.472   01 Jun 2027 08:46:09.581             5.109          2554.500
        14   01 Jun 2027 10:18:42.374   01 Jun 2027 10:20:59.696           137.322         68661.000
        15   01 Jun 2027 10:23:02.776   01 Jun 2027 10:23:11.436             8.660          4330.000
        16   01 Jun 2027 10:23:53.291   01 Jun 2027 10:23:56.888             3.597          1798.500
        17   02 Jun 2027 04:05:27.627   02 Jun 2027 04:05:59.441            31.814         15907.000
        18   02 Jun 2027 04:07:45.195   02 Jun 2027 04:07:49.732             4.537          2268.500
        19   02 Jun 2027 05:40:13.340   02 Jun 2027 05:43:10.301           176.961         88480.500
        20   02 Jun 2027 05:44:59.216   02 Jun 2027 05:45:42.986            43.770         21885.000
        21   02 Jun 2027 05:47:05.065   02 Jun 2027 05:47:07.538             2.473          1236.500
        22   02 Jun 2027 05:47:41.882   02 Jun 2027 05:47:46.103             4.221          2110.500
        23   02 Jun 2027 07:17:02.798   02 Jun 2027 07:19:26.276           143.478         71739.000
        24   02 Jun 2027 07:20:39.119   02 Jun 2027 07:20:50.753            11.634          5817.000
        25   02 Jun 2027 07:21:33.220   02 Jun 2027 07:22:50.560            77.340         38670.000
        26   02 Jun 2027 08:55:13.297   02 Jun 2027 08:58:55.104           221.807        110705.689
        27   02 Jun 2027 10:28:30.915   02 Jun 2027 10:28:53.663            22.748          8666.406
        28   02 Jun 2027 10:32:26.420   02 Jun 2027 10:32:30.860             4.440           795.906
        29   02 Jun 2027 10:35:34.969   02 Jun 2027 10:35:35.588             0.619           248.469
        30   03 Jun 2027 04:15:15.656   03 Jun 2027 04:15:53.883            38.227         19113.500
        31   03 Jun 2027 04:15:57.420   03 Jun 2027 04:16:08.084            10.664          5332.000
        32   03 Jun 2027 04:18:13.164   03 Jun 2027 04:18:36.532            23.368         11684.000
        33   03 Jun 2027 04:23:07.056   03 Jun 2027 04:23:09.581             2.525          1262.500
        34   03 Jun 2027 05:52:20.266   03 Jun 2027 05:55:57.184           216.918        108459.000
        35   03 Jun 2027 05:59:06.697   03 Jun 2027 05:59:33.046            26.349         13174.500
        36   03 Jun 2027 05:59:45.966   03 Jun 2027 05:59:46.465             0.499           249.500
        37   03 Jun 2027 07:29:18.368   03 Jun 2027 07:29:47.781            29.413         14667.531
        38   03 Jun 2027 07:32:43.369   03 Jun 2027 07:32:49.010             5.641          2402.937
        39   03 Jun 2027 07:33:34.719   03 Jun 2027 07:33:39.710             4.991           940.187
        40   03 Jun 2027 07:34:05.639   03 Jun 2027 07:34:07.554             1.915           810.281
        41   03 Jun 2027 07:35:23.865   03 Jun 2027 07:35:26.871             3.006           687.312
        42   03 Jun 2027 09:07:14.648   03 Jun 2027 09:07:27.580            12.932          5213.969
        43   03 Jun 2027 09:09:25.623   03 Jun 2027 09:09:29.851             4.228          1023.531
        44   03 Jun 2027 10:40:36.083   03 Jun 2027 10:40:44.541             8.458          4218.562
        45   04 Jun 2027 04:26:43.509   04 Jun 2027 04:28:32.713           109.204         54602.000
        46   04 Jun 2027 04:28:37.782   04 Jun 2027 04:28:58.389            20.607         10303.500
        47   04 Jun 2027 04:32:45.968   04 Jun 2027 04:33:05.878            19.910          9955.000
        48   04 Jun 2027 04:33:49.158   04 Jun 2027 04:34:15.646            26.488         13244.000
        49   04 Jun 2027 04:35:01.337   04 Jun 2027 04:35:06.312             4.975          2487.500
        50   04 Jun 2027 06:04:22.301   04 Jun 2027 06:06:12.883           110.582         55291.000
        51   04 Jun 2027 06:06:37.911   04 Jun 2027 06:07:22.773            44.862         22431.000
        52   04 Jun 2027 06:08:15.211   04 Jun 2027 06:08:26.805            11.594          5012.500
        53   04 Jun 2027 06:08:50.627   04 Jun 2027 06:08:53.138             2.511           614.219
        54   04 Jun 2027 06:10:05.999   04 Jun 2027 06:10:10.666             4.667          2276.906
        55   04 Jun 2027 06:11:20.244   04 Jun 2027 06:11:24.601             4.357          1839.125
        56   04 Jun 2027 07:41:08.997   04 Jun 2027 07:41:15.777             6.780          1629.844
        57   04 Jun 2027 07:44:51.105   04 Jun 2027 07:44:58.220             7.115          1363.094
        58   04 Jun 2027 07:46:01.585   04 Jun 2027 07:46:05.130             3.545          1772.500
        59   04 Jun 2027 07:47:24.553   04 Jun 2027 07:47:29.038             4.485          2130.625
        60   04 Jun 2027 09:19:11.815   04 Jun 2027 09:19:19.024             7.209          3167.812
        61   04 Jun 2027 09:21:34.672   04 Jun 2027 09:21:36.509             1.837           435.156
        62   04 Jun 2027 10:53:02.392   04 Jun 2027 10:53:05.315             2.923          1000.531
        63   05 Jun 2027 03:03:24.572   05 Jun 2027 03:03:35.903            11.331          5665.500
        64   05 Jun 2027 03:07:12.249   05 Jun 2027 03:07:21.988             9.739          4869.500
        65   05 Jun 2027 04:38:17.275   05 Jun 2027 04:41:06.757           169.482         84741.000
        66   05 Jun 2027 04:41:36.691   05 Jun 2027 04:41:49.297            12.606          6303.000
        67   05 Jun 2027 04:42:28.284   05 Jun 2027 04:42:28.571             0.287           143.500
        68   05 Jun 2027 04:46:52.583   05 Jun 2027 04:47:25.751            33.168         16584.000
        69   05 Jun 2027 06:16:24.087   05 Jun 2027 06:17:44.856            80.769         39960.844
        70   05 Jun 2027 06:18:48.539   05 Jun 2027 06:18:53.055             4.516          1628.125
        71   05 Jun 2027 06:18:55.159   05 Jun 2027 06:18:55.159             0.000             0.000
        72   05 Jun 2027 06:19:01.809   05 Jun 2027 06:19:03.414             1.605           273.562
        73   05 Jun 2027 06:19:33.331   05 Jun 2027 06:19:33.331             0.000             0.000
        74   05 Jun 2027 06:20:02.154   05 Jun 2027 06:20:05.958             3.804          1708.344
        75   05 Jun 2027 06:20:55.569   05 Jun 2027 06:20:56.163             0.594           111.344
        76   05 Jun 2027 06:21:26.761   05 Jun 2027 06:21:30.938             4.177           927.938
        77   05 Jun 2027 06:21:55.561   05 Jun 2027 06:21:57.729             2.168           553.187
        78   05 Jun 2027 07:53:19.083   05 Jun 2027 07:53:26.940             7.857          1249.437
        79   05 Jun 2027 07:53:40.690   05 Jun 2027 07:53:43.870             3.180           170.344
        80   05 Jun 2027 07:56:08.067   05 Jun 2027 07:56:10.359             2.292           891.313
        81   05 Jun 2027 07:57:01.234   05 Jun 2027 07:57:05.318             4.084           983.844
        82   05 Jun 2027 07:57:42.173   05 Jun 2027 07:57:44.785             2.612           694.750
        83   05 Jun 2027 07:58:19.329   05 Jun 2027 07:58:21.763             2.434           922.156
        84   05 Jun 2027 09:30:26.560   05 Jun 2027 09:30:37.578            11.018          3128.875
        85   05 Jun 2027 09:30:59.847   05 Jun 2027 09:31:01.672             1.825           385.000
        86   05 Jun 2027 09:31:06.754   05 Jun 2027 09:31:08.019             1.265           130.906
        87   05 Jun 2027 11:05:20.229   05 Jun 2027 11:05:23.993             3.764           697.063
        88   06 Jun 2027 03:17:46.198   06 Jun 2027 03:18:13.501            27.303         13651.500
        89   06 Jun 2027 03:18:48.578   06 Jun 2027 03:18:48.578             0.000             0.000
        90   06 Jun 2027 03:19:07.118   06 Jun 2027 03:19:09.541             2.423          1211.500
        91   06 Jun 2027 04:51:18.552   06 Jun 2027 04:53:40.441           141.889         70944.500
        92   06 Jun 2027 04:56:03.288   06 Jun 2027 04:57:04.641            61.353         30676.500
        93   06 Jun 2027 04:58:16.635   06 Jun 2027 04:58:26.378             9.743          4871.500
        94   06 Jun 2027 04:59:32.007   06 Jun 2027 04:59:47.446            15.439          7719.500
        95   06 Jun 2027 04:59:50.051   06 Jun 2027 04:59:51.636             1.585           792.500
        96   06 Jun 2027 06:28:51.163   06 Jun 2027 06:29:45.072            53.909         26543.094
        97   06 Jun 2027 06:31:10.732   06 Jun 2027 06:31:11.654             0.922           461.000
        98   06 Jun 2027 06:31:42.421   06 Jun 2027 06:31:45.919             3.498          1144.844
        99   06 Jun 2027 08:05:45.829   06 Jun 2027 08:05:50.872             5.043          2208.188
       100   06 Jun 2027 08:08:46.353   06 Jun 2027 08:08:50.344             3.991           176.531
       101   06 Jun 2027 08:09:47.453   06 Jun 2027 08:09:53.774             6.321          1747.125
       102   06 Jun 2027 08:11:13.616   06 Jun 2027 08:11:16.783             3.167          1524.625
       103   06 Jun 2027 08:11:33.540   06 Jun 2027 08:11:36.284             2.744             8.031
       104   06 Jun 2027 09:42:40.100   06 Jun 2027 09:42:52.387            12.287          3244.875
       105   06 Jun 2027 11:19:49.695   06 Jun 2027 11:19:52.390             2.695            15.719
       106   07 Jun 2027 03:30:07.672   07 Jun 2027 03:30:21.131            13.459          6729.500
       107   07 Jun 2027 05:01:58.119   07 Jun 2027 05:02:08.656            10.537          5268.500
       108   07 Jun 2027 05:03:57.197   07 Jun 2027 05:04:59.336            62.139         31069.500
       109   07 Jun 2027 05:05:15.483   07 Jun 2027 05:05:40.407            24.924         12462.000
       110   07 Jun 2027 05:06:21.512   07 Jun 2027 05:06:58.244            36.732         18366.000
       111   07 Jun 2027 05:08:35.025   07 Jun 2027 05:10:03.489            88.464         44232.000
       112   07 Jun 2027 05:11:19.207   07 Jun 2027 05:11:20.078             0.871           435.500
       113   07 Jun 2027 05:11:28.137   07 Jun 2027 05:11:45.855            17.718          8859.000
       114   07 Jun 2027 06:40:55.647   07 Jun 2027 06:41:49.212            53.565         25466.281
       115   07 Jun 2027 08:18:26.724   07 Jun 2027 08:18:30.502             3.778          1774.125
       116   07 Jun 2027 08:20:03.991   07 Jun 2027 08:20:05.708             1.717           281.469
       117   07 Jun 2027 08:20:36.825   07 Jun 2027 08:20:37.889             1.064           509.281
       118   07 Jun 2027 08:21:00.935   07 Jun 2027 08:21:03.709             2.774           610.531
       119   07 Jun 2027 08:21:58.598   07 Jun 2027 08:22:04.640             6.042          1643.812
       120   07 Jun 2027 09:54:45.044   07 Jun 2027 09:54:54.822             9.778          4484.750
       121   07 Jun 2027 09:56:14.732   07 Jun 2027 09:56:15.679             0.947            34.250
       122   07 Jun 2027 09:56:53.791   07 Jun 2027 09:56:57.493             3.702          1153.594
       123   07 Jun 2027 11:32:59.395   07 Jun 2027 11:33:01.403             2.008            47.594
       124   08 Jun 2027 03:42:00.195   08 Jun 2027 03:42:09.787             9.592          4796.000
       125   08 Jun 2027 03:43:27.861   08 Jun 2027 03:43:52.428            24.567         12283.500
       126   08 Jun 2027 05:17:11.179   08 Jun 2027 05:18:20.870            69.691         34845.500
       127   08 Jun 2027 05:18:42.391   08 Jun 2027 05:19:08.577            26.186         13093.000
       128   08 Jun 2027 05:20:03.013   08 Jun 2027 05:20:58.827            55.814         27907.000
       129   08 Jun 2027 05:21:43.796   08 Jun 2027 05:22:53.106            69.310         34655.000
       130   08 Jun 2027 05:23:39.051   08 Jun 2027 05:23:48.163             9.112          4556.000
       131   08 Jun 2027 06:53:30.160   08 Jun 2027 06:54:29.645            59.485         29531.000
       132   08 Jun 2027 06:56:08.506   08 Jun 2027 06:56:10.104             1.598           422.687
       133   08 Jun 2027 06:58:41.975   08 Jun 2027 06:58:43.303             1.328           544.219
       134   08 Jun 2027 06:59:43.188   08 Jun 2027 06:59:45.693             2.505            10.563
       135   08 Jun 2027 08:30:53.043   08 Jun 2027 08:30:59.509             6.466          1320.563
       136   08 Jun 2027 08:32:00.821   08 Jun 2027 08:32:02.290             1.469           573.938
       137   08 Jun 2027 08:33:04.424   08 Jun 2027 08:33:10.586             6.162          1671.031
       138   08 Jun 2027 08:33:26.278   08 Jun 2027 08:33:27.329             1.051           451.062
       139   08 Jun 2027 10:07:02.406   08 Jun 2027 10:07:14.958            12.552          5825.344
       140   08 Jun 2027 10:09:08.806   08 Jun 2027 10:09:13.610             4.804           445.781
       141   09 Jun 2027 03:53:57.350   09 Jun 2027 03:54:27.607            30.257         15128.500
       142   09 Jun 2027 03:56:54.560   09 Jun 2027 03:57:05.467            10.907          5453.500
       143   09 Jun 2027 05:29:01.616   09 Jun 2027 05:31:38.713           157.097         78548.500
       144   09 Jun 2027 05:32:04.699   09 Jun 2027 05:32:43.403            38.704         19352.000
       145   09 Jun 2027 05:33:01.020   09 Jun 2027 05:33:05.139             4.119          2059.500
       146   09 Jun 2027 05:35:30.692   09 Jun 2027 05:35:55.031            24.339         12169.500
       147   09 Jun 2027 07:05:07.250   09 Jun 2027 07:06:02.797            55.547         27373.313
       148   09 Jun 2027 07:06:32.038   09 Jun 2027 07:06:32.669             0.631           150.875
       149   09 Jun 2027 07:06:42.131   09 Jun 2027 07:06:46.684             4.553           295.687
       150   09 Jun 2027 07:07:39.926   09 Jun 2027 07:07:41.153             1.227           138.094
       151   09 Jun 2027 07:09:55.764   09 Jun 2027 07:10:02.987             7.223          2079.656
       152   09 Jun 2027 07:10:30.224   09 Jun 2027 07:10:33.641             3.417           842.500
       153   09 Jun 2027 08:43:05.799   09 Jun 2027 08:43:17.451            11.652          4440.906
       154   09 Jun 2027 08:43:56.323   09 Jun 2027 08:43:56.812             0.489           189.281
       155   09 Jun 2027 08:44:51.186   09 Jun 2027 08:44:52.179             0.993           293.906
       156   09 Jun 2027 08:45:10.183   09 Jun 2027 08:45:13.768             3.585           388.750
       157   09 Jun 2027 08:45:37.273   09 Jun 2027 08:45:40.138             2.865           654.000
       158   09 Jun 2027 08:46:24.660   09 Jun 2027 08:46:27.502             2.842           390.031
       159   09 Jun 2027 08:46:29.072   09 Jun 2027 08:46:31.862             2.790            49.063
       160   09 Jun 2027 08:47:15.886   09 Jun 2027 08:47:19.453             3.567          1308.188
       161   09 Jun 2027 10:18:56.863   09 Jun 2027 10:19:12.273            15.410          6390.031
       162   09 Jun 2027 10:21:17.583   09 Jun 2027 10:21:20.055             2.472           690.000
       163   10 Jun 2027 04:05:42.084   10 Jun 2027 04:06:04.874            22.790         11395.000
       164   10 Jun 2027 04:06:53.763   10 Jun 2027 04:06:55.189             1.426           713.000
       165   10 Jun 2027 04:08:56.957   10 Jun 2027 04:09:17.880            20.923         10461.500
       166   10 Jun 2027 05:40:27.994   10 Jun 2027 05:43:32.479           184.485         92242.500
       167   10 Jun 2027 05:43:37.282   10 Jun 2027 05:43:54.425            17.143          8571.500
       168   10 Jun 2027 05:47:56.586   10 Jun 2027 05:48:00.778             4.192          2096.000
       169   10 Jun 2027 07:17:17.571   10 Jun 2027 07:18:41.289            83.718         39928.968
       170   10 Jun 2027 07:21:03.421   10 Jun 2027 07:21:11.961             8.540          2575.562
       171   10 Jun 2027 07:21:51.705   10 Jun 2027 07:21:53.890             2.185           755.063
       172   10 Jun 2027 07:22:14.893   10 Jun 2027 07:22:19.305             4.412            60.094
       173   10 Jun 2027 08:55:27.962   10 Jun 2027 08:55:39.232            11.270          5628.031
       174   10 Jun 2027 08:57:08.176   10 Jun 2027 08:57:14.695             6.519          2216.469
       175   10 Jun 2027 08:58:07.595   10 Jun 2027 08:58:09.862             2.267          1109.469
       176   10 Jun 2027 08:58:27.721   10 Jun 2027 08:58:32.776             5.055            62.062
       177   10 Jun 2027 10:28:45.301   10 Jun 2027 10:28:56.538            11.237          5190.250
       178   11 Jun 2027 04:15:30.071   11 Jun 2027 04:16:14.814            44.743         22371.500
       179   11 Jun 2027 04:17:38.627   11 Jun 2027 04:18:02.709            24.082         12041.000
       180   11 Jun 2027 04:19:41.321   11 Jun 2027 04:19:58.181            16.860          8430.000
       181   11 Jun 2027 04:23:21.234   11 Jun 2027 04:23:24.411             3.177          1588.500
       182   11 Jun 2027 05:52:34.809   11 Jun 2027 05:55:31.798           176.989         88494.500
       183   11 Jun 2027 05:56:12.503   11 Jun 2027 05:57:03.236            50.733         25366.500
       184   11 Jun 2027 06:00:00.659   11 Jun 2027 06:00:01.202             0.543           271.500
       185   11 Jun 2027 07:29:32.948   11 Jun 2027 07:30:02.579            29.631         14557.625
       186   11 Jun 2027 07:32:54.847   11 Jun 2027 07:32:58.081             3.234           534.344
       187   11 Jun 2027 07:33:02.763   11 Jun 2027 07:33:04.616             1.853           134.562
       188   11 Jun 2027 07:33:49.542   11 Jun 2027 07:33:51.908             2.366           938.563
       189   11 Jun 2027 07:34:21.349   11 Jun 2027 07:34:26.996             5.647           853.250
       190   11 Jun 2027 07:35:40.599   11 Jun 2027 07:35:41.500             0.901           450.500
       191   11 Jun 2027 09:07:29.224   11 Jun 2027 09:07:42.080            12.856          5937.844
       192   11 Jun 2027 09:10:30.285   11 Jun 2027 09:10:33.883             3.598          1247.937
       193   11 Jun 2027 10:40:50.875   11 Jun 2027 10:40:59.339             8.464          4080.094
       194   12 Jun 2027 04:26:57.688   12 Jun 2027 04:28:46.910           109.222         54611.000
       195   12 Jun 2027 04:29:15.167   12 Jun 2027 04:29:19.672             4.505          2252.500
       196   12 Jun 2027 04:30:48.264   12 Jun 2027 04:31:05.238            16.974          8487.000
       197   12 Jun 2027 04:33:02.432   12 Jun 2027 04:33:11.538             9.106          4553.000
       198   12 Jun 2027 04:33:50.165   12 Jun 2027 04:33:58.014             7.849          3924.500
       199   12 Jun 2027 04:35:08.589   12 Jun 2027 04:35:21.776            13.187          6593.500
       200   12 Jun 2027 06:04:36.861   12 Jun 2027 06:07:34.901           178.040         89020.000
       201   12 Jun 2027 06:09:09.189   12 Jun 2027 06:09:09.189             0.000             0.000
       202   12 Jun 2027 06:10:21.122   12 Jun 2027 06:10:34.277            13.155          6577.500
       203   12 Jun 2027 07:41:23.783   12 Jun 2027 07:41:33.405             9.622          4572.438
       204   12 Jun 2027 07:43:06.037   12 Jun 2027 07:43:08.147             2.110           523.594
       205   12 Jun 2027 07:44:57.885   12 Jun 2027 07:45:01.115             3.230           519.250
       206   12 Jun 2027 07:45:24.242   12 Jun 2027 07:45:30.243             6.001           697.063
       207   12 Jun 2027 07:46:25.662   12 Jun 2027 07:46:28.546             2.884          1097.469
       208   12 Jun 2027 07:47:43.603   12 Jun 2027 07:47:48.432             4.829          2342.687
       209   12 Jun 2027 09:19:26.237   12 Jun 2027 09:19:35.086             8.849          3661.219
       210   12 Jun 2027 09:22:18.584   12 Jun 2027 09:22:20.923             2.339           848.437
       211   12 Jun 2027 10:53:17.132   12 Jun 2027 10:53:19.535             2.403          1019.219
       212   13 Jun 2027 03:03:39.595   13 Jun 2027 03:03:50.795            11.200          5600.000
       213   13 Jun 2027 03:07:02.174   13 Jun 2027 03:07:13.021            10.847          5423.500
       214   13 Jun 2027 03:07:29.681   13 Jun 2027 03:07:37.736             8.055          4027.500
       215   13 Jun 2027 04:38:31.858   13 Jun 2027 04:41:42.523           190.665         95332.500
       216   13 Jun 2027 04:47:06.866   13 Jun 2027 04:47:23.518            16.652          8326.000
       217   13 Jun 2027 04:47:38.078   13 Jun 2027 04:47:49.703            11.625          5812.500
       218   13 Jun 2027 06:16:38.958   13 Jun 2027 06:17:53.801            74.843         36996.750
       219   13 Jun 2027 06:19:04.003   13 Jun 2027 06:19:07.570             3.567          1597.594
       220   13 Jun 2027 06:19:10.911   13 Jun 2027 06:19:16.806             5.895           104.406
       221   13 Jun 2027 06:19:24.921   13 Jun 2027 06:19:24.921             0.000             0.000
       222   13 Jun 2027 06:19:49.018   13 Jun 2027 06:19:53.789             4.771          1006.625
       223   13 Jun 2027 06:21:12.166   13 Jun 2027 06:21:12.166             0.000             0.000
       224   13 Jun 2027 06:21:15.062   13 Jun 2027 06:21:15.848             0.786           115.812
       225   13 Jun 2027 06:22:09.622   13 Jun 2027 06:22:11.879             2.257           516.031
       226   13 Jun 2027 07:53:34.011   13 Jun 2027 07:53:42.363             8.352           944.719
       227   13 Jun 2027 07:55:53.157   13 Jun 2027 07:55:57.578             4.421            18.187
       228   13 Jun 2027 07:57:42.699   13 Jun 2027 07:57:47.126             4.427          1189.062
       229   13 Jun 2027 07:58:04.814   13 Jun 2027 07:58:05.605             0.791           312.875
       230   13 Jun 2027 07:58:50.148   13 Jun 2027 07:58:55.252             5.104           734.281
       231   13 Jun 2027 09:30:41.162   13 Jun 2027 09:30:53.338            12.176          3235.813
       232   13 Jun 2027 11:05:35.565   13 Jun 2027 11:05:38.501             2.936           199.125
