uniorb/output/strategy_4/Camera/Camera_KinoSat_110605.txt

KinoSat_110605
-------------------------
    Access    *     Start Time (UTCG)     *     Stop Time (UTCG)  *   Duration (s) *   Data (Mbytes)
         1   01 Jun 2027 03:44:13.088   01 Jun 2027 03:45:35.443            82.355         41177.500
         2   01 Jun 2027 03:45:56.590   01 Jun 2027 03:46:06.013             9.423          4711.500
         3   01 Jun 2027 03:46:37.435   01 Jun 2027 03:47:02.080            24.645         12322.500
         4   01 Jun 2027 05:19:22.190   01 Jun 2027 05:20:55.988            93.798         46899.000
         5   01 Jun 2027 05:21:21.081   01 Jun 2027 05:21:50.521            29.440         14720.000
         6   01 Jun 2027 05:24:59.593   01 Jun 2027 05:25:03.559             3.966          1983.000
         7   01 Jun 2027 05:25:33.401   01 Jun 2027 05:25:59.417            26.016         13008.000
         8   01 Jun 2027 06:55:45.802   01 Jun 2027 06:57:46.877           121.075         60537.500
         9   01 Jun 2027 06:58:09.054   01 Jun 2027 06:58:28.109            19.055          9527.500
        10   01 Jun 2027 06:59:07.863   01 Jun 2027 06:59:13.249             5.386          2693.000
        11   01 Jun 2027 07:01:54.020   01 Jun 2027 07:01:57.438             3.418          1709.000
        12   01 Jun 2027 08:32:59.653   01 Jun 2027 08:35:18.147           138.494         69247.000
        13   01 Jun 2027 08:35:31.268   01 Jun 2027 08:35:43.279            12.011          6005.500
        14   01 Jun 2027 08:36:07.910   01 Jun 2027 08:36:32.135            24.225         12112.500
        15   01 Jun 2027 08:37:23.911   01 Jun 2027 08:37:28.898             4.987          2493.500
        16   01 Jun 2027 10:09:18.509   01 Jun 2027 10:11:37.026           138.517         69258.500
        17   01 Jun 2027 10:12:00.738   01 Jun 2027 10:12:00.824             0.086            43.000
        18   02 Jun 2027 03:56:06.074   02 Jun 2027 03:56:33.616            27.542         13771.000
        19   02 Jun 2027 03:56:35.919   02 Jun 2027 03:56:37.104             1.185           592.500
        20   02 Jun 2027 05:31:03.674   02 Jun 2027 05:33:52.982           169.308         84654.000
        21   02 Jun 2027 05:34:16.205   02 Jun 2027 05:35:06.687            50.482         25241.000
        22   02 Jun 2027 05:37:39.659   02 Jun 2027 05:38:07.023            27.364         13682.000
        23   02 Jun 2027 07:07:17.417   02 Jun 2027 07:09:50.944           153.527         76763.500
        24   02 Jun 2027 07:12:15.115   02 Jun 2027 07:12:38.483            23.368         11684.000
        25   02 Jun 2027 08:45:37.541   02 Jun 2027 08:49:25.544           228.003        113023.907
        26   02 Jun 2027 10:20:56.970   02 Jun 2027 10:21:18.652            21.682         10358.781
        27   03 Jun 2027 04:06:28.232   03 Jun 2027 04:06:51.582            23.350         11675.000
        28   03 Jun 2027 04:07:50.863   03 Jun 2027 04:08:21.971            31.108         15554.000
        29   03 Jun 2027 05:42:36.654   03 Jun 2027 05:45:37.198           180.544         90272.000
        30   03 Jun 2027 05:49:32.915   03 Jun 2027 05:50:10.834            37.919         18959.500
        31   03 Jun 2027 07:19:39.027   03 Jun 2027 07:20:42.508            63.481         30762.906
        32   03 Jun 2027 07:21:01.474   03 Jun 2027 07:21:03.470             1.996           592.687
        33   03 Jun 2027 07:23:05.542   03 Jun 2027 07:23:14.873             9.331          2302.469
        34   03 Jun 2027 07:23:33.188   03 Jun 2027 07:23:41.305             8.117           506.969
        35   03 Jun 2027 07:24:22.274   03 Jun 2027 07:24:24.576             2.302           642.312
        36   03 Jun 2027 07:25:26.048   03 Jun 2027 07:25:31.165             5.117          1921.000
        37   03 Jun 2027 08:57:38.679   03 Jun 2027 08:57:49.342            10.663          4665.125
        38   03 Jun 2027 08:58:46.071   03 Jun 2027 08:58:47.581             1.510           374.594
        39   03 Jun 2027 08:58:53.439   03 Jun 2027 08:58:54.796             1.357           125.625
        40   03 Jun 2027 08:59:19.610   03 Jun 2027 08:59:20.876             1.266           122.344
        41   03 Jun 2027 09:00:38.718   03 Jun 2027 09:00:40.547             1.829           754.594
        42   03 Jun 2027 09:01:04.710   03 Jun 2027 09:01:06.469             1.759           755.094
        43   03 Jun 2027 10:30:50.291   03 Jun 2027 10:31:02.447            12.156          5679.031
        44   03 Jun 2027 10:35:12.424   03 Jun 2027 10:35:13.731             1.307           147.344
        45   04 Jun 2027 04:17:32.767   04 Jun 2027 04:18:27.158            54.391         27195.500
        46   04 Jun 2027 04:18:57.014   04 Jun 2027 04:19:02.167             5.153          2576.500
        47   04 Jun 2027 04:19:34.774   04 Jun 2027 04:19:49.102            14.328          7164.000
        48   04 Jun 2027 04:19:58.831   04 Jun 2027 04:20:07.302             8.471          4235.500
        49   04 Jun 2027 04:22:06.747   04 Jun 2027 04:22:10.218             3.471          1735.500
        50   04 Jun 2027 04:23:29.799   04 Jun 2027 04:23:43.036            13.237          6618.500
        51   04 Jun 2027 04:24:09.684   04 Jun 2027 04:24:12.019             2.335          1167.500
        52   04 Jun 2027 04:25:30.922   04 Jun 2027 04:25:38.542             7.620          3810.000
        53   04 Jun 2027 05:54:48.067   04 Jun 2027 05:57:35.835           167.768         83884.000
        54   04 Jun 2027 05:59:16.593   04 Jun 2027 05:59:20.912             4.319          2159.500
        55   04 Jun 2027 06:00:54.981   04 Jun 2027 06:00:59.536             4.555          2277.500
        56   04 Jun 2027 06:01:31.864   04 Jun 2027 06:01:41.811             9.947          4973.500
        57   04 Jun 2027 07:31:42.351   04 Jun 2027 07:32:36.329            53.978         26340.844
        58   04 Jun 2027 07:35:08.974   04 Jun 2027 07:35:15.958             6.984          2409.375
        59   04 Jun 2027 07:36:00.080   04 Jun 2027 07:36:05.307             5.227           820.531
        60   04 Jun 2027 07:36:39.361   04 Jun 2027 07:36:39.992             0.631           206.281
        61   04 Jun 2027 07:37:47.778   04 Jun 2027 07:37:52.378             4.600           975.875
        62   04 Jun 2027 09:09:38.477   04 Jun 2027 09:09:51.650            13.173          6325.500
        63   04 Jun 2027 09:11:53.214   04 Jun 2027 09:11:57.778             4.564          1096.594
        64   04 Jun 2027 09:12:41.192   04 Jun 2027 09:12:44.152             2.960          1356.688
        65   04 Jun 2027 10:43:11.890   04 Jun 2027 10:43:17.371             5.481          1981.375
        66   05 Jun 2027 04:29:02.053   05 Jun 2027 04:31:05.098           123.045         61522.500
        67   05 Jun 2027 04:31:24.578   05 Jun 2027 04:31:24.578             0.000             0.000
        68   05 Jun 2027 04:32:58.201   05 Jun 2027 04:33:15.572            17.371          8685.500
        69   05 Jun 2027 04:34:40.557   05 Jun 2027 04:34:50.531             9.974          4987.000
        70   05 Jun 2027 04:37:18.949   05 Jun 2027 04:37:32.075            13.126          6563.000
        71   05 Jun 2027 04:37:51.492   05 Jun 2027 04:37:59.734             8.242          4121.000
        72   05 Jun 2027 06:08:31.881   05 Jun 2027 06:11:17.523           165.642         81911.750
        73   05 Jun 2027 06:12:02.315   05 Jun 2027 06:12:07.309             4.994          1353.563
        74   05 Jun 2027 06:12:48.687   05 Jun 2027 06:12:55.693             7.006           716.031
        75   05 Jun 2027 07:43:33.733   05 Jun 2027 07:43:37.723             3.990           830.750
        76   05 Jun 2027 07:46:56.236   05 Jun 2027 07:46:58.001             1.765           256.469
        77   05 Jun 2027 07:47:27.884   05 Jun 2027 07:47:31.490             3.606           465.750
        78   05 Jun 2027 07:47:52.199   05 Jun 2027 07:47:53.845             1.646           116.469
        79   05 Jun 2027 07:48:28.126   05 Jun 2027 07:48:31.017             2.891           824.844
        80   05 Jun 2027 07:49:53.332   05 Jun 2027 07:49:59.331             5.999          2295.531
        81   05 Jun 2027 09:21:39.095   05 Jun 2027 09:21:48.119             9.024          3232.250
        82   05 Jun 2027 09:24:02.019   05 Jun 2027 09:24:03.507             1.488           574.656
        83   05 Jun 2027 10:55:30.137   05 Jun 2027 10:55:33.056             2.919          1355.656
        84   06 Jun 2027 03:05:46.146   06 Jun 2027 03:06:01.682            15.536          7768.000
        85   06 Jun 2027 03:09:47.787   06 Jun 2027 03:09:47.787             0.000             0.000
        86   06 Jun 2027 03:09:49.565   06 Jun 2027 03:10:04.195            14.630          7315.000
        87   06 Jun 2027 04:41:48.025   06 Jun 2027 04:43:45.360           117.335         58667.500
        88   06 Jun 2027 04:44:22.814   06 Jun 2027 04:44:59.894            37.080         18540.000
        89   06 Jun 2027 04:49:17.954   06 Jun 2027 04:49:24.972             7.018          3509.000
        90   06 Jun 2027 04:49:50.628   06 Jun 2027 04:50:17.643            27.015         13507.500
        91   06 Jun 2027 06:18:52.269   06 Jun 2027 06:20:32.318           100.049         49936.532
        92   06 Jun 2027 06:21:21.020   06 Jun 2027 06:21:21.020             0.000             0.000
        93   06 Jun 2027 06:21:33.884   06 Jun 2027 06:21:38.368             4.484           483.375
        94   06 Jun 2027 06:22:37.091   06 Jun 2027 06:22:40.673             3.582          1143.469
        95   06 Jun 2027 06:23:21.893   06 Jun 2027 06:23:23.306             1.413           154.813
        96   06 Jun 2027 06:23:51.908   06 Jun 2027 06:23:55.086             3.178           888.313
        97   06 Jun 2027 07:55:50.948   06 Jun 2027 07:55:55.735             4.787           663.500
        98   06 Jun 2027 07:59:46.003   06 Jun 2027 07:59:51.092             5.089           951.469
        99   06 Jun 2027 08:00:20.923   06 Jun 2027 08:00:22.211             1.288           447.625
       100   06 Jun 2027 08:00:47.064   06 Jun 2027 08:00:48.166             1.102           551.000
       101   06 Jun 2027 08:00:55.347   06 Jun 2027 08:00:55.986             0.639           225.656
       102   06 Jun 2027 09:32:52.853   06 Jun 2027 09:33:00.658             7.805          3297.406
       103   06 Jun 2027 09:35:13.809   06 Jun 2027 09:35:17.726             3.917          1525.687
       104   06 Jun 2027 11:07:56.386   06 Jun 2027 11:07:57.923             1.537           540.031
       105   07 Jun 2027 03:20:17.717   07 Jun 2027 03:20:37.930            20.213         10106.500
       106   07 Jun 2027 03:21:24.382   07 Jun 2027 03:21:29.348             4.966          2483.000
       107   07 Jun 2027 03:23:15.704   07 Jun 2027 03:23:15.704             0.000             0.000
       108   07 Jun 2027 04:53:46.085   07 Jun 2027 04:54:58.543            72.458         36229.000
       109   07 Jun 2027 04:55:13.218   07 Jun 2027 04:55:33.970            20.752         10376.000
       110   07 Jun 2027 04:56:46.807   07 Jun 2027 04:57:14.131            27.324         13662.000
       111   07 Jun 2027 04:58:34.618   07 Jun 2027 05:00:09.481            94.863         47431.500
       112   07 Jun 2027 05:01:05.824   07 Jun 2027 05:01:14.605             8.781          4390.500
       113   07 Jun 2027 05:02:07.354   07 Jun 2027 05:02:07.354             0.000             0.000
       114   07 Jun 2027 05:02:14.679   07 Jun 2027 05:02:16.897             2.218          1109.000
       115   07 Jun 2027 06:31:18.645   07 Jun 2027 06:32:23.857            65.212         31900.687
       116   07 Jun 2027 08:08:13.230   07 Jun 2027 08:08:17.641             4.411          1773.625
       117   07 Jun 2027 08:11:34.583   07 Jun 2027 08:11:36.601             2.018           873.156
       118   07 Jun 2027 08:11:52.560   07 Jun 2027 08:11:54.724             2.164           343.438
       119   07 Jun 2027 08:12:51.392   07 Jun 2027 08:12:54.120             2.728          1140.625
       120   07 Jun 2027 09:45:04.163   07 Jun 2027 09:45:13.355             9.192          3849.594
       121   07 Jun 2027 11:22:40.661   07 Jun 2027 11:22:41.069             0.408           176.688
       122   08 Jun 2027 03:32:29.656   08 Jun 2027 03:32:48.181            18.525          9262.500
       123   08 Jun 2027 03:34:10.246   08 Jun 2027 03:34:20.203             9.957          4978.500
       124   08 Jun 2027 03:35:35.306   08 Jun 2027 03:35:35.306             0.000             0.000
       125   08 Jun 2027 03:35:49.115   08 Jun 2027 03:35:51.593             2.478          1239.000
       126   08 Jun 2027 05:06:49.227   08 Jun 2027 05:07:48.707            59.480         29740.000
       127   08 Jun 2027 05:08:46.934   08 Jun 2027 05:09:05.815            18.881          9440.500
       128   08 Jun 2027 05:10:29.421   08 Jun 2027 05:11:05.874            36.453         18226.500
       129   08 Jun 2027 05:11:09.923   08 Jun 2027 05:12:24.736            74.813         37406.500
       130   08 Jun 2027 05:13:17.804   08 Jun 2027 05:13:45.101            27.297         13648.500
       131   08 Jun 2027 05:14:06.399   08 Jun 2027 05:14:12.722             6.323          3161.500
       132   08 Jun 2027 06:43:25.464   08 Jun 2027 06:44:30.896            65.432         31503.000
       133   08 Jun 2027 08:21:07.805   08 Jun 2027 08:21:11.291             3.486          1081.562
       134   08 Jun 2027 08:22:44.399   08 Jun 2027 08:22:45.992             1.593           483.937
       135   08 Jun 2027 08:23:38.989   08 Jun 2027 08:23:46.376             7.387           452.813
       136   08 Jun 2027 08:25:24.571   08 Jun 2027 08:25:28.828             4.257           311.969
       137   08 Jun 2027 09:57:06.302   08 Jun 2027 09:57:16.357            10.055          4863.625
       138   08 Jun 2027 09:58:39.808   08 Jun 2027 09:58:40.649             0.841            12.250
       139   08 Jun 2027 09:59:19.392   08 Jun 2027 09:59:23.894             4.502          1187.656
       140   08 Jun 2027 10:00:21.665   08 Jun 2027 10:00:24.651             2.986          1263.625
       141   09 Jun 2027 03:44:27.773   09 Jun 2027 03:44:50.921            23.148         11574.000
       142   09 Jun 2027 03:44:57.163   09 Jun 2027 03:45:00.714             3.551          1775.500
       143   09 Jun 2027 03:46:52.604   09 Jun 2027 03:47:18.521            25.917         12958.500
       144   09 Jun 2027 05:19:36.942   09 Jun 2027 05:20:46.086            69.144         34572.000
       145   09 Jun 2027 05:21:02.224   09 Jun 2027 05:21:10.654             8.430          4215.000
       146   09 Jun 2027 05:21:35.947   09 Jun 2027 05:22:28.557            52.610         26305.000
       147   09 Jun 2027 05:23:29.458   09 Jun 2027 05:24:05.675            36.217         18108.500
       148   09 Jun 2027 05:25:38.494   09 Jun 2027 05:25:46.774             8.280          4140.000
       149   09 Jun 2027 05:26:12.755   09 Jun 2027 05:26:14.094             1.339           669.500
       150   09 Jun 2027 06:56:00.768   09 Jun 2027 06:57:36.612            95.844         47431.906
       151   09 Jun 2027 06:58:42.756   09 Jun 2027 06:58:43.910             1.154           538.812
       152   09 Jun 2027 08:33:14.343   09 Jun 2027 08:33:23.597             9.254          2144.156
       153   09 Jun 2027 08:35:32.879   09 Jun 2027 08:35:36.936             4.057          1955.844
       154   09 Jun 2027 08:35:49.751   09 Jun 2027 08:35:52.043             2.292           400.469
       155   09 Jun 2027 10:09:33.319   09 Jun 2027 10:09:44.709            11.390          5111.500
       156   09 Jun 2027 10:11:20.186   09 Jun 2027 10:11:25.296             5.110          1223.688
       157   10 Jun 2027 03:56:20.625   10 Jun 2027 03:56:48.398            27.773         13886.500
       158   10 Jun 2027 03:56:50.707   10 Jun 2027 03:56:53.640             2.933          1466.500
       159   10 Jun 2027 05:31:18.116   10 Jun 2027 05:34:30.894           192.778         96389.000
       160   10 Jun 2027 05:37:47.618   10 Jun 2027 05:38:21.897            34.279         17139.500
       161   10 Jun 2027 07:07:32.349   10 Jun 2027 07:08:45.460            73.111         33239.969
       162   10 Jun 2027 07:10:44.833   10 Jun 2027 07:10:47.363             2.530           714.125
       163   10 Jun 2027 07:11:45.283   10 Jun 2027 07:11:58.534            13.251          1514.844
       164   10 Jun 2027 07:12:21.139   10 Jun 2027 07:12:23.676             2.537           183.031
       165   10 Jun 2027 07:12:52.949   10 Jun 2027 07:12:55.168             2.219           688.781
       166   10 Jun 2027 08:45:52.080   10 Jun 2027 08:46:02.567            10.487          4920.469
       167   10 Jun 2027 08:46:20.700   10 Jun 2027 08:46:23.779             3.079           105.562
       168   10 Jun 2027 08:47:14.217   10 Jun 2027 08:47:15.279             1.062           209.687
       169   10 Jun 2027 08:47:35.369   10 Jun 2027 08:47:38.269             2.900           459.875
       170   10 Jun 2027 08:48:02.904   10 Jun 2027 08:48:06.287             3.383           717.125
       171   10 Jun 2027 08:48:50.819   10 Jun 2027 08:48:56.964             6.145            63.594
       172   10 Jun 2027 08:49:16.725   10 Jun 2027 08:49:20.395             3.670           444.906
       173   10 Jun 2027 10:21:11.574   10 Jun 2027 10:21:24.557            12.983          5897.250
       174   10 Jun 2027 10:26:36.108   10 Jun 2027 10:26:39.349             3.241           329.625
       175   11 Jun 2027 04:06:40.555   11 Jun 2027 04:07:09.020            28.465         14232.500
       176   11 Jun 2027 04:08:05.210   11 Jun 2027 04:08:14.349             9.139          4569.500
       177   11 Jun 2027 04:11:47.386   11 Jun 2027 04:11:57.941            10.555          5277.500
       178   11 Jun 2027 05:42:51.110   11 Jun 2027 05:45:52.026           180.916         90458.000
       179   11 Jun 2027 05:50:22.931   11 Jun 2027 05:50:25.342             2.411          1205.500
       180   11 Jun 2027 07:19:53.755   11 Jun 2027 07:21:40.621           106.866         50947.125
       181   11 Jun 2027 07:23:19.338   11 Jun 2027 07:23:20.646             1.308           462.938
       182   11 Jun 2027 07:24:15.724   11 Jun 2027 07:24:20.143             4.419          1371.156
       183   11 Jun 2027 07:25:41.326   11 Jun 2027 07:25:41.843             0.517            42.875
       184   11 Jun 2027 08:57:53.308   11 Jun 2027 08:58:03.649            10.341          4684.125
       185   11 Jun 2027 08:59:01.720   11 Jun 2027 08:59:03.178             1.458           354.906
       186   11 Jun 2027 08:59:08.049   11 Jun 2027 08:59:08.425             0.376            31.844
       187   11 Jun 2027 08:59:34.245   11 Jun 2027 08:59:35.486             1.241           105.312
       188   11 Jun 2027 08:59:59.983   11 Jun 2027 09:00:01.395             1.412           685.469
       189   11 Jun 2027 09:00:53.781   11 Jun 2027 09:00:55.540             1.759           761.375
       190   11 Jun 2027 10:31:04.420   11 Jun 2027 10:31:17.634            13.214          4864.563
       191   12 Jun 2027 04:17:47.182   12 Jun 2027 04:18:35.574            48.392         24196.000
       192   12 Jun 2027 04:20:22.804   12 Jun 2027 04:20:28.868             6.064          3032.000
       193   12 Jun 2027 04:20:45.321   12 Jun 2027 04:21:10.795            25.474         12737.000
       194   12 Jun 2027 04:22:58.404   12 Jun 2027 04:23:21.566            23.162         11581.000
       195   12 Jun 2027 04:25:55.752   12 Jun 2027 04:26:01.327             5.575          2787.500
       196   12 Jun 2027 05:55:03.200   12 Jun 2027 05:57:33.412           150.212         75106.000
       197   12 Jun 2027 05:57:44.852   12 Jun 2027 05:57:50.430             5.578          2789.000
       198   12 Jun 2027 05:58:04.788   12 Jun 2027 05:58:18.204            13.416          6708.000
       199   12 Jun 2027 06:01:46.483   12 Jun 2027 06:01:56.840            10.357          5178.500
       200   12 Jun 2027 06:02:16.133   12 Jun 2027 06:02:27.074            10.941          5470.500
       201   12 Jun 2027 07:31:56.765   12 Jun 2027 07:32:50.260            53.495         26188.750
       202   12 Jun 2027 07:33:36.884   12 Jun 2027 07:33:39.905             3.021           502.844
       203   12 Jun 2027 07:35:35.712   12 Jun 2027 07:35:43.302             7.590          1513.031
       204   12 Jun 2027 07:36:29.018   12 Jun 2027 07:36:33.719             4.701          1218.875
       205   12 Jun 2027 09:09:52.986   12 Jun 2027 09:10:05.615            12.629          4310.781
       206   12 Jun 2027 09:10:30.306   12 Jun 2027 09:10:32.973             2.667           771.594
       207   12 Jun 2027 09:12:10.030   12 Jun 2027 09:12:12.708             2.678          1162.875
       208   12 Jun 2027 10:43:27.754   12 Jun 2027 10:43:31.329             3.575          1416.531
       209   13 Jun 2027 03:00:00.000   13 Jun 2027 03:00:03.829             3.829          1914.500
       210   13 Jun 2027 04:29:16.354   13 Jun 2027 04:31:41.357           145.003         72501.500
       211   13 Jun 2027 04:32:31.013   13 Jun 2027 04:32:31.013             0.000             0.000
       212   13 Jun 2027 04:33:45.017   13 Jun 2027 04:33:56.599            11.582          5791.000
       213   13 Jun 2027 04:34:21.636   13 Jun 2027 04:34:24.426             2.790          1395.000
       214   13 Jun 2027 04:34:41.251   13 Jun 2027 04:35:05.025            23.774         11887.000
       215   13 Jun 2027 06:07:03.057   13 Jun 2027 06:08:29.731            86.674         43337.000
       216   13 Jun 2027 06:09:20.240   13 Jun 2027 06:10:04.106            43.866         21933.000
       217   13 Jun 2027 06:10:52.523   13 Jun 2027 06:11:07.453            14.930          7222.125
       218   13 Jun 2027 06:11:33.265   13 Jun 2027 06:11:34.301             1.036           518.000
       219   13 Jun 2027 06:13:02.948   13 Jun 2027 06:13:11.785             8.837          2911.969
       220   13 Jun 2027 07:43:48.148   13 Jun 2027 07:43:50.406             2.258           798.437
       221   13 Jun 2027 07:47:42.324   13 Jun 2027 07:47:46.256             3.932           624.906
       222   13 Jun 2027 07:48:08.780   13 Jun 2027 07:48:09.920             1.140           178.438
       223   13 Jun 2027 07:49:58.962   13 Jun 2027 07:50:03.746             4.784           618.844
       224   13 Jun 2027 09:21:53.757   13 Jun 2027 09:22:03.131             9.374          3006.344
       225   13 Jun 2027 09:24:18.766   13 Jun 2027 09:24:22.284             3.518           628.688
       226   13 Jun 2027 10:55:44.927   13 Jun 2027 10:55:48.666             3.739           876.344
