uniorb/output/strategy_4/Camera/Camera_KinoSat_111704.txt

KinoSat_111704
-------------------------
    Access    *     Start Time (UTCG)     *     Stop Time (UTCG)  *   Duration (s) *   Data (Mbytes)
         1   01 Jun 2027 03:19:01.874   01 Jun 2027 03:19:28.450            26.576         13288.000
         2   01 Jun 2027 03:19:33.421   01 Jun 2027 03:20:08.044            34.623         17311.500
         3   01 Jun 2027 03:20:11.772   01 Jun 2027 03:21:13.979            62.207         31103.500
         4   01 Jun 2027 03:22:12.552   01 Jun 2027 03:22:30.968            18.416          9208.000
         5   01 Jun 2027 03:22:55.391   01 Jun 2027 03:23:03.785             8.394          4197.000
         6   01 Jun 2027 03:24:51.034   01 Jun 2027 03:24:58.820             7.786          3893.000
         7   01 Jun 2027 04:57:48.420   01 Jun 2027 04:59:10.582            82.162         41081.000
         8   01 Jun 2027 05:01:04.088   01 Jun 2027 05:01:04.088             0.000             0.000
         9   01 Jun 2027 05:01:08.715   01 Jun 2027 05:01:30.918            22.203         11101.500
        10   01 Jun 2027 05:01:43.948   01 Jun 2027 05:01:52.438             8.490          4245.000
        11   01 Jun 2027 05:04:46.520   01 Jun 2027 05:04:49.093             2.573          1286.500
        12   01 Jun 2027 06:22:09.315   01 Jun 2027 06:22:48.587            39.272         19636.000
        13   01 Jun 2027 06:23:45.434   01 Jun 2027 06:24:14.210            28.776         14388.000
        14   01 Jun 2027 06:34:25.760   01 Jun 2027 06:34:53.440            27.680         13840.000
        15   01 Jun 2027 07:56:15.861   01 Jun 2027 07:57:29.203            73.342         36671.000
        16   01 Jun 2027 07:58:19.033   01 Jun 2027 07:58:29.681            10.648          5324.000
        17   01 Jun 2027 07:59:42.887   01 Jun 2027 07:59:54.365            11.478          5739.000
        18   01 Jun 2027 08:01:10.490   01 Jun 2027 08:01:57.296            46.806         23403.000
        19   01 Jun 2027 09:31:03.293   01 Jun 2027 09:32:25.022            81.729         40864.500
        20   01 Jun 2027 09:34:11.450   01 Jun 2027 09:34:44.353            32.903         16451.500
        21   01 Jun 2027 09:39:59.763   01 Jun 2027 09:40:01.319             1.556           778.000
        22   01 Jun 2027 11:14:52.412   01 Jun 2027 11:16:21.063            88.651         44325.500
        23   02 Jun 2027 03:31:44.592   02 Jun 2027 03:32:00.808            16.216          8108.000
        24   02 Jun 2027 03:32:08.814   02 Jun 2027 03:33:21.231            72.417         36208.500
        25   02 Jun 2027 03:33:49.043   02 Jun 2027 03:35:06.404            77.361         38680.500
        26   02 Jun 2027 03:37:16.498   02 Jun 2027 03:37:18.781             2.283          1141.500
        27   02 Jun 2027 05:10:12.902   02 Jun 2027 05:13:45.028           212.126        106063.000
        28   02 Jun 2027 05:13:58.216   02 Jun 2027 05:14:53.233            55.017         27508.500
        29   02 Jun 2027 06:34:07.225   02 Jun 2027 06:34:32.329            25.104         12552.000
        30   02 Jun 2027 08:10:04.943   02 Jun 2027 08:13:11.137           186.194         93097.000
        31   02 Jun 2027 09:43:53.424   02 Jun 2027 09:45:25.558            92.134         44696.313
        32   02 Jun 2027 09:45:51.977   02 Jun 2027 09:45:58.760             6.783           825.594
        33   02 Jun 2027 09:46:11.556   02 Jun 2027 09:46:12.160             0.604           210.906
        34   02 Jun 2027 09:48:46.050   02 Jun 2027 09:49:00.439            14.389          4326.469
        35   02 Jun 2027 09:49:32.229   02 Jun 2027 09:49:35.269             3.040           993.437
        36   02 Jun 2027 09:49:58.165   02 Jun 2027 09:50:02.063             3.898           587.906
        37   02 Jun 2027 09:51:01.740   02 Jun 2027 09:51:09.759             8.019          1442.563
        38   02 Jun 2027 09:51:43.836   02 Jun 2027 09:51:46.006             2.170           633.375
        39   02 Jun 2027 09:52:05.015   02 Jun 2027 09:52:05.741             0.726            35.375
        40   02 Jun 2027 11:21:02.783   02 Jun 2027 11:21:20.505            17.722          7124.219
        41   02 Jun 2027 11:22:24.453   02 Jun 2027 11:22:28.778             4.325          1511.094
        42   02 Jun 2027 11:23:17.896   02 Jun 2027 11:23:22.300             4.404          1317.406
        43   02 Jun 2027 11:23:47.427   02 Jun 2027 11:23:52.030             4.603           657.469
        44   02 Jun 2027 11:24:36.876   02 Jun 2027 11:24:40.096             3.220           112.344
        45   02 Jun 2027 11:26:11.165   02 Jun 2027 11:26:16.159             4.994          2107.687
        46   02 Jun 2027 11:27:03.178   02 Jun 2027 11:27:10.416             7.238          1469.344
        47   02 Jun 2027 11:27:32.766   02 Jun 2027 11:27:33.993             1.227           426.406
        48   02 Jun 2027 11:27:42.006   02 Jun 2027 11:27:42.714             0.708           134.531
        49   02 Jun 2027 11:27:53.463   02 Jun 2027 11:27:56.377             2.914           100.469
        50   02 Jun 2027 11:27:59.648   02 Jun 2027 11:28:02.312             2.664            54.844
        51   03 Jun 2027 03:44:29.030   03 Jun 2027 03:44:36.820             7.790          3895.000
        52   03 Jun 2027 03:44:37.290   03 Jun 2027 03:44:38.940             1.650           825.000
        53   03 Jun 2027 03:46:19.139   03 Jun 2027 03:47:54.290            95.151         47575.500
        54   03 Jun 2027 03:48:16.442   03 Jun 2027 03:48:46.572            30.130         15065.000
        55   03 Jun 2027 03:48:58.717   03 Jun 2027 03:49:05.157             6.440          3220.000
        56   03 Jun 2027 03:49:38.772   03 Jun 2027 03:49:43.896             5.124          2562.000
        57   03 Jun 2027 03:50:00.506   03 Jun 2027 03:50:30.576            30.070         15035.000
        58   03 Jun 2027 05:22:36.700   03 Jun 2027 05:24:57.529           140.829         70414.500
        59   03 Jun 2027 05:25:41.721   03 Jun 2027 05:25:48.439             6.718          3087.969
        60   03 Jun 2027 06:45:59.916   03 Jun 2027 06:46:14.507            14.591          6971.781
        61   03 Jun 2027 06:47:35.026   03 Jun 2027 06:47:47.282            12.256          2165.312
        62   03 Jun 2027 08:22:22.286   03 Jun 2027 08:22:40.325            18.039          8422.656
        63   03 Jun 2027 08:22:54.504   03 Jun 2027 08:22:55.838             1.334           117.750
        64   03 Jun 2027 08:23:04.785   03 Jun 2027 08:23:06.299             1.514           230.187
        65   03 Jun 2027 08:23:58.025   03 Jun 2027 08:24:05.296             7.271          1586.687
        66   03 Jun 2027 08:24:27.013   03 Jun 2027 08:24:28.773             1.760           334.250
        67   03 Jun 2027 08:25:25.320   03 Jun 2027 08:25:27.964             2.644           916.062
        68   03 Jun 2027 09:56:16.033   03 Jun 2027 09:56:22.592             6.559          3145.687
        69   03 Jun 2027 09:57:58.015   03 Jun 2027 09:58:04.653             6.638          1837.438
        70   03 Jun 2027 09:58:55.376   03 Jun 2027 09:59:08.965            13.589          1051.656
        71   03 Jun 2027 10:01:39.335   03 Jun 2027 10:01:48.610             9.275          1698.250
        72   03 Jun 2027 10:03:01.643   03 Jun 2027 10:03:04.163             2.520           641.219
        73   03 Jun 2027 10:03:41.989   03 Jun 2027 10:03:43.886             1.897           785.375
        74   03 Jun 2027 10:04:13.769   03 Jun 2027 10:04:19.400             5.631           933.844
        75   03 Jun 2027 11:33:29.049   03 Jun 2027 11:33:40.790            11.741          5631.312
        76   03 Jun 2027 11:36:16.483   03 Jun 2027 11:36:37.156            20.673          1199.687
        77   03 Jun 2027 11:36:55.324   03 Jun 2027 11:36:58.651             3.327           567.750
        78   03 Jun 2027 11:38:10.981   03 Jun 2027 11:38:17.765             6.784          1935.219
        79   03 Jun 2027 11:39:04.475   03 Jun 2027 11:39:12.893             8.418          1234.250
        80   03 Jun 2027 11:39:15.933   03 Jun 2027 11:39:19.385             3.452            95.000
        81   03 Jun 2027 11:39:34.523   03 Jun 2027 11:39:36.396             1.873           424.938
        82   03 Jun 2027 11:39:53.392   03 Jun 2027 11:39:56.489             3.097           531.125
        83   04 Jun 2027 03:56:36.635   04 Jun 2027 03:57:28.820            52.185         26092.500
        84   04 Jun 2027 03:57:34.664   04 Jun 2027 03:59:45.611           130.947         65473.500
        85   04 Jun 2027 04:00:00.247   04 Jun 2027 04:00:24.515            24.268         12134.000
        86   04 Jun 2027 04:01:38.717   04 Jun 2027 04:02:00.519            21.802         10901.000
        87   04 Jun 2027 04:02:15.782   04 Jun 2027 04:02:23.963             8.181          4090.500
        88   04 Jun 2027 05:34:55.885   04 Jun 2027 05:36:28.079            92.194         45708.437
        89   04 Jun 2027 05:37:21.579   04 Jun 2027 05:37:24.961             3.382          1555.594
        90   04 Jun 2027 06:57:49.578   04 Jun 2027 06:58:01.336            11.758          5730.875
        91   04 Jun 2027 06:59:18.514   04 Jun 2027 06:59:24.597             6.083          2411.812
        92   04 Jun 2027 07:00:01.590   04 Jun 2027 07:00:03.288             1.698           849.000
        93   04 Jun 2027 08:34:25.813   04 Jun 2027 08:34:33.465             7.652          3114.844
        94   04 Jun 2027 08:35:15.193   04 Jun 2027 08:35:17.738             2.545           678.375
        95   04 Jun 2027 08:35:58.751   04 Jun 2027 08:36:02.389             3.638          1221.281
        96   04 Jun 2027 08:37:11.115   04 Jun 2027 08:37:20.553             9.438          1943.281
        97   04 Jun 2027 10:09:33.618   04 Jun 2027 10:09:43.363             9.745          4473.688
        98   04 Jun 2027 10:10:35.719   04 Jun 2027 10:10:42.593             6.874           686.187
        99   04 Jun 2027 10:11:33.367   04 Jun 2027 10:11:37.721             4.354          1586.687
       100   04 Jun 2027 10:12:21.730   04 Jun 2027 10:12:24.629             2.899           359.875
       101   04 Jun 2027 10:12:43.077   04 Jun 2027 10:12:44.502             1.425           557.375
       102   04 Jun 2027 10:13:19.082   04 Jun 2027 10:13:21.556             2.474          1035.031
       103   04 Jun 2027 10:14:42.110   04 Jun 2027 10:14:49.669             7.559          2480.438
       104   04 Jun 2027 10:16:03.840   04 Jun 2027 10:16:11.750             7.910          2160.219
       105   04 Jun 2027 10:16:14.882   04 Jun 2027 10:16:17.660             2.778            96.844
       106   04 Jun 2027 11:45:53.949   04 Jun 2027 11:46:05.449            11.500          4176.656
       107   04 Jun 2027 11:47:35.744   04 Jun 2027 11:47:36.559             0.815           316.281
       108   04 Jun 2027 11:47:59.318   04 Jun 2027 11:48:01.664             2.346           296.188
       109   04 Jun 2027 11:49:09.145   04 Jun 2027 11:49:12.830             3.685          1670.875
       110   04 Jun 2027 11:50:10.563   04 Jun 2027 11:50:17.121             6.558          1804.156
       111   04 Jun 2027 11:50:17.604   04 Jun 2027 11:50:20.550             2.946            15.094
       112   04 Jun 2027 11:51:07.034   04 Jun 2027 11:51:20.339            13.305           912.500
       113   05 Jun 2027 04:08:23.148   05 Jun 2027 04:09:23.295            60.147         30073.500
       114   05 Jun 2027 04:09:30.695   05 Jun 2027 04:10:46.268            75.573         37786.500
       115   05 Jun 2027 04:11:57.496   05 Jun 2027 04:12:24.568            27.072         13536.000
       116   05 Jun 2027 05:46:40.272   05 Jun 2027 05:47:15.106            34.834         17417.000
       117   05 Jun 2027 05:47:28.927   05 Jun 2027 05:48:26.600            57.673         28836.500
       118   05 Jun 2027 05:48:49.729   05 Jun 2027 05:50:00.878            71.149         33671.031
       119   05 Jun 2027 07:10:02.578   05 Jun 2027 07:10:17.718            15.140          6214.719
       120   05 Jun 2027 07:10:55.112   05 Jun 2027 07:10:55.112             0.000             0.000
       121   05 Jun 2027 07:11:00.212   05 Jun 2027 07:11:02.965             2.753           823.094
       122   05 Jun 2027 07:12:41.477   05 Jun 2027 07:12:48.320             6.843          2565.750
       123   05 Jun 2027 08:46:37.093   05 Jun 2027 08:46:44.802             7.709          2954.062
       124   05 Jun 2027 08:47:43.298   05 Jun 2027 08:47:49.643             6.345          1730.125
       125   05 Jun 2027 08:47:53.274   05 Jun 2027 08:47:54.528             1.254           113.469
       126   05 Jun 2027 08:49:10.232   05 Jun 2027 08:49:16.065             5.833          2365.750
       127   05 Jun 2027 08:49:36.393   05 Jun 2027 08:49:36.393             0.000             0.000
       128   05 Jun 2027 10:21:46.474   05 Jun 2027 10:21:54.738             8.264          3310.187
       129   05 Jun 2027 10:23:06.815   05 Jun 2027 10:23:12.068             5.253          1994.625
       130   05 Jun 2027 10:23:43.857   05 Jun 2027 10:23:46.825             2.968           750.687
       131   05 Jun 2027 10:25:22.329   05 Jun 2027 10:25:27.745             5.416          1892.656
       132   05 Jun 2027 10:26:55.955   05 Jun 2027 10:26:57.881             1.926           868.188
       133   05 Jun 2027 10:27:24.618   05 Jun 2027 10:27:27.182             2.564           398.812
       134   05 Jun 2027 10:28:21.579   05 Jun 2027 10:28:22.690             1.111           555.500
       135   05 Jun 2027 11:58:07.836   05 Jun 2027 11:58:18.748            10.912          5415.688
       136   05 Jun 2027 11:59:47.671   05 Jun 2027 11:59:50.343             2.672           448.250
       137   06 Jun 2027 04:21:29.720   06 Jun 2027 04:22:53.042            83.322         41661.000
       138   06 Jun 2027 04:23:13.144   06 Jun 2027 04:23:26.980            13.836          6918.000
       139   06 Jun 2027 04:24:51.557   06 Jun 2027 04:25:16.486            24.929         12464.500
       140   06 Jun 2027 04:26:00.094   06 Jun 2027 04:26:10.916            10.822          5411.000
       141   06 Jun 2027 04:28:08.059   06 Jun 2027 04:29:02.684            54.625         27312.500
       142   06 Jun 2027 05:58:36.989   06 Jun 2027 05:59:29.131            52.142         26071.000
       143   06 Jun 2027 05:59:34.750   06 Jun 2027 06:00:17.761            43.011         21505.500
       144   06 Jun 2027 06:01:14.531   06 Jun 2027 06:02:09.552            55.021         24578.969
       145   06 Jun 2027 07:22:32.956   06 Jun 2027 07:22:47.031            14.075          6254.188
       146   06 Jun 2027 07:23:13.931   06 Jun 2027 07:23:14.804             0.873           349.781
       147   06 Jun 2027 07:23:53.518   06 Jun 2027 07:23:58.126             4.608          1050.562
       148   06 Jun 2027 07:25:10.944   06 Jun 2027 07:25:10.944             0.000             0.000
       149   06 Jun 2027 08:58:26.556   06 Jun 2027 08:58:38.424            11.868          2442.719
       150   06 Jun 2027 09:00:18.739   06 Jun 2027 09:00:29.696            10.957          3080.344
       151   06 Jun 2027 09:00:40.245   06 Jun 2027 09:00:42.585             2.340           246.187
       152   06 Jun 2027 10:33:19.792   06 Jun 2027 10:33:36.695            16.903          4524.406
       153   06 Jun 2027 10:35:35.065   06 Jun 2027 10:35:42.887             7.822          3339.844
       154   06 Jun 2027 10:36:18.174   06 Jun 2027 10:36:18.174             0.000             0.000
       155   06 Jun 2027 10:36:35.890   06 Jun 2027 10:36:40.615             4.725           731.969
       156   06 Jun 2027 10:37:38.791   06 Jun 2027 10:37:44.921             6.130           692.406
       157   06 Jun 2027 10:38:10.084   06 Jun 2027 10:38:12.809             2.725           495.219
       158   06 Jun 2027 10:38:48.086   06 Jun 2027 10:38:49.181             1.095           539.750
       159   06 Jun 2027 10:39:50.043   06 Jun 2027 10:39:54.448             4.405          1548.469
       160   06 Jun 2027 10:40:27.396   06 Jun 2027 10:40:31.069             3.673           950.750
       161   07 Jun 2027 03:00:00.000   07 Jun 2027 03:00:22.162            22.162         11081.000
       162   07 Jun 2027 03:00:46.798   07 Jun 2027 03:00:54.508             7.710          3855.000
       163   07 Jun 2027 03:01:03.257   07 Jun 2027 03:01:09.563             6.306          3153.000
       164   07 Jun 2027 04:33:34.108   07 Jun 2027 04:35:25.670           111.562         55781.000
       165   07 Jun 2027 04:37:05.762   07 Jun 2027 04:37:09.775             4.013          2006.500
       166   07 Jun 2027 04:37:48.013   07 Jun 2027 04:38:43.131            55.118         27559.000
       167   07 Jun 2027 04:39:14.941   07 Jun 2027 04:39:31.532            16.591          8295.500
       168   07 Jun 2027 04:39:45.898   07 Jun 2027 04:39:54.069             8.171          4085.500
       169   07 Jun 2027 04:40:03.921   07 Jun 2027 04:40:15.479            11.558          5779.000
       170   07 Jun 2027 05:59:17.052   07 Jun 2027 05:59:36.732            19.680          9840.000
       171   07 Jun 2027 06:10:34.153   07 Jun 2027 06:12:02.494            88.341         44156.219
       172   07 Jun 2027 07:33:09.546   07 Jun 2027 07:33:22.360            12.814          5087.312
       173   07 Jun 2027 07:34:27.921   07 Jun 2027 07:34:31.605             3.684          1495.938
       174   07 Jun 2027 07:35:30.619   07 Jun 2027 07:35:32.234             1.615           798.750
       175   07 Jun 2027 07:36:30.668   07 Jun 2027 07:36:30.668             0.000             0.000
       176   07 Jun 2027 07:37:25.804   07 Jun 2027 07:37:31.997             6.193          2864.344
       177   07 Jun 2027 07:37:49.703   07 Jun 2027 07:37:49.845             0.142            71.000
       178   07 Jun 2027 09:08:42.380   07 Jun 2027 09:08:48.019             5.639          2639.188
       179   07 Jun 2027 09:10:29.210   07 Jun 2027 09:10:33.565             4.355          2042.937
       180   07 Jun 2027 09:11:38.204   07 Jun 2027 09:11:44.189             5.985          1392.656
       181   07 Jun 2027 09:13:02.857   07 Jun 2027 09:13:13.227            10.370          2458.375
       182   07 Jun 2027 09:13:58.449   07 Jun 2027 09:14:05.769             7.320          1254.688
       183   07 Jun 2027 09:14:34.427   07 Jun 2027 09:14:37.480             3.053           205.375
       184   07 Jun 2027 10:44:59.711   07 Jun 2027 10:45:11.578            11.867          3624.688
       185   07 Jun 2027 10:48:07.852   07 Jun 2027 10:48:18.331            10.479          5025.375
       186   07 Jun 2027 10:49:18.290   07 Jun 2027 10:49:36.156            17.866          1507.750
       187   07 Jun 2027 10:51:49.653   07 Jun 2027 10:52:07.614            17.961          3981.656
       188   08 Jun 2027 03:06:59.323   08 Jun 2027 03:07:58.425            59.102         29551.000
       189   08 Jun 2027 03:09:50.310   08 Jun 2027 03:09:50.706             0.396           198.000
       190   08 Jun 2027 03:10:03.543   08 Jun 2027 03:10:08.529             4.986          2493.000
       191   08 Jun 2027 03:12:01.242   08 Jun 2027 03:12:12.739            11.497          5748.500
       192   08 Jun 2027 03:12:22.593   08 Jun 2027 03:12:35.843            13.250          6625.000
       193   08 Jun 2027 04:46:04.268   08 Jun 2027 04:48:51.635           167.367         83683.500
       194   08 Jun 2027 04:49:52.654   08 Jun 2027 04:49:57.646             4.992          2496.000
       195   08 Jun 2027 04:50:10.266   08 Jun 2027 04:50:54.078            43.812         21906.000
       196   08 Jun 2027 04:51:25.191   08 Jun 2027 04:51:33.027             7.836          3512.594
       197   08 Jun 2027 04:51:50.230   08 Jun 2027 04:51:52.584             2.354           246.594
       198   08 Jun 2027 04:52:03.394   08 Jun 2027 04:52:07.650             4.256           337.812
       199   08 Jun 2027 04:53:08.757   08 Jun 2027 04:53:11.777             3.020          1510.000
       200   08 Jun 2027 06:10:53.804   08 Jun 2027 06:11:20.667            26.863         11318.687
       201   08 Jun 2027 06:22:34.157   08 Jun 2027 06:22:39.280             5.123          2529.281
       202   08 Jun 2027 07:44:52.947   08 Jun 2027 07:45:05.604            12.657          4703.031
       203   08 Jun 2027 07:46:49.821   08 Jun 2027 07:46:54.326             4.505          1976.625
       204   08 Jun 2027 07:47:14.917   08 Jun 2027 07:47:16.892             1.975           243.344
       205   08 Jun 2027 07:47:56.717   08 Jun 2027 07:47:59.707             2.990          1159.219
       206   08 Jun 2027 07:49:27.030   08 Jun 2027 07:49:36.374             9.344          2034.031
       207   08 Jun 2027 07:49:49.990   08 Jun 2027 07:49:50.362             0.372           174.719
       208   08 Jun 2027 09:19:50.701   08 Jun 2027 09:19:57.894             7.193          2920.937
       209   08 Jun 2027 09:22:33.666   08 Jun 2027 09:22:40.517             6.851          1119.187
       210   08 Jun 2027 09:23:35.988   08 Jun 2027 09:23:36.626             0.638           256.000
       211   08 Jun 2027 09:25:35.224   08 Jun 2027 09:25:40.820             5.596           988.375
       212   08 Jun 2027 09:26:13.609   08 Jun 2027 09:26:15.875             2.266           986.594
       213   08 Jun 2027 09:26:53.960   08 Jun 2027 09:26:53.960             0.000             0.000
       214   08 Jun 2027 09:27:49.658   08 Jun 2027 09:27:54.560             4.902          2168.594
       215   08 Jun 2027 10:57:19.234   08 Jun 2027 10:57:28.673             9.439          2233.750
       216   08 Jun 2027 10:58:15.764   08 Jun 2027 10:58:17.722             1.958           713.156
       217   08 Jun 2027 11:00:15.136   08 Jun 2027 11:00:20.653             5.517          1788.812
       218   08 Jun 2027 11:00:41.109   08 Jun 2027 11:00:42.195             1.086           492.656
       219   08 Jun 2027 11:02:40.119   08 Jun 2027 11:02:49.737             9.618          3568.187
       220   08 Jun 2027 11:03:02.309   08 Jun 2027 11:03:03.470             1.161           206.875
       221   08 Jun 2027 11:03:46.787   08 Jun 2027 11:03:49.130             2.343           502.656
       222   08 Jun 2027 11:04:30.592   08 Jun 2027 11:04:34.568             3.976           662.719
       223   09 Jun 2027 03:19:19.499   09 Jun 2027 03:19:46.028            26.529         13264.500
       224   09 Jun 2027 03:19:53.001   09 Jun 2027 03:20:25.011            32.010         16005.000
       225   09 Jun 2027 03:20:29.036   09 Jun 2027 03:21:23.006            53.970         26985.000
       226   09 Jun 2027 03:21:24.883   09 Jun 2027 03:21:55.875            30.992         15496.000
       227   09 Jun 2027 03:22:01.758   09 Jun 2027 03:22:11.066             9.308          4654.000
       228   09 Jun 2027 03:23:26.749   09 Jun 2027 03:23:39.475            12.726          6363.000
       229   09 Jun 2027 03:23:57.041   09 Jun 2027 03:24:24.276            27.235         13617.500
       230   09 Jun 2027 04:58:06.663   09 Jun 2027 04:59:55.225           108.562         54039.750
       231   09 Jun 2027 05:00:58.917   09 Jun 2027 05:01:03.824             4.907          1951.563
       232   09 Jun 2027 05:02:44.617   09 Jun 2027 05:02:48.794             4.177          1985.594
       233   09 Jun 2027 05:03:19.494   09 Jun 2027 05:03:22.354             2.860           840.719
       234   09 Jun 2027 05:04:30.236   09 Jun 2027 05:04:32.905             2.669           886.469
       235   09 Jun 2027 06:22:27.134   09 Jun 2027 06:22:39.334            12.200          5619.969
       236   09 Jun 2027 06:23:31.505   09 Jun 2027 06:23:35.867             4.362          1263.875
       237   09 Jun 2027 06:24:12.782   09 Jun 2027 06:24:15.835             3.053           366.906
       238   09 Jun 2027 06:34:42.777   09 Jun 2027 06:34:50.583             7.806          3858.313
       239   09 Jun 2027 07:56:26.541   09 Jun 2027 07:56:36.054             9.513          4317.688
       240   09 Jun 2027 07:58:34.726   09 Jun 2027 07:58:35.467             0.741           173.531
       241   09 Jun 2027 07:59:18.604   09 Jun 2027 07:59:22.735             4.131           945.156
       242   09 Jun 2027 08:00:01.316   09 Jun 2027 08:00:06.940             5.624           639.125
       243   09 Jun 2027 08:01:27.980   09 Jun 2027 08:01:27.980             0.000             0.000
       244   09 Jun 2027 09:31:18.723   09 Jun 2027 09:31:30.865            12.142          4834.938
       245   09 Jun 2027 09:33:16.256   09 Jun 2027 09:33:18.981             2.725            26.750
       246   09 Jun 2027 09:34:09.207   09 Jun 2027 09:34:13.231             4.024          1549.781
       247   09 Jun 2027 09:35:04.043   09 Jun 2027 09:35:07.525             3.482           485.812
       248   09 Jun 2027 09:37:03.815   09 Jun 2027 09:37:20.400            16.585          2738.281
       249   09 Jun 2027 09:38:16.246   09 Jun 2027 09:38:18.453             2.207           209.156
       250   09 Jun 2027 09:38:56.027   09 Jun 2027 09:39:03.845             7.818           729.594
       251   09 Jun 2027 09:39:07.502   09 Jun 2027 09:39:18.517            11.015            11.344
       252   09 Jun 2027 09:39:42.561   09 Jun 2027 09:39:48.785             6.224           454.438
       253   09 Jun 2027 09:40:13.306   09 Jun 2027 09:40:15.723             2.417             1.031
       254   09 Jun 2027 11:09:12.550   09 Jun 2027 11:09:35.485            22.935          3740.219
       255   09 Jun 2027 11:12:57.036   09 Jun 2027 11:13:06.237             9.201          1430.031
       256   09 Jun 2027 11:13:28.118   09 Jun 2027 11:13:28.996             0.878           374.625
       257   09 Jun 2027 11:15:07.181   09 Jun 2027 11:15:13.331             6.150          3021.031
       258   09 Jun 2027 11:15:35.404   09 Jun 2027 11:15:35.888             0.484            91.875
       259   09 Jun 2027 11:15:43.673   09 Jun 2027 11:15:44.398             0.725            19.875
       260   09 Jun 2027 11:16:11.328   09 Jun 2027 11:16:13.596             2.268           723.531
       261   10 Jun 2027 03:32:02.409   10 Jun 2027 03:32:16.499            14.090          7045.000
       262   10 Jun 2027 03:32:25.960   10 Jun 2027 03:33:34.844            68.884         34442.000
       263   10 Jun 2027 03:34:12.945   10 Jun 2027 03:36:36.307           143.362         71681.000
       264   10 Jun 2027 05:10:32.549   10 Jun 2027 05:12:02.870            90.321         44387.719
       265   10 Jun 2027 05:12:19.894   10 Jun 2027 05:12:21.215             1.321           510.031
       266   10 Jun 2027 05:14:03.470   10 Jun 2027 05:14:09.472             6.002          2679.500
       267   10 Jun 2027 06:34:23.391   10 Jun 2027 06:34:38.324            14.933          6280.813
       268   10 Jun 2027 06:35:27.316   10 Jun 2027 06:35:30.713             3.397          1242.750
       269   10 Jun 2027 06:36:26.377   10 Jun 2027 06:36:28.084             1.707           853.500
       270   10 Jun 2027 08:10:24.087   10 Jun 2027 08:10:36.285            12.198          5410.969
       271   10 Jun 2027 08:10:49.151   10 Jun 2027 08:10:49.854             0.703           193.938
       272   10 Jun 2027 08:11:51.421   10 Jun 2027 08:11:55.924             4.503          1456.406
       273   10 Jun 2027 08:13:28.594   10 Jun 2027 08:13:37.222             8.628          2518.531
       274   10 Jun 2027 09:44:11.708   10 Jun 2027 09:44:19.440             7.732          2247.312
       275   10 Jun 2027 09:46:11.284   10 Jun 2027 09:46:14.852             3.568           837.031
       276   10 Jun 2027 09:46:25.047   10 Jun 2027 09:46:27.172             2.125            47.156
       277   10 Jun 2027 09:48:48.823   10 Jun 2027 09:48:57.646             8.823          4395.375
       278   10 Jun 2027 09:49:07.502   10 Jun 2027 09:49:16.399             8.897           284.688
       279   10 Jun 2027 09:49:48.546   10 Jun 2027 09:49:53.932             5.386           993.344
       280   10 Jun 2027 09:50:14.066   10 Jun 2027 09:50:17.642             3.576           614.938
       281   10 Jun 2027 09:50:54.890   10 Jun 2027 09:50:56.862             1.972           168.031
       282   10 Jun 2027 09:51:48.539   10 Jun 2027 09:51:54.719             6.180          1586.438
       283   10 Jun 2027 09:52:01.168   10 Jun 2027 09:52:02.569             1.401            85.969
       284   10 Jun 2027 09:52:18.881   10 Jun 2027 09:52:20.005             1.124           509.750
       285   10 Jun 2027 09:52:41.118   10 Jun 2027 09:52:42.568             1.450           646.438
       286   10 Jun 2027 11:21:20.651   10 Jun 2027 11:21:35.923            15.272          5959.000
       287   10 Jun 2027 11:23:35.210   10 Jun 2027 11:23:43.108             7.898          1329.250
       288   10 Jun 2027 11:24:03.019   10 Jun 2027 11:24:04.483             1.464           589.094
       289   10 Jun 2027 11:24:52.728   10 Jun 2027 11:24:54.814             2.086            51.656
       290   10 Jun 2027 11:25:07.033   10 Jun 2027 11:25:09.429             2.396           261.250
       291   10 Jun 2027 11:26:02.952   10 Jun 2027 11:26:06.693             3.741          1444.719
       292   10 Jun 2027 11:26:36.080   10 Jun 2027 11:26:36.626             0.546           179.062
       293   10 Jun 2027 11:27:34.599   10 Jun 2027 11:27:37.875             3.276          1591.906
       294   10 Jun 2027 11:27:45.055   10 Jun 2027 11:27:48.138             3.083           224.375
       295   10 Jun 2027 11:28:14.105   10 Jun 2027 11:28:16.703             2.598           760.906
       296   11 Jun 2027 03:44:45.568   11 Jun 2027 03:44:53.806             8.238          4119.000
       297   11 Jun 2027 03:46:34.280   11 Jun 2027 03:48:10.991            96.711         48355.500
       298   11 Jun 2027 03:48:33.988   11 Jun 2027 03:49:01.111            27.123         13561.500
       299   11 Jun 2027 03:49:15.077   11 Jun 2027 03:49:54.542            39.465         19732.500
       300   11 Jun 2027 03:50:16.532   11 Jun 2027 03:50:41.080            24.548         12274.000
       301   11 Jun 2027 05:22:53.654   11 Jun 2027 05:24:40.662           107.008         53244.219
       302   11 Jun 2027 05:25:30.457   11 Jun 2027 05:25:34.635             4.178          1340.313
       303   11 Jun 2027 06:46:16.606   11 Jun 2027 06:46:29.134            12.528          5463.594
       304   11 Jun 2027 06:47:34.333   11 Jun 2027 06:47:38.208             3.875          1670.250
       305   11 Jun 2027 06:47:55.245   11 Jun 2027 06:47:55.245             0.000             0.000
       306   11 Jun 2027 06:48:29.902   11 Jun 2027 06:48:35.775             5.873          1351.219
       307   11 Jun 2027 08:22:37.747   11 Jun 2027 08:22:55.517            17.770          8724.000
       308   11 Jun 2027 08:23:11.434   11 Jun 2027 08:23:12.017             0.583           108.750
       309   11 Jun 2027 08:23:30.056   11 Jun 2027 08:23:32.288             2.232           500.594
       310   11 Jun 2027 08:24:02.765   11 Jun 2027 08:24:05.183             2.418           839.000
       311   11 Jun 2027 08:25:28.795   11 Jun 2027 08:25:36.302             7.507          2247.937
       312   11 Jun 2027 09:56:37.456   11 Jun 2027 09:56:44.757             7.301          2578.813
       313   11 Jun 2027 09:58:38.097   11 Jun 2027 09:58:41.020             2.923           650.313
       314   11 Jun 2027 09:59:15.563   11 Jun 2027 09:59:23.580             8.017          1079.469
       315   11 Jun 2027 10:01:02.290   11 Jun 2027 10:01:08.801             6.511          2441.156
       316   11 Jun 2027 10:02:59.140   11 Jun 2027 10:03:03.507             4.367          2003.937
       317   11 Jun 2027 10:03:36.544   11 Jun 2027 10:03:39.675             3.131           488.437
       318   11 Jun 2027 10:04:29.229   11 Jun 2027 10:04:35.674             6.445           889.687
       319   11 Jun 2027 11:33:46.260   11 Jun 2027 11:33:57.757            11.497          5562.750
       320   11 Jun 2027 11:35:53.557   11 Jun 2027 11:35:54.740             1.183           129.906
       321   11 Jun 2027 11:36:54.882   11 Jun 2027 11:36:58.180             3.298           694.969
       322   11 Jun 2027 11:38:29.565   11 Jun 2027 11:38:33.817             4.252          1974.281
       323   11 Jun 2027 11:38:41.514   11 Jun 2027 11:38:43.789             2.275            42.656
       324   11 Jun 2027 11:39:30.903   11 Jun 2027 11:39:34.407             3.504          1056.625
       325   11 Jun 2027 11:39:51.520   11 Jun 2027 11:39:52.791             1.271           472.375
       326   11 Jun 2027 11:40:19.624   11 Jun 2027 11:40:27.079             7.455           697.563
       327   12 Jun 2027 03:56:47.502   12 Jun 2027 03:57:45.991            58.489         29244.500
       328   12 Jun 2027 03:57:51.763   12 Jun 2027 03:59:20.912            89.149         44574.500
       329   12 Jun 2027 03:59:39.250   12 Jun 2027 04:00:02.775            23.525         11762.500
       330   12 Jun 2027 04:01:53.558   12 Jun 2027 04:01:55.276             1.718           859.000
       331   12 Jun 2027 04:02:15.480   12 Jun 2027 04:02:40.315            24.835         12417.500
       332   12 Jun 2027 05:35:19.298   12 Jun 2027 05:37:26.818           127.520         62954.156
       333   12 Jun 2027 06:58:10.214   12 Jun 2027 06:58:22.642            12.428          5665.969
       334   12 Jun 2027 07:00:15.382   12 Jun 2027 07:00:20.657             5.275          2637.500
       335   12 Jun 2027 08:34:43.350   12 Jun 2027 08:34:47.981             4.631          2288.906
       336   12 Jun 2027 08:35:45.750   12 Jun 2027 08:35:49.052             3.302          1117.125
       337   12 Jun 2027 08:36:27.152   12 Jun 2027 08:36:27.152             0.000             0.000
       338   12 Jun 2027 08:37:15.802   12 Jun 2027 08:37:26.161            10.359          1877.937
       339   12 Jun 2027 10:09:52.204   12 Jun 2027 10:10:04.429            12.225          5487.281
       340   12 Jun 2027 10:10:55.384   12 Jun 2027 10:10:59.539             4.155           794.250
       341   12 Jun 2027 10:11:52.139   12 Jun 2027 10:11:56.769             4.630          1570.656
       342   12 Jun 2027 10:13:00.295   12 Jun 2027 10:13:02.144             1.849           379.688
       343   12 Jun 2027 10:13:26.792   12 Jun 2027 10:13:28.415             1.623           166.813
       344   12 Jun 2027 10:13:50.333   12 Jun 2027 10:13:55.777             5.444           504.500
       345   12 Jun 2027 10:14:13.492   12 Jun 2027 10:14:15.467             1.975           475.844
       346   12 Jun 2027 10:14:42.935   12 Jun 2027 10:14:44.819             1.884            42.938
       347   12 Jun 2027 10:15:48.413   12 Jun 2027 10:15:52.664             4.251          1510.438
       348   12 Jun 2027 10:16:15.065   12 Jun 2027 10:16:16.269             1.204           448.156
       349   12 Jun 2027 10:16:33.413   12 Jun 2027 10:16:36.290             2.877           535.750
       350   12 Jun 2027 11:46:12.540   12 Jun 2027 11:46:21.797             9.257          4231.594
       351   12 Jun 2027 11:47:53.712   12 Jun 2027 11:47:58.023             4.311          1914.250
       352   12 Jun 2027 11:48:11.658   12 Jun 2027 11:48:15.395             3.737           132.719
       353   12 Jun 2027 11:48:57.909   12 Jun 2027 11:49:01.114             3.205          1316.625
       354   12 Jun 2027 11:50:26.861   12 Jun 2027 11:50:31.503             4.642          1764.000
       355   12 Jun 2027 11:50:36.100   12 Jun 2027 11:50:37.530             1.430           143.656
       356   12 Jun 2027 11:51:20.772   12 Jun 2027 11:51:26.923             6.151           822.531
       357   13 Jun 2027 04:08:40.986   13 Jun 2027 04:09:38.098            57.112         28556.000
       358   13 Jun 2027 04:09:47.964   13 Jun 2027 04:10:55.481            67.517         33758.500
       359   13 Jun 2027 04:11:43.141   13 Jun 2027 04:12:02.700            19.559          9779.500
       360   13 Jun 2027 04:13:14.813   13 Jun 2027 04:13:28.432            13.619          6809.500
       361   13 Jun 2027 05:46:57.241   13 Jun 2027 05:49:30.163           152.922         76311.812
       362   13 Jun 2027 05:50:15.836   13 Jun 2027 05:50:18.198             2.362          1046.625
       363   13 Jun 2027 07:10:18.474   13 Jun 2027 07:10:32.896            14.422          5822.062
       364   13 Jun 2027 07:11:11.249   13 Jun 2027 07:11:16.549             5.300           688.344
       365   13 Jun 2027 07:11:46.551   13 Jun 2027 07:11:50.900             4.349           914.969
       366   13 Jun 2027 07:13:14.256   13 Jun 2027 07:13:19.628             5.372          2417.438
       367   13 Jun 2027 08:46:53.979   13 Jun 2027 08:47:00.202             6.223          2978.750
       368   13 Jun 2027 08:48:06.808   13 Jun 2027 08:48:10.575             3.767          1708.000
       369   13 Jun 2027 08:48:14.275   13 Jun 2027 08:48:16.321             2.046           115.625
       370   13 Jun 2027 08:48:36.385   13 Jun 2027 08:48:39.737             3.352           496.813
       371   13 Jun 2027 08:50:20.725   13 Jun 2027 08:50:22.747             2.022          1011.000
       372   13 Jun 2027 10:22:04.236   13 Jun 2027 10:22:14.086             9.850          3231.438
       373   13 Jun 2027 10:23:26.414   13 Jun 2027 10:23:33.274             6.860          2107.969
       374   13 Jun 2027 10:24:02.897   13 Jun 2027 10:24:04.746             1.849           715.469
       375   13 Jun 2027 10:25:41.748   13 Jun 2027 10:25:46.879             5.131          1999.688
       376   13 Jun 2027 10:26:44.931   13 Jun 2027 10:26:46.595             1.664           619.969
       377   13 Jun 2027 10:28:26.296   13 Jun 2027 10:28:34.874             8.578          2680.750
       378   13 Jun 2027 11:58:24.078   13 Jun 2027 11:58:35.489            11.411          4443.250
