uniorb/output/strategy_4/Camera/Camera_KinoSat_111909.txt

KinoSat_111909
-------------------------
    Access    *     Start Time (UTCG)     *     Stop Time (UTCG)  *   Duration (s) *   Data (Mbytes)
         1   01 Jun 2027 03:59:02.365   01 Jun 2027 04:01:29.639           147.274         73637.000
         2   01 Jun 2027 04:03:33.883   01 Jun 2027 04:03:36.504             2.621          1310.500
         3   01 Jun 2027 05:38:06.749   01 Jun 2027 05:40:04.540           117.791         58895.500
         4   01 Jun 2027 05:41:45.792   01 Jun 2027 05:41:56.550            10.758          5379.000
         5   01 Jun 2027 05:42:10.189   01 Jun 2027 05:42:31.989            21.800         10900.000
         6   01 Jun 2027 07:02:56.562   01 Jun 2027 07:04:19.687            83.125         41562.500
         7   01 Jun 2027 07:14:36.360   01 Jun 2027 07:15:17.028            40.668         20334.000
         8   01 Jun 2027 08:36:55.645   01 Jun 2027 08:38:01.656            66.011         33005.500
         9   01 Jun 2027 08:38:52.540   01 Jun 2027 08:40:31.795            99.255         49627.500
        10   01 Jun 2027 10:11:53.204   01 Jun 2027 10:12:29.390            36.186         18093.000
        11   01 Jun 2027 10:13:03.402   01 Jun 2027 10:13:47.981            44.579         22289.500
        12   01 Jun 2027 10:14:59.693   01 Jun 2027 10:14:59.693             0.000             0.000
        13   01 Jun 2027 10:15:06.322   01 Jun 2027 10:15:36.553            30.231         15115.500
        14   01 Jun 2027 10:17:37.753   01 Jun 2027 10:17:37.753             0.000             0.000
        15   01 Jun 2027 10:17:54.240   01 Jun 2027 10:18:16.805            22.565         11282.500
        16   01 Jun 2027 11:55:35.712   01 Jun 2027 11:56:39.675            63.963         31981.500
        17   02 Jun 2027 04:11:24.426   02 Jun 2027 04:12:25.548            61.122         30561.000
        18   02 Jun 2027 04:12:31.079   02 Jun 2027 04:13:01.303            30.224         15112.000
        19   02 Jun 2027 04:14:14.428   02 Jun 2027 04:15:05.181            50.753         25376.500
        20   02 Jun 2027 05:50:10.323   02 Jun 2027 05:53:19.953           189.630         94815.000
        21   02 Jun 2027 05:54:51.939   02 Jun 2027 05:56:23.531            91.592         45796.000
        22   02 Jun 2027 07:14:29.865   02 Jun 2027 07:15:40.056            70.191         35095.500
        23   02 Jun 2027 07:16:30.232   02 Jun 2027 07:16:32.222             1.990           995.000
        24   02 Jun 2027 07:26:49.594   02 Jun 2027 07:27:11.449            21.855         10927.500
        25   02 Jun 2027 08:48:28.866   02 Jun 2027 08:49:48.842            79.976         39988.000
        26   02 Jun 2027 08:50:37.533   02 Jun 2027 08:52:19.812           102.279         51139.500
        27   02 Jun 2027 10:23:21.331   02 Jun 2027 10:24:18.029            56.698         28188.781
        28   02 Jun 2027 10:25:28.269   02 Jun 2027 10:25:33.070             4.801          2195.000
        29   02 Jun 2027 10:26:02.670   02 Jun 2027 10:26:03.875             1.205           537.187
        30   02 Jun 2027 10:27:10.420   02 Jun 2027 10:27:11.609             1.189           433.437
        31   02 Jun 2027 10:29:39.459   02 Jun 2027 10:29:46.084             6.625          2055.906
        32   02 Jun 2027 10:30:28.608   02 Jun 2027 10:30:29.860             1.252           626.000
        33   02 Jun 2027 10:31:58.445   02 Jun 2027 10:32:08.719            10.274          2990.750
        34   02 Jun 2027 10:32:09.852   02 Jun 2027 10:32:10.745             0.893            25.875
        35   02 Jun 2027 10:32:11.872   02 Jun 2027 10:32:15.540             3.668            35.219
        36   03 Jun 2027 04:24:05.767   03 Jun 2027 04:24:19.202            13.435          6717.500
        37   03 Jun 2027 04:24:28.946   03 Jun 2027 04:25:30.028            61.082         30541.000
        38   03 Jun 2027 04:25:47.647   03 Jun 2027 04:25:55.272             7.625          3812.500
        39   03 Jun 2027 04:26:15.400   03 Jun 2027 04:26:54.187            38.787         19393.500
        40   03 Jun 2027 04:27:34.696   03 Jun 2027 04:27:34.696             0.000             0.000
        41   03 Jun 2027 04:28:15.764   03 Jun 2027 04:28:43.824            28.060         14030.000
        42   03 Jun 2027 04:29:10.791   03 Jun 2027 04:29:11.189             0.398           199.000
        43   03 Jun 2027 06:02:36.668   03 Jun 2027 06:05:41.213           184.545         91691.938
        44   03 Jun 2027 06:06:13.672   03 Jun 2027 06:06:14.603             0.931           330.063
        45   03 Jun 2027 06:07:29.976   03 Jun 2027 06:07:30.970             0.994           497.000
        46   03 Jun 2027 06:07:35.418   03 Jun 2027 06:07:37.786             2.368           549.906
        47   03 Jun 2027 07:26:26.242   03 Jun 2027 07:26:47.812            21.570          7160.719
        48   03 Jun 2027 07:27:35.530   03 Jun 2027 07:27:35.530             0.000             0.000
        49   03 Jun 2027 07:28:43.114   03 Jun 2027 07:28:43.530             0.416           208.000
        50   03 Jun 2027 09:02:26.959   03 Jun 2027 09:02:49.126            22.167         11021.250
        51   03 Jun 2027 09:03:10.711   03 Jun 2027 09:03:11.537             0.826           412.281
        52   03 Jun 2027 09:04:05.025   03 Jun 2027 09:04:09.990             4.965          1440.562
        53   03 Jun 2027 09:05:06.300   03 Jun 2027 09:05:08.253             1.953           564.625
        54   03 Jun 2027 09:05:43.667   03 Jun 2027 09:05:43.667             0.000             0.000
        55   03 Jun 2027 10:36:14.574   03 Jun 2027 10:36:22.040             7.466          3393.469
        56   03 Jun 2027 10:38:16.582   03 Jun 2027 10:38:17.920             1.338           604.719
        57   03 Jun 2027 10:38:39.926   03 Jun 2027 10:38:39.926             0.000             0.000
        58   03 Jun 2027 10:38:52.070   03 Jun 2027 10:39:00.719             8.649           849.625
        59   03 Jun 2027 10:41:29.819   03 Jun 2027 10:41:36.080             6.261          2888.688
        60   03 Jun 2027 10:42:45.430   03 Jun 2027 10:42:48.011             2.581           989.813
        61   03 Jun 2027 10:43:11.380   03 Jun 2027 10:43:13.250             1.870           417.437
        62   03 Jun 2027 10:44:00.106   03 Jun 2027 10:44:03.125             3.019          1464.250
        63   03 Jun 2027 10:44:18.946   03 Jun 2027 10:44:21.660             2.714           272.094
        64   04 Jun 2027 03:00:03.429   04 Jun 2027 03:00:18.674            15.245          7622.500
        65   04 Jun 2027 03:00:44.340   04 Jun 2027 03:00:53.601             9.261          4630.500
        66   04 Jun 2027 03:01:30.914   04 Jun 2027 03:01:39.334             8.420          4210.000
        67   04 Jun 2027 03:02:25.405   04 Jun 2027 03:02:39.267            13.862          6931.000
        68   04 Jun 2027 03:03:29.389   04 Jun 2027 03:03:49.120            19.731          9865.500
        69   04 Jun 2027 03:05:14.934   04 Jun 2027 03:05:29.983            15.049          7524.500
        70   04 Jun 2027 04:36:43.508   04 Jun 2027 04:37:20.530            37.022         18511.000
        71   04 Jun 2027 04:37:20.599   04 Jun 2027 04:38:52.830            92.231         46115.500
        72   04 Jun 2027 04:39:37.102   04 Jun 2027 04:39:37.102             0.000             0.000
        73   04 Jun 2027 04:40:02.809   04 Jun 2027 04:40:37.536            34.727         17363.500
        74   04 Jun 2027 04:40:54.070   04 Jun 2027 04:41:04.678            10.608          5304.000
        75   04 Jun 2027 04:42:02.913   04 Jun 2027 04:42:08.712             5.799          2899.500
        76   04 Jun 2027 06:14:56.471   04 Jun 2027 06:16:37.243           100.772         48212.750
        77   04 Jun 2027 06:18:48.322   04 Jun 2027 06:18:49.893             1.571           519.375
        78   04 Jun 2027 06:19:09.946   04 Jun 2027 06:19:16.457             6.511           374.687
        79   04 Jun 2027 07:38:19.507   04 Jun 2027 07:38:33.514            14.007          6416.406
        80   04 Jun 2027 07:39:43.053   04 Jun 2027 07:39:48.286             5.233          1754.375
        81   04 Jun 2027 07:40:16.979   04 Jun 2027 07:40:17.319             0.340           154.937
        82   04 Jun 2027 07:40:47.636   04 Jun 2027 07:40:52.393             4.757           392.219
        83   04 Jun 2027 09:14:40.538   04 Jun 2027 09:15:01.478            20.940         10267.375
        84   04 Jun 2027 09:15:45.142   04 Jun 2027 09:15:46.677             1.535           538.781
        85   04 Jun 2027 09:17:24.677   04 Jun 2027 09:17:33.251             8.574          2678.969
        86   04 Jun 2027 10:48:40.865   04 Jun 2027 10:48:47.473             6.608          3206.031
        87   04 Jun 2027 10:50:45.908   04 Jun 2027 10:50:48.510             2.602           470.656
        88   04 Jun 2027 10:52:18.303   04 Jun 2027 10:52:18.303             0.000             0.000
        89   04 Jun 2027 10:52:58.363   04 Jun 2027 10:52:59.794             1.431           715.500
        90   04 Jun 2027 10:53:22.821   04 Jun 2027 10:53:27.735             4.914          2171.437
        91   04 Jun 2027 10:53:36.050   04 Jun 2027 10:53:42.566             6.516           259.844
        92   04 Jun 2027 10:56:00.424   04 Jun 2027 10:56:08.939             8.515          3629.156
        93   04 Jun 2027 10:56:11.157   04 Jun 2027 10:56:11.999             0.842            69.312
        94   05 Jun 2027 03:10:33.166   05 Jun 2027 03:10:39.391             6.225          3112.500
        95   05 Jun 2027 03:11:57.799   05 Jun 2027 03:13:37.766            99.967         49983.500
        96   05 Jun 2027 03:13:42.938   05 Jun 2027 03:13:49.656             6.718          3359.000
        97   05 Jun 2027 03:14:47.013   05 Jun 2027 03:14:55.567             8.554          4277.000
        98   05 Jun 2027 04:48:47.616   05 Jun 2027 04:49:48.673            61.057         30528.500
        99   05 Jun 2027 04:49:54.332   05 Jun 2027 04:51:27.146            92.814         46407.000
       100   05 Jun 2027 04:51:37.491   05 Jun 2027 04:52:25.168            47.677         23826.407
       101   05 Jun 2027 06:27:49.030   05 Jun 2027 06:28:12.292            23.262         11531.938
       102   05 Jun 2027 06:30:35.460   05 Jun 2027 06:30:40.903             5.443           264.719
       103   05 Jun 2027 07:50:13.384   05 Jun 2027 07:50:32.736            19.352          6451.156
       104   05 Jun 2027 07:51:44.239   05 Jun 2027 07:51:53.873             9.634          2081.125
       105   05 Jun 2027 07:52:05.444   05 Jun 2027 07:52:10.407             4.963           143.188
       106   05 Jun 2027 09:26:46.342   05 Jun 2027 09:26:54.238             7.896          3120.000
       107   05 Jun 2027 09:27:42.260   05 Jun 2027 09:27:43.869             1.609           673.812
       108   05 Jun 2027 09:28:40.939   05 Jun 2027 09:28:40.939             0.000             0.000
       109   05 Jun 2027 09:29:03.128   05 Jun 2027 09:29:09.958             6.830          2333.281
       110   05 Jun 2027 09:29:50.177   05 Jun 2027 09:29:53.156             2.979          1219.562
       111   05 Jun 2027 11:01:55.059   05 Jun 2027 11:02:03.806             8.747          4167.875
       112   05 Jun 2027 11:02:54.019   05 Jun 2027 11:02:54.019             0.000             0.000
       113   05 Jun 2027 11:04:56.613   05 Jun 2027 11:05:08.868            12.255          4346.031
       114   05 Jun 2027 11:05:46.071   05 Jun 2027 11:05:48.340             2.269           414.000
       115   05 Jun 2027 11:06:45.575   05 Jun 2027 11:06:54.397             8.822          1451.813
       116   05 Jun 2027 11:06:56.759   05 Jun 2027 11:06:57.907             1.148            73.812
       117   05 Jun 2027 11:08:29.797   05 Jun 2027 11:08:32.443             2.646          1323.000
       118   05 Jun 2027 11:08:37.611   05 Jun 2027 11:08:41.560             3.949           872.656
       119   06 Jun 2027 03:22:31.361   06 Jun 2027 03:23:08.545            37.184         18592.000
       120   06 Jun 2027 03:23:26.623   06 Jun 2027 03:24:43.884            77.261         38630.500
       121   06 Jun 2027 03:25:53.731   06 Jun 2027 03:27:07.275            73.544         36772.000
       122   06 Jun 2027 03:27:44.447   06 Jun 2027 03:27:49.986             5.539          2769.500
       123   06 Jun 2027 03:28:08.980   06 Jun 2027 03:28:09.861             0.881           440.500
       124   06 Jun 2027 03:28:36.853   06 Jun 2027 03:28:47.077            10.224          5112.000
       125   06 Jun 2027 05:00:44.489   06 Jun 2027 05:01:37.769            53.280         26640.000
       126   06 Jun 2027 05:01:51.194   06 Jun 2027 05:02:59.155            67.961         32723.937
       127   06 Jun 2027 05:04:15.524   06 Jun 2027 05:04:24.016             8.492          2073.656
       128   06 Jun 2027 06:38:59.437   06 Jun 2027 06:39:12.588            13.151          6078.687
       129   06 Jun 2027 06:42:35.605   06 Jun 2027 06:42:36.998             1.393           395.969
       130   06 Jun 2027 08:02:21.418   06 Jun 2027 08:02:33.304            11.886          4785.625
       131   06 Jun 2027 08:03:26.070   06 Jun 2027 08:03:32.837             6.767           959.719
       132   06 Jun 2027 08:04:49.291   06 Jun 2027 08:04:54.072             4.781          2004.656
       133   06 Jun 2027 08:05:09.824   06 Jun 2027 08:05:09.920             0.096            18.000
       134   06 Jun 2027 08:05:14.460   06 Jun 2027 08:05:14.460             0.000             0.000
       135   06 Jun 2027 09:38:57.034   06 Jun 2027 09:39:02.373             5.339          2594.281
       136   06 Jun 2027 09:40:32.232   06 Jun 2027 09:40:40.025             7.793          2231.531
       137   06 Jun 2027 09:41:13.173   06 Jun 2027 09:41:17.437             4.264           619.969
       138   06 Jun 2027 09:41:23.817   06 Jun 2027 09:41:24.622             0.805           182.375
       139   06 Jun 2027 09:41:57.921   06 Jun 2027 09:41:57.981             0.060            17.531
       140   06 Jun 2027 11:14:07.253   06 Jun 2027 11:14:17.092             9.839          4523.750
       141   06 Jun 2027 11:16:53.842   06 Jun 2027 11:17:03.964            10.122          4615.187
       142   06 Jun 2027 11:20:14.934   06 Jun 2027 11:20:14.934             0.000             0.000
       143   06 Jun 2027 11:20:29.943   06 Jun 2027 11:20:42.152            12.209          5975.062
       144   07 Jun 2027 03:34:32.506   07 Jun 2027 03:37:35.736           183.230         91615.000
       145   07 Jun 2027 03:38:00.171   07 Jun 2027 03:38:23.963            23.792         11896.000
       146   07 Jun 2027 03:38:55.373   07 Jun 2027 03:39:17.423            22.050         11025.000
       147   07 Jun 2027 03:39:58.441   07 Jun 2027 03:40:02.766             4.325          2162.500
       148   07 Jun 2027 05:13:50.151   07 Jun 2027 05:15:21.908            91.757         45285.375
       149   07 Jun 2027 05:17:09.870   07 Jun 2027 05:17:15.354             5.484          1547.375
       150   07 Jun 2027 05:17:36.193   07 Jun 2027 05:17:37.597             1.404           634.031
       151   07 Jun 2027 05:20:17.496   07 Jun 2027 05:20:27.132             9.636          4524.344
       152   07 Jun 2027 05:20:39.378   07 Jun 2027 05:20:41.112             1.734           351.500
       153   07 Jun 2027 06:50:56.292   07 Jun 2027 06:51:04.585             8.293          4019.375
       154   07 Jun 2027 06:54:23.120   07 Jun 2027 06:54:23.504             0.384           112.844
       155   07 Jun 2027 08:14:55.288   07 Jun 2027 08:15:18.594            23.306          8070.062
       156   07 Jun 2027 08:15:58.113   07 Jun 2027 08:16:08.350            10.237           979.500
       157   07 Jun 2027 08:17:37.580   07 Jun 2027 08:17:37.580             0.000             0.000
       158   07 Jun 2027 09:50:43.844   07 Jun 2027 09:50:51.430             7.586          3268.281
       159   07 Jun 2027 09:53:14.578   07 Jun 2027 09:53:20.851             6.273          1620.094
       160   07 Jun 2027 11:26:10.384   07 Jun 2027 11:26:28.793            18.409          8812.000
       161   07 Jun 2027 11:28:40.206   07 Jun 2027 11:28:44.873             4.667          1797.500
       162   07 Jun 2027 11:31:16.794   07 Jun 2027 11:31:16.794             0.000             0.000
       163   07 Jun 2027 11:32:02.243   07 Jun 2027 11:32:18.294            16.051          6013.625
       164   07 Jun 2027 11:32:48.006   07 Jun 2027 11:32:52.105             4.099           797.719
       165   08 Jun 2027 03:47:13.302   08 Jun 2027 03:50:05.620           172.318         86159.000
       166   08 Jun 2027 03:50:14.662   08 Jun 2027 03:50:18.958             4.296          2148.000
       167   08 Jun 2027 03:51:00.101   08 Jun 2027 03:51:34.184            34.083         17041.500
       168   08 Jun 2027 03:52:33.853   08 Jun 2027 03:52:39.982             6.129          3064.500
       169   08 Jun 2027 05:25:59.024   08 Jun 2027 05:27:54.121           115.097         57341.938
       170   08 Jun 2027 05:28:30.518   08 Jun 2027 05:28:36.941             6.423          1038.812
       171   08 Jun 2027 05:29:16.374   08 Jun 2027 05:29:18.457             2.083           298.937
       172   08 Jun 2027 05:29:44.182   08 Jun 2027 05:29:46.540             2.358           508.781
       173   08 Jun 2027 05:32:01.034   08 Jun 2027 05:32:13.148            12.114          4202.937
       174   08 Jun 2027 06:51:33.709   08 Jun 2027 06:51:42.257             8.548          4025.844
       175   08 Jun 2027 07:02:54.660   08 Jun 2027 07:03:00.922             6.262          2022.469
       176   08 Jun 2027 07:04:08.586   08 Jun 2027 07:04:09.206             0.620           263.625
       177   08 Jun 2027 08:25:30.527   08 Jun 2027 08:25:44.304            13.777          6317.937
       178   08 Jun 2027 08:26:47.073   08 Jun 2027 08:26:50.325             3.252          1593.062
       179   08 Jun 2027 08:27:31.042   08 Jun 2027 08:27:34.589             3.547          1272.406
       180   08 Jun 2027 08:28:58.405   08 Jun 2027 08:29:03.951             5.546          2268.469
       181   08 Jun 2027 08:29:15.738   08 Jun 2027 08:29:21.386             5.648           182.719
       182   08 Jun 2027 10:01:00.511   08 Jun 2027 10:01:07.528             7.017          2593.250
       183   08 Jun 2027 10:05:00.811   08 Jun 2027 10:05:16.163            15.352          4006.219
       184   08 Jun 2027 10:05:42.876   08 Jun 2027 10:05:45.584             2.708           834.781
       185   08 Jun 2027 10:06:20.136   08 Jun 2027 10:06:21.493             1.357           533.125
       186   08 Jun 2027 11:37:21.531   08 Jun 2027 11:37:38.532            17.001          4213.500
       187   08 Jun 2027 11:43:52.806   08 Jun 2027 11:44:15.942            23.136         11416.438
       188   08 Jun 2027 11:44:53.047   08 Jun 2027 11:44:53.169             0.122            61.000
       189   09 Jun 2027 03:59:21.028   09 Jun 2027 04:00:56.025            94.997         47498.500
       190   09 Jun 2027 04:00:56.402   09 Jun 2027 04:01:44.324            47.922         23961.000
       191   09 Jun 2027 04:02:19.928   09 Jun 2027 04:02:55.363            35.435         17717.500
       192   09 Jun 2027 04:03:46.995   09 Jun 2027 04:03:48.134             1.139           569.500
       193   09 Jun 2027 04:04:49.828   09 Jun 2027 04:05:09.945            20.117         10058.500
       194   09 Jun 2027 05:38:24.945   09 Jun 2027 05:40:18.801           113.856         56928.000
       195   09 Jun 2027 05:40:34.659   09 Jun 2027 05:40:48.979            14.320          6780.000
       196   09 Jun 2027 05:43:41.556   09 Jun 2027 05:43:49.923             8.367          4032.500
       197   09 Jun 2027 05:44:17.772   09 Jun 2027 05:44:19.564             1.792           640.625
       198   09 Jun 2027 07:03:14.097   09 Jun 2027 07:03:24.215            10.118          5059.000
       199   09 Jun 2027 07:04:01.569   09 Jun 2027 07:04:04.407             2.838          1381.438
       200   09 Jun 2027 07:14:54.088   09 Jun 2027 07:15:01.186             7.098          2484.406
       201   09 Jun 2027 08:37:12.254   09 Jun 2027 08:37:31.770            19.516          9020.500
       202   09 Jun 2027 08:38:06.713   09 Jun 2027 08:38:07.427             0.714           260.875
       203   09 Jun 2027 08:39:45.408   09 Jun 2027 08:39:53.687             8.279          2060.812
       204   09 Jun 2027 08:41:08.979   09 Jun 2027 08:41:13.359             4.380          1990.938
       205   09 Jun 2027 08:42:04.388   09 Jun 2027 08:42:07.523             3.135          1424.375
       206   09 Jun 2027 10:12:07.425   09 Jun 2027 10:12:15.231             7.806          2807.531
       207   09 Jun 2027 10:13:19.832   09 Jun 2027 10:13:22.741             2.909          1070.875
       208   09 Jun 2027 10:14:14.212   09 Jun 2027 10:14:18.443             4.231          1493.469
       209   09 Jun 2027 10:17:35.746   09 Jun 2027 10:17:47.801            12.055          5811.563
       210   09 Jun 2027 10:18:36.029   09 Jun 2027 10:18:43.091             7.062          1507.125
       211   09 Jun 2027 11:52:56.334   09 Jun 2027 11:53:22.535            26.201         12393.375
       212   09 Jun 2027 11:53:37.481   09 Jun 2027 11:53:48.951            11.470           115.344
       213   09 Jun 2027 11:55:02.748   09 Jun 2027 11:55:07.872             5.124          2166.906
       214   09 Jun 2027 11:55:54.911   09 Jun 2027 11:55:59.030             4.119          1346.250
       215   09 Jun 2027 11:56:12.654   09 Jun 2027 11:56:13.273             0.619           165.562
       216   09 Jun 2027 11:56:45.992   09 Jun 2027 11:56:50.999             5.007           519.125
       217   10 Jun 2027 04:11:48.257   10 Jun 2027 04:12:05.997            17.740          8870.000
       218   10 Jun 2027 04:12:13.803   10 Jun 2027 04:12:43.465            29.662         14831.000
       219   10 Jun 2027 04:15:19.474   10 Jun 2027 04:15:29.432             9.958          4979.000
       220   10 Jun 2027 04:16:33.493   10 Jun 2027 04:16:39.351             5.858          2929.000
       221   10 Jun 2027 05:50:30.004   10 Jun 2027 05:53:46.764           196.760         98380.000
       222   10 Jun 2027 05:55:06.452   10 Jun 2027 05:56:02.941            56.489         28244.500
       223   10 Jun 2027 05:57:15.030   10 Jun 2027 05:57:20.569             5.539          2613.469
       224   10 Jun 2027 07:14:47.910   10 Jun 2027 07:15:02.064            14.154          6796.062
       225   10 Jun 2027 07:15:31.813   10 Jun 2027 07:15:35.103             3.290           555.500
       226   10 Jun 2027 07:15:57.625   10 Jun 2027 07:15:57.625             0.000             0.000
       227   10 Jun 2027 07:16:19.730   10 Jun 2027 07:16:22.237             2.507          1214.500
       228   10 Jun 2027 07:16:44.893   10 Jun 2027 07:16:45.675             0.782           192.000
       229   10 Jun 2027 07:27:09.856   10 Jun 2027 07:27:19.412             9.556          3154.375
       230   10 Jun 2027 08:48:44.425   10 Jun 2027 08:49:07.099            22.674          9595.375
       231   10 Jun 2027 08:50:52.594   10 Jun 2027 08:50:57.341             4.747           400.781
       232   10 Jun 2027 08:52:12.785   10 Jun 2027 08:52:18.497             5.712          2357.625
       233   10 Jun 2027 08:53:41.522   10 Jun 2027 08:53:46.687             5.165          2068.000
       234   10 Jun 2027 08:54:01.709   10 Jun 2027 08:54:02.875             1.166           318.906
       235   10 Jun 2027 10:23:37.490   10 Jun 2027 10:23:44.543             7.053          2361.375
       236   10 Jun 2027 10:26:05.754   10 Jun 2027 10:26:12.870             7.116           557.000
       237   10 Jun 2027 10:29:17.375   10 Jun 2027 10:29:26.064             8.689          3866.344
       238   10 Jun 2027 10:30:55.190   10 Jun 2027 10:30:57.250             2.060           371.656
       239   10 Jun 2027 10:31:11.441   10 Jun 2027 10:31:12.379             0.938           398.219
       240   10 Jun 2027 10:32:03.022   10 Jun 2027 10:32:07.373             4.351          1322.188
       241   10 Jun 2027 10:32:23.871   10 Jun 2027 10:32:25.072             1.201           193.656
       242   10 Jun 2027 10:32:27.614   10 Jun 2027 10:32:27.818             0.204            11.813
       243   11 Jun 2027 04:24:24.345   11 Jun 2027 04:24:36.733            12.388          6194.000
       244   11 Jun 2027 04:24:47.317   11 Jun 2027 04:25:47.748            60.431         30215.500
       245   11 Jun 2027 04:25:55.890   11 Jun 2027 04:26:24.010            28.120         14060.000
       246   11 Jun 2027 04:26:33.184   11 Jun 2027 04:27:14.660            41.476         20738.000
       247   11 Jun 2027 04:28:30.228   11 Jun 2027 04:29:00.378            30.150         15075.000
       248   11 Jun 2027 06:02:55.321   11 Jun 2027 06:05:25.793           150.472         74322.843
       249   11 Jun 2027 06:06:27.868   11 Jun 2027 06:06:31.598             3.730          1610.938
       250   11 Jun 2027 06:07:45.438   11 Jun 2027 06:07:47.291             1.853           850.344
       251   11 Jun 2027 07:26:43.796   11 Jun 2027 07:27:02.661            18.865          6927.031
       252   11 Jun 2027 07:27:53.317   11 Jun 2027 07:27:59.196             5.879          1376.625
       253   11 Jun 2027 09:02:43.577   11 Jun 2027 09:03:15.742            32.165         11702.469
       254   11 Jun 2027 09:03:19.844   11 Jun 2027 09:03:22.191             2.347           128.188
       255   11 Jun 2027 09:03:26.811   11 Jun 2027 09:03:29.191             2.380            52.594
       256   11 Jun 2027 09:04:23.064   11 Jun 2027 09:04:26.142             3.078          1456.125
       257   11 Jun 2027 09:05:24.463   11 Jun 2027 09:05:29.568             5.105           620.844
       258   11 Jun 2027 09:06:01.429   11 Jun 2027 09:06:06.382             4.953           952.781
       259   11 Jun 2027 10:36:31.263   11 Jun 2027 10:36:38.564             7.301          2994.438
       260   11 Jun 2027 10:38:37.188   11 Jun 2027 10:38:40.653             3.465           623.125
       261   11 Jun 2027 10:39:09.045   11 Jun 2027 10:39:09.045             0.000             0.000
       262   11 Jun 2027 10:41:17.111   11 Jun 2027 10:41:28.503            11.392          4254.594
       263   11 Jun 2027 10:42:10.572   11 Jun 2027 10:42:19.059             8.487          1086.906
       264   11 Jun 2027 10:42:43.267   11 Jun 2027 10:42:49.688             6.421           756.500
       265   11 Jun 2027 10:43:46.080   11 Jun 2027 10:43:50.866             4.786          1346.250
       266   11 Jun 2027 10:44:25.079   11 Jun 2027 10:44:29.929             4.850           893.281
       267   11 Jun 2027 10:44:55.223   11 Jun 2027 10:44:57.952             2.729           633.375
       268   12 Jun 2027 03:00:17.564   12 Jun 2027 03:00:32.318            14.754          7377.000
       269   12 Jun 2027 03:00:45.961   12 Jun 2027 03:00:57.536            11.575          5787.500
       270   12 Jun 2027 03:01:11.217   12 Jun 2027 03:01:21.696            10.479          5239.500
       271   12 Jun 2027 03:02:23.758   12 Jun 2027 03:02:26.281             2.523          1261.500
       272   12 Jun 2027 03:02:31.420   12 Jun 2027 03:02:39.304             7.884          3942.000
       273   12 Jun 2027 03:02:53.082   12 Jun 2027 03:02:53.609             0.527           263.500
       274   12 Jun 2027 03:03:44.215   12 Jun 2027 03:04:03.668            19.453          9726.500
       275   12 Jun 2027 04:36:57.419   12 Jun 2027 04:37:24.088            26.669         13334.500
       276   12 Jun 2027 04:37:35.114   12 Jun 2027 04:39:28.896           113.782         56891.000
       277   12 Jun 2027 04:42:52.390   12 Jun 2027 04:43:06.898            14.508          7254.000
       278   12 Jun 2027 06:15:14.018   12 Jun 2027 06:17:12.501           118.483         58236.344
       279   12 Jun 2027 06:19:03.061   12 Jun 2027 06:19:04.971             1.910           524.469
       280   12 Jun 2027 06:19:25.244   12 Jun 2027 06:19:33.077             7.833           633.531
       281   12 Jun 2027 07:38:36.083   12 Jun 2027 07:38:49.944            13.861          6519.062
       282   12 Jun 2027 07:40:00.587   12 Jun 2027 07:40:04.830             4.243          1815.625
       283   12 Jun 2027 07:40:31.970   12 Jun 2027 07:40:35.014             3.044           296.281
       284   12 Jun 2027 07:41:03.949   12 Jun 2027 07:41:08.483             4.534           385.094
       285   12 Jun 2027 09:14:57.511   12 Jun 2027 09:15:16.340            18.829          8059.500
       286   12 Jun 2027 09:15:46.195   12 Jun 2027 09:15:48.689             2.494           270.375
       287   12 Jun 2027 09:16:36.256   12 Jun 2027 09:16:38.359             2.103          1022.844
       288   12 Jun 2027 09:17:00.758   12 Jun 2027 09:17:01.036             0.278            47.531
       289   12 Jun 2027 09:18:03.633   12 Jun 2027 09:18:03.633             0.000             0.000
       290   12 Jun 2027 10:47:16.372   12 Jun 2027 10:47:23.694             7.322          3587.437
       291   12 Jun 2027 10:49:02.917   12 Jun 2027 10:49:08.166             5.249          1279.094
       292   12 Jun 2027 10:51:02.719   12 Jun 2027 10:51:05.192             2.473           357.563
       293   12 Jun 2027 10:52:14.302   12 Jun 2027 10:52:18.949             4.647          1599.656
       294   12 Jun 2027 10:53:16.130   12 Jun 2027 10:53:16.130             0.000             0.000
       295   12 Jun 2027 10:54:20.251   12 Jun 2027 10:54:28.549             8.298          3282.812
       296   12 Jun 2027 10:55:22.267   12 Jun 2027 10:55:25.278             3.011           451.688
       297   12 Jun 2027 10:56:46.141   12 Jun 2027 10:56:53.479             7.338          1995.750
       298   13 Jun 2027 03:10:50.599   13 Jun 2027 03:11:06.820            16.221          8110.500
       299   13 Jun 2027 03:12:12.787   13 Jun 2027 03:14:08.162           115.375         57687.500
       300   13 Jun 2027 03:14:29.264   13 Jun 2027 03:14:34.580             5.316          2658.000
       301   13 Jun 2027 03:17:17.686   13 Jun 2027 03:17:24.037             6.351          3175.500
       302   13 Jun 2027 03:17:50.458   13 Jun 2027 03:18:06.414            15.956          7978.000
       303   13 Jun 2027 04:49:03.659   13 Jun 2027 04:50:05.342            61.683         30841.500
       304   13 Jun 2027 04:50:11.430   13 Jun 2027 04:51:41.963            90.533         45266.500
       305   13 Jun 2027 04:51:46.347   13 Jun 2027 04:52:00.210            13.863          5376.468
       306   13 Jun 2027 04:53:24.548   13 Jun 2027 04:53:32.439             7.891          2115.500
       307   13 Jun 2027 06:28:07.090   13 Jun 2027 06:28:34.194            27.104         13141.875
       308   13 Jun 2027 06:30:50.202   13 Jun 2027 06:30:51.768             1.566           269.656
       309   13 Jun 2027 07:50:39.140   13 Jun 2027 07:50:53.065            13.925          6943.469
       310   13 Jun 2027 07:52:01.748   13 Jun 2027 07:52:08.392             6.644          2146.344
       311   13 Jun 2027 07:52:20.251   13 Jun 2027 07:52:26.356             6.105            78.094
       312   13 Jun 2027 09:27:04.580   13 Jun 2027 09:27:16.669            12.089          3491.531
       313   13 Jun 2027 09:27:53.226   13 Jun 2027 09:27:54.510             1.284           470.906
       314   13 Jun 2027 09:28:09.052   13 Jun 2027 09:28:11.577             2.525           351.656
       315   13 Jun 2027 09:28:52.526   13 Jun 2027 09:28:55.453             2.927          1115.500
       316   13 Jun 2027 09:29:29.261   13 Jun 2027 09:29:29.261             0.000             0.000
       317   13 Jun 2027 09:30:08.388   13 Jun 2027 09:30:15.686             7.298          2279.219
       318   13 Jun 2027 11:02:12.998   13 Jun 2027 11:02:24.604            11.606          3543.688
       319   13 Jun 2027 11:03:14.018   13 Jun 2027 11:03:15.646             1.628           621.344
       320   13 Jun 2027 11:05:14.289   13 Jun 2027 11:05:22.325             8.036          3232.656
       321   13 Jun 2027 11:07:39.554   13 Jun 2027 11:07:46.972             7.418          3449.656
       322   13 Jun 2027 11:08:01.243   13 Jun 2027 11:08:06.160             4.917            25.312
       323   13 Jun 2027 11:08:46.963   13 Jun 2027 11:08:46.963             0.000             0.000
       324   13 Jun 2027 11:08:54.755   13 Jun 2027 11:08:57.775             3.020          1235.000
