uniorb/output/strategy_4/Camera/Camera_KinoSat_111006.txt

KinoSat_111006
-------------------------
    Access    *     Start Time (UTCG)     *     Stop Time (UTCG)  *   Duration (s) *   Data (Mbytes)
         1   01 Jun 2027 03:17:34.896   01 Jun 2027 03:18:32.992            58.096         29048.000
         2   01 Jun 2027 03:29:48.508   01 Jun 2027 03:30:47.351            58.843         29421.500
         3   01 Jun 2027 04:52:03.419   01 Jun 2027 04:53:08.487            65.068         32534.000
         4   01 Jun 2027 04:56:21.434   01 Jun 2027 04:56:34.675            13.241          6620.500
         5   01 Jun 2027 04:56:44.653   01 Jun 2027 04:56:44.653             0.000             0.000
         6   01 Jun 2027 06:26:56.244   01 Jun 2027 06:28:58.284           122.040         61020.000
         7   01 Jun 2027 06:30:43.963   01 Jun 2027 06:30:51.988             8.025          4012.500
         8   01 Jun 2027 06:33:30.428   01 Jun 2027 06:33:30.428             0.000             0.000
         9   01 Jun 2027 06:34:20.227   01 Jun 2027 06:34:22.763             2.536          1268.000
        10   01 Jun 2027 06:34:59.329   01 Jun 2027 06:35:14.215            14.886          7443.000
        11   01 Jun 2027 08:04:30.741   01 Jun 2027 08:06:16.758           106.017         53008.500
        12   01 Jun 2027 08:07:55.694   01 Jun 2027 08:08:07.692            11.998          5999.000
        13   01 Jun 2027 08:08:58.276   01 Jun 2027 08:09:05.572             7.296          3648.000
        14   01 Jun 2027 08:09:54.802   01 Jun 2027 08:09:57.053             2.251          1125.500
        15   01 Jun 2027 08:10:57.601   01 Jun 2027 08:11:30.379            32.778         16389.000
        16   01 Jun 2027 09:41:13.547   01 Jun 2027 09:43:46.533           152.986         76493.000
        17   01 Jun 2027 09:44:51.587   01 Jun 2027 09:45:03.162            11.575          5787.500
        18   01 Jun 2027 09:45:52.876   01 Jun 2027 09:46:18.538            25.662         12831.000
        19   01 Jun 2027 11:19:17.841   01 Jun 2027 11:21:33.208           135.367         67683.500
        20   01 Jun 2027 11:22:23.627   01 Jun 2027 11:22:37.847            14.220          7110.000
        21   01 Jun 2027 11:23:11.574   01 Jun 2027 11:23:15.127             3.553          1776.500
        22   02 Jun 2027 03:29:40.755   02 Jun 2027 03:29:57.860            17.105          8552.500
        23   02 Jun 2027 03:31:33.310   02 Jun 2027 03:31:34.810             1.500           750.000
        24   02 Jun 2027 03:42:03.077   02 Jun 2027 03:42:21.945            18.868          9434.000
        25   02 Jun 2027 05:03:31.896   02 Jun 2027 05:06:17.787           165.891         82945.500
        26   02 Jun 2027 05:06:37.077   02 Jun 2027 05:06:37.077             0.000             0.000
        27   02 Jun 2027 05:07:00.999   02 Jun 2027 05:07:00.999             0.000             0.000
        28   02 Jun 2027 05:08:02.206   02 Jun 2027 05:08:05.258             3.052          1526.000
        29   02 Jun 2027 05:08:17.158   02 Jun 2027 05:08:32.356            15.198          7599.000
        30   02 Jun 2027 05:08:35.219   02 Jun 2027 05:08:52.417            17.198          8599.000
        31   02 Jun 2027 06:38:26.303   02 Jun 2027 06:41:14.936           168.633         84316.500
        32   02 Jun 2027 06:42:02.068   02 Jun 2027 06:42:26.145            24.077         12038.500
        33   02 Jun 2027 06:44:11.152   02 Jun 2027 06:44:19.133             7.981          3990.500
        34   02 Jun 2027 06:44:38.820   02 Jun 2027 06:44:51.434            12.614          6307.000
        35   02 Jun 2027 06:47:22.577   02 Jun 2027 06:47:29.495             6.918          3459.000
        36   02 Jun 2027 08:16:25.560   02 Jun 2027 08:19:16.046           170.486         85243.000
        37   02 Jun 2027 08:20:19.741   02 Jun 2027 08:20:28.624             8.883          4441.500
        38   02 Jun 2027 08:20:43.150   02 Jun 2027 08:21:16.985            33.835         16917.500
        39   02 Jun 2027 08:22:09.506   02 Jun 2027 08:22:19.246             9.740          4870.000
        40   02 Jun 2027 09:53:21.941   02 Jun 2027 09:53:54.744            32.803         15892.781
        41   02 Jun 2027 09:55:36.737   02 Jun 2027 09:55:43.787             7.050          1876.906
        42   02 Jun 2027 09:57:08.893   02 Jun 2027 09:57:13.792             4.899           964.719
        43   02 Jun 2027 09:58:05.533   02 Jun 2027 09:58:06.749             1.216           350.031
        44   02 Jun 2027 09:58:18.277   02 Jun 2027 09:58:19.534             1.257           360.250
        45   02 Jun 2027 09:59:16.127   02 Jun 2027 09:59:20.635             4.508          1657.688
        46   02 Jun 2027 11:30:55.189   02 Jun 2027 11:31:06.084            10.895          4736.187
        47   02 Jun 2027 11:33:37.659   02 Jun 2027 11:33:40.291             2.632           721.375
        48   02 Jun 2027 11:34:55.200   02 Jun 2027 11:35:02.288             7.088          2140.344
        49   02 Jun 2027 11:35:12.248   02 Jun 2027 11:35:13.716             1.468           267.094
        50   03 Jun 2027 03:41:36.861   03 Jun 2027 03:41:58.715            21.854         10927.000
        51   03 Jun 2027 05:17:49.828   03 Jun 2027 05:20:25.404           155.576         77788.000
        52   03 Jun 2027 05:20:35.417   03 Jun 2027 05:20:55.038            19.621          9810.500
        53   03 Jun 2027 06:51:21.275   03 Jun 2027 06:53:24.850           123.575         61235.031
        54   03 Jun 2027 06:53:45.401   03 Jun 2027 06:53:47.229             1.828           404.313
        55   03 Jun 2027 06:54:06.734   03 Jun 2027 06:54:06.734             0.000             0.000
        56   03 Jun 2027 06:54:28.189   03 Jun 2027 06:54:31.308             3.119          1070.687
        57   03 Jun 2027 06:56:10.323   03 Jun 2027 06:56:17.169             6.846          3094.219
        58   03 Jun 2027 06:56:31.229   03 Jun 2027 06:56:32.389             1.160            75.844
        59   03 Jun 2027 06:57:39.231   03 Jun 2027 06:57:39.231             0.000             0.000
        60   03 Jun 2027 06:58:13.701   03 Jun 2027 06:58:14.909             1.208           604.000
        61   03 Jun 2027 06:58:26.845   03 Jun 2027 06:58:35.954             9.109          2383.969
        62   03 Jun 2027 06:59:07.777   03 Jun 2027 06:59:08.950             1.173           557.875
        63   03 Jun 2027 06:59:55.131   03 Jun 2027 06:59:56.112             0.981           490.500
        64   03 Jun 2027 08:28:47.298   03 Jun 2027 08:28:51.751             4.453          1814.688
        65   03 Jun 2027 08:33:22.800   03 Jun 2027 08:33:25.994             3.194           139.969
        66   03 Jun 2027 08:33:55.127   03 Jun 2027 08:33:57.263             2.136           449.656
        67   03 Jun 2027 08:34:17.056   03 Jun 2027 08:34:18.302             1.246           531.844
        68   03 Jun 2027 08:35:05.646   03 Jun 2027 08:35:07.590             1.944           603.219
        69   03 Jun 2027 10:06:08.160   03 Jun 2027 10:06:21.165            13.005          5452.625
        70   03 Jun 2027 10:06:55.428   03 Jun 2027 10:06:57.337             1.909           512.531
        71   03 Jun 2027 10:07:46.511   03 Jun 2027 10:07:49.921             3.410           611.312
        72   03 Jun 2027 10:09:20.011   03 Jun 2027 10:09:23.811             3.800           653.156
        73   03 Jun 2027 10:09:26.141   03 Jun 2027 10:09:30.822             4.681            13.656
        74   03 Jun 2027 10:09:42.938   03 Jun 2027 10:09:43.975             1.037           190.687
        75   03 Jun 2027 10:10:16.724   03 Jun 2027 10:10:19.559             2.835           647.406
        76   03 Jun 2027 10:11:11.180   03 Jun 2027 10:11:16.845             5.665          1293.563
        77   03 Jun 2027 10:11:31.692   03 Jun 2027 10:11:35.663             3.971           448.156
        78   03 Jun 2027 11:42:37.127   03 Jun 2027 11:42:48.905            11.778          4662.656
        79   03 Jun 2027 11:44:13.702   03 Jun 2027 11:44:16.771             3.069           348.063
        80   03 Jun 2027 11:45:41.626   03 Jun 2027 11:45:45.932             4.306           967.844
        81   03 Jun 2027 11:46:23.738   03 Jun 2027 11:46:26.543             2.805          1077.031
        82   04 Jun 2027 03:53:28.627   04 Jun 2027 03:53:33.977             5.350          2675.000
        83   04 Jun 2027 03:55:01.401   04 Jun 2027 03:55:06.799             5.398          2699.000
        84   04 Jun 2027 03:55:17.338   04 Jun 2027 03:55:17.338             0.000             0.000
        85   04 Jun 2027 05:29:52.945   04 Jun 2027 05:32:08.937           135.992         67996.000
        86   04 Jun 2027 05:32:49.132   04 Jun 2027 05:33:17.847            28.715         14357.500
        87   04 Jun 2027 05:33:25.469   04 Jun 2027 05:33:27.193             1.724           862.000
        88   04 Jun 2027 07:02:04.634   04 Jun 2027 07:02:15.644            11.010          5505.000
        89   04 Jun 2027 07:03:58.607   04 Jun 2027 07:05:56.707           118.100         58456.782
        90   04 Jun 2027 07:06:05.366   04 Jun 2027 07:06:07.319             1.953           192.875
        91   04 Jun 2027 07:06:34.664   04 Jun 2027 07:06:40.067             5.403           146.750
        92   04 Jun 2027 07:08:08.751   04 Jun 2027 07:08:13.160             4.409          2106.281
        93   04 Jun 2027 07:09:04.940   04 Jun 2027 07:09:08.086             3.146          1006.813
        94   04 Jun 2027 07:10:14.599   04 Jun 2027 07:10:28.375            13.776          1661.125
        95   04 Jun 2027 07:10:41.548   04 Jun 2027 07:10:42.746             1.198           357.187
        96   04 Jun 2027 07:11:00.598   04 Jun 2027 07:11:02.302             1.704           294.250
        97   04 Jun 2027 07:11:50.847   04 Jun 2027 07:11:53.152             2.305          1152.500
        98   04 Jun 2027 08:40:58.888   04 Jun 2027 08:41:09.947            11.059          3328.469
        99   04 Jun 2027 08:45:47.861   04 Jun 2027 08:45:48.911             1.050           226.375
       100   04 Jun 2027 08:46:01.934   04 Jun 2027 08:46:03.340             1.406           114.813
       101   04 Jun 2027 08:47:19.363   04 Jun 2027 08:47:24.272             4.909          2102.719
       102   04 Jun 2027 08:47:41.949   04 Jun 2027 08:47:42.974             1.025           512.500
       103   04 Jun 2027 10:17:59.834   04 Jun 2027 10:18:12.340            12.506          6075.844
       104   04 Jun 2027 10:21:16.997   04 Jun 2027 10:21:18.271             1.274            35.187
       105   04 Jun 2027 10:21:48.396   04 Jun 2027 10:21:50.450             2.054           487.719
       106   04 Jun 2027 10:21:59.905   04 Jun 2027 10:22:00.947             1.042           295.469
       107   04 Jun 2027 11:54:41.733   04 Jun 2027 11:54:57.983            16.250          5500.094
       108   04 Jun 2027 11:59:08.035   04 Jun 2027 11:59:15.666             7.631          2334.906
       109   04 Jun 2027 11:59:36.246   04 Jun 2027 11:59:38.467             2.221           426.469
       110   05 Jun 2027 04:05:33.847   05 Jun 2027 04:06:22.582            48.735         24367.500
       111   05 Jun 2027 05:42:02.881   05 Jun 2027 05:44:23.148           140.267         70133.500
       112   05 Jun 2027 07:17:10.256   05 Jun 2027 07:19:25.055           134.799         67076.563
       113   05 Jun 2027 07:20:17.441   05 Jun 2027 07:20:21.740             4.299           348.031
       114   05 Jun 2027 07:21:03.484   05 Jun 2027 07:21:06.085             2.601           841.906
       115   05 Jun 2027 07:21:57.748   05 Jun 2027 07:21:58.186             0.438           180.625
       116   05 Jun 2027 07:22:05.010   05 Jun 2027 07:22:07.128             2.118           149.938
       117   05 Jun 2027 07:23:12.522   05 Jun 2027 07:23:16.935             4.413          1795.812
       118   05 Jun 2027 07:23:40.903   05 Jun 2027 07:23:42.827             1.924           596.500
       119   05 Jun 2027 08:53:31.528   05 Jun 2027 08:53:42.599            11.071          5228.844
       120   05 Jun 2027 08:58:07.058   05 Jun 2027 08:58:08.602             1.544           427.187
       121   05 Jun 2027 08:58:59.926   05 Jun 2027 08:59:01.705             1.779           469.406
       122   05 Jun 2027 08:59:36.257   05 Jun 2027 08:59:39.990             3.733          1079.750
       123   05 Jun 2027 10:30:58.045   05 Jun 2027 10:31:14.774            16.729          5631.563
       124   05 Jun 2027 10:33:34.178   05 Jun 2027 10:33:35.034             0.856           211.281
       125   05 Jun 2027 10:33:43.953   05 Jun 2027 10:33:45.603             1.650           248.062
       126   05 Jun 2027 10:34:00.399   05 Jun 2027 10:34:03.146             2.747           154.031
       127   05 Jun 2027 10:34:22.907   05 Jun 2027 10:34:24.998             2.091           243.719
       128   06 Jun 2027 04:17:37.104   06 Jun 2027 04:18:12.476            35.372         17686.000
       129   06 Jun 2027 04:20:22.321   06 Jun 2027 04:20:27.900             5.579          2789.500
       130   06 Jun 2027 05:54:06.048   06 Jun 2027 05:56:45.586           159.538         79769.000
       131   06 Jun 2027 07:29:17.171   06 Jun 2027 07:31:04.089           106.918         52590.313
       132   06 Jun 2027 07:31:35.497   06 Jun 2027 07:31:36.628             1.131           458.469
       133   06 Jun 2027 07:32:04.240   06 Jun 2027 07:32:04.773             0.533            45.344
       134   06 Jun 2027 07:32:38.913   06 Jun 2027 07:32:40.774             1.861           885.875
       135   06 Jun 2027 07:34:14.994   06 Jun 2027 07:34:24.634             9.640          2204.500
       136   06 Jun 2027 07:35:10.489   06 Jun 2027 07:35:14.080             3.591          1064.250
       137   06 Jun 2027 07:35:28.242   06 Jun 2027 07:35:29.063             0.821           301.531
       138   06 Jun 2027 09:05:14.004   06 Jun 2027 09:05:24.314            10.310          3958.344
       139   06 Jun 2027 09:09:28.997   06 Jun 2027 09:09:33.520             4.523          1340.969
       140   06 Jun 2027 09:10:34.391   06 Jun 2027 09:10:36.901             2.510          1092.437
       141   06 Jun 2027 10:43:04.875   06 Jun 2027 10:43:20.031            15.156          6189.187
       142   06 Jun 2027 10:45:34.934   06 Jun 2027 10:45:36.170             1.236            27.531
       143   06 Jun 2027 10:46:00.672   06 Jun 2027 10:46:02.542             1.870           765.688
       144   06 Jun 2027 10:46:10.464   06 Jun 2027 10:46:11.376             0.912           116.531
       145   06 Jun 2027 10:46:46.928   06 Jun 2027 10:46:50.133             3.205           370.469
       146   06 Jun 2027 10:47:20.339   06 Jun 2027 10:47:21.698             1.359           310.094
       147   07 Jun 2027 03:06:06.509   07 Jun 2027 03:06:28.536            22.027         11013.500
       148   07 Jun 2027 03:06:46.755   07 Jun 2027 03:07:14.488            27.733         13866.500
       149   07 Jun 2027 03:08:51.048   07 Jun 2027 03:08:52.031             0.983           491.500
       150   07 Jun 2027 03:09:22.523   07 Jun 2027 03:09:37.191            14.668          7334.000
       151   07 Jun 2027 04:30:03.784   07 Jun 2027 04:30:27.980            24.196         12098.000
       152   07 Jun 2027 04:30:47.516   07 Jun 2027 04:30:57.158             9.642          4821.000
       153   07 Jun 2027 04:31:33.512   07 Jun 2027 04:32:06.922            33.410         16705.000
       154   07 Jun 2027 06:05:50.362   07 Jun 2027 06:08:36.216           165.854         82927.000
       155   07 Jun 2027 06:09:11.075   07 Jun 2027 06:09:19.509             8.434          4217.000
       156   07 Jun 2027 06:10:02.151   07 Jun 2027 06:10:02.151             0.000             0.000
       157   07 Jun 2027 07:40:33.391   07 Jun 2027 07:40:47.939            14.548          3964.437
       158   07 Jun 2027 07:41:22.820   07 Jun 2027 07:41:22.820             0.000             0.000
       159   07 Jun 2027 07:42:33.203   07 Jun 2027 07:42:39.468             6.265          2391.875
       160   07 Jun 2027 07:43:57.943   07 Jun 2027 07:43:59.948             2.005           149.125
       161   07 Jun 2027 07:44:41.035   07 Jun 2027 07:44:41.789             0.754           177.406
       162   07 Jun 2027 07:46:14.312   07 Jun 2027 07:46:19.119             4.807          2074.531
       163   07 Jun 2027 07:47:44.681   07 Jun 2027 07:47:53.278             8.597          2167.625
       164   07 Jun 2027 09:17:18.876   07 Jun 2027 09:17:29.341            10.465          4514.125
       165   07 Jun 2027 09:21:04.667   07 Jun 2027 09:21:06.027             1.360           130.156
       166   07 Jun 2027 09:21:49.273   07 Jun 2027 09:21:51.506             2.233           950.594
       167   07 Jun 2027 09:22:12.210   07 Jun 2027 09:22:18.362             6.152           296.500
       168   07 Jun 2027 09:22:29.362   07 Jun 2027 09:22:29.965             0.603            44.969
       169   07 Jun 2027 09:23:00.367   07 Jun 2027 09:23:02.987             2.620           758.344
       170   07 Jun 2027 10:55:35.182   07 Jun 2027 10:55:49.687            14.505          5913.844
       171   07 Jun 2027 10:56:30.562   07 Jun 2027 10:56:34.199             3.637          1174.469
       172   07 Jun 2027 10:57:36.659   07 Jun 2027 10:57:40.060             3.401           740.719
       173   07 Jun 2027 10:58:50.732   07 Jun 2027 10:59:02.752            12.020          2208.500
       174   07 Jun 2027 10:59:12.009   07 Jun 2027 10:59:14.110             2.101           212.031
       175   07 Jun 2027 10:59:24.255   07 Jun 2027 10:59:27.010             2.755           317.031
       176   08 Jun 2027 03:06:29.423   08 Jun 2027 03:06:45.313            15.890          7945.000
       177   08 Jun 2027 03:07:07.232   08 Jun 2027 03:07:10.291             3.059          1529.500
       178   08 Jun 2027 03:18:04.632   08 Jun 2027 03:19:42.409            97.777         48888.500
       179   08 Jun 2027 04:40:41.620   08 Jun 2027 04:41:40.150            58.530         29265.000
       180   08 Jun 2027 04:42:19.242   08 Jun 2027 04:42:49.321            30.079         15039.500
       181   08 Jun 2027 04:43:37.514   08 Jun 2027 04:44:03.691            26.177         13088.500
       182   08 Jun 2027 06:15:50.932   08 Jun 2027 06:17:04.835            73.903         36951.500
       183   08 Jun 2027 06:17:33.514   08 Jun 2027 06:17:41.565             8.051          3750.907
       184   08 Jun 2027 06:18:57.164   08 Jun 2027 06:19:03.080             5.916          1789.438
       185   08 Jun 2027 06:19:25.462   08 Jun 2027 06:19:27.592             2.130           494.562
       186   08 Jun 2027 06:20:26.505   08 Jun 2027 06:20:27.641             1.136           568.000
       187   08 Jun 2027 06:21:05.492   08 Jun 2027 06:21:11.978             6.486          1902.031
       188   08 Jun 2027 06:21:40.751   08 Jun 2027 06:21:44.638             3.887           257.281
       189   08 Jun 2027 06:21:52.479   08 Jun 2027 06:22:01.448             8.969           141.656
       190   08 Jun 2027 06:22:23.593   08 Jun 2027 06:22:24.406             0.813           406.500
       191   08 Jun 2027 07:52:38.192   08 Jun 2027 07:52:42.317             4.125          1499.313
       192   08 Jun 2027 07:54:33.384   08 Jun 2027 07:54:38.568             5.184          2198.406
       193   08 Jun 2027 07:56:42.887   08 Jun 2027 07:56:48.471             5.584          1586.125
       194   08 Jun 2027 07:57:30.143   08 Jun 2027 07:57:31.710             1.567           644.531
       195   08 Jun 2027 07:58:34.480   08 Jun 2027 07:58:39.019             4.539          1842.500
       196   08 Jun 2027 07:59:12.963   08 Jun 2027 07:59:14.918             1.955           958.875
       197   08 Jun 2027 08:00:04.005   08 Jun 2027 08:00:04.481             0.476           165.687
       198   08 Jun 2027 09:29:39.233   08 Jun 2027 09:29:49.825            10.592          4912.219
       199   08 Jun 2027 09:33:20.661   08 Jun 2027 09:33:24.901             4.240            21.000
       200   08 Jun 2027 09:33:35.773   08 Jun 2027 09:33:37.388             1.615            94.062
       201   08 Jun 2027 09:34:06.235   08 Jun 2027 09:34:09.321             3.086           215.656
       202   08 Jun 2027 09:34:29.416   08 Jun 2027 09:34:30.584             1.168           177.813
       203   08 Jun 2027 09:35:17.701   08 Jun 2027 09:35:21.603             3.902          1272.188
       204   08 Jun 2027 09:35:47.631   08 Jun 2027 09:35:47.737             0.106            53.000
       205   08 Jun 2027 11:07:32.802   08 Jun 2027 11:07:44.439            11.637          5101.469
       206   08 Jun 2027 11:09:08.958   08 Jun 2027 11:09:10.110             1.152           450.656
       207   08 Jun 2027 11:09:45.502   08 Jun 2027 11:09:48.071             2.569           351.688
       208   08 Jun 2027 11:10:02.609   08 Jun 2027 11:10:03.653             1.044           111.688
       209   08 Jun 2027 11:10:37.528   08 Jun 2027 11:10:40.866             3.338           629.563
       210   08 Jun 2027 11:11:10.174   08 Jun 2027 11:11:11.659             1.485           391.313
       211   08 Jun 2027 11:11:23.135   08 Jun 2027 11:11:25.369             2.234           222.937
       212   09 Jun 2027 03:17:50.003   09 Jun 2027 03:18:32.385            42.382         21191.000
       213   09 Jun 2027 03:30:03.728   09 Jun 2027 03:31:02.144            58.416         29208.000
       214   09 Jun 2027 04:52:17.552   09 Jun 2027 04:53:25.473            67.921         33960.500
       215   09 Jun 2027 04:54:13.760   09 Jun 2027 04:55:00.551            46.791         23395.500
       216   09 Jun 2027 04:56:35.675   09 Jun 2027 04:56:46.523            10.848          5424.000
       217   09 Jun 2027 04:57:12.975   09 Jun 2027 04:57:32.662            19.687          9843.500
       218   09 Jun 2027 06:27:10.981   09 Jun 2027 06:28:23.618            72.637         36279.719
       219   09 Jun 2027 06:28:38.515   09 Jun 2027 06:28:41.011             2.496           465.531
       220   09 Jun 2027 06:29:21.558   09 Jun 2027 06:29:24.048             2.490          1124.406
       221   09 Jun 2027 06:29:55.072   09 Jun 2027 06:29:57.284             2.212           534.031
       222   09 Jun 2027 06:30:25.840   09 Jun 2027 06:30:27.980             2.140            55.406
       223   09 Jun 2027 06:30:40.275   09 Jun 2027 06:30:42.768             2.493           275.000
       224   09 Jun 2027 06:30:58.551   09 Jun 2027 06:31:00.098             1.547           493.219
       225   09 Jun 2027 06:32:26.800   09 Jun 2027 06:32:32.877             6.077          2464.219
       226   09 Jun 2027 06:33:39.218   09 Jun 2027 06:33:43.987             4.769          1774.156
       227   09 Jun 2027 06:33:48.582   09 Jun 2027 06:33:49.958             1.376            79.094
       228   09 Jun 2027 06:34:38.682   09 Jun 2027 06:34:42.777             4.095          1217.969
       229   09 Jun 2027 08:04:45.633   09 Jun 2027 08:04:53.744             8.111          2435.656
       230   09 Jun 2027 08:06:32.988   09 Jun 2027 08:06:39.447             6.459          2101.531
       231   09 Jun 2027 08:09:06.214   09 Jun 2027 08:09:08.602             2.388           147.531
       232   09 Jun 2027 08:10:10.643   09 Jun 2027 08:10:14.002             3.359          1496.406
       233   09 Jun 2027 08:10:44.946   09 Jun 2027 08:10:49.162             4.216           864.781
       234   09 Jun 2027 08:11:53.656   09 Jun 2027 08:12:00.035             6.379          1720.969
       235   09 Jun 2027 08:12:07.603   09 Jun 2027 08:12:08.089             0.486           214.844
       236   09 Jun 2027 09:41:28.655   09 Jun 2027 09:41:38.265             9.610          4656.219
       237   09 Jun 2027 09:42:38.188   09 Jun 2027 09:42:39.394             1.206           582.813
       238   09 Jun 2027 09:44:06.094   09 Jun 2027 09:44:14.789             8.695          2271.000
       239   09 Jun 2027 09:45:06.192   09 Jun 2027 09:45:08.413             2.221           901.156
       240   09 Jun 2027 09:45:36.515   09 Jun 2027 09:45:39.465             2.950           590.813
       241   09 Jun 2027 09:45:46.632   09 Jun 2027 09:45:48.161             1.529            86.406
       242   09 Jun 2027 09:45:48.202   09 Jun 2027 09:45:53.344             5.142             1.281
       243   09 Jun 2027 09:46:10.952   09 Jun 2027 09:46:13.299             2.347           452.969
       244   09 Jun 2027 09:46:52.756   09 Jun 2027 09:46:57.732             4.976          1044.000
       245   09 Jun 2027 09:47:27.246   09 Jun 2027 09:47:28.489             1.243           586.844
       246   09 Jun 2027 09:47:48.822   09 Jun 2027 09:47:56.128             7.306           635.406
       247   09 Jun 2027 11:19:32.483   09 Jun 2027 11:19:45.812            13.329          4982.469
       248   09 Jun 2027 11:20:20.448   09 Jun 2027 11:20:24.831             4.383            38.594
       249   09 Jun 2027 11:21:50.416   09 Jun 2027 11:21:53.421             3.005           556.656
       250   09 Jun 2027 11:22:53.850   09 Jun 2027 11:22:55.098             1.248           341.187
       251   09 Jun 2027 11:23:33.745   09 Jun 2027 11:23:37.982             4.237          1173.594
       252   10 Jun 2027 03:29:55.630   10 Jun 2027 03:30:12.820            17.190          8595.000
       253   10 Jun 2027 03:31:47.824   10 Jun 2027 03:31:49.906             2.082          1041.000
       254   10 Jun 2027 03:42:18.939   10 Jun 2027 03:42:36.669            17.730          8865.000
       255   10 Jun 2027 05:03:46.489   10 Jun 2027 05:06:58.696           192.207         96103.500
       256   10 Jun 2027 05:07:26.833   10 Jun 2027 05:07:26.833             0.000             0.000
       257   10 Jun 2027 05:08:48.844   10 Jun 2027 05:08:50.657             1.813           906.500
       258   10 Jun 2027 05:09:12.270   10 Jun 2027 05:09:38.746            26.476         13238.000
       259   10 Jun 2027 06:38:40.840   10 Jun 2027 06:39:43.083            62.243         30933.594
       260   10 Jun 2027 06:40:39.498   10 Jun 2027 06:40:42.765             3.267          1531.906
       261   10 Jun 2027 06:41:15.190   10 Jun 2027 06:41:16.113             0.923           461.500
       262   10 Jun 2027 06:41:23.115   10 Jun 2027 06:41:25.012             1.897           348.156
       263   10 Jun 2027 06:42:12.654   10 Jun 2027 06:42:17.248             4.594          1205.688
       264   10 Jun 2027 06:42:42.537   10 Jun 2027 06:42:46.004             3.467           477.312
       265   10 Jun 2027 06:43:23.930   10 Jun 2027 06:43:29.508             5.578          1185.188
       266   10 Jun 2027 06:44:16.881   10 Jun 2027 06:44:18.713             1.832           846.188
       267   10 Jun 2027 06:44:45.434   10 Jun 2027 06:44:48.132             2.698           589.719
       268   10 Jun 2027 06:45:31.004   10 Jun 2027 06:45:34.025             3.021           185.781
       269   10 Jun 2027 06:45:55.437   10 Jun 2027 06:45:57.147             1.710           669.125
       270   10 Jun 2027 06:46:28.464   10 Jun 2027 06:46:29.921             1.457           679.156
       271   10 Jun 2027 06:47:11.446   10 Jun 2027 06:47:13.996             2.550          1038.344
       272   10 Jun 2027 08:16:40.860   10 Jun 2027 08:16:45.095             4.235           391.688
       273   10 Jun 2027 08:18:31.908   10 Jun 2027 08:18:37.773             5.865          2808.500
       274   10 Jun 2027 08:20:36.919   10 Jun 2027 08:20:43.714             6.795          1988.563
       275   10 Jun 2027 08:21:34.351   10 Jun 2027 08:21:38.043             3.692          1067.469
       276   10 Jun 2027 08:22:59.217   10 Jun 2027 08:23:03.051             3.834           786.656
       277   10 Jun 2027 08:23:35.683   10 Jun 2027 08:23:39.980             4.297           595.312
       278   10 Jun 2027 09:53:36.153   10 Jun 2027 09:53:45.487             9.334          3871.375
       279   10 Jun 2027 09:54:52.694   10 Jun 2027 09:54:56.258             3.564           916.250
       280   10 Jun 2027 09:57:24.792   10 Jun 2027 09:57:28.541             3.749          1015.281
       281   10 Jun 2027 09:58:03.519   10 Jun 2027 09:58:05.207             1.688           435.656
       282   10 Jun 2027 09:58:10.912   10 Jun 2027 09:58:12.415             1.503           178.281
       283   10 Jun 2027 09:58:47.901   10 Jun 2027 09:58:50.413             2.512           902.594
       284   10 Jun 2027 09:59:59.377   10 Jun 2027 10:00:01.471             2.094           844.687
       285   10 Jun 2027 11:31:09.984   10 Jun 2027 11:31:28.911            18.927          6335.562
       286   10 Jun 2027 11:34:09.755   10 Jun 2027 11:34:10.789             1.034           466.313
       287   10 Jun 2027 11:34:36.026   10 Jun 2027 11:34:37.523             1.497           117.687
       288   10 Jun 2027 11:35:12.128   10 Jun 2027 11:35:13.572             1.444            40.156
       289   10 Jun 2027 11:35:39.329   10 Jun 2027 11:35:40.568             1.239           377.906
       290   11 Jun 2027 03:41:52.032   11 Jun 2027 03:42:13.282            21.250         10625.000
       291   11 Jun 2027 05:18:04.379   11 Jun 2027 05:21:13.917           189.538         94769.000
       292   11 Jun 2027 06:51:36.835   11 Jun 2027 06:53:18.083           101.248         49806.625
       293   11 Jun 2027 06:54:01.589   11 Jun 2027 06:54:05.904             4.315           411.844
       294   11 Jun 2027 06:54:21.573   11 Jun 2027 06:54:23.183             1.610           374.562
       295   11 Jun 2027 06:55:11.870   11 Jun 2027 06:55:16.091             4.221           853.187
       296   11 Jun 2027 06:55:52.542   11 Jun 2027 06:55:57.863             5.321           985.062
       297   11 Jun 2027 06:57:48.963   11 Jun 2027 06:57:53.778             4.815          2407.500
       298   11 Jun 2027 06:58:29.729   11 Jun 2027 06:58:35.427             5.698          1863.031
       299   11 Jun 2027 06:59:12.491   11 Jun 2027 06:59:13.821             1.330           665.000
       300   11 Jun 2027 06:59:42.868   11 Jun 2027 06:59:49.189             6.321          1400.969
       301   11 Jun 2027 08:29:02.859   11 Jun 2027 08:29:15.021            12.162          4888.187
       302   11 Jun 2027 08:34:14.777   11 Jun 2027 08:34:15.658             0.881           269.562
       303   11 Jun 2027 08:35:00.043   11 Jun 2027 08:35:02.854             2.811           894.250
       304   11 Jun 2027 08:35:31.104   11 Jun 2027 08:35:32.869             1.765           321.281
       305   11 Jun 2027 08:35:42.006   11 Jun 2027 08:35:42.640             0.634           285.531
       306   11 Jun 2027 10:06:05.345   11 Jun 2027 10:06:08.292             2.947          1473.500
       307   11 Jun 2027 10:06:23.760   11 Jun 2027 10:06:34.983            11.223          4545.313
       308   11 Jun 2027 10:08:14.062   11 Jun 2027 10:08:21.220             7.158           394.844
       309   11 Jun 2027 10:09:53.958   11 Jun 2027 10:09:57.155             3.197          1029.063
       310   11 Jun 2027 10:09:58.594   11 Jun 2027 10:09:58.846             0.252            44.969
       311   11 Jun 2027 10:10:23.601   11 Jun 2027 10:10:27.228             3.627           727.188
       312   11 Jun 2027 10:10:50.528   11 Jun 2027 10:10:53.232             2.704           554.562
       313   11 Jun 2027 10:11:34.985   11 Jun 2027 10:11:44.088             9.103          1137.500
       314   11 Jun 2027 11:42:53.317   11 Jun 2027 11:43:05.145            11.828          4776.406
       315   11 Jun 2027 11:44:18.700   11 Jun 2027 11:44:20.423             1.723           713.312
       316   11 Jun 2027 11:45:41.358   11 Jun 2027 11:45:47.124             5.766           630.094
       317   11 Jun 2027 11:46:06.379   11 Jun 2027 11:46:10.747             4.368           585.625
       318   11 Jun 2027 11:46:31.756   11 Jun 2027 11:46:34.660             2.904           646.313
       319   11 Jun 2027 11:47:22.229   11 Jun 2027 11:47:25.070             2.841          1332.063
       320   11 Jun 2027 11:47:32.425   11 Jun 2027 11:47:34.074             1.649           155.813
       321   12 Jun 2027 03:53:43.360   12 Jun 2027 03:54:36.688            53.328         26664.000
       322   12 Jun 2027 05:30:10.428   12 Jun 2027 05:32:23.630           133.202         66601.000
       323   12 Jun 2027 05:33:03.781   12 Jun 2027 05:33:14.362            10.581          5290.500
       324   12 Jun 2027 07:02:20.005   12 Jun 2027 07:02:29.480             9.475          4737.500
       325   12 Jun 2027 07:04:15.598   12 Jun 2027 07:06:05.626           110.028         54737.625
       326   12 Jun 2027 07:06:21.200   12 Jun 2027 07:06:23.094             1.894           225.562
       327   12 Jun 2027 07:07:17.653   12 Jun 2027 07:07:21.243             3.590           780.563
       328   12 Jun 2027 07:09:10.446   12 Jun 2027 07:09:21.360            10.914          2742.000
       329   12 Jun 2027 07:09:35.879   12 Jun 2027 07:09:39.872             3.993           453.719
       330   12 Jun 2027 07:10:30.561   12 Jun 2027 07:10:30.605             0.044            22.000
       331   12 Jun 2027 07:10:47.840   12 Jun 2027 07:10:51.817             3.977          1873.281
       332   12 Jun 2027 07:11:26.192   12 Jun 2027 07:11:28.189             1.997           896.000
       333   12 Jun 2027 07:11:43.548   12 Jun 2027 07:11:43.870             0.322            13.219
       334   12 Jun 2027 07:12:05.896   12 Jun 2027 07:12:07.627             1.731           185.719
       335   12 Jun 2027 08:41:13.974   12 Jun 2027 08:41:26.442            12.468          3483.281
       336   12 Jun 2027 08:46:07.143   12 Jun 2027 08:46:10.026             2.883           104.656
       337   12 Jun 2027 08:46:16.673   12 Jun 2027 08:46:22.557             5.884            99.469
       338   12 Jun 2027 08:47:09.039   12 Jun 2027 08:47:15.833             6.794          1300.656
       339   12 Jun 2027 10:18:18.974   12 Jun 2027 10:18:33.341            14.367          6254.688
       340   12 Jun 2027 10:21:08.689   12 Jun 2027 10:21:11.984             3.295             1.188
       341   12 Jun 2027 10:21:37.479   12 Jun 2027 10:21:38.458             0.979           193.281
       342   12 Jun 2027 10:22:03.661   12 Jun 2027 10:22:06.159             2.498           480.688
       343   12 Jun 2027 10:22:12.200   12 Jun 2027 10:22:12.992             0.792            62.688
       344   12 Jun 2027 10:22:32.084   12 Jun 2027 10:22:33.211             1.127           545.781
       345   12 Jun 2027 11:54:56.852   12 Jun 2027 11:55:15.981            19.129          8094.531
       346   12 Jun 2027 11:57:43.074   12 Jun 2027 11:57:43.611             0.537           127.750
       347   12 Jun 2027 11:58:30.297   12 Jun 2027 11:58:33.988             3.691           878.156
       348   12 Jun 2027 11:59:40.753   12 Jun 2027 11:59:41.794             1.041           428.188
       349   13 Jun 2027 04:05:49.392   13 Jun 2027 04:06:39.035            49.643         24821.500
       350   13 Jun 2027 05:42:18.043   13 Jun 2027 05:44:38.636           140.593         70296.500
       351   13 Jun 2027 05:45:17.369   13 Jun 2027 05:45:17.386             0.017             8.500
       352   13 Jun 2027 07:17:25.800   13 Jun 2027 07:19:38.422           132.622         65702.937
       353   13 Jun 2027 07:20:33.711   13 Jun 2027 07:20:36.783             3.072           377.656
       354   13 Jun 2027 07:21:09.568   13 Jun 2027 07:21:11.020             1.452           499.312
       355   13 Jun 2027 07:22:31.036   13 Jun 2027 07:22:31.036             0.000             0.000
       356   13 Jun 2027 07:22:51.035   13 Jun 2027 07:23:03.830            12.795          2843.469
       357   13 Jun 2027 07:23:18.993   13 Jun 2027 07:23:20.718             1.725           473.844
       358   13 Jun 2027 07:23:41.583   13 Jun 2027 07:23:41.583             0.000             0.000
       359   13 Jun 2027 07:23:47.875   13 Jun 2027 07:23:49.884             2.009           601.719
       360   13 Jun 2027 07:24:00.050   13 Jun 2027 07:24:01.584             1.534           317.687
       361   13 Jun 2027 08:53:47.470   13 Jun 2027 08:54:03.316            15.846          6331.938
       362   13 Jun 2027 08:55:42.719   13 Jun 2027 08:55:47.926             5.207          1848.000
       363   13 Jun 2027 08:56:33.169   13 Jun 2027 08:56:35.279             2.110           386.062
       364   13 Jun 2027 08:57:00.609   13 Jun 2027 08:57:02.343             1.734           426.781
       365   13 Jun 2027 08:58:00.170   13 Jun 2027 08:58:02.736             2.566           951.125
       366   13 Jun 2027 08:58:21.767   13 Jun 2027 08:58:23.736             1.969           379.219
       367   13 Jun 2027 08:59:03.608   13 Jun 2027 08:59:09.834             6.226           137.437
       368   13 Jun 2027 10:31:12.921   13 Jun 2027 10:31:30.186            17.265          6379.156
       369   13 Jun 2027 10:33:29.163   13 Jun 2027 10:33:31.254             2.091           139.344
       370   13 Jun 2027 10:33:49.645   13 Jun 2027 10:33:50.004             0.359           151.625
       371   13 Jun 2027 10:34:01.349   13 Jun 2027 10:34:01.811             0.462            70.188
       372   13 Jun 2027 10:34:38.388   13 Jun 2027 10:34:39.730             1.342           247.719
       373   13 Jun 2027 10:35:18.503   13 Jun 2027 10:35:27.111             8.608            19.125
