uniorb/output/strategy_4/Camera/Camera_KinoSat_111906.txt

KinoSat_111906
-------------------------
    Access    *     Start Time (UTCG)     *     Stop Time (UTCG)  *   Duration (s) *   Data (Mbytes)
         1   01 Jun 2027 04:28:53.006   01 Jun 2027 04:28:55.270             2.264          1132.000
         2   01 Jun 2027 04:29:14.628   01 Jun 2027 04:30:14.047            59.419         29709.500
         3   01 Jun 2027 04:30:19.239   01 Jun 2027 04:31:39.969            80.730         40365.000
         4   01 Jun 2027 04:32:07.166   01 Jun 2027 04:32:11.206             4.040          2020.000
         5   01 Jun 2027 04:32:43.507   01 Jun 2027 04:32:45.339             1.832           916.000
         6   01 Jun 2027 04:34:08.098   01 Jun 2027 04:34:08.098             0.000             0.000
         7   01 Jun 2027 06:07:40.115   01 Jun 2027 06:10:05.663           145.548         72774.000
         8   01 Jun 2027 06:10:41.058   01 Jun 2027 06:10:41.527             0.469           234.500
         9   01 Jun 2027 06:11:18.486   01 Jun 2027 06:11:30.213            11.727          5863.500
        10   01 Jun 2027 07:31:09.025   01 Jun 2027 07:33:06.069           117.044         58522.000
        11   01 Jun 2027 09:07:09.826   01 Jun 2027 09:08:14.060            64.234         32117.000
        12   01 Jun 2027 09:08:32.210   01 Jun 2027 09:09:07.707            35.497         17748.500
        13   01 Jun 2027 10:40:53.667   01 Jun 2027 10:43:32.758           159.091         79545.500
        14   01 Jun 2027 10:45:41.650   01 Jun 2027 10:45:43.287             1.637           818.500
        15   01 Jun 2027 10:48:32.920   01 Jun 2027 10:49:28.398            55.478         27739.000
        16   02 Jun 2027 03:03:12.638   02 Jun 2027 03:03:21.191             8.553          4276.500
        17   02 Jun 2027 03:03:33.309   02 Jun 2027 03:03:33.309             0.000             0.000
        18   02 Jun 2027 03:03:39.478   02 Jun 2027 03:03:51.792            12.314          6157.000
        19   02 Jun 2027 03:05:00.578   02 Jun 2027 03:05:10.586            10.008          5004.000
        20   02 Jun 2027 03:05:31.699   02 Jun 2027 03:05:46.391            14.692          7346.000
        21   02 Jun 2027 03:05:55.703   02 Jun 2027 03:06:16.259            20.556         10278.000
        22   02 Jun 2027 03:07:06.069   02 Jun 2027 03:07:11.807             5.738          2869.000
        23   02 Jun 2027 03:07:29.567   02 Jun 2027 03:07:36.341             6.774          3387.000
        24   02 Jun 2027 03:08:11.003   02 Jun 2027 03:08:24.457            13.454          6727.000
        25   02 Jun 2027 03:08:47.694   02 Jun 2027 03:08:56.347             8.653          4326.500
        26   02 Jun 2027 04:41:17.178   02 Jun 2027 04:41:45.274            28.096         14048.000
        27   02 Jun 2027 04:41:49.229   02 Jun 2027 04:43:17.940            88.711         44355.500
        28   02 Jun 2027 04:43:32.369   02 Jun 2027 04:43:38.410             6.041          3020.500
        29   02 Jun 2027 04:45:11.657   02 Jun 2027 04:46:12.049            60.392         30196.000
        30   02 Jun 2027 06:19:19.763   02 Jun 2027 06:22:00.449           160.686         80343.000
        31   02 Jun 2027 07:42:59.428   02 Jun 2027 07:44:56.366           116.938         58469.000
        32   02 Jun 2027 09:19:26.378   02 Jun 2027 09:21:52.365           145.987         72993.500
        33   02 Jun 2027 10:51:35.386   02 Jun 2027 10:51:45.277             9.891          4945.500
        34   02 Jun 2027 10:53:32.968   02 Jun 2027 10:54:28.744            55.776         26482.938
        35   02 Jun 2027 10:57:05.158   02 Jun 2027 10:57:14.020             8.862          3179.094
        36   02 Jun 2027 10:58:41.032   02 Jun 2027 10:58:46.423             5.391          2087.906
        37   02 Jun 2027 10:58:47.855   02 Jun 2027 10:58:49.287             1.432            14.813
        38   02 Jun 2027 11:00:17.686   02 Jun 2027 11:00:17.734             0.048            24.000
        39   02 Jun 2027 11:01:04.313   02 Jun 2027 11:01:10.562             6.249          2787.813
        40   02 Jun 2027 11:01:23.581   02 Jun 2027 11:01:26.268             2.687           384.969
        41   03 Jun 2027 03:15:15.520   03 Jun 2027 03:15:25.565            10.045          5022.500
        42   03 Jun 2027 03:15:55.593   03 Jun 2027 03:16:08.113            12.520          6260.000
        43   03 Jun 2027 03:16:28.647   03 Jun 2027 03:18:42.866           134.219         67109.500
        44   03 Jun 2027 03:20:23.923   03 Jun 2027 03:20:25.982             2.059          1029.500
        45   03 Jun 2027 03:20:31.966   03 Jun 2027 03:20:44.789            12.823          6411.500
        46   03 Jun 2027 03:22:31.195   03 Jun 2027 03:22:35.769             4.574          2287.000
        47   03 Jun 2027 04:53:24.994   03 Jun 2027 04:54:25.543            60.549         30274.500
        48   03 Jun 2027 04:54:34.096   03 Jun 2027 04:54:51.908            17.812          8906.000
        49   03 Jun 2027 04:55:33.395   03 Jun 2027 04:56:51.169            77.774         38129.594
        50   03 Jun 2027 04:57:26.488   03 Jun 2027 04:57:27.967             1.479           674.969
        51   03 Jun 2027 06:32:33.083   03 Jun 2027 06:32:46.664            13.581          6021.063
        52   03 Jun 2027 06:35:13.932   03 Jun 2027 06:35:16.079             2.147           156.812
        53   03 Jun 2027 07:55:07.449   03 Jun 2027 07:55:23.352            15.903          5622.656
        54   03 Jun 2027 07:56:02.640   03 Jun 2027 07:56:07.115             4.475           716.219
        55   03 Jun 2027 07:56:42.466   03 Jun 2027 07:56:44.947             2.481          1104.719
        56   03 Jun 2027 07:57:55.342   03 Jun 2027 07:58:00.807             5.465           586.000
        57   03 Jun 2027 07:58:08.013   03 Jun 2027 07:58:08.837             0.824            46.781
        58   03 Jun 2027 09:31:35.554   03 Jun 2027 09:31:43.493             7.939          3829.438
        59   03 Jun 2027 09:32:54.124   03 Jun 2027 09:32:57.420             3.296          1579.437
        60   03 Jun 2027 09:33:51.988   03 Jun 2027 09:33:54.563             2.575          1003.719
        61   03 Jun 2027 09:34:35.235   03 Jun 2027 09:34:40.110             4.875          1271.000
        62   03 Jun 2027 11:06:46.542   03 Jun 2027 11:06:57.482            10.940          3240.906
        63   03 Jun 2027 11:09:38.345   03 Jun 2027 11:09:38.345             0.000             0.000
        64   03 Jun 2027 11:10:20.034   03 Jun 2027 11:10:32.031            11.997          5736.750
        65   03 Jun 2027 11:11:21.262   03 Jun 2027 11:11:28.891             7.629          1338.688
        66   03 Jun 2027 11:12:28.372   03 Jun 2027 11:12:34.045             5.673          1858.781
        67   03 Jun 2027 11:13:08.337   03 Jun 2027 11:13:11.234             2.897           576.062
        68   03 Jun 2027 11:13:20.726   03 Jun 2027 11:13:23.084             2.358           273.937
        69   04 Jun 2027 03:27:13.130   04 Jun 2027 03:27:49.477            36.347         18173.500
        70   04 Jun 2027 03:27:58.073   04 Jun 2027 03:31:05.620           187.547         93773.500
        71   04 Jun 2027 03:31:21.235   04 Jun 2027 03:31:31.254            10.019          5009.500
        72   04 Jun 2027 03:31:49.335   04 Jun 2027 03:31:54.988             5.653          2826.500
        73   04 Jun 2027 03:33:09.231   04 Jun 2027 03:33:12.415             3.184          1592.000
        74   04 Jun 2027 05:05:30.014   04 Jun 2027 05:05:49.012            18.998          9499.000
        75   04 Jun 2027 05:06:32.870   04 Jun 2027 05:07:33.464            60.594         29159.906
        76   04 Jun 2027 05:07:37.169   04 Jun 2027 05:07:39.136             1.967           115.781
        77   04 Jun 2027 05:09:15.047   04 Jun 2027 05:09:16.092             1.045           464.125
        78   04 Jun 2027 05:11:03.867   04 Jun 2027 05:11:12.725             8.858          2931.031
        79   04 Jun 2027 05:13:49.994   04 Jun 2027 05:13:55.632             5.638          2206.844
        80   04 Jun 2027 06:43:41.929   04 Jun 2027 06:43:51.346             9.417          4650.844
        81   04 Jun 2027 06:44:10.552   04 Jun 2027 06:44:12.648             2.096           518.938
        82   04 Jun 2027 06:45:34.661   04 Jun 2027 06:45:37.364             2.703          1180.906
        83   04 Jun 2027 08:07:09.139   04 Jun 2027 08:07:23.355            14.216          5702.219
        84   04 Jun 2027 08:07:46.369   04 Jun 2027 08:07:50.457             4.088           272.000
        85   04 Jun 2027 08:08:25.114   04 Jun 2027 08:08:28.164             3.050           477.469
        86   04 Jun 2027 08:09:51.418   04 Jun 2027 08:09:57.029             5.611          2601.687
        87   04 Jun 2027 09:43:36.942   04 Jun 2027 09:43:44.254             7.312          3499.781
        88   04 Jun 2027 09:45:11.973   04 Jun 2027 09:45:17.291             5.318          2140.406
        89   04 Jun 2027 09:45:44.366   04 Jun 2027 09:45:51.200             6.834           403.406
        90   04 Jun 2027 09:46:43.436   04 Jun 2027 09:46:46.856             3.420          1467.719
        91   04 Jun 2027 11:18:49.281   04 Jun 2027 11:18:56.143             6.862          3194.406
        92   04 Jun 2027 11:20:57.886   04 Jun 2027 11:21:06.443             8.557          3570.438
        93   04 Jun 2027 11:22:25.844   04 Jun 2027 11:22:34.927             9.083          1631.969
        94   04 Jun 2027 11:22:46.479   04 Jun 2027 11:22:48.429             1.950           295.812
        95   04 Jun 2027 11:23:13.434   04 Jun 2027 11:23:17.755             4.321           756.875
        96   04 Jun 2027 11:24:52.982   04 Jun 2027 11:24:59.163             6.181          2506.125
        97   04 Jun 2027 11:25:17.504   04 Jun 2027 11:25:18.717             1.213           281.187
        98   05 Jun 2027 03:39:19.402   05 Jun 2027 03:42:28.427           189.025         94512.500
        99   05 Jun 2027 03:46:17.580   05 Jun 2027 03:46:22.684             5.104          2552.000
       100   05 Jun 2027 05:18:35.000   05 Jun 2027 05:20:46.641           131.641         65698.625
       101   05 Jun 2027 05:24:54.269   05 Jun 2027 05:25:11.313            17.044          7635.438
       102   05 Jun 2027 05:26:15.237   05 Jun 2027 05:26:20.531             5.294          1753.844
       103   05 Jun 2027 06:44:43.993   05 Jun 2027 06:44:58.646            14.653          5199.625
       104   05 Jun 2027 06:55:37.875   05 Jun 2027 06:55:44.420             6.545          2385.875
       105   05 Jun 2027 08:19:35.785   05 Jun 2027 08:19:48.833            13.048          5114.937
       106   05 Jun 2027 08:20:41.536   05 Jun 2027 08:20:47.197             5.661           911.906
       107   05 Jun 2027 08:22:20.808   05 Jun 2027 08:22:20.808             0.000             0.000
       108   05 Jun 2027 09:55:20.917   05 Jun 2027 09:55:25.901             4.984          2009.406
       109   05 Jun 2027 09:57:01.314   05 Jun 2027 09:57:05.216             3.902          1831.375
       110   05 Jun 2027 09:58:15.120   05 Jun 2027 09:58:16.978             1.858           534.438
       111   05 Jun 2027 11:30:04.826   05 Jun 2027 11:30:16.568            11.742          2237.281
       112   05 Jun 2027 11:32:40.213   05 Jun 2027 11:32:50.367            10.154          3580.625
       113   05 Jun 2027 11:33:57.497   05 Jun 2027 11:33:57.497             0.000             0.000
       114   05 Jun 2027 11:36:16.741   05 Jun 2027 11:36:27.321            10.580          5193.187
       115   05 Jun 2027 11:36:53.428   05 Jun 2027 11:36:54.898             1.470           650.625
       116   05 Jun 2027 11:37:32.676   05 Jun 2027 11:37:37.178             4.502           913.250
       117   06 Jun 2027 03:51:57.598   06 Jun 2027 03:55:20.828           203.230        101615.000
       118   06 Jun 2027 03:55:45.724   06 Jun 2027 03:55:50.629             4.905          2452.500
       119   06 Jun 2027 03:57:09.467   06 Jun 2027 03:57:14.526             5.059          2529.500
       120   06 Jun 2027 03:57:23.003   06 Jun 2027 03:57:26.115             3.112          1556.000
       121   06 Jun 2027 05:30:58.573   06 Jun 2027 05:32:52.173           113.600         56800.000
       122   06 Jun 2027 05:35:18.021   06 Jun 2027 05:35:29.481            11.460          5469.063
       123   06 Jun 2027 05:36:44.603   06 Jun 2027 05:36:52.451             7.848          1897.469
       124   06 Jun 2027 05:37:08.626   06 Jun 2027 05:37:10.784             2.158           372.969
       125   06 Jun 2027 06:55:59.833   06 Jun 2027 06:56:20.312            20.479          5951.719
       126   06 Jun 2027 06:56:47.114   06 Jun 2027 06:56:48.968             1.854           297.875
       127   06 Jun 2027 07:07:39.425   06 Jun 2027 07:07:48.146             8.721          2556.437
       128   06 Jun 2027 08:30:10.613   06 Jun 2027 08:30:24.777            14.164          7047.469
       129   06 Jun 2027 08:31:08.290   06 Jun 2027 08:31:11.115             2.825          1359.781
       130   06 Jun 2027 08:32:28.503   06 Jun 2027 08:32:37.623             9.120          2358.688
       131   06 Jun 2027 08:33:52.658   06 Jun 2027 08:33:56.913             4.255          2120.719
       132   06 Jun 2027 08:34:49.961   06 Jun 2027 08:34:53.779             3.818          1576.250
       133   06 Jun 2027 10:05:12.507   06 Jun 2027 10:05:20.508             8.001          2618.969
       134   06 Jun 2027 10:05:51.696   06 Jun 2027 10:06:01.058             9.362           549.250
       135   06 Jun 2027 10:08:46.716   06 Jun 2027 10:08:50.461             3.745          1424.437
       136   06 Jun 2027 10:10:36.902   06 Jun 2027 10:10:43.204             6.302          1179.187
       137   06 Jun 2027 10:11:18.465   06 Jun 2027 10:11:21.258             2.793           353.750
       138   06 Jun 2027 11:42:12.950   06 Jun 2027 11:42:18.673             5.723          2861.500
       139   06 Jun 2027 11:48:33.284   06 Jun 2027 11:49:01.351            28.067         13024.406
       140   07 Jun 2027 04:04:15.638   07 Jun 2027 04:04:15.874             0.236           118.000
       141   07 Jun 2027 04:04:50.233   07 Jun 2027 04:05:16.498            26.265         13132.500
       142   07 Jun 2027 04:07:47.193   07 Jun 2027 04:08:19.962            32.769         16384.500
       143   07 Jun 2027 05:43:17.126   07 Jun 2027 05:45:46.448           149.322         74661.000
       144   07 Jun 2027 05:46:00.639   07 Jun 2027 05:46:09.046             8.407          4203.500
       145   07 Jun 2027 05:48:11.510   07 Jun 2027 05:50:07.909           116.399         57611.156
       146   07 Jun 2027 07:07:21.027   07 Jun 2027 07:07:39.170            18.143          9071.500
       147   07 Jun 2027 07:07:59.634   07 Jun 2027 07:08:07.172             7.538          2742.250
       148   07 Jun 2027 07:09:24.198   07 Jun 2027 07:09:28.456             4.258          2129.000
       149   07 Jun 2027 07:09:33.838   07 Jun 2027 07:09:36.742             2.904           340.969
       150   07 Jun 2027 07:19:36.607   07 Jun 2027 07:19:45.433             8.826          3754.656
       151   07 Jun 2027 08:41:35.929   07 Jun 2027 08:42:01.198            25.269         10696.875
       152   07 Jun 2027 08:42:58.628   07 Jun 2027 08:43:00.212             1.584           792.000
       153   07 Jun 2027 08:44:14.101   07 Jun 2027 08:44:20.891             6.790          1718.375
       154   07 Jun 2027 08:46:23.521   07 Jun 2027 08:46:31.458             7.937          3614.031
       155   07 Jun 2027 10:16:36.509   07 Jun 2027 10:16:42.620             6.111          2420.813
       156   07 Jun 2027 10:18:14.507   07 Jun 2027 10:18:19.300             4.793          1561.937
       157   07 Jun 2027 10:18:56.995   07 Jun 2027 10:19:00.832             3.837          1177.969
       158   07 Jun 2027 10:20:25.943   07 Jun 2027 10:20:25.943             0.000             0.000
       159   07 Jun 2027 10:21:59.850   07 Jun 2027 10:22:07.951             8.101          3789.250
       160   07 Jun 2027 10:23:25.483   07 Jun 2027 10:23:26.738             1.255           492.188
       161   07 Jun 2027 10:24:11.964   07 Jun 2027 10:24:17.544             5.580          1283.625
       162   07 Jun 2027 11:56:20.681   07 Jun 2027 11:56:40.076            19.395          9119.625
       163   07 Jun 2027 11:57:24.589   07 Jun 2027 11:57:27.773             3.184           429.563
       164   08 Jun 2027 04:16:40.259   08 Jun 2027 04:16:41.535             1.276           638.000
       165   08 Jun 2027 04:17:01.528   08 Jun 2027 04:19:01.011           119.483         59741.500
       166   08 Jun 2027 04:19:22.679   08 Jun 2027 04:19:38.627            15.948          7974.000
       167   08 Jun 2027 04:20:50.989   08 Jun 2027 04:20:56.983             5.994          2997.000
       168   08 Jun 2027 04:21:14.262   08 Jun 2027 04:21:20.266             6.004          3002.000
       169   08 Jun 2027 04:22:13.102   08 Jun 2027 04:22:20.603             7.501          3750.500
       170   08 Jun 2027 05:55:22.210   08 Jun 2027 05:58:05.525           163.315         81657.500
       171   08 Jun 2027 05:59:35.147   08 Jun 2027 05:59:38.890             3.743          1871.500
       172   08 Jun 2027 06:00:07.246   08 Jun 2027 06:00:30.184            22.938          9800.281
       173   08 Jun 2027 07:19:29.160   08 Jun 2027 07:19:53.830            24.670         12125.313
       174   08 Jun 2027 07:20:32.391   08 Jun 2027 07:20:35.742             3.351          1147.719
       175   08 Jun 2027 08:53:18.323   08 Jun 2027 08:53:42.991            24.668         12043.500
       176   08 Jun 2027 08:55:16.572   08 Jun 2027 08:55:25.161             8.589           441.750
       177   08 Jun 2027 08:55:37.168   08 Jun 2027 08:55:37.168             0.000             0.000
       178   08 Jun 2027 08:55:38.631   08 Jun 2027 08:55:45.358             6.727           420.937
       179   08 Jun 2027 08:56:59.181   08 Jun 2027 08:57:05.875             6.694          2207.906
       180   08 Jun 2027 10:28:10.295   08 Jun 2027 10:28:23.749            13.454          5352.156
       181   08 Jun 2027 10:31:08.352   08 Jun 2027 10:31:10.199             1.847           848.719
       182   08 Jun 2027 10:33:59.985   08 Jun 2027 10:34:09.696             9.711          3949.375
       183   08 Jun 2027 10:35:25.458   08 Jun 2027 10:35:26.420             0.962           311.812
       184   08 Jun 2027 10:35:47.873   08 Jun 2027 10:35:47.873             0.000             0.000
       185   09 Jun 2027 04:29:33.764   09 Jun 2027 04:30:27.232            53.468         26734.000
       186   09 Jun 2027 04:30:36.772   09 Jun 2027 04:31:18.518            41.746         20873.000
       187   09 Jun 2027 04:31:19.120   09 Jun 2027 04:31:48.225            29.105         14552.500
       188   09 Jun 2027 04:31:55.470   09 Jun 2027 04:32:03.258             7.788          3894.000
       189   09 Jun 2027 04:32:58.359   09 Jun 2027 04:33:03.784             5.425          2712.500
       190   09 Jun 2027 04:34:25.537   09 Jun 2027 04:34:45.477            19.940          9970.000
       191   09 Jun 2027 06:07:58.830   09 Jun 2027 06:10:44.893           166.063         82790.844
       192   09 Jun 2027 06:12:21.067   09 Jun 2027 06:12:23.567             2.500           654.406
       193   09 Jun 2027 07:31:25.418   09 Jun 2027 07:31:38.723            13.305          5087.312
       194   09 Jun 2027 07:32:42.514   09 Jun 2027 07:32:42.514             0.000             0.000
       195   09 Jun 2027 07:32:51.996   09 Jun 2027 07:32:56.713             4.717          1933.531
       196   09 Jun 2027 09:07:38.382   09 Jun 2027 09:08:01.777            23.395         11226.875
       197   09 Jun 2027 09:08:16.421   09 Jun 2027 09:08:17.754             1.333           123.875
       198   09 Jun 2027 09:08:46.761   09 Jun 2027 09:08:49.491             2.730           520.812
       199   09 Jun 2027 09:09:46.321   09 Jun 2027 09:09:49.087             2.766          1117.875
       200   09 Jun 2027 09:10:08.056   09 Jun 2027 09:10:09.069             1.013           134.594
       201   09 Jun 2027 10:41:11.680   09 Jun 2027 10:41:20.352             8.672          3818.469
       202   09 Jun 2027 10:42:43.333   09 Jun 2027 10:42:50.935             7.602          2119.938
       203   09 Jun 2027 10:43:24.659   09 Jun 2027 10:43:28.091             3.432           389.344
       204   09 Jun 2027 10:44:12.766   09 Jun 2027 10:44:14.590             1.824           721.594
       205   09 Jun 2027 10:47:11.894   09 Jun 2027 10:47:23.445            11.551          2263.250
       206   09 Jun 2027 10:48:32.532   09 Jun 2027 10:48:32.532             0.000             0.000
       207   09 Jun 2027 10:49:44.942   09 Jun 2027 10:49:45.929             0.987           493.500
       208   10 Jun 2027 03:03:31.080   10 Jun 2027 03:03:37.051             5.971          2985.500
       209   10 Jun 2027 03:03:47.900   10 Jun 2027 03:03:54.964             7.064          3532.000
       210   10 Jun 2027 03:05:07.117   10 Jun 2027 03:05:43.049            35.932         17966.000
       211   10 Jun 2027 03:06:32.896   10 Jun 2027 03:06:36.729             3.833          1916.500
       212   10 Jun 2027 03:07:50.119   10 Jun 2027 03:08:07.981            17.862          8931.000
       213   10 Jun 2027 03:08:45.977   10 Jun 2027 03:08:57.821            11.844          5922.000
       214   10 Jun 2027 03:09:14.768   10 Jun 2027 03:09:15.761             0.993           496.500
       215   10 Jun 2027 03:10:15.656   10 Jun 2027 03:10:41.202            25.546         12773.000
       216   10 Jun 2027 04:41:34.542   10 Jun 2027 04:42:02.698            28.156         14078.000
       217   10 Jun 2027 04:42:04.965   10 Jun 2027 04:42:51.652            46.687         23343.500
       218   10 Jun 2027 04:43:52.299   10 Jun 2027 04:44:18.477            26.178         13089.000
       219   10 Jun 2027 04:45:08.236   10 Jun 2027 04:46:04.429            56.193         28096.500
       220   10 Jun 2027 04:46:10.191   10 Jun 2027 04:46:14.531             4.340          2170.000
       221   10 Jun 2027 04:47:36.274   10 Jun 2027 04:47:46.194             9.920          4960.000
       222   10 Jun 2027 06:19:37.580   10 Jun 2027 06:20:59.773            82.193         40179.843
       223   10 Jun 2027 06:23:41.483   10 Jun 2027 06:23:44.091             2.608           423.219
       224   10 Jun 2027 06:24:01.914   10 Jun 2027 06:24:02.603             0.689           188.656
       225   10 Jun 2027 07:43:16.705   10 Jun 2027 07:43:28.661            11.956          5939.656
       226   10 Jun 2027 07:44:43.821   10 Jun 2027 07:44:48.977             5.156          1918.156
       227   10 Jun 2027 07:45:11.241   10 Jun 2027 07:45:14.779             3.538           248.750
       228   10 Jun 2027 07:45:35.864   10 Jun 2027 07:45:39.499             3.635           364.500
       229   10 Jun 2027 09:19:43.750   10 Jun 2027 09:19:58.500            14.750          7184.125
       230   10 Jun 2027 09:21:07.680   10 Jun 2027 09:21:13.531             5.851           852.969
       231   10 Jun 2027 09:22:25.207   10 Jun 2027 09:22:32.277             7.070          2177.500
       232   10 Jun 2027 10:51:51.909   10 Jun 2027 10:52:02.319            10.410          4293.594
       233   10 Jun 2027 10:53:50.785   10 Jun 2027 10:53:54.048             3.263           488.719
       234   10 Jun 2027 10:57:50.834   10 Jun 2027 10:57:58.189             7.355          3677.500
       235   10 Jun 2027 11:00:38.081   10 Jun 2027 11:00:38.461             0.380           190.000
       236   10 Jun 2027 11:00:42.039   10 Jun 2027 11:00:52.431            10.392          5137.125
       237   10 Jun 2027 11:01:30.880   10 Jun 2027 11:01:33.112             2.232           658.562
       238   11 Jun 2027 03:15:33.613   11 Jun 2027 03:15:40.163             6.550          3275.000
       239   11 Jun 2027 03:16:12.081   11 Jun 2027 03:16:22.735            10.654          5327.000
       240   11 Jun 2027 03:16:43.683   11 Jun 2027 03:19:29.933           166.250         83125.000
       241   11 Jun 2027 03:20:35.078   11 Jun 2027 03:20:38.729             3.651          1825.500
       242   11 Jun 2027 03:20:59.805   11 Jun 2027 03:21:06.113             6.308          3154.000
       243   11 Jun 2027 04:53:42.824   11 Jun 2027 04:54:43.146            60.322         30161.000
       244   11 Jun 2027 04:54:51.862   11 Jun 2027 04:55:05.157            13.295          6647.500
       245   11 Jun 2027 04:55:32.337   11 Jun 2027 04:56:35.707            63.370         29757.219
       246   11 Jun 2027 04:57:42.175   11 Jun 2027 04:57:48.447             6.272           872.344
       247   11 Jun 2027 04:58:32.024   11 Jun 2027 04:58:34.488             2.464           559.594
       248   11 Jun 2027 04:59:59.672   11 Jun 2027 05:00:02.235             2.563          1281.500
       249   11 Jun 2027 06:32:51.050   11 Jun 2027 06:33:01.526            10.476          3964.594
       250   11 Jun 2027 06:35:48.858   11 Jun 2027 06:35:53.139             4.281           404.625
       251   11 Jun 2027 07:55:25.248   11 Jun 2027 07:55:37.001            11.753          5494.313
       252   11 Jun 2027 07:56:18.927   11 Jun 2027 07:56:23.756             4.829           728.594
       253   11 Jun 2027 07:56:58.034   11 Jun 2027 07:57:01.498             3.464          1038.812
       254   11 Jun 2027 07:58:11.687   11 Jun 2027 07:58:16.692             5.005           516.500
       255   11 Jun 2027 09:31:53.934   11 Jun 2027 09:32:00.591             6.657          2430.687
       256   11 Jun 2027 09:33:12.815   11 Jun 2027 09:33:17.153             4.338          1618.438
       257   11 Jun 2027 09:33:42.365   11 Jun 2027 09:33:44.085             1.720           198.906
       258   11 Jun 2027 09:34:24.815   11 Jun 2027 09:34:30.318             5.503           920.812
       259   11 Jun 2027 11:07:05.089   11 Jun 2027 11:07:15.453            10.364          5113.594
       260   11 Jun 2027 11:08:05.266   11 Jun 2027 11:08:10.285             5.019          1009.781
       261   11 Jun 2027 11:10:35.186   11 Jun 2027 11:10:35.186             0.000             0.000
       262   11 Jun 2027 11:10:56.463   11 Jun 2027 11:11:06.672            10.209          4572.375
       263   11 Jun 2027 11:11:56.013   11 Jun 2027 11:11:58.451             2.438           583.031
       264   11 Jun 2027 11:12:52.368   11 Jun 2027 11:12:54.805             2.437           247.750
       265   11 Jun 2027 11:13:10.156   11 Jun 2027 11:13:10.676             0.520            22.281
       266   11 Jun 2027 11:13:35.114   11 Jun 2027 11:13:37.088             1.974           763.688
       267   11 Jun 2027 11:13:42.021   11 Jun 2027 11:13:44.874             2.853            27.656
       268   12 Jun 2027 03:27:31.132   12 Jun 2027 03:28:06.154            35.022         17511.000
       269   12 Jun 2027 03:28:13.281   12 Jun 2027 03:30:43.286           150.005         75002.500
       270   12 Jun 2027 03:31:11.682   12 Jun 2027 03:31:15.626             3.944          1972.000
       271   12 Jun 2027 03:31:25.566   12 Jun 2027 03:31:41.657            16.091          8045.500
       272   12 Jun 2027 05:05:47.649   12 Jun 2027 05:06:02.591            14.942          7471.000
       273   12 Jun 2027 05:06:50.176   12 Jun 2027 05:08:32.620           102.444         50095.750
       274   12 Jun 2027 05:10:30.991   12 Jun 2027 05:10:36.725             5.734          2379.625
       275   12 Jun 2027 05:14:03.521   12 Jun 2027 05:14:13.767            10.246          3371.469
       276   12 Jun 2027 06:43:58.954   12 Jun 2027 06:44:11.267            12.313          5117.063
       277   12 Jun 2027 06:45:49.319   12 Jun 2027 06:45:52.286             2.967            78.594
       278   12 Jun 2027 06:47:22.550   12 Jun 2027 06:47:22.938             0.388            88.750
       279   12 Jun 2027 08:08:07.944   12 Jun 2027 08:08:22.255            14.311          6812.750
       280   12 Jun 2027 08:08:39.694   12 Jun 2027 08:08:43.806             4.112           381.406
       281   12 Jun 2027 08:10:07.672   12 Jun 2027 08:10:15.827             8.155          2563.688
       282   12 Jun 2027 09:43:52.426   12 Jun 2027 09:43:57.870             5.444          2136.469
       283   12 Jun 2027 09:45:27.957   12 Jun 2027 09:45:32.352             4.395          2096.500
       284   12 Jun 2027 09:46:03.226   12 Jun 2027 09:46:04.743             1.517           397.781
       285   12 Jun 2027 09:47:01.976   12 Jun 2027 09:47:05.279             3.303          1482.500
       286   12 Jun 2027 11:18:56.209   12 Jun 2027 11:19:04.201             7.992          3289.031
       287   12 Jun 2027 11:21:19.767   12 Jun 2027 11:21:28.427             8.660          3749.719
       288   12 Jun 2027 11:24:43.427   12 Jun 2027 11:24:56.015            12.588          5336.531
       289   12 Jun 2027 11:25:10.046   12 Jun 2027 11:25:13.414             3.368             2.313
       290   12 Jun 2027 11:25:31.792   12 Jun 2027 11:25:32.850             1.058           226.594
       291   12 Jun 2027 11:25:44.472   12 Jun 2027 11:25:45.125             0.653           176.656
       292   13 Jun 2027 03:40:05.877   13 Jun 2027 03:43:26.052           200.175        100087.500
       293   13 Jun 2027 05:18:53.192   13 Jun 2027 05:20:51.539           118.347         58634.469
       294   13 Jun 2027 05:25:08.699   13 Jun 2027 05:25:25.435            16.736          7647.125
       295   13 Jun 2027 05:26:31.741   13 Jun 2027 05:26:35.821             4.080          1768.750
       296   13 Jun 2027 06:44:58.007   13 Jun 2027 06:45:10.444            12.437          5387.406
       297   13 Jun 2027 06:55:55.279   13 Jun 2027 06:56:02.893             7.614          2223.094
       298   13 Jun 2027 08:19:14.834   13 Jun 2027 08:19:38.483            23.649          9181.625
       299   13 Jun 2027 08:20:12.499   13 Jun 2027 08:20:13.945             1.446           690.812
       300   13 Jun 2027 08:20:58.856   13 Jun 2027 08:21:01.702             2.846           902.000
       301   13 Jun 2027 08:22:38.854   13 Jun 2027 08:22:38.854             0.000             0.000
       302   13 Jun 2027 09:54:31.133   13 Jun 2027 09:54:31.443             0.310           155.000
       303   13 Jun 2027 09:55:37.129   13 Jun 2027 09:55:41.607             4.478          1947.469
       304   13 Jun 2027 09:57:17.091   13 Jun 2027 09:57:21.291             4.200          1783.031
       305   13 Jun 2027 09:58:27.767   13 Jun 2027 09:58:29.862             2.095           366.250
       306   13 Jun 2027 09:59:13.234   13 Jun 2027 09:59:17.933             4.699          1207.406
       307   13 Jun 2027 11:30:22.884   13 Jun 2027 11:30:32.015             9.131          2587.687
       308   13 Jun 2027 11:33:01.137   13 Jun 2027 11:33:09.130             7.993          3747.438
       309   13 Jun 2027 11:36:32.585   13 Jun 2027 11:36:44.060            11.475          5145.531
       310   13 Jun 2027 11:37:19.389   13 Jun 2027 11:37:22.131             2.742          1016.156
       311   13 Jun 2027 11:37:37.773   13 Jun 2027 11:37:44.932             7.159            36.750
