uniorb/output/strategy_4/Camera/Camera_KinoSat_111805.txt

KinoSat_111805
-------------------------
    Access    *     Start Time (UTCG)     *     Stop Time (UTCG)  *   Duration (s) *   Data (Mbytes)
         1   01 Jun 2027 03:04:36.342   01 Jun 2027 03:05:49.161            72.819         36409.500
         2   01 Jun 2027 03:08:17.626   01 Jun 2027 03:08:24.522             6.896          3448.000
         3   01 Jun 2027 03:09:22.474   01 Jun 2027 03:09:35.336            12.862          6431.000
         4   01 Jun 2027 03:10:14.907   01 Jun 2027 03:10:15.053             0.146            73.000
         5   01 Jun 2027 03:10:42.698   01 Jun 2027 03:10:50.603             7.905          3952.500
         6   01 Jun 2027 03:10:55.043   01 Jun 2027 03:11:04.398             9.355          4677.500
         7   01 Jun 2027 04:42:52.642   01 Jun 2027 04:43:00.187             7.545          3772.500
         8   01 Jun 2027 04:43:53.749   01 Jun 2027 04:45:16.659            82.910         41455.000
         9   01 Jun 2027 04:45:38.035   01 Jun 2027 04:45:58.626            20.591         10295.500
        10   01 Jun 2027 04:47:08.617   01 Jun 2027 04:47:09.719             1.102           551.000
        11   01 Jun 2027 04:48:04.355   01 Jun 2027 04:48:04.631             0.276           138.000
        12   01 Jun 2027 04:48:27.453   01 Jun 2027 04:48:32.847             5.394          2697.000
        13   01 Jun 2027 04:50:55.729   01 Jun 2027 04:51:27.631            31.902         15951.000
        14   01 Jun 2027 06:21:02.404   01 Jun 2027 06:21:41.399            38.995         19497.500
        15   01 Jun 2027 06:22:05.053   01 Jun 2027 06:23:02.882            57.829         28914.500
        16   01 Jun 2027 07:45:08.670   01 Jun 2027 07:45:46.584            37.914         18957.000
        17   01 Jun 2027 07:47:05.865   01 Jun 2027 07:47:31.040            25.175         12587.500
        18   01 Jun 2027 09:20:53.818   01 Jun 2027 09:22:55.620           121.802         60901.000
        19   01 Jun 2027 09:23:30.517   01 Jun 2027 09:24:07.433            36.916         18458.000
        20   01 Jun 2027 10:55:51.280   01 Jun 2027 10:57:45.829           114.549         57274.500
        21   01 Jun 2027 10:58:26.824   01 Jun 2027 10:58:56.372            29.548         14774.000
        22   01 Jun 2027 11:02:29.235   01 Jun 2027 11:02:53.088            23.853         11926.500
        23   02 Jun 2027 03:17:13.863   02 Jun 2027 03:19:39.142           145.279         72639.500
        24   02 Jun 2027 03:23:05.895   02 Jun 2027 03:23:16.097            10.202          5101.000
        25   02 Jun 2027 04:55:57.591   02 Jun 2027 04:59:45.132           227.541        113770.500
        26   02 Jun 2027 05:00:22.473   02 Jun 2027 05:00:24.723             2.250          1125.000
        27   02 Jun 2027 05:02:28.704   02 Jun 2027 05:03:32.060            63.356         31678.000
        28   02 Jun 2027 06:21:54.000   02 Jun 2027 06:22:24.976            30.976         15488.000
        29   02 Jun 2027 06:32:58.927   02 Jun 2027 06:34:39.994           101.067         50533.500
        30   02 Jun 2027 06:35:06.148   02 Jun 2027 06:36:16.287            70.139         35069.500
        31   02 Jun 2027 07:55:56.493   02 Jun 2027 07:56:40.415            43.922         21961.000
        32   02 Jun 2027 07:57:46.854   02 Jun 2027 07:59:00.046            73.192         36596.000
        33   02 Jun 2027 09:31:16.025   02 Jun 2027 09:31:41.514            25.489         12744.500
        34   02 Jun 2027 09:32:39.126   02 Jun 2027 09:32:59.008            19.882          9941.000
        35   02 Jun 2027 09:33:25.364   02 Jun 2027 09:33:27.965             2.601          1237.531
        36   02 Jun 2027 09:35:23.629   02 Jun 2027 09:35:28.312             4.683          2152.094
        37   02 Jun 2027 09:35:51.775   02 Jun 2027 09:35:56.913             5.138           733.219
        38   02 Jun 2027 09:36:56.802   02 Jun 2027 09:37:00.778             3.976          1176.563
        39   02 Jun 2027 11:10:17.014   02 Jun 2027 11:10:36.195            19.181          8434.000
        40   02 Jun 2027 11:10:53.573   02 Jun 2027 11:10:53.573             0.000             0.000
        41   02 Jun 2027 11:14:17.996   02 Jun 2027 11:14:34.463            16.467          6605.344
        42   02 Jun 2027 11:14:36.915   02 Jun 2027 11:14:38.523             1.608            73.750
        43   03 Jun 2027 03:29:20.970   03 Jun 2027 03:31:47.626           146.656         73328.000
        44   03 Jun 2027 03:31:58.810   03 Jun 2027 03:32:32.902            34.092         17046.000
        45   03 Jun 2027 03:33:54.363   03 Jun 2027 03:33:59.579             5.216          2608.000
        46   03 Jun 2027 03:34:41.050   03 Jun 2027 03:34:52.557            11.507          5753.500
        47   03 Jun 2027 03:35:15.973   03 Jun 2027 03:35:17.732             1.759           879.500
        48   03 Jun 2027 05:08:27.356   03 Jun 2027 05:10:20.943           113.587         54041.187
        49   03 Jun 2027 05:13:57.905   03 Jun 2027 05:14:12.112            14.207          6279.531
        50   03 Jun 2027 05:14:28.862   03 Jun 2027 05:14:29.984             1.122           197.687
        51   03 Jun 2027 06:33:18.892   03 Jun 2027 06:33:28.406             9.514          4757.000
        52   03 Jun 2027 06:34:02.255   03 Jun 2027 06:34:06.576             4.321          1150.906
        53   03 Jun 2027 06:45:01.692   03 Jun 2027 06:45:07.154             5.462          2372.937
        54   03 Jun 2027 06:45:28.749   03 Jun 2027 06:45:30.192             1.443           340.562
        55   03 Jun 2027 08:07:14.496   03 Jun 2027 08:07:23.934             9.438          4529.313
        56   03 Jun 2027 08:07:38.049   03 Jun 2027 08:07:40.725             2.676           354.969
        57   03 Jun 2027 08:09:46.638   03 Jun 2027 08:09:55.866             9.228          2961.219
        58   03 Jun 2027 08:11:07.673   03 Jun 2027 08:11:20.602            12.929          2059.719
        59   03 Jun 2027 08:12:09.971   03 Jun 2027 08:12:14.420             4.449          1379.813
        60   03 Jun 2027 09:42:20.611   03 Jun 2027 09:42:29.182             8.571          3813.375
        61   03 Jun 2027 09:45:18.958   03 Jun 2027 09:45:24.719             5.761          1441.656
        62   03 Jun 2027 09:47:24.580   03 Jun 2027 09:47:24.965             0.385           192.500
        63   03 Jun 2027 09:47:33.577   03 Jun 2027 09:47:39.684             6.107          2735.500
        64   03 Jun 2027 09:48:25.653   03 Jun 2027 09:48:27.515             1.862           877.750
        65   03 Jun 2027 09:48:33.866   03 Jun 2027 09:48:36.661             2.795           139.156
        66   03 Jun 2027 09:48:52.663   03 Jun 2027 09:48:55.029             2.366           230.031
        67   03 Jun 2027 11:22:30.208   03 Jun 2027 11:22:46.470            16.262          8131.000
        68   03 Jun 2027 11:24:55.529   03 Jun 2027 11:25:09.154            13.625          4791.437
        69   03 Jun 2027 11:25:25.929   03 Jun 2027 11:25:28.727             2.798           267.062
        70   03 Jun 2027 11:26:06.963   03 Jun 2027 11:26:11.328             4.365           651.500
        71   03 Jun 2027 11:26:58.125   03 Jun 2027 11:27:00.428             2.303          1151.500
        72   04 Jun 2027 03:41:40.143   04 Jun 2027 03:43:52.585           132.442         66221.000
        73   04 Jun 2027 03:43:53.085   04 Jun 2027 03:44:13.554            20.469         10234.500
        74   04 Jun 2027 03:45:48.240   04 Jun 2027 03:46:11.326            23.086         11543.000
        75   04 Jun 2027 03:46:17.523   04 Jun 2027 03:46:25.145             7.622          3811.000
        76   04 Jun 2027 03:47:11.080   04 Jun 2027 03:47:40.110            29.030         14515.000
        77   04 Jun 2027 05:20:27.971   04 Jun 2027 05:22:00.018            92.047         45394.500
        78   04 Jun 2027 05:22:01.614   04 Jun 2027 05:22:02.615             1.001            49.875
        79   04 Jun 2027 05:22:41.195   04 Jun 2027 05:22:44.907             3.712          1205.625
        80   04 Jun 2027 05:25:24.038   04 Jun 2027 05:25:35.404            11.366          4883.219
        81   04 Jun 2027 05:26:07.174   04 Jun 2027 05:26:08.437             1.263           626.250
        82   04 Jun 2027 05:26:46.339   04 Jun 2027 05:26:49.613             3.274          1165.594
        83   04 Jun 2027 05:27:25.877   04 Jun 2027 05:27:29.513             3.636           504.000
        84   04 Jun 2027 06:44:47.664   04 Jun 2027 06:45:02.736            15.072          5198.844
        85   04 Jun 2027 06:45:28.603   04 Jun 2027 06:45:28.603             0.000             0.000
        86   04 Jun 2027 06:45:57.955   04 Jun 2027 06:46:01.561             3.606          1725.594
        87   04 Jun 2027 06:46:14.727   04 Jun 2027 06:46:17.731             3.004           387.375
        88   04 Jun 2027 06:57:03.230   04 Jun 2027 06:57:11.486             8.256          3263.656
        89   04 Jun 2027 08:19:00.134   04 Jun 2027 08:19:16.247            16.113          7108.844
        90   04 Jun 2027 08:19:29.900   04 Jun 2027 08:19:31.129             1.229            74.500
        91   04 Jun 2027 08:20:16.099   04 Jun 2027 08:20:20.369             4.270           669.313
        92   04 Jun 2027 08:21:02.894   04 Jun 2027 08:21:04.419             1.525           334.500
        93   04 Jun 2027 08:21:43.306   04 Jun 2027 08:21:45.824             2.518          1215.219
        94   04 Jun 2027 08:22:40.560   04 Jun 2027 08:22:48.317             7.757          1710.500
        95   04 Jun 2027 08:23:28.743   04 Jun 2027 08:23:31.679             2.936           700.594
        96   04 Jun 2027 09:53:49.654   04 Jun 2027 09:53:57.089             7.435          2623.250
        97   04 Jun 2027 09:55:37.554   04 Jun 2027 09:55:38.277             0.723           175.531
        98   04 Jun 2027 09:56:26.130   04 Jun 2027 09:56:29.782             3.652          1445.750
        99   04 Jun 2027 09:57:37.636   04 Jun 2027 09:57:42.232             4.596           671.031
       100   04 Jun 2027 10:00:31.041   04 Jun 2027 10:00:35.343             4.302          2062.688
       101   04 Jun 2027 10:00:51.765   04 Jun 2027 10:00:52.432             0.667           181.781
       102   04 Jun 2027 10:02:08.106   04 Jun 2027 10:02:10.488             2.382           515.000
       103   04 Jun 2027 10:02:38.332   04 Jun 2027 10:02:39.510             1.178           250.187
       104   04 Jun 2027 11:34:18.233   04 Jun 2027 11:34:36.819            18.586          9274.469
       105   04 Jun 2027 11:35:53.715   04 Jun 2027 11:36:00.120             6.405          1497.031
       106   04 Jun 2027 11:36:24.477   04 Jun 2027 11:36:25.745             1.268           331.937
       107   04 Jun 2027 11:38:04.231   04 Jun 2027 11:38:08.641             4.410          1991.625
       108   04 Jun 2027 11:38:27.584   04 Jun 2027 11:38:29.787             2.203           406.031
       109   04 Jun 2027 11:38:58.931   04 Jun 2027 11:39:02.948             4.017           869.156
       110   05 Jun 2027 03:54:24.665   05 Jun 2027 03:55:49.548            84.883         42441.500
       111   05 Jun 2027 03:57:25.127   05 Jun 2027 03:57:50.783            25.656         12828.000
       112   05 Jun 2027 03:59:07.389   05 Jun 2027 03:59:07.389             0.000             0.000
       113   05 Jun 2027 05:32:47.787   05 Jun 2027 05:34:25.352            97.565         48782.500
       114   05 Jun 2027 05:34:53.417   05 Jun 2027 05:35:19.989            26.572         13286.000
       115   05 Jun 2027 05:35:41.677   05 Jun 2027 05:36:06.014            24.337         12168.500
       116   05 Jun 2027 05:36:17.042   05 Jun 2027 05:36:35.658            18.616          9308.000
       117   05 Jun 2027 05:36:46.837   05 Jun 2027 05:37:18.386            31.549         15774.500
       118   05 Jun 2027 05:37:50.183   05 Jun 2027 05:37:52.877             2.694          1347.000
       119   05 Jun 2027 06:56:49.738   05 Jun 2027 06:57:05.978            16.240          7137.344
       120   05 Jun 2027 06:58:53.830   05 Jun 2027 06:58:54.229             0.399           199.500
       121   05 Jun 2027 08:32:47.578   05 Jun 2027 08:33:06.291            18.713          6866.187
       122   05 Jun 2027 08:33:36.899   05 Jun 2027 08:33:44.267             7.368           956.500
       123   05 Jun 2027 08:34:23.910   05 Jun 2027 08:34:26.516             2.606          1238.844
       124   05 Jun 2027 08:35:31.487   05 Jun 2027 08:35:34.449             2.962           855.750
       125   05 Jun 2027 08:36:05.203   05 Jun 2027 08:36:10.400             5.197           691.719
       126   05 Jun 2027 10:06:36.633   05 Jun 2027 10:06:42.784             6.151          2327.594
       127   05 Jun 2027 10:08:04.962   05 Jun 2027 10:08:11.093             6.131           993.406
       128   05 Jun 2027 10:08:39.458   05 Jun 2027 10:08:41.125             1.667           297.906
       129   05 Jun 2027 10:09:12.135   05 Jun 2027 10:09:12.135             0.000             0.000
       130   05 Jun 2027 10:11:24.911   05 Jun 2027 10:11:39.900            14.989          4434.219
       131   05 Jun 2027 10:12:35.402   05 Jun 2027 10:12:35.922             0.520           208.125
       132   05 Jun 2027 10:13:09.956   05 Jun 2027 10:13:13.069             3.113          1014.906
       133   05 Jun 2027 10:14:06.229   05 Jun 2027 10:14:10.871             4.642          1501.594
       134   05 Jun 2027 10:14:27.969   05 Jun 2027 10:14:29.996             2.027            15.281
       135   05 Jun 2027 10:14:50.307   05 Jun 2027 10:14:58.329             8.022           419.500
       136   05 Jun 2027 11:43:42.495   05 Jun 2027 11:43:59.194            16.699          5931.187
       137   05 Jun 2027 11:46:09.302   05 Jun 2027 11:46:17.444             8.142          3041.500
       138   05 Jun 2027 11:47:50.448   05 Jun 2027 11:48:04.511            14.063          1241.281
       139   05 Jun 2027 11:48:12.208   05 Jun 2027 11:48:13.847             1.639           121.937
       140   05 Jun 2027 11:48:21.514   05 Jun 2027 11:48:23.308             1.794           239.594
       141   05 Jun 2027 11:49:06.350   05 Jun 2027 11:49:07.453             1.103           319.469
       142   05 Jun 2027 11:49:15.497   05 Jun 2027 11:49:19.407             3.910           215.625
       143   05 Jun 2027 11:49:59.729   05 Jun 2027 11:50:02.093             2.364           990.156
       144   05 Jun 2027 11:50:19.739   05 Jun 2027 11:50:20.985             1.246           294.156
       145   05 Jun 2027 11:50:42.138   05 Jun 2027 11:50:44.923             2.785           661.031
       146   06 Jun 2027 04:07:02.369   06 Jun 2027 04:07:22.054            19.685          9842.500
       147   06 Jun 2027 04:07:50.858   06 Jun 2027 04:08:37.955            47.097         23548.500
       148   06 Jun 2027 04:08:40.033   06 Jun 2027 04:09:53.740            73.707         36853.500
       149   06 Jun 2027 04:10:38.695   06 Jun 2027 04:11:05.063            26.368         13184.000
       150   06 Jun 2027 04:11:33.588   06 Jun 2027 04:11:41.285             7.697          3848.500
       151   06 Jun 2027 05:45:21.696   06 Jun 2027 05:45:52.902            31.206         15603.000
       152   06 Jun 2027 05:47:05.639   06 Jun 2027 05:48:57.724           112.085         54988.000
       153   06 Jun 2027 05:49:17.831   06 Jun 2027 05:49:20.326             2.495           340.063
       154   06 Jun 2027 07:08:44.111   06 Jun 2027 07:09:05.628            21.517          9306.656
       155   06 Jun 2027 07:10:00.961   06 Jun 2027 07:10:00.961             0.000             0.000
       156   06 Jun 2027 07:10:14.893   06 Jun 2027 07:10:18.380             3.487          1743.500
       157   06 Jun 2027 07:11:08.088   06 Jun 2027 07:11:09.384             1.296           648.000
       158   06 Jun 2027 08:45:07.009   06 Jun 2027 08:45:28.074            21.065          9723.063
       159   06 Jun 2027 08:45:43.934   06 Jun 2027 08:45:44.867             0.933           182.156
       160   06 Jun 2027 08:47:50.139   06 Jun 2027 08:47:57.553             7.414          3528.875
       161   06 Jun 2027 10:18:35.116   06 Jun 2027 10:18:40.134             5.018          2327.781
       162   06 Jun 2027 10:20:36.793   06 Jun 2027 10:20:42.320             5.527          1963.563
       163   06 Jun 2027 10:21:31.486   06 Jun 2027 10:21:33.903             2.417          1112.812
       164   06 Jun 2027 10:22:40.895   06 Jun 2027 10:22:43.545             2.650             3.125
       165   06 Jun 2027 10:23:37.513   06 Jun 2027 10:23:48.958            11.445          1369.031
       166   06 Jun 2027 10:25:38.098   06 Jun 2027 10:25:43.314             5.216          2253.250
       167   06 Jun 2027 10:26:12.211   06 Jun 2027 10:26:14.570             2.359           518.688
       168   06 Jun 2027 11:56:09.123   06 Jun 2027 11:56:22.200            13.077          6052.125
       169   06 Jun 2027 11:58:23.560   06 Jun 2027 11:58:24.804             1.244           274.500
       170   06 Jun 2027 11:59:14.856   06 Jun 2027 11:59:22.336             7.480           309.750
       171   07 Jun 2027 04:18:55.707   07 Jun 2027 04:19:00.597             4.890          2445.000
       172   07 Jun 2027 04:19:25.416   07 Jun 2027 04:21:01.976            96.560         48280.000
       173   07 Jun 2027 04:22:25.367   07 Jun 2027 04:22:40.619            15.252          7626.000
       174   07 Jun 2027 04:23:05.900   07 Jun 2027 04:23:20.152            14.252          7126.000
       175   07 Jun 2027 04:23:48.378   07 Jun 2027 04:23:49.171             0.793           396.500
       176   07 Jun 2027 04:24:02.911   07 Jun 2027 04:24:06.727             3.816          1908.000
       177   07 Jun 2027 05:57:36.755   07 Jun 2027 05:57:52.289            15.534          7767.000
       178   07 Jun 2027 05:58:48.243   07 Jun 2027 06:01:30.201           161.958         80979.000
       179   07 Jun 2027 07:20:33.187   07 Jun 2027 07:21:04.190            31.003         15344.875
       180   07 Jun 2027 07:22:18.765   07 Jun 2027 07:22:18.765             0.000             0.000
       181   07 Jun 2027 07:23:11.139   07 Jun 2027 07:23:18.596             7.457          3637.625
       182   07 Jun 2027 08:57:08.715   07 Jun 2027 08:57:17.965             9.250          3241.281
       183   07 Jun 2027 08:57:53.689   07 Jun 2027 08:57:56.157             2.468           486.719
       184   07 Jun 2027 08:58:28.268   07 Jun 2027 08:58:30.925             2.657           915.500
       185   07 Jun 2027 08:58:43.253   07 Jun 2027 08:58:43.879             0.626           191.781
       186   07 Jun 2027 08:59:50.066   07 Jun 2027 08:59:57.227             7.161          1941.062
       187   07 Jun 2027 10:32:58.990   07 Jun 2027 10:33:11.354            12.364          4840.031
       188   07 Jun 2027 10:35:22.475   07 Jun 2027 10:35:30.617             8.142          4022.625
       189   07 Jun 2027 10:38:07.237   07 Jun 2027 10:38:14.603             7.366          3659.438
       190   07 Jun 2027 10:38:31.072   07 Jun 2027 10:38:33.057             1.985           150.187
       191   07 Jun 2027 10:38:55.068   07 Jun 2027 10:38:58.006             2.938           282.313
       192   08 Jun 2027 03:00:00.000   08 Jun 2027 03:00:09.893             9.893          4946.500
       193   08 Jun 2027 04:31:04.545   08 Jun 2027 04:32:06.706            62.161         31080.500
       194   08 Jun 2027 04:32:13.264   08 Jun 2027 04:33:05.280            52.016         26008.000
       195   08 Jun 2027 04:33:43.092   08 Jun 2027 04:34:24.618            41.526         20763.000
       196   08 Jun 2027 04:35:50.199   08 Jun 2027 04:35:55.753             5.554          2777.000
       197   08 Jun 2027 06:09:22.985   08 Jun 2027 06:09:54.699            31.714         15857.000
       198   08 Jun 2027 06:10:12.584   08 Jun 2027 06:12:09.187           116.603         57516.281
       199   08 Jun 2027 07:32:45.752   08 Jun 2027 07:32:55.354             9.602          4416.375
       200   08 Jun 2027 07:33:38.059   08 Jun 2027 07:33:40.566             2.507           774.594
       201   08 Jun 2027 07:34:05.984   08 Jun 2027 07:34:09.001             3.017           701.219
       202   08 Jun 2027 07:35:24.113   08 Jun 2027 07:35:28.209             4.096          2012.719
       203   08 Jun 2027 07:35:44.244   08 Jun 2027 07:35:49.764             5.520           501.094
       204   08 Jun 2027 09:09:32.889   08 Jun 2027 09:09:49.773            16.884          7681.687
       205   08 Jun 2027 09:11:49.409   08 Jun 2027 09:11:58.152             8.743          2700.125
       206   08 Jun 2027 10:44:48.737   08 Jun 2027 10:45:00.459            11.722          4791.219
       207   08 Jun 2027 10:47:19.862   08 Jun 2027 10:47:26.578             6.716          3155.563
       208   08 Jun 2027 10:50:41.059   08 Jun 2027 10:50:54.316            13.257          5434.469
       209   09 Jun 2027 03:04:54.067   09 Jun 2027 03:05:08.343            14.276          7138.000
       210   09 Jun 2027 03:05:27.805   09 Jun 2027 03:06:06.128            38.323         19161.500
       211   09 Jun 2027 03:06:18.440   09 Jun 2027 03:06:18.440             0.000             0.000
       212   09 Jun 2027 03:08:10.252   09 Jun 2027 03:08:28.503            18.251          9125.500
       213   09 Jun 2027 03:08:48.935   09 Jun 2027 03:08:48.935             0.000             0.000
       214   09 Jun 2027 03:09:59.828   09 Jun 2027 03:10:03.450             3.622          1811.000
       215   09 Jun 2027 03:11:12.381   09 Jun 2027 03:11:18.721             6.340          3170.000
       216   09 Jun 2027 04:44:11.266   09 Jun 2027 04:46:52.954           161.688         80844.000
       217   09 Jun 2027 04:47:25.178   09 Jun 2027 04:48:00.373            35.195         17597.500
       218   09 Jun 2027 04:48:30.503   09 Jun 2027 04:48:42.818            12.315          6157.500
       219   09 Jun 2027 06:21:19.849   09 Jun 2027 06:21:59.060            39.211         19605.500
       220   09 Jun 2027 06:22:20.842   09 Jun 2027 06:22:27.134             6.292          2705.562
       221   09 Jun 2027 07:45:21.939   09 Jun 2027 07:45:37.156            15.217          6710.469
       222   09 Jun 2027 07:46:13.988   09 Jun 2027 07:46:23.886             9.898           507.969
       223   09 Jun 2027 07:47:49.315   09 Jun 2027 07:47:53.713             4.398           858.625
       224   09 Jun 2027 09:21:10.719   09 Jun 2027 09:21:22.010            11.291          3279.875
       225   09 Jun 2027 09:22:49.958   09 Jun 2027 09:22:55.950             5.992          2637.625
       226   09 Jun 2027 09:23:22.427   09 Jun 2027 09:23:23.822             1.395           382.125
       227   09 Jun 2027 09:24:25.722   09 Jun 2027 09:24:28.814             3.092          1426.281
       228   09 Jun 2027 10:56:07.343   09 Jun 2027 10:56:14.273             6.930          2081.812
       229   09 Jun 2027 10:58:48.224   09 Jun 2027 10:59:03.255            15.031          4173.375
       230   09 Jun 2027 10:59:57.799   09 Jun 2027 11:00:02.888             5.089          1652.562
       231   09 Jun 2027 11:01:15.406   09 Jun 2027 11:01:20.654             5.248          1152.094
       232   09 Jun 2027 11:02:39.826   09 Jun 2027 11:02:44.737             4.911          1723.031
       233   09 Jun 2027 11:02:54.673   09 Jun 2027 11:02:54.824             0.151            13.781
       234   10 Jun 2027 03:17:32.964   10 Jun 2027 03:20:42.573           189.609         94804.500
       235   10 Jun 2027 03:22:32.152   10 Jun 2027 03:22:33.710             1.558           779.000
       236   10 Jun 2027 03:23:31.101   10 Jun 2027 03:24:00.320            29.219         14609.500
       237   10 Jun 2027 04:56:15.095   10 Jun 2027 04:58:01.772           106.677         50797.500
       238   10 Jun 2027 04:59:04.408   10 Jun 2027 04:59:10.819             6.411          1569.094
       239   10 Jun 2027 04:59:41.573   10 Jun 2027 04:59:42.756             1.183           569.500
       240   10 Jun 2027 05:00:00.691   10 Jun 2027 05:00:02.789             2.098           116.406
       241   10 Jun 2027 05:00:36.816   10 Jun 2027 05:00:39.432             2.616           348.437
       242   10 Jun 2027 05:02:23.153   10 Jun 2027 05:02:30.217             7.064          3050.500
       243   10 Jun 2027 05:03:48.234   10 Jun 2027 05:03:52.301             4.067          1846.969
       244   10 Jun 2027 06:22:07.770   10 Jun 2027 06:22:18.266            10.496          4363.875
       245   10 Jun 2027 06:22:43.223   10 Jun 2027 06:22:44.803             1.580            29.281
       246   10 Jun 2027 06:33:16.006   10 Jun 2027 06:33:20.834             4.828          2032.406
       247   10 Jun 2027 07:56:00.681   10 Jun 2027 07:56:09.272             8.591          3860.281
       248   10 Jun 2027 07:56:58.970   10 Jun 2027 07:57:07.548             8.578          1553.062
       249   10 Jun 2027 07:57:23.173   10 Jun 2027 07:57:28.422             5.249           430.562
       250   10 Jun 2027 07:58:15.221   10 Jun 2027 07:58:18.525             3.304           833.156
       251   10 Jun 2027 08:00:04.296   10 Jun 2027 08:00:07.556             3.260          1511.938
       252   10 Jun 2027 09:31:29.801   10 Jun 2027 09:31:36.399             6.598          2432.750
       253   10 Jun 2027 09:31:59.159   10 Jun 2027 09:32:01.593             2.434           102.844
       254   10 Jun 2027 09:33:37.799   10 Jun 2027 09:33:41.271             3.472          1736.000
       255   10 Jun 2027 09:35:20.316   10 Jun 2027 09:35:27.851             7.535          3591.906
       256   10 Jun 2027 09:35:47.443   10 Jun 2027 09:35:47.907             0.464           188.406
       257   10 Jun 2027 09:36:37.684   10 Jun 2027 09:36:40.382             2.698          1331.187
       258   10 Jun 2027 09:37:23.349   10 Jun 2027 09:37:26.639             3.290           311.250
       259   10 Jun 2027 11:10:37.692   10 Jun 2027 11:10:58.181            20.489          8566.906
       260   10 Jun 2027 11:14:34.309   10 Jun 2027 11:14:48.734            14.425          6660.719
       261   10 Jun 2027 11:14:53.770   10 Jun 2027 11:14:54.345             0.575           142.156
       262   11 Jun 2027 03:29:39.084   11 Jun 2027 03:31:22.356           103.272         51636.000
       263   11 Jun 2027 03:31:23.808   11 Jun 2027 03:32:20.004            56.196         28098.000
       264   11 Jun 2027 03:32:35.837   11 Jun 2027 03:32:50.349            14.512          7256.000
       265   11 Jun 2027 03:35:13.134   11 Jun 2027 03:35:32.265            19.131          9565.500
       266   11 Jun 2027 05:08:44.538   11 Jun 2027 05:10:34.781           110.243         53870.344
       267   11 Jun 2027 05:10:58.564   11 Jun 2027 05:10:59.723             1.159           323.938
       268   11 Jun 2027 05:13:49.241   11 Jun 2027 05:14:01.637            12.396          5126.438
       269   11 Jun 2027 05:14:02.324   11 Jun 2027 05:14:03.219             0.895            21.469
       270   11 Jun 2027 05:14:38.176   11 Jun 2027 05:14:41.025             2.849           738.250
       271   11 Jun 2027 06:33:36.730   11 Jun 2027 06:33:45.840             9.110          4555.000
       272   11 Jun 2027 06:34:18.051   11 Jun 2027 06:34:23.782             5.731          2110.094
       273   11 Jun 2027 06:45:18.816   11 Jun 2027 06:45:23.081             4.265          1850.156
       274   11 Jun 2027 08:07:32.461   11 Jun 2027 08:07:46.488            14.027          6953.469
       275   11 Jun 2027 08:08:05.848   11 Jun 2027 08:08:06.665             0.817           233.469
       276   11 Jun 2027 08:08:16.641   11 Jun 2027 08:08:19.520             2.879           174.250
       277   11 Jun 2027 08:10:03.740   11 Jun 2027 08:10:12.764             9.024          2078.969
       278   11 Jun 2027 08:11:23.884   11 Jun 2027 08:11:35.979            12.095          2028.531
       279   11 Jun 2027 08:12:27.031   11 Jun 2027 08:12:30.012             2.981          1351.594
       280   11 Jun 2027 09:42:36.469   11 Jun 2027 09:42:43.659             7.190          3537.344
       281   11 Jun 2027 09:43:48.382   11 Jun 2027 09:43:51.453             3.071           484.156
       282   11 Jun 2027 09:44:53.546   11 Jun 2027 09:44:55.100             1.554           603.906
       283   11 Jun 2027 09:47:42.322   11 Jun 2027 09:47:51.600             9.278          2736.344
       284   11 Jun 2027 09:49:07.272   11 Jun 2027 09:49:19.997            12.725          2275.437
       285   11 Jun 2027 11:19:58.674   11 Jun 2027 11:20:04.673             5.999          2606.562
       286   11 Jun 2027 11:23:03.386   11 Jun 2027 11:23:12.307             8.921          3434.125
       287   11 Jun 2027 11:23:18.333   11 Jun 2027 11:23:19.386             1.053           168.594
       288   11 Jun 2027 11:25:13.543   11 Jun 2027 11:25:17.288             3.745          1769.750
       289   11 Jun 2027 11:26:03.475   11 Jun 2027 11:26:09.100             5.625          1404.813
       290   11 Jun 2027 11:26:30.463   11 Jun 2027 11:26:36.049             5.586           667.594
       291   12 Jun 2027 03:41:58.752   12 Jun 2027 03:43:07.302            68.550         34275.000
       292   12 Jun 2027 03:43:10.046   12 Jun 2027 03:45:07.575           117.529         58764.500
       293   12 Jun 2027 03:47:27.482   12 Jun 2027 03:47:34.541             7.059          3529.500
       294   12 Jun 2027 05:20:46.282   12 Jun 2027 05:22:38.251           111.969         55206.032
       295   12 Jun 2027 05:23:06.125   12 Jun 2027 05:23:10.038             3.913           608.687
       296   12 Jun 2027 05:23:50.158   12 Jun 2027 05:23:53.446             3.288          1253.750
       297   12 Jun 2027 05:24:43.944   12 Jun 2027 05:24:47.818             3.874          1500.000
       298   12 Jun 2027 05:25:38.609   12 Jun 2027 05:25:42.489             3.880          1537.156
       299   12 Jun 2027 05:27:05.378   12 Jun 2027 05:27:15.543            10.165          1911.969
       300   12 Jun 2027 06:45:07.007   12 Jun 2027 06:45:14.829             7.822          3911.000
       301   12 Jun 2027 06:45:20.880   12 Jun 2027 06:45:20.880             0.000             0.000
       302   12 Jun 2027 06:45:32.504   12 Jun 2027 06:45:41.618             9.114          1862.594
       303   12 Jun 2027 06:46:15.234   12 Jun 2027 06:46:15.234             0.000             0.000
       304   12 Jun 2027 06:46:59.573   12 Jun 2027 06:47:09.207             9.634          2300.437
       305   12 Jun 2027 06:47:16.157   12 Jun 2027 06:47:17.314             1.157            46.375
       306   12 Jun 2027 06:57:20.993   12 Jun 2027 06:57:26.170             5.177          1796.187
       307   12 Jun 2027 08:19:16.765   12 Jun 2027 08:19:31.398            14.633          6397.156
       308   12 Jun 2027 08:19:48.122   12 Jun 2027 08:19:51.073             2.951           126.375
       309   12 Jun 2027 08:21:23.393   12 Jun 2027 08:21:28.118             4.725          2030.688
       310   12 Jun 2027 08:22:25.333   12 Jun 2027 08:22:34.342             9.009          1022.625
       311   12 Jun 2027 08:24:06.702   12 Jun 2027 08:24:11.230             4.528          2207.937
       312   12 Jun 2027 08:24:23.649   12 Jun 2027 08:24:24.688             1.039           232.844
       313   12 Jun 2027 09:54:04.723   12 Jun 2027 09:54:11.688             6.965          2539.656
       314   12 Jun 2027 09:55:56.643   12 Jun 2027 09:55:58.089             1.446           208.344
       315   12 Jun 2027 09:56:44.875   12 Jun 2027 09:56:49.709             4.834          1426.000
       316   12 Jun 2027 09:57:52.424   12 Jun 2027 09:57:52.424             0.000             0.000
       317   12 Jun 2027 09:59:42.726   12 Jun 2027 10:00:00.262            17.536          4052.344
       318   12 Jun 2027 10:01:02.293   12 Jun 2027 10:01:04.775             2.482           372.062
       319   12 Jun 2027 10:01:56.829   12 Jun 2027 10:01:59.800             2.971          1437.844
       320   12 Jun 2027 11:31:54.050   12 Jun 2027 11:32:08.593            14.543          4147.656
       321   12 Jun 2027 11:33:06.404   12 Jun 2027 11:33:07.870             1.466           339.375
       322   12 Jun 2027 11:34:53.463   12 Jun 2027 11:35:00.063             6.600          1708.188
       323   12 Jun 2027 11:36:10.766   12 Jun 2027 11:36:14.605             3.839          1462.125
       324   12 Jun 2027 11:36:40.023   12 Jun 2027 11:36:43.851             3.828           411.781
       325   12 Jun 2027 11:37:16.776   12 Jun 2027 11:37:18.713             1.937           957.469
       326   12 Jun 2027 11:37:47.372   12 Jun 2027 11:37:50.172             2.800           895.594
       327   12 Jun 2027 11:38:31.871   12 Jun 2027 11:38:41.406             9.535           647.625
       328   12 Jun 2027 11:38:43.342   12 Jun 2027 11:38:44.896             1.554            35.906
       329   12 Jun 2027 11:38:47.892   12 Jun 2027 11:38:48.429             0.537            85.344
       330   13 Jun 2027 03:54:42.730   13 Jun 2027 03:56:20.940            98.210         49105.000
       331   13 Jun 2027 03:56:45.711   13 Jun 2027 03:58:00.930            75.219         37609.500
       332   13 Jun 2027 03:58:33.490   13 Jun 2027 03:58:37.276             3.786          1893.000
       333   13 Jun 2027 05:33:32.542   13 Jun 2027 05:34:40.340            67.798         33899.000
       334   13 Jun 2027 05:35:07.521   13 Jun 2027 05:35:35.020            27.499         13749.500
       335   13 Jun 2027 05:35:56.301   13 Jun 2027 05:36:23.879            27.578         13789.000
       336   13 Jun 2027 05:36:33.635   13 Jun 2027 05:36:50.498            16.863          8431.500
       337   13 Jun 2027 05:37:01.128   13 Jun 2027 05:37:05.147             4.019          1836.406
       338   13 Jun 2027 06:57:06.370   13 Jun 2027 06:57:27.447            21.077          7975.156
       339   13 Jun 2027 06:58:16.802   13 Jun 2027 06:58:28.090            11.288          1520.750
       340   13 Jun 2027 06:58:49.019   13 Jun 2027 06:58:50.079             1.060            87.656
       341   13 Jun 2027 06:59:09.758   13 Jun 2027 06:59:10.981             1.223           562.031
       342   13 Jun 2027 08:33:03.121   13 Jun 2027 08:33:21.729            18.608          7961.375
       343   13 Jun 2027 08:33:54.163   13 Jun 2027 08:33:59.594             5.431           949.906
       344   13 Jun 2027 08:34:39.012   13 Jun 2027 08:34:45.450             6.438          1180.062
       345   13 Jun 2027 08:35:49.412   13 Jun 2027 08:35:52.990             3.578           912.531
       346   13 Jun 2027 08:36:22.647   13 Jun 2027 08:36:25.632             2.985           778.125
       347   13 Jun 2027 10:06:53.700   13 Jun 2027 10:07:02.385             8.685          3684.156
       348   13 Jun 2027 10:08:24.363   13 Jun 2027 10:08:26.680             2.317          1037.344
       349   13 Jun 2027 10:08:58.467   13 Jun 2027 10:08:59.069             0.602           268.656
       350   13 Jun 2027 10:09:28.912   13 Jun 2027 10:09:31.313             2.401           380.969
       351   13 Jun 2027 10:11:03.897   13 Jun 2027 10:11:04.589             0.692           307.469
       352   13 Jun 2027 10:11:45.645   13 Jun 2027 10:11:47.944             2.299           841.156
       353   13 Jun 2027 10:12:33.462   13 Jun 2027 10:12:37.070             3.608           307.969
       354   13 Jun 2027 10:13:29.714   13 Jun 2027 10:13:32.416             2.702          1127.250
       355   13 Jun 2027 10:14:24.620   13 Jun 2027 10:14:29.305             4.685          1485.250
       356   13 Jun 2027 10:14:52.559   13 Jun 2027 10:14:54.070             1.511           233.125
       357   13 Jun 2027 11:44:00.843   13 Jun 2027 11:44:13.949            13.106          6278.344
       358   13 Jun 2027 11:45:03.491   13 Jun 2027 11:45:08.173             4.682           922.812
       359   13 Jun 2027 11:46:18.896   13 Jun 2027 11:46:20.228             1.332           446.969
       360   13 Jun 2027 11:48:47.915   13 Jun 2027 11:48:57.479             9.564          4493.969
       361   13 Jun 2027 11:49:16.687   13 Jun 2027 11:49:17.878             1.191           508.937
       362   13 Jun 2027 11:50:03.433   13 Jun 2027 11:50:09.317             5.884          1423.594
       363   13 Jun 2027 11:50:33.477   13 Jun 2027 11:50:35.542             2.065           635.781
       364   13 Jun 2027 11:50:59.281   13 Jun 2027 11:51:08.047             8.766           741.844
