uniorb/output/strategy_4/Camera/Camera_KinoSat_110807.txt

KinoSat_110807
-------------------------
    Access    *     Start Time (UTCG)     *     Stop Time (UTCG)  *   Duration (s) *   Data (Mbytes)
         1   01 Jun 2027 03:15:54.016   01 Jun 2027 03:17:09.075            75.059         37529.500
         2   01 Jun 2027 04:52:29.373   01 Jun 2027 04:54:30.482           121.109         60554.500
         3   01 Jun 2027 04:55:29.141   01 Jun 2027 04:55:29.141             0.000             0.000
         4   01 Jun 2027 04:55:38.655   01 Jun 2027 04:55:56.995            18.340          9170.000
         5   01 Jun 2027 06:27:39.527   01 Jun 2027 06:29:15.673            96.146         48073.000
         6   01 Jun 2027 06:29:35.995   01 Jun 2027 06:29:45.024             9.029          4514.500
         7   01 Jun 2027 06:29:49.743   01 Jun 2027 06:29:55.202             5.459          2729.500
         8   01 Jun 2027 06:31:48.512   01 Jun 2027 06:31:51.133             2.621          1310.500
         9   01 Jun 2027 06:33:20.536   01 Jun 2027 06:33:23.210             2.674          1337.000
        10   01 Jun 2027 06:33:30.428   01 Jun 2027 06:33:31.191             0.763           381.500
        11   01 Jun 2027 06:33:54.215   01 Jun 2027 06:33:54.507             0.292           146.000
        12   01 Jun 2027 06:34:01.864   01 Jun 2027 06:34:13.749            11.885          5942.500
        13   01 Jun 2027 08:04:00.358   01 Jun 2027 08:06:18.198           137.840         68920.000
        14   01 Jun 2027 08:08:46.465   01 Jun 2027 08:08:51.503             5.038          2519.000
        15   01 Jun 2027 08:09:24.004   01 Jun 2027 08:09:38.466            14.462          7231.000
        16   01 Jun 2027 09:41:17.099   01 Jun 2027 09:43:51.649           154.550         77275.000
        17   01 Jun 2027 09:44:08.198   01 Jun 2027 09:44:24.190            15.992          7996.000
        18   01 Jun 2027 09:45:03.162   01 Jun 2027 09:45:23.138            19.976          9988.000
        19   01 Jun 2027 11:17:29.576   01 Jun 2027 11:20:02.926           153.350         76675.000
        20   01 Jun 2027 11:22:00.090   01 Jun 2027 11:22:14.525            14.435          7217.500
        21   02 Jun 2027 03:28:27.119   02 Jun 2027 03:28:50.678            23.559         11779.500
        22   02 Jun 2027 03:29:04.588   02 Jun 2027 03:29:21.143            16.555          8277.500
        23   02 Jun 2027 05:04:16.914   02 Jun 2027 05:07:00.999           164.085         82042.500
        24   02 Jun 2027 05:08:05.258   02 Jun 2027 05:08:17.158            11.900          5950.000
        25   02 Jun 2027 05:08:20.667   02 Jun 2027 05:08:25.875             5.208          2604.000
        26   02 Jun 2027 06:39:10.152   02 Jun 2027 06:42:37.290           207.138        103569.000
        27   02 Jun 2027 06:44:19.133   02 Jun 2027 06:44:25.381             6.248          3124.000
        28   02 Jun 2027 06:45:45.786   02 Jun 2027 06:46:24.238            38.452         19226.000
        29   02 Jun 2027 08:15:38.920   02 Jun 2027 08:18:19.506           160.586         80293.000
        30   02 Jun 2027 08:19:23.037   02 Jun 2027 08:20:15.756            52.719         26359.500
        31   02 Jun 2027 08:20:25.566   02 Jun 2027 08:20:31.826             6.260          3130.000
        32   02 Jun 2027 09:53:56.725   02 Jun 2027 09:54:20.674            23.949         11753.344
        33   02 Jun 2027 09:54:24.201   02 Jun 2027 09:54:24.595             0.394           110.219
        34   02 Jun 2027 09:55:32.919   02 Jun 2027 09:55:33.768             0.849           372.500
        35   02 Jun 2027 09:57:02.435   02 Jun 2027 09:57:07.306             4.871          2360.656
        36   02 Jun 2027 09:57:10.651   02 Jun 2027 09:57:13.792             3.141            85.906
        37   02 Jun 2027 11:29:23.735   02 Jun 2027 11:29:35.157            11.422          5472.813
        38   03 Jun 2027 03:39:01.522   03 Jun 2027 03:39:12.979            11.457          5728.500
        39   03 Jun 2027 03:42:55.607   03 Jun 2027 03:43:00.544             4.937          2468.500
        40   03 Jun 2027 03:43:21.517   03 Jun 2027 03:43:21.517             0.000             0.000
        41   03 Jun 2027 03:43:36.277   03 Jun 2027 03:43:39.582             3.305          1652.500
        42   03 Jun 2027 05:14:33.211   03 Jun 2027 05:15:23.953            50.742         25371.000
        43   03 Jun 2027 05:16:02.094   03 Jun 2027 05:17:30.281            88.187         44093.500
        44   03 Jun 2027 05:18:20.783   03 Jun 2027 05:18:50.991            30.208         15104.000
        45   03 Jun 2027 05:20:25.404   03 Jun 2027 05:20:35.417            10.013          5006.500
        46   03 Jun 2027 06:50:52.383   03 Jun 2027 06:53:01.944           129.561         64110.969
        47   03 Jun 2027 06:53:45.401   03 Jun 2027 06:53:47.229             1.828           404.313
        48   03 Jun 2027 06:54:06.734   03 Jun 2027 06:54:08.462             1.728           400.219
        49   03 Jun 2027 06:54:55.687   03 Jun 2027 06:54:58.862             3.175           859.313
        50   03 Jun 2027 06:56:28.802   03 Jun 2027 06:56:30.548             1.746           577.469
        51   03 Jun 2027 06:57:39.231   03 Jun 2027 06:57:45.071             5.840          2125.062
        52   03 Jun 2027 08:27:59.326   03 Jun 2027 08:28:11.248            11.922          4958.719
        53   03 Jun 2027 08:30:55.270   03 Jun 2027 08:30:57.881             2.611           464.531
        54   03 Jun 2027 08:33:18.321   03 Jun 2027 08:33:19.758             1.437           143.688
        55   03 Jun 2027 08:33:50.852   03 Jun 2027 08:33:53.661             2.809           876.625
        56   03 Jun 2027 08:34:16.654   03 Jun 2027 08:34:18.302             1.648           672.719
        57   03 Jun 2027 10:05:54.595   03 Jun 2027 10:06:08.160            13.565          6342.781
        58   03 Jun 2027 10:06:57.337   03 Jun 2027 10:07:01.705             4.368          1224.437
        59   03 Jun 2027 10:07:26.949   03 Jun 2027 10:07:30.857             3.908            40.813
        60   03 Jun 2027 10:08:41.393   03 Jun 2027 10:08:46.743             5.350          1142.250
        61   03 Jun 2027 10:09:05.265   03 Jun 2027 10:09:11.798             6.533           256.500
        62   03 Jun 2027 10:09:25.704   03 Jun 2027 10:09:30.822             5.118           434.562
        63   03 Jun 2027 10:09:38.649   03 Jun 2027 10:09:40.431             1.782           244.594
        64   03 Jun 2027 11:38:59.624   03 Jun 2027 11:39:12.893            13.269          4926.000
        65   04 Jun 2027 03:50:44.357   04 Jun 2027 03:51:01.135            16.778          8389.000
        66   04 Jun 2027 03:55:09.074   04 Jun 2027 03:55:17.338             8.264          4132.000
        67   04 Jun 2027 05:25:42.062   04 Jun 2027 05:27:37.260           115.198         57599.000
        68   04 Jun 2027 05:27:46.083   04 Jun 2027 05:29:00.908            74.825         37412.500
        69   04 Jun 2027 05:31:12.290   04 Jun 2027 05:32:01.577            49.287         24643.500
        70   04 Jun 2027 07:03:10.738   04 Jun 2027 07:04:18.238            67.500         32348.594
        71   04 Jun 2027 07:04:45.124   04 Jun 2027 07:04:46.556             1.432           645.875
        72   04 Jun 2027 07:05:49.842   04 Jun 2027 07:05:50.863             1.021           421.281
        73   04 Jun 2027 07:06:29.968   04 Jun 2027 07:06:33.966             3.998           768.813
        74   04 Jun 2027 07:07:01.350   04 Jun 2027 07:07:04.386             3.036           833.937
        75   04 Jun 2027 07:08:32.722   04 Jun 2027 07:08:34.609             1.887           749.094
        76   04 Jun 2027 07:09:21.443   04 Jun 2027 07:09:24.253             2.810           515.719
        77   04 Jun 2027 07:10:08.191   04 Jun 2027 07:10:12.343             4.152           134.562
        78   04 Jun 2027 08:39:55.351   04 Jun 2027 08:40:06.064            10.713          3377.188
        79   04 Jun 2027 08:41:47.854   04 Jun 2027 08:41:51.375             3.521          1711.781
        80   04 Jun 2027 08:43:12.189   04 Jun 2027 08:43:19.827             7.638          1648.875
        81   04 Jun 2027 08:43:43.621   04 Jun 2027 08:43:47.526             3.905           595.375
        82   04 Jun 2027 08:43:57.232   04 Jun 2027 08:43:58.231             0.999            60.219
        83   04 Jun 2027 08:44:40.728   04 Jun 2027 08:44:43.422             2.694          1187.188
        84   04 Jun 2027 08:45:47.511   04 Jun 2027 08:45:51.636             4.125          1135.219
        85   04 Jun 2027 08:46:12.674   04 Jun 2027 08:46:21.953             9.279           654.500
        86   04 Jun 2027 10:17:53.835   04 Jun 2027 10:18:06.818            12.983          6197.437
        87   04 Jun 2027 10:21:15.871   04 Jun 2027 10:21:18.271             2.400          1046.688
        88   04 Jun 2027 10:21:32.789   04 Jun 2027 10:21:36.226             3.437           398.281
        89   04 Jun 2027 10:21:50.450   04 Jun 2027 10:21:52.000             1.550           444.500
        90   04 Jun 2027 11:51:31.736   04 Jun 2027 11:51:34.858             3.122          1008.719
        91   05 Jun 2027 04:02:16.721   05 Jun 2027 04:02:36.369            19.648          9824.000
        92   05 Jun 2027 04:02:40.856   05 Jun 2027 04:02:40.856             0.000             0.000
        93   05 Jun 2027 04:06:53.247   05 Jun 2027 04:06:57.941             4.694          2347.000
        94   05 Jun 2027 05:37:10.145   05 Jun 2027 05:39:39.292           149.147         74573.500
        95   05 Jun 2027 05:39:48.257   05 Jun 2027 05:40:15.207            26.950         13475.000
        96   05 Jun 2027 05:44:49.350   05 Jun 2027 05:44:54.309             4.959          2479.500
        97   05 Jun 2027 05:45:54.184   05 Jun 2027 05:46:17.979            23.795         11897.500
        98   05 Jun 2027 07:15:03.946   05 Jun 2027 07:16:57.846           113.900         54740.750
        99   05 Jun 2027 07:17:49.143   05 Jun 2027 07:17:49.143             0.000             0.000
       100   05 Jun 2027 07:18:10.589   05 Jun 2027 07:18:15.224             4.635          1838.281
       101   05 Jun 2027 07:20:06.304   05 Jun 2027 07:20:14.740             8.436          2964.719
       102   05 Jun 2027 07:20:36.543   05 Jun 2027 07:20:40.098             3.555           596.937
       103   05 Jun 2027 07:21:51.968   05 Jun 2027 07:21:57.748             5.780          1015.969
       104   05 Jun 2027 07:22:04.969   05 Jun 2027 07:22:07.128             2.159           225.656
       105   05 Jun 2027 08:51:47.957   05 Jun 2027 08:51:57.477             9.520          4509.812
       106   05 Jun 2027 08:52:28.685   05 Jun 2027 08:52:38.771            10.086           278.281
       107   05 Jun 2027 08:53:56.096   05 Jun 2027 08:54:00.945             4.849          2084.719
       108   05 Jun 2027 08:55:29.070   05 Jun 2027 08:55:30.466             1.396            33.656
       109   05 Jun 2027 08:56:17.891   05 Jun 2027 08:56:19.731             1.840           393.187
       110   05 Jun 2027 08:56:45.243   05 Jun 2027 08:56:46.846             1.603           396.563
       111   05 Jun 2027 10:29:53.922   05 Jun 2027 10:30:08.063            14.141          6432.781
       112   05 Jun 2027 10:30:32.423   05 Jun 2027 10:30:34.167             1.744           527.969
       113   05 Jun 2027 10:33:27.417   05 Jun 2027 10:33:31.240             3.823          1199.906
       114   06 Jun 2027 04:16:15.126   06 Jun 2027 04:16:44.656            29.530         14765.000
       115   06 Jun 2027 04:17:55.020   06 Jun 2027 04:18:12.476            17.456          8728.000
       116   06 Jun 2027 05:50:02.828   06 Jun 2027 05:52:20.065           137.237         68618.500
       117   06 Jun 2027 05:52:50.013   06 Jun 2027 05:53:36.566            46.553         23276.500
       118   06 Jun 2027 05:56:48.800   06 Jun 2027 05:56:57.671             8.871          4435.500
       119   06 Jun 2027 05:57:17.501   06 Jun 2027 05:57:21.783             4.282          2141.000
       120   06 Jun 2027 05:57:24.749   06 Jun 2027 05:57:27.085             2.336          1168.000
       121   06 Jun 2027 05:58:08.795   06 Jun 2027 05:58:10.446             1.651           825.500
       122   06 Jun 2027 05:58:20.718   06 Jun 2027 05:58:28.355             7.637          3818.500
       123   06 Jun 2027 05:58:33.024   06 Jun 2027 05:58:33.240             0.216           108.000
       124   06 Jun 2027 07:27:11.768   06 Jun 2027 07:28:34.732            82.964         39195.563
       125   06 Jun 2027 07:29:25.014   06 Jun 2027 07:29:27.472             2.458          1063.844
       126   06 Jun 2027 07:30:32.527   06 Jun 2027 07:30:36.188             3.661          1780.031
       127   06 Jun 2027 07:31:20.826   06 Jun 2027 07:31:24.923             4.097          1232.687
       128   06 Jun 2027 07:32:10.565   06 Jun 2027 07:32:20.234             9.669           197.656
       129   06 Jun 2027 07:33:16.432   06 Jun 2027 07:33:19.449             3.017           407.563
       130   06 Jun 2027 09:04:26.327   06 Jun 2027 09:04:39.391            13.064          5195.531
       131   06 Jun 2027 09:07:14.296   06 Jun 2027 09:07:20.647             6.351           926.000
       132   06 Jun 2027 09:07:58.354   06 Jun 2027 09:07:59.792             1.438           542.625
       133   06 Jun 2027 09:08:32.453   06 Jun 2027 09:08:34.169             1.716           792.906
       134   06 Jun 2027 09:08:53.165   06 Jun 2027 09:08:54.845             1.680           240.656
       135   06 Jun 2027 09:09:59.433   06 Jun 2027 09:10:00.535             1.102            30.750
       136   06 Jun 2027 10:41:07.931   06 Jun 2027 10:41:21.180            13.249          6160.406
       137   06 Jun 2027 10:43:39.765   06 Jun 2027 10:43:47.281             7.516          1505.656
       138   06 Jun 2027 10:45:32.891   06 Jun 2027 10:45:34.449             1.558           686.719
       139   07 Jun 2027 04:28:27.988   07 Jun 2027 04:29:41.043            73.055         36527.500
       140   07 Jun 2027 04:30:32.123   07 Jun 2027 04:30:47.516            15.393          7696.500
       141   07 Jun 2027 06:02:27.899   07 Jun 2027 06:05:21.346           173.447         86723.500
       142   07 Jun 2027 06:06:35.171   07 Jun 2027 06:06:56.336            21.165         10582.500
       143   07 Jun 2027 06:07:53.010   07 Jun 2027 06:07:53.831             0.821           410.500
       144   07 Jun 2027 06:08:25.757   07 Jun 2027 06:08:30.850             5.093          2546.500
       145   07 Jun 2027 06:09:03.854   07 Jun 2027 06:09:11.075             7.221          3610.500
       146   07 Jun 2027 06:09:19.509   07 Jun 2027 06:09:28.654             9.145          4292.625
       147   07 Jun 2027 06:10:22.844   07 Jun 2027 06:10:22.844             0.000             0.000
       148   07 Jun 2027 06:10:29.017   07 Jun 2027 06:10:31.467             2.450           839.562
       149   07 Jun 2027 07:39:37.010   07 Jun 2027 07:39:38.182             1.172           500.875
       150   07 Jun 2027 07:44:02.737   07 Jun 2027 07:44:06.043             3.306           277.594
       151   07 Jun 2027 07:45:18.012   07 Jun 2027 07:45:20.599             2.587           189.250
       152   07 Jun 2027 07:45:56.723   07 Jun 2027 07:46:04.142             7.419          1128.875
       153   07 Jun 2027 09:16:35.905   07 Jun 2027 09:16:50.413            14.508          6608.781
       154   07 Jun 2027 09:21:33.434   07 Jun 2027 09:21:37.011             3.577          1145.719
       155   07 Jun 2027 10:53:22.730   07 Jun 2027 10:53:37.407            14.677          7253.219
       156   07 Jun 2027 10:55:35.058   07 Jun 2027 10:55:37.228             2.170           901.562
       157   07 Jun 2027 10:55:49.687   07 Jun 2027 10:55:50.700             1.013           132.813
       158   07 Jun 2027 10:57:34.986   07 Jun 2027 10:57:36.659             1.673            93.375
       159   08 Jun 2027 03:04:03.316   08 Jun 2027 03:04:28.272            24.956         12478.000
       160   08 Jun 2027 04:40:33.862   08 Jun 2027 04:43:37.514           183.652         91826.000
       161   08 Jun 2027 04:44:03.691   08 Jun 2027 04:44:06.705             3.014          1507.000
       162   08 Jun 2027 06:15:42.726   08 Jun 2027 06:17:14.109            91.383         45586.656
       163   08 Jun 2027 06:17:35.228   08 Jun 2027 06:17:38.306             3.078           659.969
       164   08 Jun 2027 06:18:41.100   08 Jun 2027 06:18:48.056             6.956           206.219
       165   08 Jun 2027 06:19:25.462   08 Jun 2027 06:19:25.462             0.000             0.000
       166   08 Jun 2027 06:19:45.315   08 Jun 2027 06:19:47.758             2.443          1114.969
       167   08 Jun 2027 06:20:39.359   08 Jun 2027 06:20:40.378             1.019           401.688
       168   08 Jun 2027 06:21:40.751   08 Jun 2027 06:21:44.638             3.887           257.281
       169   08 Jun 2027 06:22:08.865   08 Jun 2027 06:22:10.401             1.536           601.469
       170   08 Jun 2027 07:57:09.518   08 Jun 2027 07:57:10.485             0.967           117.750
       171   08 Jun 2027 07:57:35.520   08 Jun 2027 07:57:37.343             1.823           168.031
       172   08 Jun 2027 09:29:37.100   08 Jun 2027 09:29:49.825            12.725          4941.375
       173   08 Jun 2027 09:32:20.808   08 Jun 2027 09:32:21.080             0.272            27.750
       174   08 Jun 2027 09:32:38.290   08 Jun 2027 09:32:42.466             4.176           517.531
       175   08 Jun 2027 09:33:32.763   08 Jun 2027 09:33:35.773             3.010           378.188
       176   08 Jun 2027 11:05:40.288   08 Jun 2027 11:05:53.556            13.268          6190.094
       177   09 Jun 2027 03:16:08.540   09 Jun 2027 03:16:30.440            21.900         10950.000
       178   09 Jun 2027 04:52:44.203   09 Jun 2027 04:56:11.481           207.278        103639.000
       179   09 Jun 2027 06:27:54.453   09 Jun 2027 06:29:15.535            81.082         40037.282
       180   09 Jun 2027 06:30:24.067   09 Jun 2027 06:30:27.980             3.913          1918.219
       181   09 Jun 2027 06:30:40.275   09 Jun 2027 06:30:42.768             2.493           275.000
       182   09 Jun 2027 06:30:47.598   09 Jun 2027 06:30:48.794             1.196           150.937
       183   09 Jun 2027 06:31:07.945   09 Jun 2027 06:31:07.945             0.000             0.000
       184   09 Jun 2027 06:32:26.800   09 Jun 2027 06:32:32.877             6.077          2757.781
       185   09 Jun 2027 06:33:39.218   09 Jun 2027 06:33:43.987             4.769          1774.156
       186   09 Jun 2027 06:33:48.582   09 Jun 2027 06:33:49.958             1.376            79.094
       187   09 Jun 2027 06:34:16.361   09 Jun 2027 06:34:16.590             0.229            35.281
       188   09 Jun 2027 08:04:15.014   09 Jun 2027 08:04:17.810             2.796           877.188
       189   09 Jun 2027 08:09:01.493   09 Jun 2027 08:09:04.946             3.453           128.063
       190   09 Jun 2027 08:09:40.454   09 Jun 2027 08:09:43.257             2.803          1070.000
       191   09 Jun 2027 09:41:40.514   09 Jun 2027 09:41:53.685            13.171          4749.312
       192   09 Jun 2027 09:44:25.327   09 Jun 2027 09:44:31.639             6.312           488.969
       193   09 Jun 2027 09:45:09.315   09 Jun 2027 09:45:12.327             3.012            28.187
       194   09 Jun 2027 09:45:43.867   09 Jun 2027 09:45:46.632             2.765            93.719
       195   09 Jun 2027 09:45:58.378   09 Jun 2027 09:46:00.276             1.898           367.063
       196   09 Jun 2027 11:17:44.413   09 Jun 2027 11:17:56.009            11.596          5256.625
       197   09 Jun 2027 11:19:28.999   09 Jun 2027 11:19:30.334             1.335            19.031
       198   09 Jun 2027 11:21:32.603   09 Jun 2027 11:21:37.832             5.229          2254.844
       199   10 Jun 2027 03:28:42.135   10 Jun 2027 03:28:45.709             3.574          1787.000
       200   10 Jun 2027 03:29:38.613   10 Jun 2027 03:29:44.305             5.692          2846.000
       201   10 Jun 2027 05:04:31.115   10 Jun 2027 05:08:20.270           229.155        114577.500
       202   10 Jun 2027 05:08:32.677   10 Jun 2027 05:08:36.137             3.460          1730.000
       203   10 Jun 2027 06:39:24.209   10 Jun 2027 06:40:19.862            55.653         27690.813
       204   10 Jun 2027 06:40:56.283   10 Jun 2027 06:40:57.942             1.659           524.531
       205   10 Jun 2027 06:42:33.226   10 Jun 2027 06:42:34.233             1.007           186.344
       206   10 Jun 2027 06:42:46.004   10 Jun 2027 06:42:46.004             0.000             0.000
       207   10 Jun 2027 06:43:08.660   10 Jun 2027 06:43:10.968             2.308           816.344
       208   10 Jun 2027 06:44:26.563   10 Jun 2027 06:44:31.673             5.110          1957.281
       209   10 Jun 2027 06:45:25.059   10 Jun 2027 06:45:30.523             5.464          1238.281
       210   10 Jun 2027 06:46:06.731   10 Jun 2027 06:46:11.502             4.771          1116.469
       211   10 Jun 2027 08:15:54.188   10 Jun 2027 08:15:58.238             4.050          1061.000
       212   10 Jun 2027 09:54:11.753   10 Jun 2027 09:54:28.677            16.924          6105.406
       213   10 Jun 2027 09:55:37.633   10 Jun 2027 09:55:41.537             3.904          1911.125
       214   10 Jun 2027 09:56:01.891   10 Jun 2027 09:56:04.893             3.002           417.875
       215   10 Jun 2027 09:57:23.030   10 Jun 2027 09:57:24.792             1.762            93.531
       216   10 Jun 2027 09:57:43.855   10 Jun 2027 09:57:46.025             2.170           562.375
       217   10 Jun 2027 11:29:37.928   10 Jun 2027 11:29:48.023            10.095          4924.250
       218   11 Jun 2027 03:39:16.593   11 Jun 2027 03:39:29.594            13.001          6500.500
       219   11 Jun 2027 03:43:11.949   11 Jun 2027 03:43:15.559             3.610          1805.000
       220   11 Jun 2027 05:14:47.792   11 Jun 2027 05:15:38.517            50.725         25362.500
       221   11 Jun 2027 05:16:16.466   11 Jun 2027 05:16:48.586            32.120         16060.000
       222   11 Jun 2027 05:17:44.913   11 Jun 2027 05:18:36.014            51.101         25550.500
       223   11 Jun 2027 05:19:09.365   11 Jun 2027 05:20:30.847            81.482         40741.000
       224   11 Jun 2027 06:51:07.583   11 Jun 2027 06:52:31.840            84.257         41747.906
       225   11 Jun 2027 06:52:59.450   11 Jun 2027 06:53:03.208             3.758           605.781
       226   11 Jun 2027 06:54:01.589   11 Jun 2027 06:54:05.904             4.315           411.844
       227   11 Jun 2027 06:54:44.568   11 Jun 2027 06:54:44.568             0.000             0.000
       228   11 Jun 2027 06:54:49.321   11 Jun 2027 06:54:53.013             3.692           867.125
       229   11 Jun 2027 06:56:25.706   11 Jun 2027 06:56:32.468             6.762          2307.375
       230   11 Jun 2027 06:57:05.959   11 Jun 2027 06:57:08.404             2.445           654.062
       231   11 Jun 2027 06:57:53.778   11 Jun 2027 06:57:56.462             2.684           898.344
       232   11 Jun 2027 08:28:13.939   11 Jun 2027 08:28:18.649             4.710          1946.375
       233   11 Jun 2027 08:28:34.113   11 Jun 2027 08:28:35.396             1.283           429.281
       234   11 Jun 2027 08:30:48.718   11 Jun 2027 08:30:54.083             5.365           430.656
       235   11 Jun 2027 08:31:10.396   11 Jun 2027 08:31:12.576             2.180           480.938
       236   11 Jun 2027 08:33:29.424   11 Jun 2027 08:33:32.523             3.099           162.750
       237   11 Jun 2027 08:33:37.981   11 Jun 2027 08:33:40.759             2.778            81.781
       238   11 Jun 2027 08:34:08.793   11 Jun 2027 08:34:11.024             2.231           366.375
       239   11 Jun 2027 10:06:09.318   11 Jun 2027 10:06:23.524            14.206          5914.625
       240   11 Jun 2027 10:07:39.864   11 Jun 2027 10:07:45.734             5.870          2136.812
       241   11 Jun 2027 10:08:56.707   11 Jun 2027 10:09:05.738             9.031          1073.156
       242   11 Jun 2027 10:09:21.028   11 Jun 2027 10:09:24.454             3.426           293.438
       243   11 Jun 2027 10:09:41.336   11 Jun 2027 10:09:42.617             1.281           375.937
       244   11 Jun 2027 10:09:46.335   11 Jun 2027 10:09:48.015             1.680           114.813
       245   11 Jun 2027 10:10:00.331   11 Jun 2027 10:10:03.817             3.486           227.625
       246   11 Jun 2027 11:39:14.545   11 Jun 2027 11:39:28.151            13.606          4909.844
       247   12 Jun 2027 03:50:58.985   12 Jun 2027 03:51:15.741            16.756          8378.000
       248   12 Jun 2027 03:55:13.026   12 Jun 2027 03:55:16.409             3.383          1691.500
       249   12 Jun 2027 05:25:56.086   12 Jun 2027 05:27:52.346           116.260         58130.000
       250   12 Jun 2027 05:28:00.812   12 Jun 2027 05:28:57.716            56.904         28452.000
       251   12 Jun 2027 05:32:23.630   12 Jun 2027 05:33:03.781            40.151         20075.500
       252   12 Jun 2027 05:34:03.425   12 Jun 2027 05:34:19.163            15.738          7869.000
       253   12 Jun 2027 07:03:25.370   12 Jun 2027 07:04:44.696            79.326         39110.501
       254   12 Jun 2027 07:05:47.737   12 Jun 2027 07:05:51.563             3.826          1412.656
       255   12 Jun 2027 07:06:05.899   12 Jun 2027 07:06:07.234             1.335           412.500
       256   12 Jun 2027 07:06:46.331   12 Jun 2027 07:06:48.766             2.435           785.344
       257   12 Jun 2027 07:08:24.110   12 Jun 2027 07:08:28.899             4.789          2076.781
       258   12 Jun 2027 07:09:21.360   12 Jun 2027 07:09:26.108             4.748          1016.750
       259   12 Jun 2027 07:10:18.618   12 Jun 2027 07:10:20.194             1.576           679.750
       260   12 Jun 2027 08:40:09.984   12 Jun 2027 08:40:16.560             6.576          2955.188
       261   12 Jun 2027 08:42:04.617   12 Jun 2027 08:42:12.893             8.276          1758.531
       262   12 Jun 2027 08:43:37.206   12 Jun 2027 08:43:44.267             7.061           215.750
       263   12 Jun 2027 08:44:10.505   12 Jun 2027 08:44:11.564             1.059           366.187
       264   12 Jun 2027 08:44:18.273   12 Jun 2027 08:44:19.007             0.734           209.656
       265   12 Jun 2027 08:45:25.255   12 Jun 2027 08:45:27.307             2.052           913.875
       266   12 Jun 2027 08:46:13.490   12 Jun 2027 08:46:16.306             2.816           341.438
       267   12 Jun 2027 08:46:28.917   12 Jun 2027 08:46:36.607             7.690           382.625
       268   12 Jun 2027 10:18:08.599   12 Jun 2027 10:18:23.664            15.065          6138.469
       269   12 Jun 2027 10:19:03.011   12 Jun 2027 10:19:05.788             2.777          1036.625
       270   12 Jun 2027 10:19:33.758   12 Jun 2027 10:19:37.406             3.648           874.062
       271   12 Jun 2027 10:20:06.276   12 Jun 2027 10:20:08.177             1.901           740.781
       272   12 Jun 2027 10:21:31.294   12 Jun 2027 10:21:32.488             1.194            14.719
       273   12 Jun 2027 10:21:53.375   12 Jun 2027 10:21:56.176             2.801           212.687
       274   12 Jun 2027 11:51:46.259   12 Jun 2027 11:51:47.921             1.662           805.375
       275   13 Jun 2027 04:02:30.962   13 Jun 2027 04:02:53.108            22.146         11073.000
       276   13 Jun 2027 04:06:39.035   13 Jun 2027 04:06:48.564             9.529          4764.500
       277   13 Jun 2027 04:06:57.195   13 Jun 2027 04:07:09.236            12.041          6020.500
       278   13 Jun 2027 05:37:24.683   13 Jun 2027 05:39:54.534           149.851         74925.500
       279   13 Jun 2027 05:40:30.704   13 Jun 2027 05:40:32.373             1.669           834.500
       280   13 Jun 2027 05:41:22.028   13 Jun 2027 05:41:36.375            14.347          7173.500
       281   13 Jun 2027 05:45:04.079   13 Jun 2027 05:45:17.369            13.290          6645.000
       282   13 Jun 2027 07:15:18.896   13 Jun 2027 07:17:21.699           122.803         61399.187
       283   13 Jun 2027 07:17:46.037   13 Jun 2027 07:17:53.465             7.428           571.313
       284   13 Jun 2027 07:18:26.759   13 Jun 2027 07:18:29.540             2.781           715.531
       285   13 Jun 2027 07:20:21.626   13 Jun 2027 07:20:31.838            10.212          2932.937
       286   13 Jun 2027 07:20:53.590   13 Jun 2027 07:20:55.208             1.618           621.219
       287   13 Jun 2027 07:22:06.666   13 Jun 2027 07:22:10.088             3.422          1018.781
       288   13 Jun 2027 08:52:02.985   13 Jun 2027 08:52:14.421            11.436          5149.563
       289   13 Jun 2027 08:54:43.583   13 Jun 2027 08:54:45.432             1.849           337.406
       290   13 Jun 2027 08:55:45.869   13 Jun 2027 08:55:47.926             2.057            81.594
       291   13 Jun 2027 08:56:20.815   13 Jun 2027 08:56:24.084             3.269           475.406
       292   13 Jun 2027 08:56:46.952   13 Jun 2027 08:56:52.002             5.050           430.719
       293   13 Jun 2027 08:57:29.734   13 Jun 2027 08:57:30.585             0.851            83.812
       294   13 Jun 2027 10:29:56.488   13 Jun 2027 10:30:08.683            12.195          5640.219
       295   13 Jun 2027 10:30:31.047   13 Jun 2027 10:30:34.266             3.219            50.063
       296   13 Jun 2027 10:31:53.730   13 Jun 2027 10:31:58.033             4.303          1924.000
       297   13 Jun 2027 10:33:44.793   13 Jun 2027 10:33:47.690             2.897          1269.750
