uniorb/output/strategy_4/Camera/Camera_KinoSat_111302.txt

KinoSat_111302
-------------------------
    Access    *     Start Time (UTCG)     *     Stop Time (UTCG)  *   Duration (s) *   Data (Mbytes)
         1   01 Jun 2027 03:57:06.523   01 Jun 2027 03:59:23.223           136.700         68350.000
         2   01 Jun 2027 03:59:33.022   01 Jun 2027 03:59:33.022             0.000             0.000
         3   01 Jun 2027 04:00:10.216   01 Jun 2027 04:00:30.832            20.616         10308.000
         4   01 Jun 2027 05:20:02.070   01 Jun 2027 05:21:00.502            58.432         29216.000
         5   01 Jun 2027 05:21:10.792   01 Jun 2027 05:21:31.025            20.233         10116.500
         6   01 Jun 2027 06:56:37.080   01 Jun 2027 06:58:44.951           127.871         63935.500
         7   01 Jun 2027 06:59:24.085   01 Jun 2027 06:59:24.085             0.000             0.000
         8   01 Jun 2027 08:31:45.488   01 Jun 2027 08:33:19.161            93.673         46836.500
         9   01 Jun 2027 08:34:25.272   01 Jun 2027 08:34:56.043            30.771         15385.500
        10   01 Jun 2027 08:35:22.525   01 Jun 2027 08:35:22.525             0.000             0.000
        11   01 Jun 2027 08:36:50.229   01 Jun 2027 08:37:30.297            40.068         20034.000
        12   01 Jun 2027 08:37:33.056   01 Jun 2027 08:37:38.809             5.753          2876.500
        13   01 Jun 2027 10:08:05.606   01 Jun 2027 10:09:54.090           108.484         54242.000
        14   01 Jun 2027 10:10:11.679   01 Jun 2027 10:10:22.931            11.252          5626.000
        15   01 Jun 2027 10:13:39.214   01 Jun 2027 10:13:52.328            13.114          6557.000
        16   01 Jun 2027 11:45:38.560   01 Jun 2027 11:46:24.518            45.958         22979.000
        17   01 Jun 2027 11:47:01.677   01 Jun 2027 11:48:47.720           106.043         53021.500
        18   01 Jun 2027 11:49:49.496   01 Jun 2027 11:49:52.098             2.602          1301.000
        19   02 Jun 2027 04:08:52.092   02 Jun 2027 04:09:25.694            33.602         16801.000
        20   02 Jun 2027 04:09:40.559   02 Jun 2027 04:11:32.917           112.358         56179.000
        21   02 Jun 2027 04:12:08.413   02 Jun 2027 04:12:22.887            14.474          7237.000
        22   02 Jun 2027 05:32:13.130   02 Jun 2027 05:33:07.688            54.558         27279.000
        23   02 Jun 2027 05:33:13.265   02 Jun 2027 05:33:21.221             7.956          3978.000
        24   02 Jun 2027 05:35:06.687   02 Jun 2027 05:35:10.807             4.120          2060.000
        25   02 Jun 2027 07:08:47.920   02 Jun 2027 07:12:15.115           207.195        103597.500
        26   02 Jun 2027 08:43:57.626   02 Jun 2027 08:46:34.260           156.634         78317.000
        27   02 Jun 2027 08:47:02.437   02 Jun 2027 08:47:08.890             6.453          3226.500
        28   02 Jun 2027 08:47:25.081   02 Jun 2027 08:47:57.630            32.549         16274.500
        29   02 Jun 2027 08:50:05.210   02 Jun 2027 08:50:33.543            28.333         14166.500
        30   02 Jun 2027 10:20:18.853   02 Jun 2027 10:20:50.014            31.161         15515.282
        31   02 Jun 2027 10:22:23.526   02 Jun 2027 10:22:24.413             0.887           380.562
        32   02 Jun 2027 10:23:18.249   02 Jun 2027 10:23:21.331             3.082           611.344
        33   02 Jun 2027 10:23:50.027   02 Jun 2027 10:23:59.071             9.044           594.156
        34   02 Jun 2027 10:24:28.055   02 Jun 2027 10:24:31.608             3.553           333.781
        35   02 Jun 2027 10:25:26.883   02 Jun 2027 10:25:29.406             2.523           962.406
        36   02 Jun 2027 11:57:35.975   02 Jun 2027 11:57:52.675            16.700          6655.781
        37   02 Jun 2027 11:58:15.703   02 Jun 2027 11:58:17.429             1.726           309.094
        38   02 Jun 2027 11:59:14.509   02 Jun 2027 11:59:18.236             3.727           717.344
        39   03 Jun 2027 04:20:48.793   03 Jun 2027 04:21:28.674            39.881         19940.500
        40   03 Jun 2027 04:21:47.603   03 Jun 2027 04:23:40.848           113.245         56622.500
        41   03 Jun 2027 04:23:55.547   03 Jun 2027 04:24:21.790            26.243         13121.500
        42   03 Jun 2027 05:44:44.196   03 Jun 2027 05:45:24.262            40.066         20033.000
        43   03 Jun 2027 05:45:26.404   03 Jun 2027 05:45:31.932             5.528          2764.000
        44   03 Jun 2027 07:20:36.626   03 Jun 2027 07:22:27.800           111.174         55480.969
        45   03 Jun 2027 07:23:03.029   03 Jun 2027 07:23:05.542             2.513          1100.906
        46   03 Jun 2027 07:23:16.965   03 Jun 2027 07:23:20.983             4.018           356.969
        47   03 Jun 2027 07:24:31.913   03 Jun 2027 07:24:39.360             7.447          2216.563
        48   03 Jun 2027 08:55:30.225   03 Jun 2027 08:55:42.366            12.141          2591.875
        49   03 Jun 2027 08:57:30.282   03 Jun 2027 08:57:37.062             6.780          2867.656
        50   03 Jun 2027 08:58:21.734   03 Jun 2027 08:58:28.113             6.379           990.969
        51   03 Jun 2027 08:58:34.262   03 Jun 2027 08:58:35.433             1.171           192.156
        52   03 Jun 2027 08:58:54.796   03 Jun 2027 08:58:58.916             4.120           397.313
        53   03 Jun 2027 08:59:57.858   03 Jun 2027 09:00:01.301             3.443          1721.500
        54   03 Jun 2027 09:01:11.931   03 Jun 2027 09:01:19.204             7.273          2281.219
        55   03 Jun 2027 09:02:38.638   03 Jun 2027 09:02:42.733             4.095          2047.500
        56   03 Jun 2027 10:31:56.542   03 Jun 2027 10:32:12.134            15.592          7485.219
        57   03 Jun 2027 10:35:05.401   03 Jun 2027 10:35:07.709             2.308           164.875
        58   03 Jun 2027 10:36:22.040   03 Jun 2027 10:36:32.979            10.939          1845.594
        59   03 Jun 2027 10:37:04.821   03 Jun 2027 10:37:06.857             2.036           136.281
        60   03 Jun 2027 10:37:31.328   03 Jun 2027 10:37:39.815             8.487           753.531
        61   03 Jun 2027 10:38:04.551   03 Jun 2027 10:38:06.206             1.655           361.344
        62   03 Jun 2027 10:38:17.920   03 Jun 2027 10:38:18.879             0.959           155.563
        63   04 Jun 2027 03:00:00.000   04 Jun 2027 03:00:02.282             2.282          1141.000
        64   04 Jun 2027 03:00:19.506   04 Jun 2027 03:00:44.340            24.834         12417.000
        65   04 Jun 2027 03:01:31.859   04 Jun 2027 03:01:33.350             1.491           745.500
        66   04 Jun 2027 03:02:07.685   04 Jun 2027 03:02:22.639            14.954          7477.000
        67   04 Jun 2027 03:02:46.071   04 Jun 2027 03:03:22.588            36.517         18258.500
        68   04 Jun 2027 04:21:26.051   04 Jun 2027 04:21:58.100            32.049         16024.500
        69   04 Jun 2027 04:32:44.964   04 Jun 2027 04:34:25.730           100.766         50383.000
        70   04 Jun 2027 04:35:25.252   04 Jun 2027 04:35:29.104             3.852          1926.000
        71   04 Jun 2027 05:55:20.170   04 Jun 2027 05:56:24.761            64.591         32295.500
        72   04 Jun 2027 05:57:59.526   04 Jun 2027 05:58:24.108            24.582         12291.000
        73   04 Jun 2027 07:30:52.614   04 Jun 2027 07:31:42.868            50.254         25127.000
        74   04 Jun 2027 07:32:21.002   04 Jun 2027 07:32:27.426             6.424          1986.781
        75   04 Jun 2027 07:32:39.289   04 Jun 2027 07:32:39.289             0.000             0.000
        76   04 Jun 2027 07:33:54.528   04 Jun 2027 07:34:01.516             6.988          2500.969
        77   04 Jun 2027 07:35:15.958   04 Jun 2027 07:35:20.937             4.979          1985.656
        78   04 Jun 2027 07:35:35.098   04 Jun 2027 07:35:35.098             0.000             0.000
        79   04 Jun 2027 07:35:46.688   04 Jun 2027 07:35:48.392             1.704           789.906
        80   04 Jun 2027 07:36:41.605   04 Jun 2027 07:36:44.928             3.323          1545.375
        81   04 Jun 2027 09:07:10.600   04 Jun 2027 09:07:13.221             2.621          1310.500
        82   04 Jun 2027 09:07:32.643   04 Jun 2027 09:07:36.614             3.971          1866.594
        83   04 Jun 2027 09:08:09.642   04 Jun 2027 09:08:12.380             2.738          1032.125
        84   04 Jun 2027 09:10:22.828   04 Jun 2027 09:10:26.781             3.953          1632.875
        85   04 Jun 2027 09:10:52.034   04 Jun 2027 09:10:52.979             0.945           311.250
        86   04 Jun 2027 09:11:00.510   04 Jun 2027 09:11:04.872             4.362           107.563
        87   04 Jun 2027 09:11:34.760   04 Jun 2027 09:11:40.620             5.860           166.125
        88   04 Jun 2027 09:12:28.294   04 Jun 2027 09:12:30.513             2.219          1094.688
        89   04 Jun 2027 09:13:27.077   04 Jun 2027 09:13:29.500             2.423          1129.875
        90   04 Jun 2027 09:13:41.437   04 Jun 2027 09:13:45.421             3.984            23.844
        91   04 Jun 2027 09:13:59.223   04 Jun 2027 09:14:03.108             3.885           147.031
        92   04 Jun 2027 09:14:43.390   04 Jun 2027 09:14:43.568             0.178            89.000
        93   04 Jun 2027 10:44:16.369   04 Jun 2027 10:44:33.681            17.312          7114.812
        94   04 Jun 2027 10:45:51.311   04 Jun 2027 10:45:54.177             2.866          1221.344
        95   04 Jun 2027 10:46:46.605   04 Jun 2027 10:46:52.152             5.547          1638.375
        96   04 Jun 2027 10:47:36.717   04 Jun 2027 10:47:39.700             2.983           980.062
        97   04 Jun 2027 10:48:21.593   04 Jun 2027 10:48:26.216             4.623          1296.344
        98   04 Jun 2027 10:48:59.468   04 Jun 2027 10:49:03.268             3.800          1039.125
        99   04 Jun 2027 10:49:32.134   04 Jun 2027 10:49:45.163            13.029           877.250
       100   04 Jun 2027 10:49:54.995   04 Jun 2027 10:49:57.326             2.331           176.062
       101   04 Jun 2027 10:50:19.334   04 Jun 2027 10:50:24.471             5.137            28.750
       102   05 Jun 2027 03:08:13.810   05 Jun 2027 03:09:30.525            76.715         38357.500
       103   05 Jun 2027 03:11:26.381   05 Jun 2027 03:11:26.381             0.000             0.000
       104   05 Jun 2027 03:12:01.478   05 Jun 2027 03:12:05.958             4.480          2240.000
       105   05 Jun 2027 03:12:18.725   05 Jun 2027 03:12:45.061            26.336         13168.000
       106   05 Jun 2027 03:14:02.270   05 Jun 2027 03:14:02.270             0.000             0.000
       107   05 Jun 2027 03:14:23.813   05 Jun 2027 03:14:23.872             0.059            29.500
       108   05 Jun 2027 03:14:59.446   05 Jun 2027 03:15:22.253            22.807         11403.500
       109   05 Jun 2027 04:33:04.231   05 Jun 2027 04:33:41.165            36.934         18467.000
       110   05 Jun 2027 04:34:25.519   05 Jun 2027 04:34:32.772             7.253          3626.500
       111   05 Jun 2027 04:44:48.178   05 Jun 2027 04:45:47.494            59.316         29658.000
       112   05 Jun 2027 06:07:03.444   05 Jun 2027 06:08:09.362            65.918         32959.000
       113   05 Jun 2027 06:09:00.442   05 Jun 2027 06:09:27.326            26.884         13442.000
       114   05 Jun 2027 06:11:19.314   05 Jun 2027 06:11:34.520            15.206          7603.000
       115   05 Jun 2027 07:42:01.264   05 Jun 2027 07:42:08.234             6.970          2998.781
       116   05 Jun 2027 07:43:27.637   05 Jun 2027 07:43:32.680             5.043          1121.469
       117   05 Jun 2027 07:44:04.993   05 Jun 2027 07:44:08.217             3.224           540.875
       118   05 Jun 2027 07:45:03.151   05 Jun 2027 07:45:13.749            10.598          1618.656
       119   05 Jun 2027 07:45:37.473   05 Jun 2027 07:45:46.545             9.072           718.625
       120   05 Jun 2027 07:46:05.551   05 Jun 2027 07:46:16.642            11.091           469.063
       121   05 Jun 2027 07:47:28.570   05 Jun 2027 07:47:31.490             2.920           378.625
       122   05 Jun 2027 07:47:57.199   05 Jun 2027 07:47:58.838             1.639           531.969
       123   05 Jun 2027 07:48:24.385   05 Jun 2027 07:48:26.907             2.522           788.156
       124   05 Jun 2027 07:48:38.998   05 Jun 2027 07:48:38.998             0.000             0.000
       125   05 Jun 2027 07:49:59.518   05 Jun 2027 07:50:04.041             4.523          1636.312
       126   05 Jun 2027 09:19:29.772   05 Jun 2027 09:19:35.144             5.372          2686.000
       127   05 Jun 2027 09:20:12.150   05 Jun 2027 09:20:20.559             8.409          1641.906
       128   05 Jun 2027 09:23:00.960   05 Jun 2027 09:23:02.823             1.863           850.062
       129   05 Jun 2027 09:24:00.487   05 Jun 2027 09:24:01.755             1.268           502.562
       130   05 Jun 2027 09:25:08.391   05 Jun 2027 09:25:13.142             4.751          1619.281
       131   05 Jun 2027 09:25:41.779   05 Jun 2027 09:25:44.643             2.864           798.250
       132   05 Jun 2027 09:25:53.643   05 Jun 2027 09:25:56.589             2.946            67.656
       133   05 Jun 2027 09:26:27.544   05 Jun 2027 09:26:34.511             6.967           886.969
       134   05 Jun 2027 10:56:14.579   05 Jun 2027 10:56:26.734            12.155          5550.594
       135   05 Jun 2027 11:00:18.978   05 Jun 2027 11:00:23.574             4.596           894.594
       136   05 Jun 2027 11:00:39.146   05 Jun 2027 11:00:50.227            11.081           288.594
       137   05 Jun 2027 11:01:02.285   05 Jun 2027 11:01:04.722             2.437            37.000
       138   05 Jun 2027 11:01:36.224   05 Jun 2027 11:01:40.727             4.503           916.844
       139   05 Jun 2027 11:01:57.052   05 Jun 2027 11:01:58.254             1.202           510.156
       140   05 Jun 2027 11:02:18.169   05 Jun 2027 11:02:19.772             1.603           558.750
       141   05 Jun 2027 11:02:43.455   05 Jun 2027 11:02:46.289             2.834           740.094
       142   05 Jun 2027 11:02:46.478   05 Jun 2027 11:02:46.616             0.138             5.906
       143   06 Jun 2027 03:20:15.865   06 Jun 2027 03:22:26.472           130.607         65303.500
       144   06 Jun 2027 03:23:23.599   06 Jun 2027 03:24:05.811            42.212         21106.000
       145   06 Jun 2027 03:25:37.621   06 Jun 2027 03:25:51.992            14.371          7185.500
       146   06 Jun 2027 03:27:14.468   06 Jun 2027 03:27:16.457             1.989           994.500
       147   06 Jun 2027 04:44:37.586   06 Jun 2027 04:45:18.456            40.870         20435.000
       148   06 Jun 2027 04:56:53.705   06 Jun 2027 04:57:21.220            27.515         13757.500
       149   06 Jun 2027 06:18:36.758   06 Jun 2027 06:19:53.015            76.257         37746.156
       150   06 Jun 2027 06:20:40.806   06 Jun 2027 06:20:45.188             4.382          1348.500
       151   06 Jun 2027 06:21:01.948   06 Jun 2027 06:21:03.326             1.378           251.750
       152   06 Jun 2027 06:21:18.416   06 Jun 2027 06:21:21.020             2.604            76.875
       153   06 Jun 2027 06:21:33.884   06 Jun 2027 06:21:33.884             0.000             0.000
       154   06 Jun 2027 06:22:00.500   06 Jun 2027 06:22:03.136             2.636          1233.750
       155   06 Jun 2027 06:22:33.630   06 Jun 2027 06:22:35.972             2.342           952.938
       156   06 Jun 2027 06:23:40.524   06 Jun 2027 06:23:45.678             5.154          2017.250
       157   06 Jun 2027 06:23:57.930   06 Jun 2027 06:23:58.870             0.940           188.188
       158   06 Jun 2027 07:53:29.279   06 Jun 2027 07:53:36.868             7.589          3052.750
       159   06 Jun 2027 07:54:25.853   06 Jun 2027 07:54:28.145             2.292          1146.000
       160   06 Jun 2027 07:55:29.253   06 Jun 2027 07:55:33.230             3.977          1926.813
       161   06 Jun 2027 07:56:08.064   06 Jun 2027 07:56:16.256             8.192          1036.906
       162   06 Jun 2027 07:56:59.787   06 Jun 2027 07:57:03.215             3.428          1160.812
       163   06 Jun 2027 07:58:06.701   06 Jun 2027 07:58:08.632             1.931           837.875
       164   06 Jun 2027 07:59:31.743   06 Jun 2027 07:59:35.609             3.866           478.719
       165   06 Jun 2027 08:00:19.868   06 Jun 2027 08:00:22.211             2.343           764.844
       166   06 Jun 2027 08:01:07.957   06 Jun 2027 08:01:13.781             5.824          1427.281
       167   06 Jun 2027 08:02:00.044   06 Jun 2027 08:02:03.290             3.246          1049.969
       168   06 Jun 2027 08:02:24.486   06 Jun 2027 08:02:25.533             1.047           168.469
       169   06 Jun 2027 09:31:22.973   06 Jun 2027 09:31:33.062            10.089          5003.719
       170   06 Jun 2027 09:33:15.614   06 Jun 2027 09:33:18.644             3.030           379.563
       171   06 Jun 2027 09:33:44.131   06 Jun 2027 09:33:46.699             2.568           621.625
       172   06 Jun 2027 09:35:38.634   06 Jun 2027 09:35:39.550             0.916           108.875
       173   06 Jun 2027 09:36:47.637   06 Jun 2027 09:36:51.137             3.500          1606.437
       174   06 Jun 2027 09:37:53.474   06 Jun 2027 09:37:58.164             4.690          1948.031
       175   06 Jun 2027 09:38:10.546   06 Jun 2027 09:38:10.681             0.135            24.375
       176   06 Jun 2027 09:38:29.892   06 Jun 2027 09:38:39.454             9.562           533.625
       177   06 Jun 2027 11:08:06.918   06 Jun 2027 11:08:15.633             8.715          4357.500
       178   06 Jun 2027 11:08:41.262   06 Jun 2027 11:08:43.950             2.688          1170.438
       179   06 Jun 2027 11:09:50.615   06 Jun 2027 11:09:51.727             1.112           200.562
       180   06 Jun 2027 11:11:15.241   06 Jun 2027 11:11:18.037             2.796          1257.219
       181   06 Jun 2027 11:12:04.852   06 Jun 2027 11:12:07.388             2.536          1236.500
       182   06 Jun 2027 11:12:21.522   06 Jun 2027 11:12:29.406             7.884           388.125
       183   06 Jun 2027 11:12:41.023   06 Jun 2027 11:12:41.809             0.786           259.250
       184   06 Jun 2027 11:13:32.889   06 Jun 2027 11:13:36.427             3.538          1596.250
       185   06 Jun 2027 11:13:43.724   06 Jun 2027 11:13:45.969             2.245           133.687
       186   06 Jun 2027 11:14:20.672   06 Jun 2027 11:14:26.156             5.484           672.875
       187   06 Jun 2027 11:14:37.468   06 Jun 2027 11:14:39.866             2.398           222.094
       188   06 Jun 2027 11:14:45.343   06 Jun 2027 11:14:45.968             0.625           107.906
       189   07 Jun 2027 03:32:39.768   07 Jun 2027 03:36:23.676           223.908        111954.000
       190   07 Jun 2027 03:36:25.682   07 Jun 2027 03:37:04.867            39.185         19592.500
       191   07 Jun 2027 04:56:33.612   07 Jun 2027 04:56:44.806            11.194          5597.000
       192   07 Jun 2027 06:32:34.512   07 Jun 2027 06:33:50.493            75.981         37452.718
       193   07 Jun 2027 06:35:40.899   07 Jun 2027 06:35:47.534             6.635          2865.500
       194   07 Jun 2027 08:06:21.965   07 Jun 2027 08:06:30.153             8.188          2469.156
       195   07 Jun 2027 08:07:18.027   07 Jun 2027 08:07:21.830             3.803            88.437
       196   07 Jun 2027 08:07:53.385   07 Jun 2027 08:07:55.320             1.935           556.125
       197   07 Jun 2027 08:08:36.890   07 Jun 2027 08:08:38.656             1.766           883.000
       198   07 Jun 2027 08:09:00.624   07 Jun 2027 08:09:03.417             2.793          1037.344
       199   07 Jun 2027 08:09:42.064   07 Jun 2027 08:09:45.412             3.348          1184.656
       200   07 Jun 2027 08:10:59.809   07 Jun 2027 08:11:06.642             6.833          2019.375
       201   07 Jun 2027 08:11:34.800   07 Jun 2027 08:11:36.020             1.220           594.375
       202   07 Jun 2027 08:12:50.607   07 Jun 2027 08:12:54.120             3.513          1683.562
       203   07 Jun 2027 08:13:15.124   07 Jun 2027 08:13:16.699             1.575           322.344
       204   07 Jun 2027 08:13:33.667   07 Jun 2027 08:13:33.667             0.000             0.000
       205   07 Jun 2027 08:14:04.778   07 Jun 2027 08:14:08.142             3.364          1247.969
       206   07 Jun 2027 09:43:30.791   07 Jun 2027 09:43:44.745            13.954          4721.281
       207   07 Jun 2027 09:46:07.131   07 Jun 2027 09:46:11.231             4.100          1240.125
       208   07 Jun 2027 09:47:13.169   07 Jun 2027 09:47:17.986             4.817           279.750
       209   07 Jun 2027 09:48:49.712   07 Jun 2027 09:48:55.452             5.740          2304.406
       210   07 Jun 2027 09:49:01.750   07 Jun 2027 09:49:12.869            11.119           196.813
       211   07 Jun 2027 09:50:15.292   07 Jun 2027 09:50:17.502             2.210           720.500
       212   07 Jun 2027 09:50:28.964   07 Jun 2027 09:50:29.360             0.396           141.031
       213   07 Jun 2027 11:20:45.359   07 Jun 2027 11:20:55.893            10.534          5094.625
       214   07 Jun 2027 11:21:53.680   07 Jun 2027 11:22:04.405            10.725           926.844
       215   07 Jun 2027 11:22:41.069   07 Jun 2027 11:22:41.724             0.655           296.062
       216   07 Jun 2027 11:23:18.471   07 Jun 2027 11:23:19.525             1.054           421.719
       217   07 Jun 2027 11:24:35.797   07 Jun 2027 11:24:37.592             1.795           664.281
       218   07 Jun 2027 11:25:33.617   07 Jun 2027 11:25:36.699             3.082          1432.937
       219   07 Jun 2027 11:26:15.938   07 Jun 2027 11:26:19.115             3.177           660.750
       220   08 Jun 2027 03:45:04.483   08 Jun 2027 03:48:16.343           191.860         95930.000
       221   08 Jun 2027 05:08:26.662   08 Jun 2027 05:09:23.999            57.337         28668.500
       222   08 Jun 2027 06:44:47.661   08 Jun 2027 06:45:52.563            64.902         30693.406
       223   08 Jun 2027 06:46:50.767   08 Jun 2027 06:46:54.388             3.621          1380.406
       224   08 Jun 2027 06:47:08.727   08 Jun 2027 06:47:09.669             0.942            57.469
       225   08 Jun 2027 06:47:29.918   08 Jun 2027 06:47:29.918             0.000             0.000
       226   08 Jun 2027 06:47:52.809   08 Jun 2027 06:47:54.640             1.831           823.188
       227   08 Jun 2027 08:18:47.051   08 Jun 2027 08:18:50.619             3.568          1709.406
       228   08 Jun 2027 08:19:39.014   08 Jun 2027 08:19:43.460             4.446           100.500
       229   08 Jun 2027 08:20:48.812   08 Jun 2027 08:20:51.764             2.952           584.219
       230   08 Jun 2027 08:21:43.963   08 Jun 2027 08:21:43.963             0.000             0.000
       231   08 Jun 2027 08:22:16.636   08 Jun 2027 08:22:25.559             8.923          2573.781
       232   08 Jun 2027 08:23:57.825   08 Jun 2027 08:24:03.889             6.064          2172.406
       233   08 Jun 2027 08:24:15.025   08 Jun 2027 08:24:17.076             2.051           196.063
       234   08 Jun 2027 08:25:30.537   08 Jun 2027 08:25:30.703             0.166            53.406
       235   08 Jun 2027 08:25:30.862   08 Jun 2027 08:25:31.836             0.974             4.969
       236   08 Jun 2027 08:26:22.580   08 Jun 2027 08:26:24.067             1.487           597.688
       237   08 Jun 2027 08:26:48.916   08 Jun 2027 08:26:50.325             1.409           225.844
       238   08 Jun 2027 09:55:56.294   08 Jun 2027 09:56:08.594            12.300          5797.719
       239   08 Jun 2027 09:57:57.523   08 Jun 2027 09:58:00.517             2.994           672.125
       240   08 Jun 2027 09:59:05.205   08 Jun 2027 09:59:06.693             1.488            21.313
       241   08 Jun 2027 10:00:17.362   08 Jun 2027 10:00:20.579             3.217          1277.656
       242   08 Jun 2027 10:01:02.267   08 Jun 2027 10:01:03.798             1.531           474.531
       243   08 Jun 2027 10:02:02.823   08 Jun 2027 10:02:06.627             3.804          1727.969
       244   08 Jun 2027 10:02:13.348   08 Jun 2027 10:02:15.744             2.396           210.031
       245   08 Jun 2027 11:32:55.388   08 Jun 2027 11:33:11.601            16.213          5639.437
       246   08 Jun 2027 11:34:58.279   08 Jun 2027 11:35:01.744             3.465           681.625
       247   08 Jun 2027 11:35:54.329   08 Jun 2027 11:35:57.085             2.756           231.094
       248   08 Jun 2027 11:36:21.339   08 Jun 2027 11:36:23.073             1.734           694.281
       249   08 Jun 2027 11:36:32.480   08 Jun 2027 11:36:35.515             3.035           293.969
       250   08 Jun 2027 11:37:08.640   08 Jun 2027 11:37:13.338             4.698           959.063
       251   08 Jun 2027 11:38:03.268   08 Jun 2027 11:38:09.141             5.873          1353.875
       252   09 Jun 2027 03:57:22.758   09 Jun 2027 04:01:23.207           240.449        120224.500
       253   09 Jun 2027 05:20:20.333   09 Jun 2027 05:20:23.563             3.230          1615.000
       254   09 Jun 2027 05:21:20.412   09 Jun 2027 05:21:23.820             3.408          1704.000
       255   09 Jun 2027 05:22:43.182   09 Jun 2027 05:22:43.182             0.000             0.000
       256   09 Jun 2027 06:56:53.325   09 Jun 2027 06:58:20.167            86.842         41810.156
       257   09 Jun 2027 06:58:40.895   09 Jun 2027 06:58:40.895             0.000             0.000
       258   09 Jun 2027 06:58:42.551   09 Jun 2027 06:58:43.910             1.359           135.406
       259   09 Jun 2027 06:59:02.350   09 Jun 2027 06:59:02.714             0.364           182.000
       260   09 Jun 2027 06:59:40.295   09 Jun 2027 06:59:43.863             3.568          1568.656
       261   09 Jun 2027 08:32:02.164   09 Jun 2027 08:32:07.807             5.643          2616.344
       262   09 Jun 2027 08:32:40.367   09 Jun 2027 08:32:43.679             3.312           200.781
       263   09 Jun 2027 08:33:33.760   09 Jun 2027 08:33:42.487             8.727           988.812
       264   09 Jun 2027 08:34:25.611   09 Jun 2027 08:34:29.984             4.373          1252.438
       265   09 Jun 2027 08:35:40.451   09 Jun 2027 08:35:44.530             4.079           884.125
       266   09 Jun 2027 08:36:13.924   09 Jun 2027 08:36:18.017             4.093           734.781
       267   09 Jun 2027 08:36:59.853   09 Jun 2027 08:37:00.207             0.354             4.375
       268   09 Jun 2027 08:38:00.473   09 Jun 2027 08:38:06.317             5.844           972.125
       269   09 Jun 2027 08:38:34.515   09 Jun 2027 08:38:38.334             3.819           544.844
       270   09 Jun 2027 08:38:43.703   09 Jun 2027 08:38:46.846             3.143           167.781
       271   09 Jun 2027 10:08:22.492   09 Jun 2027 10:08:32.050             9.558          4622.813
       272   09 Jun 2027 10:11:40.247   09 Jun 2027 10:11:40.608             0.361            57.062
       273   09 Jun 2027 10:12:28.781   09 Jun 2027 10:12:32.620             3.839           636.656
       274   09 Jun 2027 10:12:43.036   09 Jun 2027 10:12:44.610             1.574           233.125
       275   09 Jun 2027 10:13:48.510   09 Jun 2027 10:13:52.762             4.252          1996.875
       276   09 Jun 2027 10:14:07.538   09 Jun 2027 10:14:10.532             2.994           380.250
       277   09 Jun 2027 10:14:28.929   09 Jun 2027 10:14:29.776             0.847           421.281
       278   09 Jun 2027 10:14:31.727   09 Jun 2027 10:14:33.197             1.470            37.563
       279   09 Jun 2027 11:45:56.588   09 Jun 2027 11:46:07.990            11.402          5449.625
       280   09 Jun 2027 11:47:44.777   09 Jun 2027 11:47:46.491             1.714           466.313
       281   09 Jun 2027 11:49:09.494   09 Jun 2027 11:49:14.997             5.503          2199.812
       282   09 Jun 2027 11:49:23.618   09 Jun 2027 11:49:26.432             2.814           212.781
       283   09 Jun 2027 11:50:07.354   09 Jun 2027 11:50:13.905             6.551          1026.156
       284   10 Jun 2027 04:09:07.605   10 Jun 2027 04:09:42.087            34.482         17241.000
       285   10 Jun 2027 04:09:56.235   10 Jun 2027 04:12:49.283           173.048         86524.000
       286   10 Jun 2027 05:32:28.319   10 Jun 2027 05:32:56.843            28.524         14262.000
       287   10 Jun 2027 05:35:33.640   10 Jun 2027 05:35:36.978             3.338          1669.000
       288   10 Jun 2027 07:09:03.799   10 Jun 2027 07:10:39.796            95.997         46720.375
       289   10 Jun 2027 07:11:20.217   10 Jun 2027 07:11:27.506             7.289           823.750
       290   10 Jun 2027 07:11:36.624   10 Jun 2027 07:11:37.888             1.264           205.656
       291   10 Jun 2027 08:44:14.046   10 Jun 2027 08:44:17.695             3.649          1699.437
       292   10 Jun 2027 08:45:39.450   10 Jun 2027 08:45:44.325             4.875          2188.937
       293   10 Jun 2027 08:45:52.731   10 Jun 2027 08:45:54.439             1.708           187.781
       294   10 Jun 2027 08:47:08.850   10 Jun 2027 08:47:14.217             5.367           981.875
       295   10 Jun 2027 08:47:58.661   10 Jun 2027 08:48:02.904             4.243          1289.375
       296   10 Jun 2027 08:49:29.366   10 Jun 2027 08:49:37.176             7.810          2315.406
       297   10 Jun 2027 08:50:49.353   10 Jun 2027 08:50:49.650             0.297           148.500
       298   10 Jun 2027 10:20:34.519   10 Jun 2027 10:20:49.921            15.402          6084.156
       299   10 Jun 2027 10:22:38.806   10 Jun 2027 10:22:39.632             0.826           377.156
       300   10 Jun 2027 10:23:32.830   10 Jun 2027 10:23:37.135             4.305           428.188
       301   10 Jun 2027 10:24:37.311   10 Jun 2027 10:24:43.007             5.696           964.594
       302   10 Jun 2027 10:25:42.382   10 Jun 2027 10:25:47.930             5.548           908.969
       303   10 Jun 2027 11:58:00.126   10 Jun 2027 11:58:12.479            12.353          5450.281
       304   10 Jun 2027 11:59:14.707   10 Jun 2027 11:59:18.622             3.915          1352.969
       305   11 Jun 2027 04:10:21.178   11 Jun 2027 04:10:22.097             0.919           459.500
       306   11 Jun 2027 04:21:04.475   11 Jun 2027 04:21:44.828            40.353         20176.500
       307   11 Jun 2027 04:22:02.297   11 Jun 2027 04:23:57.490           115.193         57596.500
       308   11 Jun 2027 04:24:10.274   11 Jun 2027 04:24:29.913            19.639          9819.500
       309   11 Jun 2027 05:45:01.762   11 Jun 2027 05:45:41.646            39.884         19942.000
       310   11 Jun 2027 07:20:50.965   11 Jun 2027 07:22:33.095           102.130         50887.344
       311   11 Jun 2027 07:23:19.249   11 Jun 2027 07:23:22.179             2.930          1148.781
       312   11 Jun 2027 07:23:39.978   11 Jun 2027 07:23:39.978             0.000             0.000
       313   11 Jun 2027 07:24:04.371   11 Jun 2027 07:24:08.192             3.821          1031.875
       314   11 Jun 2027 07:24:50.063   11 Jun 2027 07:24:53.980             3.917          1308.469
       315   11 Jun 2027 08:55:43.767   11 Jun 2027 08:55:48.110             4.343          2171.500
       316   11 Jun 2027 08:56:13.465   11 Jun 2027 08:56:16.446             2.981          1207.406
       317   11 Jun 2027 08:57:47.479   11 Jun 2027 08:57:53.051             5.572          2508.156
       318   11 Jun 2027 08:58:34.775   11 Jun 2027 08:58:37.724             2.949           839.063
       319   11 Jun 2027 08:58:52.245   11 Jun 2027 08:58:55.130             2.885           191.344
       320   11 Jun 2027 08:59:45.278   11 Jun 2027 08:59:54.133             8.855          1283.000
       321   11 Jun 2027 09:00:20.550   11 Jun 2027 09:00:28.415             7.865           268.469
       322   11 Jun 2027 09:01:04.960   11 Jun 2027 09:01:10.031             5.071           969.500
       323   11 Jun 2027 09:01:16.534   11 Jun 2027 09:01:19.596             3.062           186.344
       324   11 Jun 2027 09:01:46.778   11 Jun 2027 09:01:49.842             3.064           617.906
       325   11 Jun 2027 09:02:27.247   11 Jun 2027 09:02:31.098             3.851           347.594
       326   11 Jun 2027 10:32:13.943   11 Jun 2027 10:32:27.003            13.060          5694.875
       327   11 Jun 2027 10:35:20.796   11 Jun 2027 10:35:22.368             1.572           159.844
       328   11 Jun 2027 10:36:38.564   11 Jun 2027 10:36:46.030             7.466          1752.844
       329   11 Jun 2027 10:37:20.592   11 Jun 2027 10:37:20.848             0.256            93.094
       330   11 Jun 2027 10:37:47.862   11 Jun 2027 10:37:55.344             7.482           736.156
       331   11 Jun 2027 10:38:36.064   11 Jun 2027 10:38:37.188             1.124           503.031
       332   12 Jun 2027 03:00:00.000   12 Jun 2027 03:00:16.522            16.522          8261.000
       333   12 Jun 2027 03:00:59.189   12 Jun 2027 03:01:10.787            11.598          5799.000
       334   12 Jun 2027 03:01:47.220   12 Jun 2027 03:01:48.836             1.616           808.000
       335   12 Jun 2027 03:02:25.094   12 Jun 2027 03:02:51.979            26.885         13442.500
       336   12 Jun 2027 04:21:39.781   12 Jun 2027 04:22:13.301            33.520         16760.000
       337   12 Jun 2027 04:22:33.195   12 Jun 2027 04:22:46.826            13.631          6815.500
       338   12 Jun 2027 04:33:00.948   12 Jun 2027 04:33:55.009            54.061         27030.500
       339   12 Jun 2027 04:34:36.089   12 Jun 2027 04:34:41.407             5.318          2659.000
       340   12 Jun 2027 05:55:36.508   12 Jun 2027 05:56:40.096            63.588         31794.000
       341   12 Jun 2027 05:56:53.523   12 Jun 2027 05:56:56.570             3.047          1523.500
       342   12 Jun 2027 05:57:30.819   12 Jun 2027 05:58:04.788            33.969         16984.500
       343   12 Jun 2027 05:59:33.029   12 Jun 2027 05:59:33.029             0.000             0.000
       344   12 Jun 2027 06:00:16.164   12 Jun 2027 06:00:18.597             2.433          1216.500
       345   12 Jun 2027 07:31:07.540   12 Jun 2027 07:31:58.321            50.781         25390.500
       346   12 Jun 2027 07:32:36.265   12 Jun 2027 07:32:52.264            15.999          7239.314
       347   12 Jun 2027 07:34:11.739   12 Jun 2027 07:34:18.650             6.911          2470.750
       348   12 Jun 2027 07:34:26.990   12 Jun 2027 07:34:30.314             3.324           107.469
       349   12 Jun 2027 07:35:43.302   12 Jun 2027 07:35:45.326             2.024           344.875
       350   12 Jun 2027 07:36:25.727   12 Jun 2027 07:36:29.018             3.291          1262.531
       351   12 Jun 2027 07:36:57.215   12 Jun 2027 07:36:59.113             1.898           734.250
       352   12 Jun 2027 07:36:59.708   12 Jun 2027 07:36:59.941             0.233            18.594
       353   12 Jun 2027 09:07:27.544   12 Jun 2027 09:07:32.764             5.220          2177.031
       354   12 Jun 2027 09:07:51.211   12 Jun 2027 09:07:53.248             2.037            12.813
       355   12 Jun 2027 09:10:40.996   12 Jun 2027 09:10:48.471             7.475          1664.594
       356   12 Jun 2027 09:11:10.236   12 Jun 2027 09:11:11.970             1.734           384.344
       357   12 Jun 2027 09:11:14.039   12 Jun 2027 09:11:15.185             1.146            64.656
       358   12 Jun 2027 09:12:25.653   12 Jun 2027 09:12:28.727             3.074          1004.281
       359   12 Jun 2027 09:12:45.959   12 Jun 2027 09:12:50.626             4.667            56.812
       360   12 Jun 2027 09:13:46.932   12 Jun 2027 09:13:50.280             3.348          1267.000
       361   12 Jun 2027 09:13:56.853   12 Jun 2027 09:13:59.986             3.133            21.406
       362   12 Jun 2027 09:14:14.484   12 Jun 2027 09:14:17.873             3.389            72.875
       363   12 Jun 2027 09:14:59.578   12 Jun 2027 09:14:59.712             0.134            67.000
       364   12 Jun 2027 10:44:33.738   12 Jun 2027 10:44:48.837            15.099          6802.813
       365   12 Jun 2027 10:46:34.255   12 Jun 2027 10:46:35.757             1.502           101.094
       366   12 Jun 2027 10:46:38.678   12 Jun 2027 10:46:39.206             0.528            72.250
       367   12 Jun 2027 10:47:21.007   12 Jun 2027 10:47:23.694             2.687          1130.125
       368   12 Jun 2027 10:48:21.902   12 Jun 2027 10:48:28.253             6.351          1664.000
       369   12 Jun 2027 10:48:42.711   12 Jun 2027 10:48:45.454             2.743           194.594
       370   12 Jun 2027 10:49:21.158   12 Jun 2027 10:49:23.347             2.189           597.031
       371   12 Jun 2027 10:50:06.249   12 Jun 2027 10:50:09.780             3.531           938.063
       372   12 Jun 2027 10:50:36.372   12 Jun 2027 10:50:39.931             3.559           800.250
       373   13 Jun 2027 03:08:30.363   13 Jun 2027 03:09:31.048            60.685         30342.500
       374   13 Jun 2027 03:09:46.620   13 Jun 2027 03:09:46.620             0.000             0.000
       375   13 Jun 2027 03:10:12.009   13 Jun 2027 03:10:29.822            17.813          8906.500
       376   13 Jun 2027 03:10:40.964   13 Jun 2027 03:10:47.042             6.078          3039.000
       377   13 Jun 2027 03:11:37.640   13 Jun 2027 03:11:41.230             3.590          1795.000
       378   13 Jun 2027 03:12:25.184   13 Jun 2027 03:13:07.858            42.674         21337.000
       379   13 Jun 2027 03:13:40.510   13 Jun 2027 03:13:40.521             0.011             5.500
       380   13 Jun 2027 03:13:52.282   13 Jun 2027 03:14:16.791            24.509         12254.500
       381   13 Jun 2027 03:15:18.422   13 Jun 2027 03:15:18.725             0.303           151.500
       382   13 Jun 2027 04:33:20.179   13 Jun 2027 04:33:45.017            24.838         12419.000
       383   13 Jun 2027 04:45:04.620   13 Jun 2027 04:46:02.922            58.302         29151.000
       384   13 Jun 2027 06:07:18.887   13 Jun 2027 06:08:24.989            66.102         33051.000
       385   13 Jun 2027 06:09:12.972   13 Jun 2027 06:09:35.230            22.258         11129.000
       386   13 Jun 2027 06:11:34.301   13 Jun 2027 06:11:35.741             1.440           720.000
       387   13 Jun 2027 06:11:50.200   13 Jun 2027 06:11:56.116             5.916          2958.000
       388   13 Jun 2027 07:42:15.458   13 Jun 2027 07:42:22.376             6.918          3152.468
       389   13 Jun 2027 07:42:47.032   13 Jun 2027 07:42:52.416             5.384           741.844
       390   13 Jun 2027 07:43:21.687   13 Jun 2027 07:43:24.451             2.764           821.906
       391   13 Jun 2027 07:43:47.238   13 Jun 2027 07:43:48.148             0.910           288.656
       392   13 Jun 2027 07:44:28.157   13 Jun 2027 07:44:30.572             2.415          1179.719
       393   13 Jun 2027 07:44:59.375   13 Jun 2027 07:45:00.911             1.536           688.406
       394   13 Jun 2027 07:45:30.895   13 Jun 2027 07:45:34.340             3.445           380.469
       395   13 Jun 2027 07:46:04.918   13 Jun 2027 07:46:05.585             0.667           315.188
       396   13 Jun 2027 07:47:29.822   13 Jun 2027 07:47:32.733             2.911          1455.500
       397   13 Jun 2027 07:47:46.557   13 Jun 2027 07:47:50.548             3.991          1397.344
       398   13 Jun 2027 07:49:12.108   13 Jun 2027 07:49:17.909             5.801          2301.625
       399   13 Jun 2027 07:50:14.954   13 Jun 2027 07:50:17.917             2.963           688.594
       400   13 Jun 2027 09:19:45.237   13 Jun 2027 09:19:51.858             6.621          2987.000
       401   13 Jun 2027 09:20:30.180   13 Jun 2027 09:20:32.644             2.464          1153.281
       402   13 Jun 2027 09:23:19.442   13 Jun 2027 09:23:23.541             4.099           936.219
       403   13 Jun 2027 09:24:15.522   13 Jun 2027 09:24:18.173             2.651           483.500
       404   13 Jun 2027 09:25:25.057   13 Jun 2027 09:25:30.519             5.462          1568.250
       405   13 Jun 2027 09:25:56.752   13 Jun 2027 09:25:59.399             2.647           580.094
       406   13 Jun 2027 09:26:10.651   13 Jun 2027 09:26:11.488             0.837            44.031
       407   13 Jun 2027 09:26:43.023   13 Jun 2027 09:26:45.588             2.565           878.781
       408   13 Jun 2027 09:27:03.524   13 Jun 2027 09:27:03.994             0.470            15.344
       409   13 Jun 2027 10:56:29.922   13 Jun 2027 10:56:42.607            12.685          5329.344
       410   13 Jun 2027 10:59:01.242   13 Jun 2027 10:59:11.297            10.055           466.719
       411   13 Jun 2027 11:00:05.242   13 Jun 2027 11:00:10.499             5.257          1614.187
       412   13 Jun 2027 11:00:31.117   13 Jun 2027 11:00:33.182             2.065           584.437
       413   13 Jun 2027 11:00:54.731   13 Jun 2027 11:01:06.487            11.756           261.094
       414   13 Jun 2027 11:01:18.164   13 Jun 2027 11:01:19.495             1.331            38.437
       415   13 Jun 2027 11:01:53.155   13 Jun 2027 11:01:57.681             4.526           913.500
       416   13 Jun 2027 11:02:12.824   13 Jun 2027 11:02:14.621             1.797           473.219
       417   13 Jun 2027 11:02:33.575   13 Jun 2027 11:02:37.001             3.426           592.313
       418   13 Jun 2027 11:02:58.133   13 Jun 2027 11:03:01.985             3.852           660.375
