uniorb/output/strategy_4/Camera/Camera_KinoSat_110608.txt

KinoSat_110608
-------------------------
    Access    *     Start Time (UTCG)     *     Stop Time (UTCG)  *   Duration (s) *   Data (Mbytes)
         1   01 Jun 2027 03:15:12.391   01 Jun 2027 03:16:14.608            62.217         31108.500
         2   01 Jun 2027 03:16:26.047   01 Jun 2027 03:16:33.932             7.885          3942.500
         3   01 Jun 2027 03:17:18.269   01 Jun 2027 03:17:18.269             0.000             0.000
         4   01 Jun 2027 03:18:23.118   01 Jun 2027 03:18:30.523             7.405          3702.500
         5   01 Jun 2027 04:48:44.848   01 Jun 2027 04:50:29.232           104.384         52192.000
         6   01 Jun 2027 04:50:35.350   01 Jun 2027 04:50:44.825             9.475          4737.500
         7   01 Jun 2027 04:51:16.091   01 Jun 2027 04:51:16.091             0.000             0.000
         8   01 Jun 2027 04:52:21.077   01 Jun 2027 04:52:29.845             8.768          4384.000
         9   01 Jun 2027 04:54:30.482   01 Jun 2027 04:54:35.835             5.353          2676.500
        10   01 Jun 2027 04:55:29.141   01 Jun 2027 04:55:38.655             9.514          4757.000
        11   01 Jun 2027 04:56:14.753   01 Jun 2027 04:56:14.753             0.000             0.000
        12   01 Jun 2027 04:56:18.718   01 Jun 2027 04:56:23.844             5.126          2563.000
        13   01 Jun 2027 04:56:31.341   01 Jun 2027 04:56:43.168            11.827          5913.500
        14   01 Jun 2027 04:56:57.512   01 Jun 2027 04:56:57.872             0.360           180.000
        15   01 Jun 2027 04:57:18.073   01 Jun 2027 04:57:19.109             1.036           518.000
        16   01 Jun 2027 06:26:10.878   01 Jun 2027 06:28:04.534           113.656         56828.000
        17   01 Jun 2027 06:30:08.554   01 Jun 2027 06:30:16.562             8.008          4004.000
        18   01 Jun 2027 06:30:34.197   01 Jun 2027 06:30:43.963             9.766          4883.000
        19   01 Jun 2027 06:31:51.133   01 Jun 2027 06:31:55.895             4.762          2381.000
        20   01 Jun 2027 08:03:13.479   01 Jun 2027 08:05:22.596           129.117         64558.500
        21   01 Jun 2027 08:05:32.192   01 Jun 2027 08:05:35.677             3.485          1742.500
        22   01 Jun 2027 08:06:26.552   01 Jun 2027 08:06:32.463             5.911          2955.500
        23   01 Jun 2027 08:07:05.521   01 Jun 2027 08:07:08.848             3.327          1663.500
        24   01 Jun 2027 08:08:23.542   01 Jun 2027 08:08:28.407             4.865          2432.500
        25   01 Jun 2027 09:40:01.252   01 Jun 2027 09:43:10.631           189.379         94689.500
        26   01 Jun 2027 09:44:44.157   01 Jun 2027 09:44:46.472             2.315          1157.500
        27   01 Jun 2027 11:15:16.511   01 Jun 2027 11:15:19.874             3.363          1681.500
        28   01 Jun 2027 11:16:59.648   01 Jun 2027 11:19:19.824           140.176         70088.000
        29   02 Jun 2027 03:27:18.434   02 Jun 2027 03:27:36.199            17.765          8882.500
        30   02 Jun 2027 03:28:31.396   02 Jun 2027 03:28:35.712             4.316          2158.000
        31   02 Jun 2027 04:59:27.904   02 Jun 2027 04:59:37.959            10.055          5027.500
        32   02 Jun 2027 05:01:23.230   02 Jun 2027 05:04:06.127           162.897         81448.500
        33   02 Jun 2027 05:05:32.425   02 Jun 2027 05:05:43.825            11.400          5700.000
        34   02 Jun 2027 05:07:37.378   02 Jun 2027 05:08:02.206            24.828         12414.000
        35   02 Jun 2027 05:09:13.662   02 Jun 2027 05:09:13.869             0.207           103.500
        36   02 Jun 2027 06:38:21.995   02 Jun 2027 06:41:01.875           159.880         79940.000
        37   02 Jun 2027 06:41:14.936   02 Jun 2027 06:41:15.342             0.406           203.000
        38   02 Jun 2027 06:41:40.733   02 Jun 2027 06:42:02.068            21.335         10667.500
        39   02 Jun 2027 06:42:37.290   02 Jun 2027 06:42:56.318            19.028          9514.000
        40   02 Jun 2027 06:44:25.381   02 Jun 2027 06:44:38.820            13.439          6719.500
        41   02 Jun 2027 08:15:26.243   02 Jun 2027 08:19:23.037           236.794        118397.000
        42   02 Jun 2027 08:20:15.756   02 Jun 2027 08:20:23.402             7.646          3287.531
        43   02 Jun 2027 09:52:04.822   02 Jun 2027 09:52:22.624            17.802          7492.781
        44   02 Jun 2027 09:54:15.652   02 Jun 2027 09:54:18.028             2.376           219.344
        45   02 Jun 2027 11:30:24.251   02 Jun 2027 11:30:25.423             1.172           552.250
        46   03 Jun 2027 03:39:25.976   03 Jun 2027 03:39:28.892             2.916          1458.000
        47   03 Jun 2027 03:40:08.112   03 Jun 2027 03:40:15.005             6.893          3446.500
        48   03 Jun 2027 03:42:55.607   03 Jun 2027 03:43:00.544             4.937          2468.500
        49   03 Jun 2027 05:14:33.640   03 Jun 2027 05:16:33.712           120.072         60036.000
        50   03 Jun 2027 05:17:30.281   03 Jun 2027 05:18:20.783            50.502         25251.000
        51   03 Jun 2027 05:18:42.677   03 Jun 2027 05:19:14.841            32.164         16082.000
        52   03 Jun 2027 05:20:16.120   03 Jun 2027 05:20:19.380             3.260          1630.000
        53   03 Jun 2027 05:21:07.729   03 Jun 2027 05:21:17.267             9.538          4769.000
        54   03 Jun 2027 06:50:55.254   03 Jun 2027 06:52:20.791            85.537         41915.032
        55   03 Jun 2027 08:28:20.909   03 Jun 2027 08:28:24.601             3.692          1613.625
        56   03 Jun 2027 08:30:07.100   03 Jun 2027 08:30:10.161             3.061           357.469
        57   03 Jun 2027 08:30:33.119   03 Jun 2027 08:30:34.107             0.988           452.531
        58   03 Jun 2027 08:30:40.405   03 Jun 2027 08:30:42.738             2.333            29.531
        59   03 Jun 2027 10:04:31.825   03 Jun 2027 10:04:45.378            13.553          5618.000
        60   03 Jun 2027 10:06:16.151   03 Jun 2027 10:06:18.155             2.004           435.438
        61   04 Jun 2027 03:51:28.825   04 Jun 2027 03:51:56.434            27.609         13804.500
        62   04 Jun 2027 03:52:09.410   04 Jun 2027 03:52:09.410             0.000             0.000
        63   04 Jun 2027 05:26:40.492   04 Jun 2027 05:30:26.548           226.056        113028.000
        64   04 Jun 2027 05:32:01.577   04 Jun 2027 05:32:01.577             0.000             0.000
        65   04 Jun 2027 05:32:59.846   04 Jun 2027 05:33:19.338            19.492          9746.000
        66   04 Jun 2027 07:02:36.476   04 Jun 2027 07:03:32.008            55.532         27761.750
        67   04 Jun 2027 08:40:28.257   04 Jun 2027 08:40:38.787            10.530          4496.688
        68   04 Jun 2027 10:16:26.254   04 Jun 2027 10:16:39.575            13.321          6601.000
        69   04 Jun 2027 10:21:29.808   04 Jun 2027 10:21:32.734             2.926           427.531
        70   05 Jun 2027 04:03:12.806   05 Jun 2027 04:03:36.383            23.577         11788.500
        71   05 Jun 2027 04:06:22.582   05 Jun 2027 04:06:22.582             0.000             0.000
        72   05 Jun 2027 05:37:55.998   05 Jun 2027 05:40:50.781           174.783         87391.500
        73   05 Jun 2027 05:45:22.853   05 Jun 2027 05:45:27.490             4.637          2318.500
        74   05 Jun 2027 07:14:42.012   05 Jun 2027 07:16:49.151           127.139         63166.969
        75   05 Jun 2027 08:52:57.783   05 Jun 2027 08:53:09.321            11.538          5549.813
        76   05 Jun 2027 10:26:16.797   05 Jun 2027 10:26:28.173            11.376          5620.750
        77   06 Jun 2027 04:13:13.705   06 Jun 2027 04:13:56.353            42.648         21324.000
        78   06 Jun 2027 04:14:10.967   06 Jun 2027 04:14:10.967             0.000             0.000
        79   06 Jun 2027 04:14:27.099   06 Jun 2027 04:14:27.831             0.732           366.000
        80   06 Jun 2027 04:14:56.194   06 Jun 2027 04:15:05.313             9.119          4559.500
        81   06 Jun 2027 04:19:27.030   06 Jun 2027 04:19:30.030             3.000          1500.000
        82   06 Jun 2027 05:50:01.384   06 Jun 2027 05:52:50.013           168.629         84314.500
        83   06 Jun 2027 05:53:36.566   06 Jun 2027 05:53:53.491            16.925          8462.500
        84   06 Jun 2027 05:56:23.501   06 Jun 2027 05:56:23.501             0.000             0.000
        85   06 Jun 2027 05:56:35.167   06 Jun 2027 05:56:48.800            13.633          6816.500
        86   06 Jun 2027 05:57:27.085   06 Jun 2027 05:57:27.308             0.223           111.500
        87   06 Jun 2027 07:27:02.397   06 Jun 2027 07:28:27.768            85.371         42564.344
        88   06 Jun 2027 07:32:04.312   06 Jun 2027 07:32:08.980             4.668          1294.750
        89   06 Jun 2027 07:33:03.390   06 Jun 2027 07:33:04.347             0.957           285.938
        90   06 Jun 2027 09:04:55.787   06 Jun 2027 09:05:07.906            12.119          5104.938
        91   06 Jun 2027 09:08:46.086   06 Jun 2027 09:08:47.201             1.115            53.094
        92   06 Jun 2027 10:38:12.809   06 Jun 2027 10:38:23.307            10.498          5212.594
        93   07 Jun 2027 04:24:33.646   07 Jun 2027 04:25:28.052            54.406         27203.000
        94   07 Jun 2027 04:26:47.089   07 Jun 2027 04:27:15.898            28.809         14404.500
        95   07 Jun 2027 04:27:49.272   07 Jun 2027 04:27:59.405            10.133          5066.500
        96   07 Jun 2027 04:30:11.756   07 Jun 2027 04:30:15.371             3.615          1807.500
        97   07 Jun 2027 04:30:58.983   07 Jun 2027 04:31:33.512            34.529         17264.500
        98   07 Jun 2027 04:32:36.629   07 Jun 2027 04:32:43.419             6.790          3395.000
        99   07 Jun 2027 04:32:52.876   07 Jun 2027 04:33:07.447            14.571          7285.500
       100   07 Jun 2027 06:02:08.338   07 Jun 2027 06:04:46.575           158.237         79118.500
       101   07 Jun 2027 06:04:53.987   07 Jun 2027 06:05:03.606             9.619          4809.500
       102   07 Jun 2027 06:05:49.332   07 Jun 2027 06:06:20.776            31.444         15722.000
       103   07 Jun 2027 06:07:13.680   07 Jun 2027 06:07:24.632            10.952          5112.406
       104   07 Jun 2027 06:08:15.326   07 Jun 2027 06:08:17.469             2.143           671.719
       105   07 Jun 2027 07:38:51.605   07 Jun 2027 07:38:52.911             1.306           597.906
       106   07 Jun 2027 07:39:38.182   07 Jun 2027 07:39:40.342             2.160           358.594
       107   07 Jun 2027 07:43:53.167   07 Jun 2027 07:43:56.433             3.266          1475.344
       108   07 Jun 2027 07:45:11.956   07 Jun 2027 07:45:17.060             5.104          2163.094
       109   07 Jun 2027 09:16:55.143   07 Jun 2027 09:17:05.900            10.757          5004.656
       110   07 Jun 2027 09:20:56.771   07 Jun 2027 09:20:59.387             2.616           234.625
       111   07 Jun 2027 10:50:38.790   07 Jun 2027 10:50:43.803             5.013          1702.781
       112   08 Jun 2027 03:01:09.010   08 Jun 2027 03:01:17.334             8.324          4162.000
       113   08 Jun 2027 03:03:12.023   08 Jun 2027 03:03:30.336            18.313          9156.500
       114   08 Jun 2027 03:07:10.291   08 Jun 2027 03:07:10.600             0.309           154.500
       115   08 Jun 2027 04:36:03.552   08 Jun 2027 04:38:25.126           141.574         70787.000
       116   08 Jun 2027 04:39:18.554   08 Jun 2027 04:39:41.972            23.418         11709.000
       117   08 Jun 2027 04:44:39.947   08 Jun 2027 04:45:34.019            54.072         27036.000
       118   08 Jun 2027 06:14:03.711   08 Jun 2027 06:15:18.677            74.966         37405.062
       119   08 Jun 2027 06:16:26.535   08 Jun 2027 06:16:30.852             4.317          1424.312
       120   08 Jun 2027 06:17:14.109   08 Jun 2027 06:17:19.325             5.216          1154.531
       121   08 Jun 2027 06:18:34.501   08 Jun 2027 06:18:38.990             4.489          1852.281
       122   08 Jun 2027 06:19:09.636   08 Jun 2027 06:19:12.026             2.390           936.781
       123   08 Jun 2027 06:19:45.315   08 Jun 2027 06:19:47.758             2.443           620.406
       124   08 Jun 2027 07:56:10.033   08 Jun 2027 07:56:16.993             6.960          1512.875
       125   08 Jun 2027 09:28:32.618   08 Jun 2027 09:28:39.269             6.651          2652.406
       126   08 Jun 2027 09:32:21.729   08 Jun 2027 09:32:23.546             1.817            28.781
       127   08 Jun 2027 11:02:55.684   08 Jun 2027 11:02:58.752             3.068          1133.281
       128   09 Jun 2027 03:15:26.785   09 Jun 2027 03:15:29.642             2.857          1428.500
       129   09 Jun 2027 03:16:35.710   09 Jun 2027 03:16:37.656             1.946           973.000
       130   09 Jun 2027 03:16:58.153   09 Jun 2027 03:17:05.227             7.074          3537.000
       131   09 Jun 2027 04:48:59.700   09 Jun 2027 04:51:42.006           162.306         81153.000
       132   09 Jun 2027 04:56:13.076   09 Jun 2027 04:56:30.269            17.193          8596.500
       133   09 Jun 2027 04:56:33.174   09 Jun 2027 04:57:12.975            39.801         19900.500
       134   09 Jun 2027 04:57:32.662   09 Jun 2027 04:57:33.702             1.040           520.000
       135   09 Jun 2027 06:26:25.696   09 Jun 2027 06:27:44.329            78.633         37243.750
       136   09 Jun 2027 06:28:23.618   09 Jun 2027 06:28:24.940             1.322           125.219
       137   09 Jun 2027 06:28:48.942   09 Jun 2027 06:28:50.647             1.705           325.844
       138   09 Jun 2027 06:29:22.684   09 Jun 2027 06:29:30.384             7.700           925.844
       139   09 Jun 2027 06:30:31.475   09 Jun 2027 06:30:32.457             0.982           176.094
       140   09 Jun 2027 06:30:42.768   09 Jun 2027 06:30:47.598             4.830            77.906
       141   09 Jun 2027 08:03:27.881   09 Jun 2027 08:03:31.063             3.182          1142.281
       142   09 Jun 2027 09:40:16.365   09 Jun 2027 09:40:20.931             4.566          2234.250
       143   09 Jun 2027 09:41:44.535   09 Jun 2027 09:41:53.685             9.150          1666.313
       144   09 Jun 2027 11:15:31.953   09 Jun 2027 11:15:34.125             2.172           986.031
       145   10 Jun 2027 03:27:33.122   10 Jun 2027 03:27:38.430             5.308          2654.000
       146   10 Jun 2027 03:28:28.534   10 Jun 2027 03:28:32.885             4.351          2175.500
       147   10 Jun 2027 03:30:12.820   10 Jun 2027 03:30:33.212            20.392         10196.000
       148   10 Jun 2027 04:59:42.756   10 Jun 2027 04:59:51.637             8.881          4440.500
       149   10 Jun 2027 05:01:38.377   10 Jun 2027 05:01:42.414             4.037          2018.500
       150   10 Jun 2027 05:01:58.245   10 Jun 2027 05:04:37.924           159.679         79839.500
       151   10 Jun 2027 05:07:49.552   10 Jun 2027 05:08:26.317            36.765         18382.500
       152   10 Jun 2027 05:08:29.997   10 Jun 2027 05:09:07.445            37.448         18724.000
       153   10 Jun 2027 05:09:28.231   10 Jun 2027 05:09:28.389             0.158            79.000
       154   10 Jun 2027 06:38:36.590   10 Jun 2027 06:39:21.298            44.708         21465.594
       155   10 Jun 2027 06:41:27.380   10 Jun 2027 06:41:30.043             2.663           846.188
       156   10 Jun 2027 08:15:42.736   10 Jun 2027 08:15:44.942             2.206           336.094
       157   10 Jun 2027 09:52:19.549   10 Jun 2027 09:52:26.426             6.877          3293.687
       158   10 Jun 2027 09:57:20.037   10 Jun 2027 09:57:25.859             5.822          2442.063
       159   10 Jun 2027 11:30:38.751   10 Jun 2027 11:30:41.415             2.664           833.562
       160   11 Jun 2027 03:39:40.647   11 Jun 2027 03:39:43.489             2.842          1421.000
       161   11 Jun 2027 03:40:22.834   11 Jun 2027 03:40:29.523             6.689          3344.500
       162   11 Jun 2027 03:43:11.949   11 Jun 2027 03:43:15.559             3.610          1805.000
       163   11 Jun 2027 05:14:48.535   11 Jun 2027 05:16:02.959            74.424         37212.000
       164   11 Jun 2027 05:16:48.357   11 Jun 2027 05:17:44.913            56.556         28278.000
       165   11 Jun 2027 05:18:36.014   11 Jun 2027 05:20:05.568            89.554         44777.000
       166   11 Jun 2027 05:21:22.276   11 Jun 2027 05:21:31.671             9.395          4697.500
       167   11 Jun 2027 06:51:10.193   11 Jun 2027 06:52:18.500            68.307         34015.281
       168   11 Jun 2027 08:28:35.396   11 Jun 2027 08:28:40.777             5.381          2107.656
       169   11 Jun 2027 08:30:24.803   11 Jun 2027 08:30:26.484             1.681           439.469
       170   11 Jun 2027 08:30:48.741   11 Jun 2027 08:30:54.083             5.342           429.219
       171   11 Jun 2027 08:30:55.006   11 Jun 2027 08:30:56.762             1.756            28.844
       172   11 Jun 2027 10:04:46.335   11 Jun 2027 10:05:00.676            14.341          6116.438
       173   12 Jun 2027 03:51:43.285   12 Jun 2027 03:52:11.202            27.917         13958.500
       174   12 Jun 2027 03:52:24.730   12 Jun 2027 03:52:24.730             0.000             0.000
       175   12 Jun 2027 05:26:55.435   12 Jun 2027 05:30:13.032           197.597         98798.500
       176   12 Jun 2027 05:30:47.987   12 Jun 2027 05:30:53.425             5.438          2719.000
       177   12 Jun 2027 05:33:14.362   12 Jun 2027 05:33:34.182            19.820          9910.000
       178   12 Jun 2027 07:02:50.798   12 Jun 2027 07:04:11.418            80.620         40220.906
       179   12 Jun 2027 07:08:14.585   12 Jun 2027 07:08:19.633             5.048          1072.656
       180   12 Jun 2027 08:40:43.233   12 Jun 2027 08:40:55.286            12.053          4503.719
       181   12 Jun 2027 10:16:40.740   12 Jun 2027 10:16:59.741            19.001          6933.625
       182   13 Jun 2027 04:03:27.062   13 Jun 2027 04:03:51.204            24.142         12071.000
       183   13 Jun 2027 04:06:39.035   13 Jun 2027 04:06:39.035             0.000             0.000
       184   13 Jun 2027 04:06:48.564   13 Jun 2027 04:06:57.195             8.631          4315.500
       185   13 Jun 2027 05:38:10.365   13 Jun 2027 05:40:57.693           167.328         83664.000
       186   13 Jun 2027 05:41:08.444   13 Jun 2027 05:41:15.346             6.902          3451.000
       187   13 Jun 2027 05:44:38.636   13 Jun 2027 05:44:38.636             0.000             0.000
       188   13 Jun 2027 05:44:46.975   13 Jun 2027 05:45:04.079            17.104          8552.000
       189   13 Jun 2027 05:45:37.558   13 Jun 2027 05:45:42.204             4.646          2323.000
       190   13 Jun 2027 07:14:56.739   13 Jun 2027 07:16:39.635           102.896         51218.906
       191   13 Jun 2027 08:53:12.313   13 Jun 2027 08:53:22.178             9.865          4705.656
       192   13 Jun 2027 10:26:31.052   13 Jun 2027 10:26:42.930            11.878          5223.625
