uniorb/output/strategy_4/Camera/Camera_KinoSat_111110.txt

KinoSat_111110
-------------------------
    Access    *     Start Time (UTCG)     *     Stop Time (UTCG)  *   Duration (s) *   Data (Mbytes)
         1   01 Jun 2027 04:11:11.822   01 Jun 2027 04:12:46.222            94.400         47200.000
         2   01 Jun 2027 04:13:05.682   01 Jun 2027 04:13:07.901             2.219          1109.500
         3   01 Jun 2027 04:13:31.568   01 Jun 2027 04:13:32.692             1.124           562.000
         4   01 Jun 2027 05:47:25.413   01 Jun 2027 05:49:56.971           151.558         75779.000
         5   01 Jun 2027 07:20:58.192   01 Jun 2027 07:23:04.474           126.282         63141.000
         6   01 Jun 2027 07:23:17.047   01 Jun 2027 07:23:17.047             0.000             0.000
         7   01 Jun 2027 07:23:25.167   01 Jun 2027 07:23:37.553            12.386          6193.000
         8   01 Jun 2027 07:24:06.043   01 Jun 2027 07:24:06.969             0.926           463.000
         9   01 Jun 2027 07:25:01.023   01 Jun 2027 07:25:14.175            13.152          6576.000
        10   01 Jun 2027 07:27:28.458   01 Jun 2027 07:27:28.458             0.000             0.000
        11   01 Jun 2027 07:28:29.929   01 Jun 2027 07:28:34.620             4.691          2345.500
        12   01 Jun 2027 08:58:30.649   01 Jun 2027 09:01:18.913           168.264         84132.000
        13   01 Jun 2027 09:01:46.496   01 Jun 2027 09:01:48.872             2.376          1188.000
        14   01 Jun 2027 09:05:03.913   01 Jun 2027 09:05:15.525            11.612          5806.000
        15   01 Jun 2027 10:35:25.877   01 Jun 2027 10:37:59.439           153.562         76781.000
        16   01 Jun 2027 10:39:13.959   01 Jun 2027 10:39:23.277             9.318          4659.000
        17   01 Jun 2027 10:40:54.094   01 Jun 2027 10:41:01.188             7.094          3547.000
        18   02 Jun 2027 03:00:01.639   02 Jun 2027 03:00:23.434            21.795         10897.500
        19   02 Jun 2027 03:01:08.822   02 Jun 2027 03:01:13.768             4.946          2473.000
        20   02 Jun 2027 03:01:46.473   02 Jun 2027 03:02:01.732            15.259          7629.500
        21   02 Jun 2027 03:03:02.802   02 Jun 2027 03:03:02.802             0.000             0.000
        22   02 Jun 2027 03:03:12.605   02 Jun 2027 03:03:23.089            10.484          5242.000
        23   02 Jun 2027 04:23:02.979   02 Jun 2027 04:23:55.130            52.151         26075.500
        24   02 Jun 2027 04:24:06.044   02 Jun 2027 04:24:06.044             0.000             0.000
        25   02 Jun 2027 04:24:12.357   02 Jun 2027 04:24:32.864            20.507         10253.500
        26   02 Jun 2027 05:59:30.161   02 Jun 2027 06:01:47.930           137.769         68884.500
        27   02 Jun 2027 06:02:44.492   02 Jun 2027 06:03:05.843            21.351         10675.500
        28   02 Jun 2027 07:31:37.852   02 Jun 2027 07:31:48.822            10.970          5485.000
        29   02 Jun 2027 07:33:36.970   02 Jun 2027 07:36:09.456           152.486         76243.000
        30   02 Jun 2027 07:38:18.714   02 Jun 2027 07:38:35.196            16.482          8241.000
        31   02 Jun 2027 07:39:43.787   02 Jun 2027 07:39:59.324            15.537          7768.500
        32   02 Jun 2027 07:40:57.853   02 Jun 2027 07:40:57.853             0.000             0.000
        33   02 Jun 2027 07:41:21.266   02 Jun 2027 07:41:26.067             4.801          2400.500
        34   02 Jun 2027 09:10:35.471   02 Jun 2027 09:14:17.317           221.846        110569.720
        35   02 Jun 2027 09:14:38.716   02 Jun 2027 09:14:43.809             5.093           667.156
        36   02 Jun 2027 09:14:57.982   02 Jun 2027 09:14:59.877             1.895           360.094
        37   02 Jun 2027 09:17:15.350   02 Jun 2027 09:17:20.206             4.856          2428.000
        38   02 Jun 2027 10:48:03.920   02 Jun 2027 10:48:17.279            13.359          6432.063
        39   02 Jun 2027 10:49:56.944   02 Jun 2027 10:50:01.056             4.112          1180.219
        40   02 Jun 2027 10:50:35.466   02 Jun 2027 10:50:38.632             3.166           333.812
        41   02 Jun 2027 10:50:48.391   02 Jun 2027 10:50:50.363             1.972           304.969
        42   02 Jun 2027 10:51:02.325   02 Jun 2027 10:51:05.077             2.752           373.813
        43   02 Jun 2027 10:51:13.014   02 Jun 2027 10:51:13.590             0.576           199.531
        44   02 Jun 2027 10:51:51.597   02 Jun 2027 10:51:56.263             4.666          1187.719
        45   03 Jun 2027 03:11:54.518   03 Jun 2027 03:13:37.174           102.656         51328.000
        46   03 Jun 2027 03:14:13.550   03 Jun 2027 03:14:17.771             4.221          2110.500
        47   03 Jun 2027 03:15:23.595   03 Jun 2027 03:15:32.678             9.083          4541.500
        48   03 Jun 2027 04:35:11.172   03 Jun 2027 04:35:52.639            41.467         20733.500
        49   03 Jun 2027 04:36:51.084   03 Jun 2027 04:36:51.084             0.000             0.000
        50   03 Jun 2027 04:37:39.733   03 Jun 2027 04:38:10.921            31.188         15594.000
        51   03 Jun 2027 06:11:39.977   03 Jun 2027 06:13:56.103           136.126         66132.031
        52   03 Jun 2027 06:14:06.813   03 Jun 2027 06:14:11.038             4.225           106.813
        53   03 Jun 2027 06:15:13.002   03 Jun 2027 06:15:17.844             4.842          1842.812
        54   03 Jun 2027 07:46:50.983   03 Jun 2027 07:46:58.895             7.912          2335.844
        55   03 Jun 2027 07:47:57.328   03 Jun 2027 07:48:03.968             6.640          1180.844
        56   03 Jun 2027 07:48:17.260   03 Jun 2027 07:48:19.635             2.375           137.125
        57   03 Jun 2027 07:48:58.465   03 Jun 2027 07:49:00.897             2.432          1128.875
        58   03 Jun 2027 07:49:51.930   03 Jun 2027 07:49:55.479             3.549           208.000
        59   03 Jun 2027 07:50:22.625   03 Jun 2027 07:50:22.625             0.000             0.000
        60   03 Jun 2027 07:50:48.633   03 Jun 2027 07:50:56.442             7.809           855.437
        61   03 Jun 2027 07:52:12.457   03 Jun 2027 07:52:15.626             3.169           400.875
        62   03 Jun 2027 07:53:11.830   03 Jun 2027 07:53:13.578             1.748           507.344
        63   03 Jun 2027 07:53:19.771   03 Jun 2027 07:53:22.345             2.574           169.750
        64   03 Jun 2027 09:23:09.975   03 Jun 2027 09:23:26.381            16.406          7348.688
        65   03 Jun 2027 09:23:54.692   03 Jun 2027 09:23:55.406             0.714           176.688
        66   03 Jun 2027 09:27:05.248   03 Jun 2027 09:27:08.321             3.073          1097.531
        67   03 Jun 2027 09:27:39.973   03 Jun 2027 09:27:44.048             4.075           207.750
        68   03 Jun 2027 09:28:25.017   03 Jun 2027 09:28:28.253             3.236          1103.469
        69   03 Jun 2027 09:29:25.156   03 Jun 2027 09:29:26.238             1.082           541.000
        70   03 Jun 2027 11:00:33.343   03 Jun 2027 11:00:49.587            16.244          5706.594
        71   03 Jun 2027 11:02:33.297   03 Jun 2027 11:02:37.095             3.798           965.281
        72   03 Jun 2027 11:03:40.184   03 Jun 2027 11:03:41.835             1.651           809.813
        73   03 Jun 2027 11:04:40.701   03 Jun 2027 11:04:42.757             2.056           483.375
        74   04 Jun 2027 03:23:46.313   04 Jun 2027 03:24:22.677            36.364         18182.000
        75   04 Jun 2027 03:24:51.249   04 Jun 2027 03:27:17.262           146.013         73006.500
        76   04 Jun 2027 04:47:53.643   04 Jun 2027 04:48:38.119            44.476         22238.000
        77   04 Jun 2027 04:49:33.293   04 Jun 2027 04:50:02.844            29.551         14775.500
        78   04 Jun 2027 06:23:38.077   04 Jun 2027 06:24:17.835            39.758         18676.719
        79   04 Jun 2027 06:24:53.341   04 Jun 2027 06:24:58.536             5.195          1078.250
        80   04 Jun 2027 06:25:03.181   04 Jun 2027 06:25:03.634             0.453            50.594
        81   04 Jun 2027 06:25:34.592   04 Jun 2027 06:25:34.592             0.000             0.000
        82   04 Jun 2027 06:25:41.750   04 Jun 2027 06:25:44.634             2.884          1078.906
        83   04 Jun 2027 06:26:12.467   04 Jun 2027 06:26:14.333             1.866           669.406
        84   04 Jun 2027 06:26:47.303   04 Jun 2027 06:26:50.231             2.928           917.219
        85   04 Jun 2027 07:58:42.871   04 Jun 2027 07:58:53.316            10.445          1977.344
        86   04 Jun 2027 08:00:16.262   04 Jun 2027 08:00:20.863             4.601          2144.594
        87   04 Jun 2027 08:01:10.869   04 Jun 2027 08:01:18.586             7.717          1496.750
        88   04 Jun 2027 08:01:32.729   04 Jun 2027 08:01:36.199             3.470           135.813
        89   04 Jun 2027 08:02:23.589   04 Jun 2027 08:02:27.522             3.933          1395.031
        90   04 Jun 2027 08:03:59.377   04 Jun 2027 08:04:11.850            12.473          2145.187
        91   04 Jun 2027 08:05:04.620   04 Jun 2027 08:05:08.057             3.437          1532.125
        92   04 Jun 2027 09:34:47.966   04 Jun 2027 09:34:58.112            10.146          4950.187
        93   04 Jun 2027 09:37:28.376   04 Jun 2027 09:37:38.153             9.777          1024.062
        94   04 Jun 2027 09:38:00.773   04 Jun 2027 09:38:05.124             4.351           166.375
        95   04 Jun 2027 09:38:11.492   04 Jun 2027 09:38:13.858             2.366            37.344
        96   04 Jun 2027 09:39:56.010   04 Jun 2027 09:40:02.230             6.220          1434.875
        97   04 Jun 2027 09:40:20.439   04 Jun 2027 09:40:25.093             4.654           346.313
        98   04 Jun 2027 11:12:45.987   04 Jun 2027 11:12:59.947            13.960          6682.406
        99   04 Jun 2027 11:15:20.211   04 Jun 2027 11:15:20.837             0.626           166.781
       100   04 Jun 2027 11:16:54.401   04 Jun 2027 11:16:58.433             4.032          1890.906
       101   04 Jun 2027 11:17:03.092   04 Jun 2027 11:17:04.098             1.006           145.594
       102   05 Jun 2027 03:24:41.822   05 Jun 2027 03:24:55.470            13.648          6824.000
       103   05 Jun 2027 03:35:41.869   05 Jun 2027 03:38:39.215           177.346         88673.000
       104   05 Jun 2027 04:59:00.317   05 Jun 2027 04:59:05.792             5.475          2737.500
       105   05 Jun 2027 04:59:21.200   05 Jun 2027 04:59:38.158            16.958          8479.000
       106   05 Jun 2027 05:01:37.312   05 Jun 2027 05:01:37.312             0.000             0.000
       107   05 Jun 2027 05:02:14.474   05 Jun 2027 05:02:28.505            14.031          7015.500
       108   05 Jun 2027 06:35:22.684   05 Jun 2027 06:36:48.557            85.873         42936.500
       109   05 Jun 2027 06:37:30.447   05 Jun 2027 06:37:36.185             5.738          2869.000
       110   05 Jun 2027 06:38:48.404   05 Jun 2027 06:38:53.024             4.620          2280.968
       111   05 Jun 2027 06:39:41.516   05 Jun 2027 06:39:45.350             3.834          1358.031
       112   05 Jun 2027 08:10:09.012   05 Jun 2027 08:10:11.645             2.633          1226.563
       113   05 Jun 2027 08:10:46.072   05 Jun 2027 08:10:47.946             1.874           311.063
       114   05 Jun 2027 08:12:52.820   05 Jun 2027 08:12:57.006             4.186          1064.375
       115   05 Jun 2027 08:14:25.664   05 Jun 2027 08:14:26.612             0.948           383.437
       116   05 Jun 2027 08:15:58.471   05 Jun 2027 08:16:03.563             5.092          1971.969
       117   05 Jun 2027 08:16:59.687   05 Jun 2027 08:17:02.687             3.000          1284.094
       118   05 Jun 2027 09:46:57.711   05 Jun 2027 09:47:14.634            16.923          5529.156
       119   05 Jun 2027 09:50:43.641   05 Jun 2027 09:50:47.370             3.729          1739.125
       120   05 Jun 2027 09:51:51.555   05 Jun 2027 09:51:56.725             5.170          1159.750
       121   05 Jun 2027 09:52:03.995   05 Jun 2027 09:52:04.518             0.523            51.969
       122   05 Jun 2027 09:52:18.991   05 Jun 2027 09:52:21.227             2.236           452.281
       123   05 Jun 2027 09:53:02.395   05 Jun 2027 09:53:03.737             1.342            89.531
       124   05 Jun 2027 11:25:08.264   05 Jun 2027 11:25:25.987            17.723          6046.969
       125   05 Jun 2027 11:25:39.496   05 Jun 2027 11:25:43.831             4.335           225.531
       126   05 Jun 2027 11:26:59.428   05 Jun 2027 11:27:09.747            10.319          1746.375
       127   05 Jun 2027 11:27:26.050   05 Jun 2027 11:27:27.650             1.600           353.281
       128   05 Jun 2027 11:27:47.160   05 Jun 2027 11:27:51.867             4.707           609.687
       129   05 Jun 2027 11:28:55.942   05 Jun 2027 11:28:59.718             3.776          1526.188
       130   06 Jun 2027 03:36:01.842   06 Jun 2027 03:36:16.900            15.058          7529.000
       131   06 Jun 2027 03:37:12.365   06 Jun 2027 03:37:21.313             8.948          4474.000
       132   06 Jun 2027 03:47:42.726   06 Jun 2027 03:49:06.580            83.854         41927.000
       133   06 Jun 2027 05:09:58.320   06 Jun 2027 05:11:14.010            75.690         37845.000
       134   06 Jun 2027 05:11:55.417   06 Jun 2027 05:12:48.545            53.128         26564.000
       135   06 Jun 2027 05:14:18.454   06 Jun 2027 05:14:18.454             0.000             0.000
       136   06 Jun 2027 06:45:10.663   06 Jun 2027 06:46:35.528            84.865         42432.500
       137   06 Jun 2027 06:47:06.712   06 Jun 2027 06:47:10.153             3.441          1383.719
       138   06 Jun 2027 06:48:42.933   06 Jun 2027 06:48:50.254             7.321          2281.844
       139   06 Jun 2027 06:50:06.527   06 Jun 2027 06:50:08.794             2.267          1133.500
       140   06 Jun 2027 06:50:28.408   06 Jun 2027 06:50:34.461             6.053          1862.969
       141   06 Jun 2027 06:51:30.122   06 Jun 2027 06:51:33.238             3.116          1252.062
       142   06 Jun 2027 08:22:15.294   06 Jun 2027 08:22:26.560            11.266          2056.969
       143   06 Jun 2027 08:24:18.755   06 Jun 2027 08:24:26.390             7.635          2219.844
       144   06 Jun 2027 08:25:41.970   06 Jun 2027 08:25:44.951             2.981          1490.500
       145   06 Jun 2027 08:26:27.447   06 Jun 2027 08:26:33.685             6.238          1566.938
       146   06 Jun 2027 08:27:07.330   06 Jun 2027 08:27:11.321             3.991           740.406
       147   06 Jun 2027 08:27:54.837   06 Jun 2027 08:27:57.151             2.314          1119.312
       148   06 Jun 2027 08:28:21.721   06 Jun 2027 08:28:24.418             2.697           118.281
       149   06 Jun 2027 08:28:39.416   06 Jun 2027 08:28:40.855             1.439           455.844
       150   06 Jun 2027 09:59:13.406   06 Jun 2027 09:59:24.239            10.833          5140.000
       151   06 Jun 2027 10:02:56.403   06 Jun 2027 10:03:02.407             6.004          2116.563
       152   06 Jun 2027 10:03:03.618   06 Jun 2027 10:03:08.238             4.620            37.844
       153   06 Jun 2027 10:03:40.106   06 Jun 2027 10:03:45.497             5.391           638.250
       154   06 Jun 2027 10:03:58.962   06 Jun 2027 10:04:01.689             2.727           420.781
       155   06 Jun 2027 10:04:41.661   06 Jun 2027 10:04:44.945             3.284          1167.594
       156   06 Jun 2027 11:37:09.717   06 Jun 2027 11:37:25.002            15.285          6191.531
       157   06 Jun 2027 11:38:12.687   06 Jun 2027 11:38:15.177             2.490           306.469
       158   06 Jun 2027 11:39:13.795   06 Jun 2027 11:39:17.294             3.499          1600.375
       159   06 Jun 2027 11:39:46.287   06 Jun 2027 11:39:51.216             4.929           836.500
       160   06 Jun 2027 11:40:22.152   06 Jun 2027 11:40:24.346             2.194           966.750
       161   06 Jun 2027 11:40:33.322   06 Jun 2027 11:40:36.683             3.361           280.500
       162   06 Jun 2027 11:40:57.259   06 Jun 2027 11:41:02.304             5.045           643.000
       163   07 Jun 2027 03:47:25.064   07 Jun 2027 03:47:27.131             2.067          1033.500
       164   07 Jun 2027 03:48:44.909   07 Jun 2027 03:48:56.013            11.104          5552.000
       165   07 Jun 2027 03:49:34.136   07 Jun 2027 03:49:40.506             6.370          3185.000
       166   07 Jun 2027 03:59:39.849   07 Jun 2027 04:00:34.684            54.835         27417.500
       167   07 Jun 2027 05:21:39.913   07 Jun 2027 05:23:00.924            81.011         40505.500
       168   07 Jun 2027 05:23:45.572   07 Jun 2027 05:24:20.434            34.862         17431.000
       169   07 Jun 2027 05:24:34.048   07 Jun 2027 05:24:50.243            16.195          8097.500
       170   07 Jun 2027 06:56:38.477   07 Jun 2027 06:58:35.712           117.235         58592.562
       171   07 Jun 2027 06:59:34.987   07 Jun 2027 06:59:41.467             6.480          1852.344
       172   07 Jun 2027 07:00:52.064   07 Jun 2027 07:00:56.995             4.931          2178.719
       173   07 Jun 2027 07:02:01.601   07 Jun 2027 07:02:06.303             4.702          1064.594
       174   07 Jun 2027 07:03:18.486   07 Jun 2027 07:03:23.769             5.283          2241.563
       175   07 Jun 2027 07:03:40.183   07 Jun 2027 07:03:41.293             1.110           364.500
       176   07 Jun 2027 07:04:12.183   07 Jun 2027 07:04:14.513             2.330           918.094
       177   07 Jun 2027 07:05:21.466   07 Jun 2027 07:05:21.509             0.043            21.500
       178   07 Jun 2027 08:34:17.411   07 Jun 2027 08:34:22.678             5.267          1996.125
       179   07 Jun 2027 08:36:25.958   07 Jun 2027 08:36:25.958             0.000             0.000
       180   07 Jun 2027 08:37:14.671   07 Jun 2027 08:37:22.412             7.741          3848.937
       181   07 Jun 2027 08:37:56.901   07 Jun 2027 08:37:57.798             0.897           268.563
       182   07 Jun 2027 08:38:39.542   07 Jun 2027 08:38:41.963             2.421           101.719
       183   07 Jun 2027 08:40:01.601   07 Jun 2027 08:40:05.142             3.541          1025.781
       184   07 Jun 2027 08:41:17.825   07 Jun 2027 08:41:29.259            11.434           811.563
       185   07 Jun 2027 08:41:33.408   07 Jun 2027 08:41:34.362             0.954           128.563
       186   07 Jun 2027 10:11:04.167   07 Jun 2027 10:11:16.308            12.141          5736.875
       187   07 Jun 2027 10:13:46.475   07 Jun 2027 10:13:53.646             7.171           824.687
       188   07 Jun 2027 10:14:44.442   07 Jun 2027 10:14:57.467            13.025          1301.031
       189   07 Jun 2027 10:15:00.425   07 Jun 2027 10:15:01.181             0.756            92.437
       190   07 Jun 2027 10:15:29.299   07 Jun 2027 10:15:32.629             3.330           878.688
       191   07 Jun 2027 10:15:39.182   07 Jun 2027 10:15:39.939             0.757            55.250
       192   07 Jun 2027 10:16:33.396   07 Jun 2027 10:16:36.131             2.735          1299.625
       193   07 Jun 2027 10:17:19.798   07 Jun 2027 10:17:22.973             3.175          1140.156
       194   07 Jun 2027 11:49:06.961   07 Jun 2027 11:49:25.168            18.207          6669.625
       195   07 Jun 2027 11:50:18.990   07 Jun 2027 11:50:22.463             3.473           891.187
       196   07 Jun 2027 11:51:17.538   07 Jun 2027 11:51:19.556             2.018           523.812
       197   07 Jun 2027 11:51:46.745   07 Jun 2027 11:51:58.075            11.330           817.250
       198   07 Jun 2027 11:52:24.801   07 Jun 2027 11:52:26.433             1.632           620.062
       199   07 Jun 2027 11:53:15.458   07 Jun 2027 11:53:17.308             1.850           925.000
       200   08 Jun 2027 03:59:31.390   08 Jun 2027 03:59:44.363            12.973          6486.500
       201   08 Jun 2027 03:59:47.881   08 Jun 2027 04:00:17.006            29.125         14562.500
       202   08 Jun 2027 05:33:19.696   08 Jun 2027 05:35:48.066           148.370         74185.000
       203   08 Jun 2027 05:36:51.928   08 Jun 2027 05:36:51.928             0.000             0.000
       204   08 Jun 2027 05:37:22.458   08 Jun 2027 05:38:00.358            37.900         18950.000
       205   08 Jun 2027 07:08:12.453   08 Jun 2027 07:09:56.803           104.350         50471.656
       206   08 Jun 2027 07:10:38.976   08 Jun 2027 07:10:40.205             1.229           511.656
       207   08 Jun 2027 07:11:18.075   08 Jun 2027 07:11:20.462             2.387           891.906
       208   08 Jun 2027 07:12:16.083   08 Jun 2027 07:12:20.917             4.834          1264.281
       209   08 Jun 2027 07:12:28.907   08 Jun 2027 07:12:30.198             1.291           249.688
       210   08 Jun 2027 07:12:54.361   08 Jun 2027 07:12:54.361             0.000             0.000
       211   08 Jun 2027 07:14:06.392   08 Jun 2027 07:14:18.596            12.204          2932.531
       212   08 Jun 2027 07:14:58.022   08 Jun 2027 07:15:00.728             2.706           860.406
       213   08 Jun 2027 07:15:33.291   08 Jun 2027 07:15:34.631             1.340           624.344
       214   08 Jun 2027 07:16:13.706   08 Jun 2027 07:16:13.706             0.000             0.000
       215   08 Jun 2027 07:16:20.223   08 Jun 2027 07:16:21.560             1.337           668.500
       216   08 Jun 2027 07:17:09.761   08 Jun 2027 07:17:15.810             6.049          1825.500
       217   08 Jun 2027 08:46:19.425   08 Jun 2027 08:46:29.283             9.858          3534.125
       218   08 Jun 2027 08:48:28.940   08 Jun 2027 08:48:28.940             0.000             0.000
       219   08 Jun 2027 08:49:06.876   08 Jun 2027 08:49:10.901             4.025          1566.000
       220   08 Jun 2027 08:50:29.916   08 Jun 2027 08:50:38.189             8.273          2466.125
       221   08 Jun 2027 08:52:00.232   08 Jun 2027 08:52:03.229             2.997           719.031
       222   08 Jun 2027 08:53:07.541   08 Jun 2027 08:53:10.436             2.895          1436.094
       223   08 Jun 2027 08:53:17.301   08 Jun 2027 08:53:18.323             1.022           149.531
       224   08 Jun 2027 10:23:14.450   08 Jun 2027 10:23:26.755            12.305          5623.000
       225   08 Jun 2027 10:26:19.438   08 Jun 2027 10:26:20.857             1.419           501.875
       226   08 Jun 2027 10:27:07.637   08 Jun 2027 10:27:12.179             4.542           123.062
       227   08 Jun 2027 10:27:56.146   08 Jun 2027 10:27:57.273             1.127           333.875
       228   08 Jun 2027 10:28:03.098   08 Jun 2027 10:28:05.243             2.145           182.031
       229   08 Jun 2027 10:29:18.882   08 Jun 2027 10:29:25.598             6.716          2100.062
       230   09 Jun 2027 04:11:26.544   09 Jun 2027 04:12:04.587            38.043         19021.500
       231   09 Jun 2027 05:47:41.526   09 Jun 2027 05:50:13.796           152.270         76135.000
       232   09 Jun 2027 07:21:13.963   09 Jun 2027 07:23:28.546           134.583         66398.375
       233   09 Jun 2027 07:23:39.978   09 Jun 2027 07:23:41.644             1.666           205.406
       234   09 Jun 2027 07:24:24.303   09 Jun 2027 07:24:30.595             6.292          1333.094
       235   09 Jun 2027 07:24:58.686   09 Jun 2027 07:25:02.699             4.013           869.031
       236   09 Jun 2027 07:25:45.323   09 Jun 2027 07:25:45.323             0.000             0.000
       237   09 Jun 2027 07:27:46.389   09 Jun 2027 07:27:54.964             8.575          4192.156
       238   09 Jun 2027 07:28:23.914   09 Jun 2027 07:28:23.921             0.007             3.500
       239   09 Jun 2027 07:28:44.215   09 Jun 2027 07:28:49.041             4.826           993.063
       240   09 Jun 2027 07:29:07.444   09 Jun 2027 07:29:12.333             4.889           201.969
       241   09 Jun 2027 08:58:46.574   09 Jun 2027 08:59:02.524            15.950          5646.938
       242   09 Jun 2027 09:01:54.148   09 Jun 2027 09:01:54.945             0.797           111.969
       243   09 Jun 2027 09:02:00.372   09 Jun 2027 09:02:01.502             1.130           136.906
       244   09 Jun 2027 09:02:30.865   09 Jun 2027 09:02:33.271             2.406           574.187
       245   09 Jun 2027 09:03:57.681   09 Jun 2027 09:03:59.323             1.642           409.313
       246   09 Jun 2027 09:04:58.841   09 Jun 2027 09:05:04.047             5.206           673.844
       247   09 Jun 2027 10:35:41.167   09 Jun 2027 10:35:53.035            11.868          5613.219
       248   09 Jun 2027 10:38:57.192   09 Jun 2027 10:39:04.544             7.352          1495.500
       249   09 Jun 2027 10:39:48.782   09 Jun 2027 10:39:52.291             3.509           252.219
       250   09 Jun 2027 10:40:23.324   09 Jun 2027 10:40:25.493             2.169           704.875
       251   09 Jun 2027 10:41:22.498   09 Jun 2027 10:41:31.849             9.351          1580.531
       252   10 Jun 2027 03:00:00.000   10 Jun 2027 03:00:10.701            10.701          5350.500
       253   10 Jun 2027 03:00:16.105   10 Jun 2027 03:00:16.515             0.410           205.000
       254   10 Jun 2027 03:00:59.078   10 Jun 2027 03:01:01.019             1.941           970.500
       255   10 Jun 2027 03:01:06.612   10 Jun 2027 03:01:25.130            18.518          9259.000
       256   10 Jun 2027 03:01:58.748   10 Jun 2027 03:02:01.049             2.301          1150.500
       257   10 Jun 2027 03:02:04.116   10 Jun 2027 03:02:05.481             1.365           682.500
       258   10 Jun 2027 03:03:17.432   10 Jun 2027 03:03:20.436             3.004          1502.000
       259   10 Jun 2027 03:03:27.194   10 Jun 2027 03:03:40.019            12.825          6412.500
       260   10 Jun 2027 04:23:18.444   10 Jun 2027 04:24:09.430            50.986         25493.000
       261   10 Jun 2027 04:24:22.818   10 Jun 2027 04:24:27.635             4.817          2408.500
       262   10 Jun 2027 04:25:25.112   10 Jun 2027 04:25:42.612            17.500          8750.000
       263   10 Jun 2027 05:59:45.623   10 Jun 2027 06:02:03.219           137.596         68798.000
       264   10 Jun 2027 07:31:54.108   10 Jun 2027 07:32:03.911             9.803          4901.500
       265   10 Jun 2027 07:33:52.771   10 Jun 2027 07:34:51.455            58.684         29077.063
       266   10 Jun 2027 07:35:33.696   10 Jun 2027 07:35:35.502             1.806           475.656
       267   10 Jun 2027 07:35:51.951   10 Jun 2027 07:35:56.634             4.683           224.094
       268   10 Jun 2027 07:36:27.713   10 Jun 2027 07:36:32.562             4.849           971.219
       269   10 Jun 2027 07:37:05.643   10 Jun 2027 07:37:08.679             3.036          1033.781
       270   10 Jun 2027 07:38:22.923   10 Jun 2027 07:38:25.478             2.555           604.781
       271   10 Jun 2027 07:39:02.808   10 Jun 2027 07:39:04.624             1.816           835.062
       272   10 Jun 2027 07:40:15.623   10 Jun 2027 07:40:20.453             4.830          2182.563
       273   10 Jun 2027 07:40:39.998   10 Jun 2027 07:40:40.460             0.462           231.000
       274   10 Jun 2027 07:40:43.566   10 Jun 2027 07:40:44.450             0.884           168.438
       275   10 Jun 2027 07:41:37.845   10 Jun 2027 07:41:39.932             2.087           728.938
       276   10 Jun 2027 09:10:51.188   10 Jun 2027 09:11:01.388            10.200          4434.906
       277   10 Jun 2027 09:13:59.118   10 Jun 2027 09:14:09.927            10.809           713.219
       278   10 Jun 2027 09:14:52.934   10 Jun 2027 09:14:54.581             1.647           625.375
       279   10 Jun 2027 09:15:10.285   10 Jun 2027 09:15:10.879             0.594           259.219
       280   10 Jun 2027 09:15:36.509   10 Jun 2027 09:15:38.112             1.603           756.375
       281   10 Jun 2027 09:16:08.882   10 Jun 2027 09:16:12.192             3.310           848.969
       282   10 Jun 2027 09:17:15.791   10 Jun 2027 09:17:17.957             2.166           860.906
       283   10 Jun 2027 09:17:25.381   10 Jun 2027 09:17:26.884             1.503            44.813
       284   10 Jun 2027 10:48:23.102   10 Jun 2027 10:48:36.267            13.165          5290.563
       285   10 Jun 2027 10:50:37.976   10 Jun 2027 10:50:45.162             7.186          1920.281
       286   10 Jun 2027 10:51:06.429   10 Jun 2027 10:51:08.507             2.078           613.813
       287   10 Jun 2027 10:51:34.696   10 Jun 2027 10:51:38.721             4.025           482.344
       288   10 Jun 2027 10:51:56.758   10 Jun 2027 10:51:58.167             1.409           176.719
       289   10 Jun 2027 10:52:47.112   10 Jun 2027 10:52:52.932             5.820          1244.250
       290   10 Jun 2027 10:52:57.556   10 Jun 2027 10:52:58.574             1.018           144.500
       291   11 Jun 2027 03:12:09.733   11 Jun 2027 03:14:11.345           121.612         60806.000
       292   11 Jun 2027 03:15:49.869   11 Jun 2027 03:15:53.375             3.506          1753.000
       293   11 Jun 2027 04:35:26.527   11 Jun 2027 04:36:45.884            79.357         39678.500
       294   11 Jun 2027 04:37:28.964   11 Jun 2027 04:37:54.280            25.316         12658.000
       295   11 Jun 2027 06:11:55.777   11 Jun 2027 06:13:28.951            93.174         45880.093
       296   11 Jun 2027 06:14:04.656   11 Jun 2027 06:14:11.978             7.322          1106.875
       297   11 Jun 2027 06:14:21.354   11 Jun 2027 06:14:25.813             4.459            68.750
       298   11 Jun 2027 07:47:06.851   11 Jun 2027 07:47:13.207             6.356          2356.969
       299   11 Jun 2027 07:48:13.954   11 Jun 2027 07:48:18.802             4.848          1236.219
       300   11 Jun 2027 07:48:33.904   11 Jun 2027 07:48:34.562             0.658            86.937
       301   11 Jun 2027 07:49:15.328   11 Jun 2027 07:49:21.392             6.064          1142.469
       302   11 Jun 2027 07:50:08.417   11 Jun 2027 07:50:10.116             1.699           237.156
       303   11 Jun 2027 07:50:38.614   11 Jun 2027 07:50:41.040             2.426            54.125
       304   11 Jun 2027 07:52:15.897   11 Jun 2027 07:52:22.579             6.682          2197.656
       305   11 Jun 2027 07:53:12.160   11 Jun 2027 07:53:15.280             3.120          1303.813
       306   11 Jun 2027 07:53:31.151   11 Jun 2027 07:53:33.482             2.331            80.031
       307   11 Jun 2027 09:23:25.897   11 Jun 2027 09:23:37.740            11.843          4335.969
       308   11 Jun 2027 09:24:08.260   11 Jun 2027 09:24:10.246             1.986           127.750
       309   11 Jun 2027 09:25:27.581   11 Jun 2027 09:25:29.318             1.737           747.688
       310   11 Jun 2027 09:25:41.000   11 Jun 2027 09:25:43.657             2.657           126.719
       311   11 Jun 2027 09:26:44.486   11 Jun 2027 09:26:46.780             2.294           379.563
       312   11 Jun 2027 09:28:13.816   11 Jun 2027 09:28:17.291             3.475          1645.437
       313   11 Jun 2027 09:29:04.952   11 Jun 2027 09:29:07.814             2.862           865.594
       314   11 Jun 2027 11:00:48.327   11 Jun 2027 11:01:00.177            11.850          4763.531
       315   11 Jun 2027 11:02:50.140   11 Jun 2027 11:02:53.251             3.111           978.437
       316   11 Jun 2027 11:04:41.993   11 Jun 2027 11:04:57.413            15.420          1338.594
       317   11 Jun 2027 11:05:12.029   11 Jun 2027 11:05:13.174             1.145           393.469
       318   12 Jun 2027 03:24:01.589   12 Jun 2027 03:24:37.953            36.364         18182.000
       319   12 Jun 2027 03:25:06.542   12 Jun 2027 03:26:42.713            96.171         48085.500
       320   12 Jun 2027 03:27:02.654   12 Jun 2027 03:27:32.643            29.989         14994.500
       321   12 Jun 2027 04:48:09.150   12 Jun 2027 04:48:28.164            19.014          9507.000
       322   12 Jun 2027 04:48:55.177   12 Jun 2027 04:49:10.140            14.963          7481.500
       323   12 Jun 2027 06:23:52.833   12 Jun 2027 06:25:35.389           102.556         50852.625
       324   12 Jun 2027 06:25:58.196   12 Jun 2027 06:25:58.196             0.000             0.000
       325   12 Jun 2027 06:26:28.063   12 Jun 2027 06:26:35.380             7.317          1131.812
       326   12 Jun 2027 06:27:03.044   12 Jun 2027 06:27:03.955             0.911           455.500
       327   12 Jun 2027 07:58:56.776   12 Jun 2027 07:59:08.457            11.681          2495.407
       328   12 Jun 2027 08:00:34.500   12 Jun 2027 08:00:39.755             5.255          2183.437
       329   12 Jun 2027 08:01:52.512   12 Jun 2027 08:01:54.838             2.326           741.344
       330   12 Jun 2027 08:02:40.922   12 Jun 2027 08:02:43.733             2.811          1403.500
       331   12 Jun 2027 08:04:15.609   12 Jun 2027 08:04:26.605            10.996          2117.781
       332   12 Jun 2027 08:05:21.564   12 Jun 2027 08:05:26.265             4.701          1500.031
       333   12 Jun 2027 09:35:02.547   12 Jun 2027 09:35:13.320            10.773          5249.688
       334   12 Jun 2027 09:38:15.142   12 Jun 2027 09:38:20.084             4.942           160.469
       335   12 Jun 2027 09:38:30.453   12 Jun 2027 09:38:31.419             0.966           158.875
       336   12 Jun 2027 09:38:47.085   12 Jun 2027 09:38:48.495             1.410           228.375
       337   12 Jun 2027 09:40:10.664   12 Jun 2027 09:40:16.878             6.214          1396.250
       338   12 Jun 2027 09:40:36.283   12 Jun 2027 09:40:38.141             1.858           361.562
       339   12 Jun 2027 11:13:01.551   12 Jun 2027 11:13:14.487            12.936          6140.156
       340   12 Jun 2027 11:15:35.651   12 Jun 2027 11:15:35.849             0.198            11.375
       341   12 Jun 2027 11:16:27.617   12 Jun 2027 11:16:29.787             2.170          1052.906
       342   12 Jun 2027 11:17:03.955   12 Jun 2027 11:17:06.925             2.970          1060.687
       343   12 Jun 2027 11:17:15.117   12 Jun 2027 11:17:16.718             1.601           171.562
       344   13 Jun 2027 03:24:55.890   13 Jun 2027 03:24:57.406             1.516           758.000
       345   13 Jun 2027 03:25:12.062   13 Jun 2027 03:25:30.923            18.861          9430.500
       346   13 Jun 2027 03:35:57.173   13 Jun 2027 03:38:49.846           172.673         86336.500
       347   13 Jun 2027 03:38:53.802   13 Jun 2027 03:39:23.753            29.951         14975.500
       348   13 Jun 2027 04:59:14.844   13 Jun 2027 04:59:37.247            22.403         11201.500
       349   13 Jun 2027 06:34:30.113   13 Jun 2027 06:34:33.074             2.961          1480.500
       350   13 Jun 2027 06:35:37.668   13 Jun 2027 06:37:12.282            94.614         46654.532
       351   13 Jun 2027 06:37:38.274   13 Jun 2027 06:37:40.085             1.811           812.250
       352   13 Jun 2027 06:39:05.695   13 Jun 2027 06:39:12.028             6.333          2432.656
       353   13 Jun 2027 06:39:57.529   13 Jun 2027 06:40:02.401             4.872          1363.656
       354   13 Jun 2027 08:10:23.731   13 Jun 2027 08:10:33.391             9.660          2819.562
       355   13 Jun 2027 08:11:00.599   13 Jun 2027 08:11:02.903             2.304           213.375
       356   13 Jun 2027 08:13:09.776   13 Jun 2027 08:13:12.653             2.877           998.625
       357   13 Jun 2027 08:13:45.758   13 Jun 2027 08:13:47.540             1.782            71.188
       358   13 Jun 2027 08:14:42.974   13 Jun 2027 08:14:44.453             1.479           390.406
       359   13 Jun 2027 08:16:14.662   13 Jun 2027 08:16:19.935             5.273          1937.812
       360   13 Jun 2027 08:17:15.636   13 Jun 2027 08:17:18.719             3.083          1221.375
       361   13 Jun 2027 09:47:13.735   13 Jun 2027 09:47:30.950            17.215          6002.469
       362   13 Jun 2027 09:50:11.273   13 Jun 2027 09:50:12.093             0.820           320.031
       363   13 Jun 2027 09:50:30.241   13 Jun 2027 09:50:33.934             3.693           404.500
       364   13 Jun 2027 09:51:30.307   13 Jun 2027 09:51:36.221             5.914          1281.406
       365   13 Jun 2027 09:52:14.888   13 Jun 2027 09:52:17.278             2.390           301.000
       366   13 Jun 2027 09:52:19.223   13 Jun 2027 09:52:25.030             5.807            58.562
       367   13 Jun 2027 09:53:15.063   13 Jun 2027 09:53:18.883             3.820          1412.375
       368   13 Jun 2027 11:25:23.742   13 Jun 2027 11:25:42.060            18.318          5830.875
       369   13 Jun 2027 11:25:55.242   13 Jun 2027 11:25:56.339             1.097           192.813
       370   13 Jun 2027 11:27:30.414   13 Jun 2027 11:27:35.338             4.924          2209.469
       371   13 Jun 2027 11:27:43.458   13 Jun 2027 11:27:44.394             0.936           234.344
       372   13 Jun 2027 11:27:50.013   13 Jun 2027 11:27:51.141             1.128            23.937
       373   13 Jun 2027 11:29:11.159   13 Jun 2027 11:29:14.934             3.775          1494.000
