uniorb/output/strategy_4/Camera/Camera_KinoSat_110509.txt

KinoSat_110509
-------------------------
    Access    *     Start Time (UTCG)     *     Stop Time (UTCG)  *   Duration (s) *   Data (Mbytes)
         1   01 Jun 2027 03:10:15.087   01 Jun 2027 03:11:02.121            47.034         23517.000
         2   01 Jun 2027 03:11:34.269   01 Jun 2027 03:11:50.304            16.035          8017.500
         3   01 Jun 2027 03:12:20.037   01 Jun 2027 03:12:25.598             5.561          2780.500
         4   01 Jun 2027 03:12:47.740   01 Jun 2027 03:13:05.032            17.292          8646.000
         5   01 Jun 2027 03:13:14.215   01 Jun 2027 03:13:27.124            12.909          6454.500
         6   01 Jun 2027 04:45:25.089   01 Jun 2027 04:46:45.440            80.351         40175.500
         7   01 Jun 2027 04:46:52.521   01 Jun 2027 04:47:00.269             7.748          3874.000
         8   01 Jun 2027 04:47:05.873   01 Jun 2027 04:47:27.123            21.250         10625.000
         9   01 Jun 2027 04:48:29.389   01 Jun 2027 04:48:41.811            12.422          6211.000
        10   01 Jun 2027 04:49:51.921   01 Jun 2027 04:50:20.620            28.699         14349.500
        11   01 Jun 2027 04:51:32.817   01 Jun 2027 04:51:55.037            22.220         11110.000
        12   01 Jun 2027 06:21:50.600   01 Jun 2027 06:24:10.521           139.921         69960.500
        13   01 Jun 2027 06:24:23.580   01 Jun 2027 06:24:24.561             0.981           490.500
        14   01 Jun 2027 06:24:27.212   01 Jun 2027 06:24:35.817             8.605          4302.500
        15   01 Jun 2027 06:24:57.590   01 Jun 2027 06:25:02.997             5.407          2703.500
        16   01 Jun 2027 06:25:51.298   01 Jun 2027 06:25:58.655             7.357          3678.500
        17   01 Jun 2027 06:26:05.599   01 Jun 2027 06:26:08.875             3.276          1638.000
        18   01 Jun 2027 06:26:34.990   01 Jun 2027 06:26:58.133            23.143         11571.500
        19   01 Jun 2027 07:59:05.030   01 Jun 2027 08:02:00.917           175.887         87943.500
        20   01 Jun 2027 08:03:03.361   01 Jun 2027 08:03:27.657            24.296         12148.000
        21   01 Jun 2027 09:35:19.551   01 Jun 2027 09:38:13.055           173.504         86752.000
        22   01 Jun 2027 09:39:10.458   01 Jun 2027 09:39:36.680            26.222         13111.000
        23   02 Jun 2027 03:22:08.037   02 Jun 2027 03:26:10.323           242.286        121143.000
        24   02 Jun 2027 04:57:04.235   02 Jun 2027 05:02:19.455           315.220        157610.000
        25   02 Jun 2027 05:02:32.188   02 Jun 2027 05:02:37.367             5.179          2589.500
        26   02 Jun 2027 05:02:41.010   02 Jun 2027 05:02:41.010             0.000             0.000
        27   02 Jun 2027 05:03:18.017   02 Jun 2027 05:03:48.700            30.683         15341.500
        28   02 Jun 2027 05:04:06.127   02 Jun 2027 05:04:10.177             4.050          2025.000
        29   02 Jun 2027 06:33:22.807   02 Jun 2027 06:39:47.601           384.794        192397.000
        30   02 Jun 2027 08:11:38.311   02 Jun 2027 08:15:31.023           232.712        116356.000
        31   02 Jun 2027 09:47:19.671   02 Jun 2027 09:51:09.759           230.088        115044.000
        32   02 Jun 2027 09:51:35.992   02 Jun 2027 09:52:29.443            53.451         26725.500
        33   03 Jun 2027 03:32:26.698   03 Jun 2027 03:33:00.271            33.573         16786.500
        34   03 Jun 2027 03:33:51.856   03 Jun 2027 03:38:25.451           273.595        136797.500
        35   03 Jun 2027 05:08:37.543   03 Jun 2027 05:16:12.091           454.548        227274.000
        36   03 Jun 2027 06:46:09.331   03 Jun 2027 06:52:04.706           355.375        177687.500
        37   03 Jun 2027 08:24:00.236   03 Jun 2027 08:27:36.313           216.077        108038.500
        38   03 Jun 2027 09:56:50.267   03 Jun 2027 10:03:04.600           374.333        187166.500
        39   03 Jun 2027 10:03:09.394   03 Jun 2027 10:04:46.222            96.828         48414.000
        40   04 Jun 2027 03:43:33.316   04 Jun 2027 03:45:16.522           103.206         51603.000
        41   04 Jun 2027 03:45:36.330   04 Jun 2027 03:50:37.701           301.371        150685.500
        42   04 Jun 2027 05:20:54.897   04 Jun 2027 05:28:15.048           440.151        220075.500
        43   04 Jun 2027 06:58:16.253   04 Jun 2027 07:04:11.699           355.446        177723.000
        44   04 Jun 2027 08:36:07.801   04 Jun 2027 08:39:39.772           211.971        105985.500
        45   04 Jun 2027 10:09:35.617   04 Jun 2027 10:16:14.972           399.355        199677.500
        46   04 Jun 2027 10:16:39.575   04 Jun 2027 10:16:45.279             5.704          2852.000
        47   05 Jun 2027 03:55:01.513   05 Jun 2027 04:02:58.498           476.985        238492.500
        48   05 Jun 2027 04:03:44.941   05 Jun 2027 04:04:03.249            18.308          9154.000
        49   05 Jun 2027 05:32:50.244   05 Jun 2027 05:40:15.834           445.590        222795.000
        50   05 Jun 2027 07:09:48.953   05 Jun 2027 07:15:30.188           341.235        170617.500
        51   05 Jun 2027 07:16:13.620   05 Jun 2027 07:16:20.423             6.803          3401.500
        52   05 Jun 2027 08:48:12.179   05 Jun 2027 08:51:49.465           217.286        108643.000
        53   05 Jun 2027 10:21:33.287   05 Jun 2027 10:27:11.856           338.569        169284.500
        54   06 Jun 2027 04:07:49.951   06 Jun 2027 04:15:08.452           438.501        219250.500
        55   06 Jun 2027 04:15:21.798   06 Jun 2027 04:16:19.960            58.162         29081.000
        56   06 Jun 2027 05:44:56.648   06 Jun 2027 05:52:15.988           439.340        219670.000
        57   06 Jun 2027 07:22:15.425   06 Jun 2027 07:28:06.529           351.104        175552.000
        58   06 Jun 2027 08:59:08.107   06 Jun 2027 09:03:48.438           280.331        140165.500
        59   06 Jun 2027 10:34:00.009   06 Jun 2027 10:34:27.988            27.979         13989.500
        60   06 Jun 2027 10:35:38.699   06 Jun 2027 10:38:52.978           194.279         97139.500
        61   07 Jun 2027 04:19:48.678   07 Jun 2027 04:27:16.759           448.081        224040.500
        62   07 Jun 2027 04:27:17.949   07 Jun 2027 04:27:59.405            41.456         20728.000
        63   07 Jun 2027 04:28:01.888   07 Jun 2027 04:28:18.917            17.029          8514.500
        64   07 Jun 2027 05:57:22.505   07 Jun 2027 06:04:04.609           402.104        201052.000
        65   07 Jun 2027 07:35:12.462   07 Jun 2027 07:38:40.725           208.263        104131.500
        66   07 Jun 2027 07:38:43.151   07 Jun 2027 07:39:51.168            68.017         34008.500
        67   07 Jun 2027 09:11:10.613   07 Jun 2027 09:15:38.293           267.680        133840.000
        68   07 Jun 2027 10:48:49.826   07 Jun 2027 10:50:26.843            97.017         48508.500
        69   08 Jun 2027 03:00:00.000   08 Jun 2027 03:01:53.934           113.934         56967.000
        70   08 Jun 2027 04:33:17.360   08 Jun 2027 04:39:12.936           355.576        177788.000
        71   08 Jun 2027 04:39:16.514   08 Jun 2027 04:40:15.311            58.797         29398.500
        72   08 Jun 2027 06:09:29.897   08 Jun 2027 06:16:10.186           400.289        200144.500
        73   08 Jun 2027 07:47:23.486   08 Jun 2027 07:51:38.029           254.543        127271.500
        74   08 Jun 2027 09:23:27.506   08 Jun 2027 09:27:41.217           253.711        126855.500
        75   09 Jun 2027 03:10:29.682   09 Jun 2027 03:14:01.350           211.668        105834.000
        76   09 Jun 2027 04:45:39.765   09 Jun 2027 04:52:16.309           396.544        198272.000
        77   09 Jun 2027 06:22:55.791   09 Jun 2027 06:28:12.499           316.708        158354.000
        78   09 Jun 2027 07:59:19.860   09 Jun 2027 08:03:56.565           276.705        138352.500
        79   09 Jun 2027 09:35:56.645   09 Jun 2027 09:40:16.058           259.413        129706.500
        80   10 Jun 2027 03:22:22.544   10 Jun 2027 03:26:25.178           242.634        121317.000
        81   10 Jun 2027 04:57:18.657   10 Jun 2027 05:04:24.885           426.228        213114.000
        82   10 Jun 2027 06:34:15.180   10 Jun 2027 06:40:02.291           347.111        173555.500
        83   10 Jun 2027 08:12:07.979   10 Jun 2027 08:15:45.859           217.880        108940.000
        84   10 Jun 2027 09:47:21.436   10 Jun 2027 09:51:24.507           243.071        121535.500
        85   10 Jun 2027 09:51:50.768   10 Jun 2027 09:52:44.128            53.360         26680.000
        86   11 Jun 2027 03:32:41.218   11 Jun 2027 03:33:19.660            38.442         19221.000
        87   11 Jun 2027 03:34:06.504   11 Jun 2027 03:38:40.156           273.652        136826.000
        88   11 Jun 2027 05:08:52.003   11 Jun 2027 05:15:11.481           379.478        189739.000
        89   11 Jun 2027 05:15:30.314   11 Jun 2027 05:16:26.444            56.130         28065.000
        90   11 Jun 2027 06:46:23.940   11 Jun 2027 06:52:19.444           355.504        177752.000
        91   11 Jun 2027 08:24:16.611   11 Jun 2027 08:27:50.862           214.251        107125.500
        92   11 Jun 2027 09:57:04.717   11 Jun 2027 10:03:19.078           374.361        187180.500
        93   11 Jun 2027 10:03:24.230   11 Jun 2027 10:05:00.676            96.446         48223.000
        94   12 Jun 2027 03:43:47.679   12 Jun 2027 03:45:31.011           103.332         51666.000
        95   12 Jun 2027 03:45:50.851   12 Jun 2027 03:50:52.466           301.615        150807.500
        96   12 Jun 2027 05:21:09.961   12 Jun 2027 05:28:29.717           439.756        219878.000
        97   12 Jun 2027 06:58:32.863   12 Jun 2027 07:04:26.642           353.779        176889.500
        98   12 Jun 2027 08:36:24.121   12 Jun 2027 08:39:54.446           210.325        105162.500
        99   12 Jun 2027 10:09:50.465   12 Jun 2027 10:16:31.313           400.848        200424.000
       100   13 Jun 2027 03:55:15.881   13 Jun 2027 04:03:13.231           477.350        238675.000
       101   13 Jun 2027 04:04:00.923   13 Jun 2027 04:04:17.986            17.063          8531.500
       102   13 Jun 2027 05:33:04.856   13 Jun 2027 05:40:30.409           445.553        222776.500
       103   13 Jun 2027 07:10:02.989   13 Jun 2027 07:15:44.557           341.568        170784.000
       104   13 Jun 2027 07:16:28.110   13 Jun 2027 07:16:34.894             6.784          3392.000
       105   13 Jun 2027 08:48:27.522   13 Jun 2027 08:52:03.930           216.408        108204.000
       106   13 Jun 2027 10:21:48.048   13 Jun 2027 10:27:26.223           338.175        169087.500
