uniorb/output/strategy_4/Camera/Camera_KinoSat_110805.txt

KinoSat_110805
-------------------------
    Access    *     Start Time (UTCG)     *     Stop Time (UTCG)  *   Duration (s) *   Data (Mbytes)
         1   01 Jun 2027 03:34:35.397   01 Jun 2027 03:35:49.668            74.271         37135.500
         2   01 Jun 2027 03:36:31.453   01 Jun 2027 03:36:31.453             0.000             0.000
         3   01 Jun 2027 03:36:34.744   01 Jun 2027 03:36:44.515             9.771          4885.500
         4   01 Jun 2027 03:38:03.974   01 Jun 2027 03:38:03.974             0.000             0.000
         5   01 Jun 2027 05:10:07.597   01 Jun 2027 05:10:13.986             6.389          3194.500
         6   01 Jun 2027 05:11:17.298   01 Jun 2027 05:13:20.536           123.238         61619.000
         7   01 Jun 2027 05:14:31.723   01 Jun 2027 05:14:52.724            21.001         10500.500
         8   01 Jun 2027 06:46:02.851   01 Jun 2027 06:47:32.137            89.286         44643.000
         9   01 Jun 2027 06:48:12.711   01 Jun 2027 06:48:14.768             2.057          1028.500
        10   01 Jun 2027 06:48:23.818   01 Jun 2027 06:48:26.148             2.330          1165.000
        11   01 Jun 2027 06:48:35.213   01 Jun 2027 06:48:35.213             0.000             0.000
        12   01 Jun 2027 06:48:58.403   01 Jun 2027 06:49:12.117            13.714          6857.000
        13   01 Jun 2027 06:49:36.121   01 Jun 2027 06:49:38.368             2.247          1123.500
        14   01 Jun 2027 06:51:38.676   01 Jun 2027 06:51:38.676             0.000             0.000
        15   01 Jun 2027 06:52:19.681   01 Jun 2027 06:52:31.023            11.342          5671.000
        16   01 Jun 2027 06:53:32.272   01 Jun 2027 06:53:36.194             3.922          1961.000
        17   01 Jun 2027 08:23:02.729   01 Jun 2027 08:25:03.276           120.547         60273.500
        18   01 Jun 2027 08:25:28.873   01 Jun 2027 08:25:50.364            21.491         10745.500
        19   01 Jun 2027 08:26:40.023   01 Jun 2027 08:26:51.315            11.292          5646.000
        20   01 Jun 2027 08:27:41.231   01 Jun 2027 08:27:48.854             7.623          3811.500
        21   01 Jun 2027 10:01:03.813   01 Jun 2027 10:03:38.247           154.434         77217.000
        22   01 Jun 2027 10:04:38.777   01 Jun 2027 10:04:45.779             7.002          3501.000
        23   01 Jun 2027 11:34:18.514   01 Jun 2027 11:36:40.669           142.155         71077.500
        24   01 Jun 2027 11:36:55.780   01 Jun 2027 11:37:26.442            30.662         15331.000
        25   02 Jun 2027 03:45:51.681   02 Jun 2027 03:46:11.512            19.831          9915.500
        26   02 Jun 2027 03:49:12.120   02 Jun 2027 03:49:28.118            15.998          7999.000
        27   02 Jun 2027 03:50:56.964   02 Jun 2027 03:51:00.633             3.669          1834.500
        28   02 Jun 2027 05:20:59.735   02 Jun 2027 05:22:32.238            92.503         46251.500
        29   02 Jun 2027 05:23:00.696   02 Jun 2027 05:23:22.226            21.530         10765.000
        30   02 Jun 2027 05:23:48.397   02 Jun 2027 05:24:39.574            51.177         25588.500
        31   02 Jun 2027 05:25:45.015   02 Jun 2027 05:26:00.654            15.639          7819.500
        32   02 Jun 2027 05:26:18.295   02 Jun 2027 05:26:18.295             0.000             0.000
        33   02 Jun 2027 05:26:39.730   02 Jun 2027 05:26:53.033            13.303          6651.500
        34   02 Jun 2027 06:58:10.903   02 Jun 2027 07:01:41.713           210.810        105405.000
        35   02 Jun 2027 07:03:18.405   02 Jun 2027 07:03:41.482            23.077         11538.500
        36   02 Jun 2027 07:04:38.404   02 Jun 2027 07:04:44.772             6.368          3184.000
        37   02 Jun 2027 07:05:25.482   02 Jun 2027 07:05:30.477             4.995          2497.500
        38   02 Jun 2027 07:05:36.320   02 Jun 2027 07:05:36.877             0.557           278.500
        39   02 Jun 2027 08:35:08.216   02 Jun 2027 08:38:39.379           211.163        104011.501
        40   02 Jun 2027 08:39:10.384   02 Jun 2027 08:39:13.546             3.162           433.719
        41   02 Jun 2027 08:39:48.796   02 Jun 2027 08:39:53.380             4.584          1053.531
        42   02 Jun 2027 08:40:22.529   02 Jun 2027 08:40:24.928             2.399            39.219
        43   02 Jun 2027 10:13:01.234   02 Jun 2027 10:13:19.969            18.735          8317.219
        44   02 Jun 2027 10:14:38.931   02 Jun 2027 10:14:41.315             2.384           838.969
        45   02 Jun 2027 10:16:25.366   02 Jun 2027 10:16:28.268             2.902           914.531
        46   02 Jun 2027 10:16:36.438   02 Jun 2027 10:16:36.921             0.483            23.000
        47   02 Jun 2027 10:16:47.940   02 Jun 2027 10:16:48.422             0.482           218.000
        48   02 Jun 2027 11:46:29.029   02 Jun 2027 11:46:30.851             1.822           561.344
        49   02 Jun 2027 11:50:17.812   02 Jun 2027 11:50:22.009             4.197          1553.219
        50   02 Jun 2027 11:50:33.458   02 Jun 2027 11:50:36.417             2.959           357.781
        51   02 Jun 2027 11:51:30.240   02 Jun 2027 11:51:32.119             1.879           146.031
        52   02 Jun 2027 11:54:00.377   02 Jun 2027 11:54:02.976             2.599           104.406
        53   03 Jun 2027 03:57:36.639   03 Jun 2027 03:57:44.397             7.758          3879.000
        54   03 Jun 2027 03:58:20.902   03 Jun 2027 03:58:20.902             0.000             0.000
        55   03 Jun 2027 03:58:30.682   03 Jun 2027 03:58:54.466            23.784         11892.000
        56   03 Jun 2027 04:00:54.146   03 Jun 2027 04:00:54.146             0.000             0.000
        57   03 Jun 2027 05:32:29.154   03 Jun 2027 05:35:47.562           198.408         99204.000
        58   03 Jun 2027 05:37:37.047   03 Jun 2027 05:37:46.129             9.082          4541.000
        59   03 Jun 2027 05:37:48.250   03 Jun 2027 05:37:54.421             6.171          3085.500
        60   03 Jun 2027 05:41:18.826   03 Jun 2027 05:41:19.463             0.637           318.500
        61   03 Jun 2027 07:10:12.211   03 Jun 2027 07:11:45.933            93.722         46529.437
        62   03 Jun 2027 07:12:28.414   03 Jun 2027 07:12:37.108             8.694          1030.000
        63   03 Jun 2027 07:13:02.567   03 Jun 2027 07:13:02.567             0.000             0.000
        64   03 Jun 2027 07:13:10.642   03 Jun 2027 07:13:13.315             2.673           935.188
        65   03 Jun 2027 07:13:45.087   03 Jun 2027 07:13:46.893             1.806           216.656
        66   03 Jun 2027 07:14:18.236   03 Jun 2027 07:14:19.932             1.696           296.781
        67   03 Jun 2027 07:15:01.058   03 Jun 2027 07:15:02.988             1.930           573.781
        68   03 Jun 2027 07:15:44.129   03 Jun 2027 07:15:46.969             2.840           376.906
        69   03 Jun 2027 07:16:16.291   03 Jun 2027 07:16:17.507             1.216           119.125
        70   03 Jun 2027 07:17:08.803   03 Jun 2027 07:17:11.417             2.614          1231.906
        71   03 Jun 2027 08:47:00.408   03 Jun 2027 08:47:13.993            13.585          5455.094
        72   03 Jun 2027 08:50:00.105   03 Jun 2027 08:50:05.893             5.788          1015.156
        73   03 Jun 2027 08:50:50.785   03 Jun 2027 08:50:52.317             1.532           259.844
        74   03 Jun 2027 08:51:17.243   03 Jun 2027 08:51:18.166             0.923           124.313
        75   03 Jun 2027 08:51:56.582   03 Jun 2027 08:51:59.532             2.950           144.094
        76   03 Jun 2027 08:53:02.924   03 Jun 2027 08:53:05.582             2.658           995.125
        77   03 Jun 2027 10:25:02.469   03 Jun 2027 10:25:16.900            14.431          6015.375
        78   03 Jun 2027 10:25:36.935   03 Jun 2027 10:25:38.837             1.902           201.031
        79   03 Jun 2027 10:28:08.691   03 Jun 2027 10:28:10.104             1.413             8.719
        80   03 Jun 2027 10:28:32.296   03 Jun 2027 10:28:36.218             3.922           477.438
        81   03 Jun 2027 10:28:44.621   03 Jun 2027 10:28:45.557             0.936            97.344
        82   03 Jun 2027 10:29:09.380   03 Jun 2027 10:29:10.088             0.708           149.531
        83   03 Jun 2027 11:58:54.747   03 Jun 2027 11:59:02.860             8.113           471.906
        84   04 Jun 2027 04:11:23.407   04 Jun 2027 04:11:53.586            30.179         15089.500
        85   04 Jun 2027 04:13:53.596   04 Jun 2027 04:13:54.501             0.905           452.500
        86   04 Jun 2027 04:14:36.716   04 Jun 2027 04:14:39.380             2.664          1332.000
        87   04 Jun 2027 05:45:12.839   04 Jun 2027 05:48:04.054           171.215         85607.500
        88   04 Jun 2027 05:48:39.660   04 Jun 2027 05:49:02.768            23.108         11554.000
        89   04 Jun 2027 05:51:58.252   04 Jun 2027 05:52:10.041            11.789          5894.500
        90   04 Jun 2027 05:53:01.786   04 Jun 2027 05:53:28.295            26.509         13254.500
        91   04 Jun 2027 07:22:15.548   04 Jun 2027 07:23:14.003            58.455         28773.563
        92   04 Jun 2027 07:23:58.366   04 Jun 2027 07:24:01.205             2.839           816.062
        93   04 Jun 2027 07:24:35.233   04 Jun 2027 07:24:39.675             4.442           808.000
        94   04 Jun 2027 07:25:33.526   04 Jun 2027 07:25:33.526             0.000             0.000
        95   04 Jun 2027 07:25:48.446   04 Jun 2027 07:25:52.661             4.215          1808.438
        96   04 Jun 2027 07:26:26.632   04 Jun 2027 07:26:28.795             2.163          1034.250
        97   04 Jun 2027 07:27:17.995   04 Jun 2027 07:27:23.053             5.058           147.500
        98   04 Jun 2027 07:28:26.882   04 Jun 2027 07:28:28.471             1.589           676.563
        99   04 Jun 2027 08:59:10.380   04 Jun 2027 08:59:20.743            10.363          5162.031
       100   04 Jun 2027 09:01:10.916   04 Jun 2027 09:01:12.370             1.454            53.969
       101   04 Jun 2027 09:02:36.486   04 Jun 2027 09:02:40.557             4.071           798.781
       102   04 Jun 2027 09:03:20.624   04 Jun 2027 09:03:23.151             2.527           164.219
       103   04 Jun 2027 09:03:42.727   04 Jun 2027 09:03:44.769             2.042           564.219
       104   04 Jun 2027 09:05:05.273   04 Jun 2027 09:05:09.498             4.225          2086.969
       105   04 Jun 2027 10:36:16.422   04 Jun 2027 10:36:29.673            13.251          4944.688
       106   04 Jun 2027 10:37:54.080   04 Jun 2027 10:38:00.829             6.749           583.937
       107   04 Jun 2027 10:39:25.170   04 Jun 2027 10:39:27.613             2.443          1090.656
       108   04 Jun 2027 10:40:40.006   04 Jun 2027 10:40:43.620             3.614          1775.312
       109   05 Jun 2027 04:23:40.192   05 Jun 2027 04:25:02.811            82.619         41309.500
       110   05 Jun 2027 05:57:09.674   05 Jun 2027 05:59:28.840           139.166         69583.000
       111   05 Jun 2027 06:00:10.366   05 Jun 2027 06:00:43.157            32.791         16395.500
       112   05 Jun 2027 06:03:14.538   05 Jun 2027 06:03:33.260            18.722          9361.000
       113   05 Jun 2027 06:03:34.256   05 Jun 2027 06:03:34.602             0.346           173.000
       114   05 Jun 2027 06:04:13.985   05 Jun 2027 06:04:38.326            24.341         12170.500
       115   05 Jun 2027 06:05:22.810   05 Jun 2027 06:05:30.715             7.905          3952.500
       116   05 Jun 2027 06:05:39.823   05 Jun 2027 06:05:41.659             1.836           918.000
       117   05 Jun 2027 07:34:41.354   05 Jun 2027 07:34:50.711             9.357          4004.688
       118   05 Jun 2027 07:40:23.019   05 Jun 2027 07:40:25.376             2.357            57.687
       119   05 Jun 2027 07:40:38.039   05 Jun 2027 07:40:39.906             1.867            97.469
       120   05 Jun 2027 09:11:37.848   05 Jun 2027 09:11:48.963            11.115          5450.344
       121   05 Jun 2027 09:13:15.809   05 Jun 2027 09:13:16.793             0.984           288.281
       122   05 Jun 2027 09:14:16.796   05 Jun 2027 09:14:20.627             3.831          1721.156
       123   05 Jun 2027 09:15:07.126   05 Jun 2027 09:15:13.471             6.345          1449.250
       124   05 Jun 2027 09:16:40.601   05 Jun 2027 09:16:44.682             4.081          1394.875
       125   05 Jun 2027 10:48:28.450   05 Jun 2027 10:48:44.305            15.855          7889.250
       126   05 Jun 2027 10:50:46.147   05 Jun 2027 10:50:47.269             1.122           395.813
       127   05 Jun 2027 10:52:54.249   05 Jun 2027 10:52:57.213             2.964           289.563
       128   06 Jun 2027 03:00:00.000   06 Jun 2027 03:00:04.485             4.485          2242.500
       129   06 Jun 2027 03:00:26.676   06 Jun 2027 03:00:34.496             7.820          3910.000
       130   06 Jun 2027 03:01:53.191   06 Jun 2027 03:01:53.526             0.335           167.500
       131   06 Jun 2027 04:35:42.266   06 Jun 2027 04:38:31.755           169.489         84744.500
       132   06 Jun 2027 06:09:49.164   06 Jun 2027 06:11:45.378           116.214         58006.438
       133   06 Jun 2027 06:12:11.422   06 Jun 2027 06:12:15.812             4.390           645.469
       134   06 Jun 2027 06:12:26.875   06 Jun 2027 06:12:26.875             0.000             0.000
       135   06 Jun 2027 06:13:44.445   06 Jun 2027 06:13:45.487             1.042           521.000
       136   06 Jun 2027 06:14:19.811   06 Jun 2027 06:14:23.300             3.489          1744.500
       137   06 Jun 2027 06:15:14.358   06 Jun 2027 06:15:21.817             7.459          3032.125
       138   06 Jun 2027 06:16:38.407   06 Jun 2027 06:16:45.087             6.680          1896.437
       139   06 Jun 2027 06:17:27.401   06 Jun 2027 06:17:30.289             2.888           755.906
       140   06 Jun 2027 06:17:35.009   06 Jun 2027 06:17:36.534             1.525            64.719
       141   06 Jun 2027 07:46:47.552   06 Jun 2027 07:46:50.238             2.686          1070.469
       142   06 Jun 2027 07:49:50.437   06 Jun 2027 07:49:55.013             4.576           540.062
       143   06 Jun 2027 07:51:45.019   06 Jun 2027 07:51:48.132             3.113          1552.250
       144   06 Jun 2027 07:52:22.602   06 Jun 2027 07:52:27.261             4.659           157.844
       145   06 Jun 2027 07:52:57.388   06 Jun 2027 07:52:59.740             2.352           723.875
       146   06 Jun 2027 09:24:27.581   06 Jun 2027 09:24:43.199            15.618          6164.687
       147   06 Jun 2027 09:26:29.327   06 Jun 2027 09:26:32.699             3.372           709.500
       148   06 Jun 2027 09:28:44.750   06 Jun 2027 09:28:47.182             2.432           709.281
       149   06 Jun 2027 11:00:31.245   06 Jun 2027 11:00:44.395            13.150          6413.687
       150   06 Jun 2027 11:04:45.654   06 Jun 2027 11:04:47.846             2.192           706.531
       151   06 Jun 2027 11:05:16.690   06 Jun 2027 11:05:19.275             2.585           156.625
       152   07 Jun 2027 03:11:20.831   07 Jun 2027 03:11:31.631            10.800          5400.000
       153   07 Jun 2027 03:14:19.132   07 Jun 2027 03:14:26.528             7.396          3698.000
       154   07 Jun 2027 04:47:51.535   07 Jun 2027 04:51:26.352           214.817        107408.500
       155   07 Jun 2027 06:23:01.517   07 Jun 2027 06:24:06.544            65.027         32359.219
       156   07 Jun 2027 06:25:40.532   07 Jun 2027 06:25:45.167             4.635           880.063
       157   07 Jun 2027 06:25:49.906   07 Jun 2027 06:25:52.491             2.585            58.687
       158   07 Jun 2027 06:27:35.654   07 Jun 2027 06:27:41.383             5.729          2453.125
       159   07 Jun 2027 06:28:50.654   07 Jun 2027 06:28:54.926             4.272          1901.656
       160   07 Jun 2027 06:29:28.564   07 Jun 2027 06:29:33.526             4.962           772.344
       161   07 Jun 2027 07:59:23.626   07 Jun 2027 07:59:26.265             2.639           830.906
       162   07 Jun 2027 08:00:33.859   07 Jun 2027 08:00:35.566             1.707           629.969
       163   07 Jun 2027 08:00:52.562   07 Jun 2027 08:00:54.025             1.463           369.875
       164   07 Jun 2027 08:02:03.616   07 Jun 2027 08:02:07.711             4.095           691.656
       165   07 Jun 2027 08:02:52.244   07 Jun 2027 08:02:53.555             1.311           586.531
       166   07 Jun 2027 08:04:10.122   07 Jun 2027 08:04:14.944             4.822          1792.719
       167   07 Jun 2027 08:04:45.220   07 Jun 2027 08:04:46.710             1.490           582.813
       168   07 Jun 2027 08:05:15.156   07 Jun 2027 08:05:16.865             1.709           709.406
       169   07 Jun 2027 09:36:40.747   07 Jun 2027 09:37:00.214            19.467          6287.219
       170   07 Jun 2027 09:40:53.270   07 Jun 2027 09:40:54.101             0.831           151.406
       171   07 Jun 2027 11:12:53.672   07 Jun 2027 11:13:04.761            11.089          5195.188
       172   08 Jun 2027 03:24:00.653   08 Jun 2027 03:24:05.528             4.875          2437.500
       173   08 Jun 2027 03:26:19.570   08 Jun 2027 03:26:23.035             3.465          1732.500
       174   08 Jun 2027 04:59:46.239   08 Jun 2027 05:02:58.367           192.128         96064.000
       175   08 Jun 2027 06:34:43.595   08 Jun 2027 06:36:18.744            95.149         46248.969
       176   08 Jun 2027 06:37:26.481   08 Jun 2027 06:37:30.106             3.625          1514.844
       177   08 Jun 2027 06:37:52.069   08 Jun 2027 06:37:53.095             1.026            52.750
       178   08 Jun 2027 06:39:35.648   08 Jun 2027 06:39:44.656             9.008          3204.781
       179   08 Jun 2027 06:40:42.087   08 Jun 2027 06:40:42.806             0.719           359.500
       180   08 Jun 2027 06:41:08.629   08 Jun 2027 06:41:13.090             4.461          1986.719
       181   08 Jun 2027 08:10:56.139   08 Jun 2027 08:11:03.661             7.522          1859.906
       182   08 Jun 2027 08:12:10.026   08 Jun 2027 08:12:18.877             8.851          1611.250
       183   08 Jun 2027 08:12:47.898   08 Jun 2027 08:12:49.055             1.157           293.313
       184   08 Jun 2027 08:13:36.221   08 Jun 2027 08:13:38.170             1.949           277.375
       185   08 Jun 2027 08:14:42.473   08 Jun 2027 08:14:49.673             7.200          1855.281
       186   08 Jun 2027 08:15:24.942   08 Jun 2027 08:15:28.432             3.490           219.250
       187   08 Jun 2027 08:16:27.455   08 Jun 2027 08:16:29.816             2.361           147.437
       188   08 Jun 2027 09:48:57.275   08 Jun 2027 09:49:08.851            11.576          5517.469
       189   08 Jun 2027 09:50:12.071   08 Jun 2027 09:50:17.401             5.330           717.844
       190   08 Jun 2027 09:52:25.735   08 Jun 2027 09:52:27.604             1.869            41.187
       191   08 Jun 2027 09:52:59.563   08 Jun 2027 09:53:02.139             2.576           998.719
       192   08 Jun 2027 11:24:37.069   08 Jun 2027 11:24:48.911            11.842          4529.281
       193   08 Jun 2027 11:29:11.661   08 Jun 2027 11:29:12.866             1.205           241.312
       194   09 Jun 2027 03:34:49.723   09 Jun 2027 03:34:59.185             9.462          4731.000
       195   09 Jun 2027 03:36:05.843   09 Jun 2027 03:36:16.210            10.367          5183.500
       196   09 Jun 2027 05:10:22.275   09 Jun 2027 05:10:29.526             7.251          3625.500
       197   09 Jun 2027 05:11:32.093   09 Jun 2027 05:12:54.459            82.366         41183.000
       198   09 Jun 2027 05:13:35.729   09 Jun 2027 05:15:42.226           126.497         63248.500
       199   09 Jun 2027 06:46:17.276   09 Jun 2027 06:47:28.685            71.409         35444.844
       200   09 Jun 2027 06:48:06.708   09 Jun 2027 06:48:13.216             6.508           561.156
       201   09 Jun 2027 06:49:27.711   09 Jun 2027 06:49:30.036             2.325           411.844
       202   09 Jun 2027 06:49:52.510   09 Jun 2027 06:49:54.226             1.716           607.125
       203   09 Jun 2027 06:51:17.372   09 Jun 2027 06:51:23.831             6.459          2530.844
       204   09 Jun 2027 06:51:55.762   09 Jun 2027 06:51:58.211             2.449           647.094
       205   09 Jun 2027 06:52:35.904   09 Jun 2027 06:52:36.959             1.055           428.500
       206   09 Jun 2027 08:23:17.741   09 Jun 2027 08:23:20.541             2.800          1152.687
       207   09 Jun 2027 08:24:55.184   09 Jun 2027 08:24:57.269             2.085           864.313
       208   09 Jun 2027 08:26:09.112   09 Jun 2027 08:26:13.782             4.670           788.375
       209   09 Jun 2027 08:27:35.589   09 Jun 2027 08:27:36.759             1.170           415.094
       210   09 Jun 2027 08:28:34.457   09 Jun 2027 08:28:38.391             3.934           664.156
       211   09 Jun 2027 10:01:18.761   09 Jun 2027 10:01:30.209            11.448          5425.531
       212   09 Jun 2027 10:02:49.933   09 Jun 2027 10:02:56.652             6.719          2126.938
       213   09 Jun 2027 10:03:10.747   09 Jun 2027 10:03:11.924             1.177           186.062
       214   09 Jun 2027 10:04:25.275   09 Jun 2027 10:04:27.459             2.184           970.125
       215   09 Jun 2027 10:05:02.886   09 Jun 2027 10:05:05.788             2.902          1052.719
       216   09 Jun 2027 11:34:32.761   09 Jun 2027 11:34:44.605            11.844          5244.062
       217   10 Jun 2027 03:46:05.981   10 Jun 2027 03:46:26.746            20.765         10382.500
       218   10 Jun 2027 05:21:13.871   10 Jun 2027 05:22:53.452            99.581         49790.500
       219   10 Jun 2027 05:23:15.329   10 Jun 2027 05:24:15.444            60.115         30057.500
       220   10 Jun 2027 05:24:54.231   10 Jun 2027 05:25:49.921            55.690         27845.000
       221   10 Jun 2027 06:58:25.794   10 Jun 2027 06:59:49.036            83.242         41621.000
       222   10 Jun 2027 07:00:09.831   10 Jun 2027 07:00:12.972             3.141           955.500
       223   10 Jun 2027 07:01:15.210   10 Jun 2027 07:01:18.500             3.290           315.719
       224   10 Jun 2027 07:01:54.385   10 Jun 2027 07:01:57.056             2.671           877.000
       225   10 Jun 2027 07:03:33.776   10 Jun 2027 07:03:38.682             4.906          2187.688
       226   10 Jun 2027 07:04:31.277   10 Jun 2027 07:04:34.473             3.196          1022.562
       227   10 Jun 2027 08:35:23.182   10 Jun 2027 08:35:32.459             9.277          4366.094
       228   10 Jun 2027 08:37:43.738   10 Jun 2027 08:37:48.186             4.448          1065.062
       229   10 Jun 2027 08:38:02.471   10 Jun 2027 08:38:03.250             0.779           122.719
       230   10 Jun 2027 08:38:28.088   10 Jun 2027 08:38:31.385             3.297           463.625
       231   10 Jun 2027 08:39:11.541   10 Jun 2027 08:39:15.070             3.529          1254.875
       232   10 Jun 2027 08:39:25.932   10 Jun 2027 08:39:27.305             1.373           339.437
       233   10 Jun 2027 08:40:04.041   10 Jun 2027 08:40:08.403             4.362          1080.813
       234   10 Jun 2027 08:41:07.881   10 Jun 2027 08:41:09.957             2.076           922.906
       235   10 Jun 2027 10:13:16.121   10 Jun 2027 10:13:32.145            16.024          7556.062
       236   10 Jun 2027 10:14:55.510   10 Jun 2027 10:14:58.280             2.770           907.625
       237   10 Jun 2027 10:16:42.836   10 Jun 2027 10:16:47.458             4.622           979.156
       238   10 Jun 2027 10:16:51.304   10 Jun 2027 10:16:51.458             0.154            39.219
       239   10 Jun 2027 10:17:03.180   10 Jun 2027 10:17:04.246             1.066           209.844
       240   10 Jun 2027 11:46:44.553   10 Jun 2027 11:46:46.014             1.461           616.250
       241   11 Jun 2027 03:57:51.096   11 Jun 2027 03:58:05.350            14.254          7127.000
       242   11 Jun 2027 03:58:35.430   11 Jun 2027 03:58:48.102            12.672          6336.000
       243   11 Jun 2027 03:59:09.261   11 Jun 2027 03:59:11.570             2.309          1154.500
       244   11 Jun 2027 04:01:07.062   11 Jun 2027 04:01:46.770            39.708         19854.000
       245   11 Jun 2027 05:32:43.527   11 Jun 2027 05:35:55.114           191.587         95793.500
       246   11 Jun 2027 05:36:04.994   11 Jun 2027 05:36:09.106             4.112          2056.000
       247   11 Jun 2027 05:37:58.058   11 Jun 2027 05:38:01.618             3.560          1780.000
       248   11 Jun 2027 05:40:17.516   11 Jun 2027 05:40:17.516             0.000             0.000
       249   11 Jun 2027 05:41:41.818   11 Jun 2027 05:41:41.818             0.000             0.000
       250   11 Jun 2027 07:10:27.386   11 Jun 2027 07:12:00.638            93.252         43697.719
       251   11 Jun 2027 07:12:57.145   11 Jun 2027 07:12:58.388             1.243           400.281
       252   11 Jun 2027 07:13:54.072   11 Jun 2027 07:13:55.968             1.896           853.281
       253   11 Jun 2027 07:14:31.129   11 Jun 2027 07:14:34.949             3.820          1098.781
       254   11 Jun 2027 07:15:15.513   11 Jun 2027 07:15:18.909             3.396           532.313
       255   11 Jun 2027 07:16:01.186   11 Jun 2027 07:16:03.147             1.961           403.688
       256   11 Jun 2027 07:16:30.614   11 Jun 2027 07:16:32.434             1.820            51.000
       257   11 Jun 2027 07:17:23.468   11 Jun 2027 07:17:27.277             3.809          1233.437
       258   11 Jun 2027 07:17:50.001   11 Jun 2027 07:17:52.569             2.568           677.469
       259   11 Jun 2027 08:47:15.431   11 Jun 2027 08:47:28.507            13.076          5251.937
       260   11 Jun 2027 08:50:00.570   11 Jun 2027 08:50:02.797             2.227           531.187
       261   11 Jun 2027 08:50:28.596   11 Jun 2027 08:50:30.839             2.243           781.156
       262   11 Jun 2027 08:50:57.722   11 Jun 2027 08:51:00.573             2.851           290.031
       263   11 Jun 2027 08:51:28.789   11 Jun 2027 08:51:30.574             1.785           742.000
       264   11 Jun 2027 08:52:07.302   11 Jun 2027 08:52:10.854             3.552          1087.969
       265   11 Jun 2027 08:53:17.401   11 Jun 2027 08:53:26.873             9.472          2040.437
       266   11 Jun 2027 10:25:18.058   11 Jun 2027 10:25:35.212            17.154          5961.687
       267   11 Jun 2027 10:25:50.653   11 Jun 2027 10:25:51.568             0.915           360.438
       268   11 Jun 2027 10:28:23.475   11 Jun 2027 10:28:23.808             0.333            18.094
       269   11 Jun 2027 10:28:58.077   11 Jun 2027 10:29:01.708             3.631           237.406
       270   11 Jun 2027 11:59:09.729   11 Jun 2027 11:59:18.423             8.694           475.937
       271   12 Jun 2027 04:11:37.912   12 Jun 2027 04:12:13.863            35.951         17975.500
       272   12 Jun 2027 04:12:53.852   12 Jun 2027 04:12:53.852             0.000             0.000
       273   12 Jun 2027 04:14:52.581   12 Jun 2027 04:14:55.943             3.362          1681.000
       274   12 Jun 2027 05:45:27.621   12 Jun 2027 05:48:13.194           165.573         82786.500
       275   12 Jun 2027 05:49:51.552   12 Jun 2027 05:49:56.409             4.857          2428.500
       276   12 Jun 2027 05:51:31.211   12 Jun 2027 05:51:48.458            17.247          8623.500
       277   12 Jun 2027 07:22:30.576   12 Jun 2027 07:24:12.013           101.437         49393.468
       278   12 Jun 2027 07:24:25.469   12 Jun 2027 07:24:25.469             0.000             0.000
       279   12 Jun 2027 07:24:51.813   12 Jun 2027 07:24:54.550             2.737          1126.875
       280   12 Jun 2027 07:25:49.770   12 Jun 2027 07:25:56.566             6.796          1391.438
       281   12 Jun 2027 07:26:06.446   12 Jun 2027 07:26:07.618             1.172           289.063
       282   12 Jun 2027 07:26:41.424   12 Jun 2027 07:26:43.587             2.163          1039.781
       283   12 Jun 2027 07:27:07.609   12 Jun 2027 07:27:12.221             4.612           293.281
       284   12 Jun 2027 07:27:55.420   12 Jun 2027 07:27:59.094             3.674           657.906
       285   12 Jun 2027 07:29:05.056   12 Jun 2027 07:29:09.259             4.203          1343.344
       286   12 Jun 2027 07:29:38.468   12 Jun 2027 07:29:39.855             1.387           278.187
       287   12 Jun 2027 08:59:25.278   12 Jun 2027 08:59:35.356            10.078          4613.656
       288   12 Jun 2027 09:01:40.264   12 Jun 2027 09:01:47.451             7.187           450.187
       289   12 Jun 2027 09:02:51.349   12 Jun 2027 09:02:53.959             2.610           735.781
       290   12 Jun 2027 09:03:30.860   12 Jun 2027 09:03:33.409             2.549           893.031
       291   12 Jun 2027 09:03:45.760   12 Jun 2027 09:03:48.964             3.204           330.125
       292   12 Jun 2027 09:04:13.911   12 Jun 2027 09:04:16.520             2.609           495.313
       293   12 Jun 2027 09:04:51.569   12 Jun 2027 09:04:55.080             3.511          1019.750
       294   12 Jun 2027 09:05:26.504   12 Jun 2027 09:05:28.767             2.263           156.531
       295   12 Jun 2027 10:36:31.370   12 Jun 2027 10:36:45.097            13.727          5006.875
       296   12 Jun 2027 10:40:27.184   12 Jun 2027 10:40:30.889             3.705           898.000
       297   12 Jun 2027 10:41:01.813   12 Jun 2027 10:41:03.602             1.789           389.813
       298   13 Jun 2027 04:23:55.299   13 Jun 2027 04:25:17.573            82.274         41137.000
       299   13 Jun 2027 04:26:10.763   13 Jun 2027 04:26:25.339            14.576          7288.000
       300   13 Jun 2027 04:26:51.048   13 Jun 2027 04:26:56.504             5.456          2728.000
       301   13 Jun 2027 05:57:25.180   13 Jun 2027 05:59:42.728           137.548         68774.000
       302   13 Jun 2027 06:00:25.175   13 Jun 2027 06:00:58.010            32.835         16417.500
       303   13 Jun 2027 06:01:59.226   13 Jun 2027 06:02:00.042             0.816           408.000
       304   13 Jun 2027 06:03:57.563   13 Jun 2027 06:04:11.601            14.038          7019.000
       305   13 Jun 2027 06:04:28.391   13 Jun 2027 06:04:39.504            11.113          5556.500
       306   13 Jun 2027 06:05:46.806   13 Jun 2027 06:05:56.479             9.673          4836.500
       307   13 Jun 2027 07:34:56.280   13 Jun 2027 07:35:09.399            13.119          6348.281
       308   13 Jun 2027 07:38:10.561   13 Jun 2027 07:38:11.381             0.820           270.406
       309   13 Jun 2027 07:40:37.597   13 Jun 2027 07:40:41.655             4.058          1638.375
       310   13 Jun 2027 07:40:59.865   13 Jun 2027 07:41:01.322             1.457           316.062
       311   13 Jun 2027 09:11:52.702   13 Jun 2027 09:12:06.345            13.643          6654.719
       312   13 Jun 2027 09:15:13.905   13 Jun 2027 09:15:15.526             1.621           321.750
       313   13 Jun 2027 09:16:24.208   13 Jun 2027 09:16:28.018             3.810          1443.344
       314   13 Jun 2027 09:17:17.393   13 Jun 2027 09:17:20.540             3.147          1509.687
       315   13 Jun 2027 10:48:43.248   13 Jun 2027 10:48:59.146            15.898          7869.875
       316   13 Jun 2027 10:50:49.080   13 Jun 2027 10:50:51.976             2.896           660.563
       317   13 Jun 2027 10:53:09.719   13 Jun 2027 10:53:11.272             1.553           235.156
