uniorb/output/strategy_4/Camera/Camera_KinoSat_112001.txt

KinoSat_112001
-------------------------
    Access    *     Start Time (UTCG)     *     Stop Time (UTCG)  *   Duration (s) *   Data (Mbytes)
         1   01 Jun 2027 03:35:20.440   01 Jun 2027 03:36:31.282            70.842         35421.000
         2   01 Jun 2027 03:36:47.461   01 Jun 2027 03:37:09.537            22.076         11038.000
         3   01 Jun 2027 03:38:42.536   01 Jun 2027 03:39:27.647            45.111         22555.500
         4   01 Jun 2027 03:39:50.379   01 Jun 2027 03:39:55.263             4.884          2442.000
         5   01 Jun 2027 03:40:31.843   01 Jun 2027 03:40:32.438             0.595           297.500
         6   01 Jun 2027 03:40:41.920   01 Jun 2027 03:40:52.186            10.266          5133.000
         7   01 Jun 2027 03:41:57.982   01 Jun 2027 03:42:05.808             7.826          3913.000
         8   01 Jun 2027 05:13:17.896   01 Jun 2027 05:13:20.708             2.812          1406.000
         9   01 Jun 2027 05:13:46.065   01 Jun 2027 05:15:27.486           101.421         50710.500
        10   01 Jun 2027 05:15:56.305   01 Jun 2027 05:16:00.424             4.119          2059.500
        11   01 Jun 2027 05:16:24.873   01 Jun 2027 05:16:35.288            10.415          5207.500
        12   01 Jun 2027 05:16:38.142   01 Jun 2027 05:16:55.298            17.156          8578.000
        13   01 Jun 2027 06:51:57.916   01 Jun 2027 06:53:38.357           100.441         50220.500
        14   01 Jun 2027 06:53:47.781   01 Jun 2027 06:53:51.607             3.826          1913.000
        15   01 Jun 2027 06:54:15.642   01 Jun 2027 06:54:16.124             0.482           241.000
        16   01 Jun 2027 06:55:19.550   01 Jun 2027 06:55:21.199             1.649           824.500
        17   01 Jun 2027 08:14:53.053   01 Jun 2027 08:16:30.985            97.932         48966.000
        18   01 Jun 2027 09:51:30.356   01 Jun 2027 09:52:06.065            35.709         17854.500
        19   01 Jun 2027 09:52:29.949   01 Jun 2027 09:52:55.461            25.512         12756.000
        20   01 Jun 2027 11:27:08.572   01 Jun 2027 11:27:25.912            17.340          8670.000
        21   01 Jun 2027 11:30:37.819   01 Jun 2027 11:32:22.137           104.318         52159.000
        22   01 Jun 2027 11:32:24.836   01 Jun 2027 11:32:29.568             4.732          2366.000
        23   01 Jun 2027 11:33:21.865   01 Jun 2027 11:33:22.485             0.620           310.000
        24   02 Jun 2027 03:47:17.622   02 Jun 2027 03:47:59.946            42.324         21162.000
        25   02 Jun 2027 03:48:15.893   02 Jun 2027 03:50:19.711           123.818         61909.000
        26   02 Jun 2027 03:51:51.244   02 Jun 2027 03:51:52.707             1.463           731.500
        27   02 Jun 2027 05:25:25.824   02 Jun 2027 05:26:27.557            61.733         30866.500
        28   02 Jun 2027 05:26:34.244   02 Jun 2027 05:29:53.227           198.983         99491.500
        29   02 Jun 2027 07:03:43.857   02 Jun 2027 07:06:36.447           172.590         86295.000
        30   02 Jun 2027 08:27:06.911   02 Jun 2027 08:28:38.308            91.397         45698.500
        31   02 Jun 2027 08:28:48.438   02 Jun 2027 08:29:44.785            56.347         28173.500
        32   02 Jun 2027 10:03:38.817   02 Jun 2027 10:04:36.287            57.470         28429.156
        33   02 Jun 2027 10:05:23.476   02 Jun 2027 10:05:25.976             2.500           427.969
        34   02 Jun 2027 10:06:38.226   02 Jun 2027 10:06:44.271             6.045          2257.812
        35   02 Jun 2027 11:38:48.828   02 Jun 2027 11:38:57.924             9.096          4548.000
        36   02 Jun 2027 11:40:35.704   02 Jun 2027 11:40:47.056            11.352          5676.000
        37   02 Jun 2027 11:45:15.640   02 Jun 2027 11:45:25.142             9.502          4751.000
        38   03 Jun 2027 03:59:14.936   03 Jun 2027 04:02:11.744           176.808         88404.000
        39   03 Jun 2027 04:02:14.878   03 Jun 2027 04:02:24.929            10.051          5025.500
        40   03 Jun 2027 04:02:52.892   03 Jun 2027 04:03:09.243            16.351          8175.500
        41   03 Jun 2027 04:03:43.358   03 Jun 2027 04:03:45.551             2.193          1096.500
        42   03 Jun 2027 05:38:32.634   03 Jun 2027 05:40:25.502           112.868         56434.000
        43   03 Jun 2027 05:40:48.502   03 Jun 2027 05:40:55.826             7.324          3662.000
        44   03 Jun 2027 05:41:27.688   03 Jun 2027 05:41:38.884            11.196          5598.000
        45   03 Jun 2027 05:45:31.454   03 Jun 2027 05:46:21.801            50.347         25051.249
        46   03 Jun 2027 07:15:40.677   03 Jun 2027 07:16:01.644            20.967          9793.562
        47   03 Jun 2027 07:16:40.145   03 Jun 2027 07:16:42.742             2.597           330.781
        48   03 Jun 2027 07:16:54.661   03 Jun 2027 07:16:56.306             1.645           202.594
        49   03 Jun 2027 07:17:34.351   03 Jun 2027 07:17:38.125             3.774           648.875
        50   03 Jun 2027 07:18:03.428   03 Jun 2027 07:18:06.141             2.713           552.531
        51   03 Jun 2027 08:39:09.983   03 Jun 2027 08:39:41.448            31.465         10023.781
        52   03 Jun 2027 08:41:59.095   03 Jun 2027 08:42:11.161            12.066          2701.969
        53   03 Jun 2027 10:15:32.149   03 Jun 2027 10:15:42.406            10.257          3115.062
        54   03 Jun 2027 10:17:16.481   03 Jun 2027 10:17:22.595             6.114          2159.000
        55   03 Jun 2027 10:18:09.326   03 Jun 2027 10:18:14.433             5.107           142.219
        56   03 Jun 2027 11:50:27.934   03 Jun 2027 11:50:42.037            14.103          6706.625
        57   03 Jun 2027 11:53:29.257   03 Jun 2027 11:53:40.636            11.379          4978.563
        58   03 Jun 2027 11:57:07.155   03 Jun 2027 11:57:20.152            12.997          6112.250
        59   04 Jun 2027 04:11:56.142   04 Jun 2027 04:14:27.886           151.744         75872.000
        60   04 Jun 2027 04:15:52.151   04 Jun 2027 04:15:52.460             0.309           154.500
        61   04 Jun 2027 05:50:36.705   04 Jun 2027 05:53:28.420           171.715         85857.500
        62   04 Jun 2027 05:56:25.459   04 Jun 2027 05:56:27.644             2.185          1092.500
        63   04 Jun 2027 05:57:03.146   04 Jun 2027 05:57:30.351            27.205         13572.125
        64   04 Jun 2027 07:16:27.982   04 Jun 2027 07:16:40.796            12.814          6407.000
        65   04 Jun 2027 07:17:02.387   04 Jun 2027 07:17:08.217             5.830           977.250
        66   04 Jun 2027 07:27:37.099   04 Jun 2027 07:27:43.979             6.880          3233.188
        67   04 Jun 2027 07:28:45.318   04 Jun 2027 07:28:47.138             1.820           682.188
        68   04 Jun 2027 07:30:16.982   04 Jun 2027 07:30:18.436             1.454           249.656
        69   04 Jun 2027 08:50:14.959   04 Jun 2027 08:50:32.608            17.649          8658.063
        70   04 Jun 2027 08:51:16.699   04 Jun 2027 08:51:23.395             6.696           938.937
        71   04 Jun 2027 08:51:44.658   04 Jun 2027 08:51:44.805             0.147            71.844
        72   04 Jun 2027 08:52:50.337   04 Jun 2027 08:52:52.989             2.652          1022.562
        73   04 Jun 2027 10:25:50.458   04 Jun 2027 10:26:00.481            10.023          4828.063
        74   04 Jun 2027 10:28:06.296   04 Jun 2027 10:28:11.658             5.362          2610.156
        75   04 Jun 2027 10:30:31.295   04 Jun 2027 10:30:39.102             7.807          2742.250
        76   04 Jun 2027 10:30:59.711   04 Jun 2027 10:31:00.262             0.551            50.906
        77   05 Jun 2027 04:24:02.103   05 Jun 2027 04:25:27.010            84.907         42453.500
        78   05 Jun 2027 04:27:57.175   05 Jun 2027 04:27:57.229             0.054            27.000
        79   05 Jun 2027 04:28:44.759   05 Jun 2027 04:29:29.215            44.456         22228.000
        80   05 Jun 2027 06:03:06.322   05 Jun 2027 06:06:20.988           194.666         97333.000
        81   05 Jun 2027 06:06:54.129   05 Jun 2027 06:07:01.984             7.855          3927.500
        82   05 Jun 2027 06:07:30.852   05 Jun 2027 06:07:44.983            14.131          3767.218
        83   05 Jun 2027 06:08:25.497   05 Jun 2027 06:08:29.531             4.034          1186.562
        84   05 Jun 2027 07:27:58.093   05 Jun 2027 07:28:11.166            13.073          5993.125
        85   05 Jun 2027 07:28:37.074   05 Jun 2027 07:28:37.074             0.000             0.000
        86   05 Jun 2027 07:28:42.650   05 Jun 2027 07:28:46.078             3.428           983.875
        87   05 Jun 2027 07:28:59.379   05 Jun 2027 07:29:05.146             5.767           208.281
        88   05 Jun 2027 07:39:40.703   05 Jun 2027 07:39:48.815             8.112          2564.969
        89   05 Jun 2027 09:01:54.178   05 Jun 2027 09:02:19.212            25.034         12392.625
        90   05 Jun 2027 09:02:33.809   05 Jun 2027 09:02:38.168             4.359           372.156
        91   05 Jun 2027 09:04:32.598   05 Jun 2027 09:04:41.902             9.304          3193.094
        92   05 Jun 2027 09:06:02.857   05 Jun 2027 09:06:08.997             6.140          2118.125
        93   05 Jun 2027 09:06:58.304   05 Jun 2027 09:06:59.497             1.193           314.063
        94   05 Jun 2027 10:36:56.780   05 Jun 2027 10:37:03.096             6.316          2212.250
        95   05 Jun 2027 10:38:06.552   05 Jun 2027 10:38:10.400             3.848           881.406
        96   05 Jun 2027 10:40:04.323   05 Jun 2027 10:40:15.464            11.141          3507.313
        97   05 Jun 2027 10:41:29.143   05 Jun 2027 10:41:37.676             8.533          1365.969
        98   05 Jun 2027 10:43:02.113   05 Jun 2027 10:43:02.113             0.000             0.000
        99   05 Jun 2027 10:43:14.913   05 Jun 2027 10:43:19.125             4.212          1115.250
       100   05 Jun 2027 10:43:57.546   05 Jun 2027 10:43:57.546             0.000             0.000
       101   05 Jun 2027 10:44:58.329   05 Jun 2027 10:45:01.911             3.582           703.500
       102   06 Jun 2027 03:00:09.158   06 Jun 2027 03:00:26.676            17.518          8759.000
       103   06 Jun 2027 03:00:39.866   06 Jun 2027 03:00:39.866             0.000             0.000
       104   06 Jun 2027 03:01:43.062   06 Jun 2027 03:01:53.191            10.129          5064.500
       105   06 Jun 2027 03:02:40.070   06 Jun 2027 03:03:02.694            22.624         11312.000
       106   06 Jun 2027 03:05:24.775   06 Jun 2027 03:05:36.270            11.495          5747.500
       107   06 Jun 2027 04:36:22.313   06 Jun 2027 04:37:13.717            51.404         25702.000
       108   06 Jun 2027 04:37:40.815   06 Jun 2027 04:39:33.853           113.038         56519.000
       109   06 Jun 2027 06:15:08.758   06 Jun 2027 06:17:25.727           136.969         68442.094
       110   06 Jun 2027 06:18:33.427   06 Jun 2027 06:18:36.758             3.331          1519.281
       111   06 Jun 2027 06:19:50.834   06 Jun 2027 06:19:56.251             5.417          1992.125
       112   06 Jun 2027 06:20:12.953   06 Jun 2027 06:20:13.596             0.643           230.875
       113   06 Jun 2027 07:39:29.043   06 Jun 2027 07:39:44.087            15.044          5898.844
       114   06 Jun 2027 07:40:10.209   06 Jun 2027 07:40:13.076             2.867           816.312
       115   06 Jun 2027 07:40:31.795   06 Jun 2027 07:40:32.726             0.931           424.219
       116   06 Jun 2027 07:40:44.410   06 Jun 2027 07:40:48.063             3.653           285.781
       117   06 Jun 2027 07:41:37.795   06 Jun 2027 07:41:41.979             4.184          1122.062
       118   06 Jun 2027 07:51:46.188   06 Jun 2027 07:51:50.149             3.961          1677.844
       119   06 Jun 2027 09:13:37.451   06 Jun 2027 09:14:01.288            23.837          7581.000
       120   06 Jun 2027 09:15:40.799   06 Jun 2027 09:15:45.756             4.957          1977.562
       121   06 Jun 2027 09:16:21.744   06 Jun 2027 09:16:28.120             6.376           937.625
       122   06 Jun 2027 09:17:29.257   06 Jun 2027 09:17:32.908             3.651          1799.219
       123   06 Jun 2027 09:18:43.991   06 Jun 2027 09:18:47.672             3.681          1337.844
       124   06 Jun 2027 10:49:26.827   06 Jun 2027 10:49:41.188            14.361          4240.625
       125   06 Jun 2027 10:50:58.029   06 Jun 2027 10:51:00.712             2.683           836.594
       126   06 Jun 2027 10:55:33.326   06 Jun 2027 10:55:46.985            13.659          6626.125
       127   06 Jun 2027 10:56:46.908   06 Jun 2027 10:56:51.124             4.216          1796.000
       128   06 Jun 2027 10:57:07.560   06 Jun 2027 10:57:08.227             0.667           119.406
       129   06 Jun 2027 10:57:19.193   06 Jun 2027 10:57:20.133             0.940           155.406
       130   07 Jun 2027 03:11:25.667   07 Jun 2027 03:11:38.370            12.703          6351.500
       131   07 Jun 2027 03:14:07.551   07 Jun 2027 03:15:45.786            98.235         49117.500
       132   07 Jun 2027 03:17:34.457   07 Jun 2027 03:18:45.010            70.553         35276.500
       133   07 Jun 2027 04:49:05.176   07 Jun 2027 04:49:20.963            15.787          7893.500
       134   07 Jun 2027 04:49:29.276   07 Jun 2027 04:49:57.334            28.058         14029.000
       135   07 Jun 2027 04:50:22.269   07 Jun 2027 04:50:41.795            19.526          9763.000
       136   07 Jun 2027 04:51:09.421   07 Jun 2027 04:51:32.554            23.133         11566.500
       137   07 Jun 2027 04:53:29.466   07 Jun 2027 04:54:25.580            56.114         28057.000
       138   07 Jun 2027 06:27:33.230   07 Jun 2027 06:28:10.990            37.760         18685.438
       139   07 Jun 2027 06:31:17.990   07 Jun 2027 06:31:19.698             1.708           802.375
       140   07 Jun 2027 06:32:00.183   07 Jun 2027 06:32:04.443             4.260           939.375
       141   07 Jun 2027 07:51:27.921   07 Jun 2027 07:51:37.213             9.292          4207.094
       142   07 Jun 2027 07:52:46.047   07 Jun 2027 07:52:51.890             5.843          1347.625
       143   07 Jun 2027 09:27:24.716   07 Jun 2027 09:27:38.001            13.285          5235.812
       144   07 Jun 2027 09:28:29.982   07 Jun 2027 09:28:35.611             5.629          1450.313
       145   07 Jun 2027 09:30:15.668   07 Jun 2027 09:30:23.771             8.103          2096.406
       146   07 Jun 2027 09:30:44.224   07 Jun 2027 09:30:49.069             4.845           639.156
       147   07 Jun 2027 11:01:13.866   07 Jun 2027 11:01:18.370             4.504          2169.219
       148   07 Jun 2027 11:03:29.886   07 Jun 2027 11:03:32.773             2.887           932.531
       149   07 Jun 2027 11:07:24.709   07 Jun 2027 11:07:39.905            15.196          6608.500
       150   07 Jun 2027 11:08:35.367   07 Jun 2027 11:08:35.966             0.599           299.500
       151   07 Jun 2027 11:08:46.190   07 Jun 2027 11:08:48.868             2.678          1028.969
       152   07 Jun 2027 11:08:59.816   07 Jun 2027 11:09:00.853             1.037           301.125
       153   08 Jun 2027 03:23:26.085   08 Jun 2027 03:23:40.325            14.240          7120.000
       154   08 Jun 2027 03:25:34.850   08 Jun 2027 03:28:40.438           185.588         92794.000
       155   08 Jun 2027 03:30:37.049   08 Jun 2027 03:30:58.749            21.700         10850.000
       156   08 Jun 2027 05:01:49.608   08 Jun 2027 05:02:08.843            19.235          9617.500
       157   08 Jun 2027 05:02:23.112   08 Jun 2027 05:03:07.701            44.589         22294.500
       158   08 Jun 2027 05:06:03.105   08 Jun 2027 05:07:05.425            62.320         30424.031
       159   08 Jun 2027 05:07:15.224   08 Jun 2027 05:07:15.662             0.438           184.312
       160   08 Jun 2027 05:07:44.241   08 Jun 2027 05:07:46.631             2.390            53.844
       161   08 Jun 2027 06:39:57.349   08 Jun 2027 06:40:22.350            25.001         12500.500
       162   08 Jun 2027 06:41:13.090   08 Jun 2027 06:41:18.969             5.879          2186.250
       163   08 Jun 2027 06:42:39.590   08 Jun 2027 06:42:44.937             5.347          2501.500
       164   08 Jun 2027 06:43:09.198   08 Jun 2027 06:43:10.344             1.146           250.156
       165   08 Jun 2027 06:43:20.130   08 Jun 2027 06:43:23.260             3.130            93.750
       166   08 Jun 2027 06:44:34.074   08 Jun 2027 06:44:38.490             4.416          1461.563
       167   08 Jun 2027 08:03:21.694   08 Jun 2027 08:03:34.591            12.897          6365.875
       168   08 Jun 2027 08:04:47.517   08 Jun 2027 08:04:51.023             3.506          1603.781
       169   08 Jun 2027 08:05:19.156   08 Jun 2027 08:05:20.075             0.919           189.531
       170   08 Jun 2027 08:05:28.950   08 Jun 2027 08:05:31.904             2.954           124.500
       171   08 Jun 2027 08:05:42.607   08 Jun 2027 08:05:45.788             3.181            44.813
       172   08 Jun 2027 09:39:46.575   08 Jun 2027 09:39:57.022            10.447          4534.969
       173   08 Jun 2027 09:41:11.257   08 Jun 2027 09:41:15.410             4.153          1748.937
       174   08 Jun 2027 09:41:52.716   08 Jun 2027 09:41:54.729             2.013           843.938
       175   08 Jun 2027 09:42:45.870   08 Jun 2027 09:42:49.864             3.994          1598.156
       176   08 Jun 2027 11:13:34.851   08 Jun 2027 11:13:45.150            10.299          4901.687
       177   08 Jun 2027 11:15:50.924   08 Jun 2027 11:15:56.873             5.949           546.156
       178   08 Jun 2027 11:19:11.709   08 Jun 2027 11:19:11.709             0.000             0.000
       179   08 Jun 2027 11:20:20.839   08 Jun 2027 11:20:34.464            13.625          6161.125
       180   08 Jun 2027 11:21:00.894   08 Jun 2027 11:21:01.728             0.834           279.469
       181   08 Jun 2027 11:21:43.899   08 Jun 2027 11:21:45.735             1.836           918.000
       182   09 Jun 2027 03:35:38.985   09 Jun 2027 03:36:23.808            44.823         22411.500
       183   09 Jun 2027 03:37:02.467   09 Jun 2027 03:38:49.031           106.564         53282.000
       184   09 Jun 2027 03:39:44.811   09 Jun 2027 03:40:14.695            29.884         14942.000
       185   09 Jun 2027 03:41:47.818   09 Jun 2027 03:42:13.494            25.676         12838.000
       186   09 Jun 2027 05:14:46.111   09 Jun 2027 05:14:49.513             3.402          1701.000
       187   09 Jun 2027 05:14:55.349   09 Jun 2027 05:15:42.226            46.877         23438.500
       188   09 Jun 2027 05:16:50.562   09 Jun 2027 05:17:30.475            39.913         19956.500
       189   09 Jun 2027 05:19:07.292   09 Jun 2027 05:19:18.312            11.020          5510.000
       190   09 Jun 2027 06:52:16.521   09 Jun 2027 06:53:38.060            81.539         40733.438
       191   09 Jun 2027 06:54:32.654   09 Jun 2027 06:54:34.981             2.327           943.375
       192   09 Jun 2027 06:55:09.309   09 Jun 2027 06:55:13.818             4.509           423.469
       193   09 Jun 2027 06:55:34.431   09 Jun 2027 06:55:40.662             6.231           470.281
       194   09 Jun 2027 08:15:09.897   09 Jun 2027 08:15:21.317            11.420          5456.406
       195   09 Jun 2027 08:17:54.715   09 Jun 2027 08:17:57.205             2.490          1245.000
       196   09 Jun 2027 09:51:48.371   09 Jun 2027 09:51:56.404             8.033          2751.875
       197   09 Jun 2027 09:53:11.752   09 Jun 2027 09:53:11.995             0.243           121.500
       198   09 Jun 2027 09:53:46.642   09 Jun 2027 09:53:55.894             9.252          1652.000
       199   09 Jun 2027 09:54:50.060   09 Jun 2027 09:54:53.485             3.425          1692.688
       200   09 Jun 2027 11:26:50.010   09 Jun 2027 11:27:06.562            16.552          8129.719
       201   09 Jun 2027 11:30:53.435   09 Jun 2027 11:30:53.435             0.000             0.000
       202   09 Jun 2027 11:31:03.437   09 Jun 2027 11:31:18.502            15.065          6880.187
       203   09 Jun 2027 11:31:37.656   09 Jun 2027 11:31:41.161             3.505           282.344
       204   09 Jun 2027 11:31:49.076   09 Jun 2027 11:31:50.970             1.894           247.344
       205   09 Jun 2027 11:32:34.257   09 Jun 2027 11:32:36.577             2.320          1011.062
       206   09 Jun 2027 11:32:43.856   09 Jun 2027 11:32:46.307             2.451           100.156
       207   09 Jun 2027 11:33:39.247   09 Jun 2027 11:33:41.190             1.943           971.500
       208   10 Jun 2027 03:47:35.515   10 Jun 2027 03:48:16.821            41.306         20653.000
       209   10 Jun 2027 03:48:31.030   10 Jun 2027 03:50:47.368           136.338         68169.000
       210   10 Jun 2027 03:52:13.099   10 Jun 2027 03:52:24.788            11.689          5844.500
       211   10 Jun 2027 03:53:16.370   10 Jun 2027 03:53:35.297            18.927          9463.500
       212   10 Jun 2027 03:54:19.471   10 Jun 2027 03:54:45.742            26.271         13135.500
       213   10 Jun 2027 05:25:44.015   10 Jun 2027 05:26:43.910            59.895         29947.500
       214   10 Jun 2027 05:26:51.471   10 Jun 2027 05:27:35.386            43.915         21838.375
       215   10 Jun 2027 05:31:15.388   10 Jun 2027 05:31:30.594            15.206          6669.375
       216   10 Jun 2027 07:04:01.061   10 Jun 2027 07:04:11.775            10.714          5062.219
       217   10 Jun 2027 07:04:43.508   10 Jun 2027 07:04:48.604             5.096           932.000
       218   10 Jun 2027 07:04:59.370   10 Jun 2027 07:04:59.474             0.104            40.375
       219   10 Jun 2027 07:06:58.050   10 Jun 2027 07:07:02.964             4.914           219.875
       220   10 Jun 2027 07:07:21.590   10 Jun 2027 07:07:24.759             3.169           391.531
       221   10 Jun 2027 08:27:24.377   10 Jun 2027 08:27:38.847            14.470          6953.313
       222   10 Jun 2027 08:28:30.422   10 Jun 2027 08:28:32.129             1.707           799.062
       223   10 Jun 2027 08:29:05.184   10 Jun 2027 08:29:05.762             0.578           289.000
       224   10 Jun 2027 08:30:20.483   10 Jun 2027 08:30:27.536             7.053          2529.063
       225   10 Jun 2027 10:03:56.977   10 Jun 2027 10:04:06.620             9.643          2349.781
       226   10 Jun 2027 10:05:42.259   10 Jun 2027 10:05:47.540             5.281          2400.938
       227   10 Jun 2027 10:06:01.280   10 Jun 2027 10:06:09.248             7.968           429.375
       228   10 Jun 2027 10:07:12.811   10 Jun 2027 10:07:14.392             1.581           497.500
       229   10 Jun 2027 11:39:07.512   10 Jun 2027 11:39:21.258            13.746          5193.000
       230   10 Jun 2027 11:42:25.950   10 Jun 2027 11:42:35.019             9.069          2756.500
       231   10 Jun 2027 11:43:08.297   10 Jun 2027 11:43:09.583             1.286           404.844
       232   10 Jun 2027 11:43:56.730   10 Jun 2027 11:43:59.745             3.015           522.219
       233   10 Jun 2027 11:44:36.907   10 Jun 2027 11:44:42.161             5.254           989.188
       234   10 Jun 2027 11:45:01.945   10 Jun 2027 11:45:02.589             0.644           180.813
       235   10 Jun 2027 11:45:09.383   10 Jun 2027 11:45:13.010             3.627           212.312
       236   11 Jun 2027 03:59:32.775   11 Jun 2027 04:02:14.854           162.079         81039.500
       237   11 Jun 2027 05:38:50.599   11 Jun 2027 05:41:12.408           141.809         70904.500
       238   11 Jun 2027 05:41:34.328   11 Jun 2027 05:41:39.375             5.047          2523.500
       239   11 Jun 2027 05:45:46.860   11 Jun 2027 05:46:45.748            58.888         29161.625
       240   11 Jun 2027 07:15:57.817   11 Jun 2027 07:16:14.188            16.371          7442.063
       241   11 Jun 2027 07:17:03.774   11 Jun 2027 07:17:08.112             4.338           859.469
       242   11 Jun 2027 07:17:28.322   11 Jun 2027 07:17:31.897             3.575           561.219
       243   11 Jun 2027 07:18:19.809   11 Jun 2027 07:18:23.706             3.897           605.125
       244   11 Jun 2027 07:19:08.403   11 Jun 2027 07:19:10.224             1.821           695.000
       245   11 Jun 2027 08:39:26.002   11 Jun 2027 08:39:45.604            19.602          8140.781
       246   11 Jun 2027 08:40:31.836   11 Jun 2027 08:40:36.778             4.942           926.438
       247   11 Jun 2027 08:42:15.538   11 Jun 2027 08:42:26.360            10.822          2662.219
       248   11 Jun 2027 10:15:48.937   11 Jun 2027 10:15:58.529             9.592          2657.000
       249   11 Jun 2027 10:17:32.562   11 Jun 2027 10:17:37.924             5.362          2111.313
       250   11 Jun 2027 10:18:29.275   11 Jun 2027 10:18:30.467             1.192           157.281
       251   11 Jun 2027 11:50:42.252   11 Jun 2027 11:50:57.914            15.662          6932.906
       252   11 Jun 2027 11:53:52.243   11 Jun 2027 11:54:04.603            12.360          5233.719
       253   11 Jun 2027 11:57:24.091   11 Jun 2027 11:57:40.073            15.982          6147.344
       254   12 Jun 2027 04:12:14.378   12 Jun 2027 04:14:26.217           131.839         65919.500
       255   12 Jun 2027 04:15:58.735   12 Jun 2027 04:16:07.297             8.562          4281.000
       256   12 Jun 2027 05:50:55.197   12 Jun 2027 05:52:21.022            85.825         42912.500
       257   12 Jun 2027 05:52:40.848   12 Jun 2027 05:53:01.514            20.666         10333.000
       258   12 Jun 2027 05:53:41.296   12 Jun 2027 05:53:43.102             1.806           903.000
       259   12 Jun 2027 05:54:00.739   12 Jun 2027 05:54:19.241            18.502          9251.000
       260   12 Jun 2027 05:56:31.228   12 Jun 2027 05:57:53.799            82.571         41186.750
       261   12 Jun 2027 07:16:41.491   12 Jun 2027 07:16:54.454            12.963          5757.500
       262   12 Jun 2027 07:27:55.151   12 Jun 2027 07:28:00.024             4.873          2416.969
       263   12 Jun 2027 07:29:29.566   12 Jun 2027 07:29:31.852             2.286           894.688
       264   12 Jun 2027 08:50:31.724   12 Jun 2027 08:50:47.950            16.226          8113.000
       265   12 Jun 2027 08:51:13.231   12 Jun 2027 08:51:16.124             2.893           987.406
       266   12 Jun 2027 08:51:58.374   12 Jun 2027 08:52:00.315             1.941           744.281
       267   12 Jun 2027 08:53:08.067   12 Jun 2027 08:53:08.067             0.000             0.000
       268   12 Jun 2027 08:54:20.554   12 Jun 2027 08:54:27.254             6.700          3282.500
       269   12 Jun 2027 10:26:06.403   12 Jun 2027 10:26:16.530            10.127          4430.969
       270   12 Jun 2027 10:28:23.830   12 Jun 2027 10:28:29.368             5.538          2487.438
       271   12 Jun 2027 10:30:51.096   12 Jun 2027 10:30:58.745             7.649          2867.625
       272   12 Jun 2027 10:32:00.562   12 Jun 2027 10:32:03.398             2.836          1310.375
       273   13 Jun 2027 04:24:20.586   13 Jun 2027 04:26:30.499           129.913         64956.500
       274   13 Jun 2027 04:27:37.515   13 Jun 2027 04:28:07.469            29.954         14977.000
       275   13 Jun 2027 06:03:25.297   13 Jun 2027 06:06:07.110           161.813         80906.500
       276   13 Jun 2027 06:06:36.082   13 Jun 2027 06:06:55.588            19.506          9743.531
       277   13 Jun 2027 06:07:46.755   13 Jun 2027 06:08:00.585            13.830          1475.781
       278   13 Jun 2027 06:08:31.859   13 Jun 2027 06:08:36.646             4.787           896.812
       279   13 Jun 2027 06:08:55.278   13 Jun 2027 06:08:57.709             2.431           465.406
       280   13 Jun 2027 06:09:29.862   13 Jun 2027 06:09:32.980             3.118          1004.781
       281   13 Jun 2027 07:28:15.339   13 Jun 2027 07:28:27.258            11.919          5045.062
       282   13 Jun 2027 07:28:51.342   13 Jun 2027 07:28:53.175             1.833           752.625
       283   13 Jun 2027 07:29:45.388   13 Jun 2027 07:29:49.118             3.730          1403.000
       284   13 Jun 2027 07:39:55.083   13 Jun 2027 07:40:04.424             9.341          2922.250
       285   13 Jun 2027 09:02:14.198   13 Jun 2027 09:02:41.190            26.992         13453.812
       286   13 Jun 2027 09:03:12.166   13 Jun 2027 09:03:17.878             5.712           875.688
       287   13 Jun 2027 09:04:37.692   13 Jun 2027 09:04:44.253             6.561          1174.781
       288   13 Jun 2027 09:05:58.901   13 Jun 2027 09:06:04.389             5.488          2146.719
       289   13 Jun 2027 09:07:05.755   13 Jun 2027 09:07:09.218             3.463          1441.438
       290   13 Jun 2027 10:37:13.052   13 Jun 2027 10:37:18.132             5.080          2120.219
       291   13 Jun 2027 10:38:32.462   13 Jun 2027 10:38:32.462             0.000             0.000
       292   13 Jun 2027 10:40:21.768   13 Jun 2027 10:40:31.052             9.284          3609.375
       293   13 Jun 2027 10:41:41.882   13 Jun 2027 10:41:47.007             5.125          1285.125
       294   13 Jun 2027 10:43:34.409   13 Jun 2027 10:43:40.088             5.679          1481.375
       295   13 Jun 2027 10:44:19.038   13 Jun 2027 10:44:19.038             0.000             0.000
       296   13 Jun 2027 10:45:11.873   13 Jun 2027 10:45:13.674             1.801           739.000
