uniorb/output/strategy_4/Camera/Camera_KinoSat_111206.txt

KinoSat_111206
-------------------------
    Access    *     Start Time (UTCG)     *     Stop Time (UTCG)  *   Duration (s) *   Data (Mbytes)
         1   01 Jun 2027 03:22:14.340   01 Jun 2027 03:24:25.654           131.314         65657.000
         2   01 Jun 2027 03:24:58.820   01 Jun 2027 03:25:08.315             9.495          4747.500
         3   01 Jun 2027 03:25:57.846   01 Jun 2027 03:25:57.846             0.000             0.000
         4   01 Jun 2027 03:26:23.589   01 Jun 2027 03:26:41.913            18.324          9162.000
         5   01 Jun 2027 04:45:36.273   01 Jun 2027 04:46:11.351            35.078         17539.000
         6   01 Jun 2027 04:47:18.040   01 Jun 2027 04:47:18.315             0.275           137.500
         7   01 Jun 2027 06:21:58.312   01 Jun 2027 06:23:45.434           107.122         53561.000
         8   01 Jun 2027 06:24:14.210   01 Jun 2027 06:24:33.069            18.859          9429.500
         9   01 Jun 2027 06:24:43.372   01 Jun 2027 06:24:43.372             0.000             0.000
        10   01 Jun 2027 07:56:02.314   01 Jun 2027 07:58:00.238           117.924         58962.000
        11   01 Jun 2027 07:58:04.778   01 Jun 2027 07:58:04.778             0.000             0.000
        12   01 Jun 2027 08:00:50.923   01 Jun 2027 08:00:50.923             0.000             0.000
        13   01 Jun 2027 08:02:33.635   01 Jun 2027 08:02:35.732             2.097          1048.500
        14   01 Jun 2027 08:02:45.864   01 Jun 2027 08:02:57.242            11.378          5689.000
        15   01 Jun 2027 08:02:59.684   01 Jun 2027 08:03:14.188            14.504          7252.000
        16   01 Jun 2027 08:04:00.126   01 Jun 2027 08:04:01.015             0.889           444.500
        17   01 Jun 2027 09:33:06.873   01 Jun 2027 09:36:10.707           183.834         91917.000
        18   01 Jun 2027 09:36:33.332   01 Jun 2027 09:36:47.259            13.927          6963.500
        19   01 Jun 2027 11:10:02.914   01 Jun 2027 11:10:20.446            17.532          8766.000
        20   01 Jun 2027 11:10:26.696   01 Jun 2027 11:12:28.626           121.930         60965.000
        21   01 Jun 2027 11:13:00.597   01 Jun 2027 11:13:11.264            10.667          5333.500
        22   02 Jun 2027 03:34:42.555   02 Jun 2027 03:36:49.357           126.802         63401.000
        23   02 Jun 2027 04:57:39.827   02 Jun 2027 04:58:40.536            60.709         30354.500
        24   02 Jun 2027 04:59:07.728   02 Jun 2027 04:59:19.741            12.013          6006.500
        25   02 Jun 2027 06:34:08.957   02 Jun 2027 06:37:34.687           205.730        102865.000
        26   02 Jun 2027 08:09:13.899   02 Jun 2027 08:12:45.944           212.045        106022.500
        27   02 Jun 2027 08:13:10.532   02 Jun 2027 08:13:23.630            13.098          6549.000
        28   02 Jun 2027 08:15:52.761   02 Jun 2027 08:16:01.792             9.031          4515.500
        29   02 Jun 2027 09:45:35.835   02 Jun 2027 09:46:19.524            43.689         21067.812
        30   02 Jun 2027 09:47:31.241   02 Jun 2027 09:47:31.841             0.600           218.469
        31   02 Jun 2027 09:47:46.564   02 Jun 2027 09:47:47.521             0.957            64.031
        32   02 Jun 2027 09:48:02.237   02 Jun 2027 09:48:04.767             2.530           335.219
        33   02 Jun 2027 09:48:29.399   02 Jun 2027 09:48:30.938             1.539           412.937
        34   02 Jun 2027 09:49:12.147   02 Jun 2027 09:49:17.846             5.699          1287.781
        35   02 Jun 2027 09:49:39.352   02 Jun 2027 09:49:42.059             2.707           222.594
        36   02 Jun 2027 09:50:56.592   02 Jun 2027 09:50:59.736             3.144          1400.344
        37   02 Jun 2027 09:51:13.210   02 Jun 2027 09:51:14.124             0.914           358.437
        38   02 Jun 2027 09:51:23.568   02 Jun 2027 09:51:24.924             1.356           145.250
        39   02 Jun 2027 09:51:48.783   02 Jun 2027 09:51:49.747             0.964           399.719
        40   02 Jun 2027 11:23:06.150   02 Jun 2027 11:23:16.493            10.343          4748.844
        41   02 Jun 2027 11:24:33.281   02 Jun 2027 11:24:36.876             3.595          1432.938
        42   02 Jun 2027 11:25:08.564   02 Jun 2027 11:25:13.073             4.509           990.250
        43   02 Jun 2027 11:25:47.788   02 Jun 2027 11:25:48.673             0.885            89.844
        44   02 Jun 2027 11:26:20.736   02 Jun 2027 11:26:24.475             3.739           213.781
        45   02 Jun 2027 11:27:01.515   02 Jun 2027 11:27:05.145             3.630          1019.656
        46   02 Jun 2027 11:27:29.027   02 Jun 2027 11:27:31.669             2.642           193.125
        47   03 Jun 2027 03:46:17.055   03 Jun 2027 03:46:53.297            36.242         18121.000
        48   03 Jun 2027 03:47:06.067   03 Jun 2027 03:48:16.442            70.375         35187.500
        49   03 Jun 2027 03:48:46.572   03 Jun 2027 03:48:58.717            12.145          6072.500
        50   03 Jun 2027 03:49:05.157   03 Jun 2027 03:49:38.772            33.615         16807.500
        51   03 Jun 2027 05:09:35.944   03 Jun 2027 05:10:43.170            67.226         33613.000
        52   03 Jun 2027 05:10:46.961   03 Jun 2027 05:10:55.708             8.747          4373.500
        53   03 Jun 2027 05:11:21.298   03 Jun 2027 05:11:21.298             0.000             0.000
        54   03 Jun 2027 06:46:13.727   03 Jun 2027 06:47:47.282            93.555         45596.219
        55   03 Jun 2027 06:48:46.827   03 Jun 2027 06:48:49.977             3.150          1575.000
        56   03 Jun 2027 06:49:14.197   03 Jun 2027 06:49:14.197             0.000             0.000
        57   03 Jun 2027 06:49:15.560   03 Jun 2027 06:49:17.910             2.350           954.375
        58   03 Jun 2027 08:21:24.096   03 Jun 2027 08:21:29.317             5.221          2443.500
        59   03 Jun 2027 08:22:50.736   03 Jun 2027 08:22:55.838             5.102          2172.750
        60   03 Jun 2027 08:23:45.361   03 Jun 2027 08:23:49.638             4.277           829.469
        61   03 Jun 2027 08:24:27.013   03 Jun 2027 08:24:28.773             1.760           334.250
        62   03 Jun 2027 08:25:00.545   03 Jun 2027 08:25:11.377            10.832           507.437
        63   03 Jun 2027 08:26:36.069   03 Jun 2027 08:26:43.403             7.334          2210.906
        64   03 Jun 2027 08:26:56.587   03 Jun 2027 08:26:58.215             1.628            59.000
        65   03 Jun 2027 09:57:38.605   03 Jun 2027 09:57:50.440            11.835          5618.281
        66   03 Jun 2027 10:00:09.516   03 Jun 2027 10:00:11.593             2.077           317.719
        67   03 Jun 2027 10:00:20.762   03 Jun 2027 10:00:21.510             0.748            67.906
        68   03 Jun 2027 10:01:52.281   03 Jun 2027 10:02:02.437            10.156          2530.562
        69   03 Jun 2027 10:02:48.556   03 Jun 2027 10:02:56.661             8.105           875.000
        70   03 Jun 2027 11:35:11.835   03 Jun 2027 11:35:26.202            14.367          6550.906
        71   03 Jun 2027 11:37:29.764   03 Jun 2027 11:37:30.452             0.688            97.937
        72   03 Jun 2027 11:37:47.455   03 Jun 2027 11:37:48.595             1.140           300.781
        73   03 Jun 2027 11:37:51.575   03 Jun 2027 11:37:52.741             1.166            93.125
        74   03 Jun 2027 11:38:44.079   03 Jun 2027 11:38:59.624            15.545           938.563
        75   03 Jun 2027 11:39:20.925   03 Jun 2027 11:39:25.514             4.589           514.063
        76   03 Jun 2027 11:39:42.982   03 Jun 2027 11:39:43.585             0.603           264.344
        77   04 Jun 2027 03:47:24.588   04 Jun 2027 03:47:40.520            15.932          7966.000
        78   04 Jun 2027 03:58:13.523   04 Jun 2027 03:58:55.587            42.064         21032.000
        79   04 Jun 2027 03:59:01.721   04 Jun 2027 04:01:50.092           168.371         84185.500
        80   04 Jun 2027 05:22:11.858   04 Jun 2027 05:22:45.075            33.217         16608.500
        81   04 Jun 2027 05:24:50.659   04 Jun 2027 05:24:50.659             0.000             0.000
        82   04 Jun 2027 06:57:57.475   04 Jun 2027 06:59:08.913            71.438         35695.032
        83   04 Jun 2027 06:59:16.078   04 Jun 2027 06:59:18.514             2.436           127.531
        84   04 Jun 2027 06:59:57.839   04 Jun 2027 07:00:01.590             3.751          1228.906
        85   04 Jun 2027 07:00:39.513   04 Jun 2027 07:00:42.204             2.691          1185.094
        86   04 Jun 2027 07:01:19.119   04 Jun 2027 07:01:19.119             0.000             0.000
        87   04 Jun 2027 07:01:21.023   04 Jun 2027 07:01:24.159             3.136          1213.094
        88   04 Jun 2027 07:02:03.226   04 Jun 2027 07:02:08.479             5.253          1177.938
        89   04 Jun 2027 08:32:48.452   04 Jun 2027 08:32:55.780             7.328          2307.094
        90   04 Jun 2027 08:33:39.511   04 Jun 2027 08:33:42.183             2.672           554.250
        91   04 Jun 2027 08:35:17.738   04 Jun 2027 08:35:19.670             1.932           705.563
        92   04 Jun 2027 08:35:58.751   04 Jun 2027 08:36:02.389             3.638          1221.281
        93   04 Jun 2027 08:36:15.015   04 Jun 2027 08:36:15.015             0.000             0.000
        94   04 Jun 2027 08:36:58.196   04 Jun 2027 08:37:09.654            11.458          1460.625
        95   04 Jun 2027 08:37:42.034   04 Jun 2027 08:37:43.633             1.599           421.687
        96   04 Jun 2027 08:38:23.077   04 Jun 2027 08:38:23.372             0.295            83.125
        97   04 Jun 2027 08:39:13.179   04 Jun 2027 08:39:17.558             4.379          1423.187
        98   04 Jun 2027 08:40:06.064   04 Jun 2027 08:40:09.637             3.573          1341.156
        99   04 Jun 2027 10:09:24.286   04 Jun 2027 10:09:37.221            12.935          6224.594
       100   04 Jun 2027 10:12:10.214   04 Jun 2027 10:12:17.750             7.536           947.563
       101   04 Jun 2027 10:12:59.365   04 Jun 2027 10:13:01.231             1.866           770.000
       102   04 Jun 2027 10:13:10.578   04 Jun 2027 10:13:11.303             0.725           292.094
       103   04 Jun 2027 10:13:33.994   04 Jun 2027 10:13:39.213             5.219           466.000
       104   04 Jun 2027 10:13:57.465   04 Jun 2027 10:13:58.746             1.281           444.656
       105   04 Jun 2027 10:14:36.867   04 Jun 2027 10:14:39.118             2.251           960.094
       106   04 Jun 2027 10:15:09.577   04 Jun 2027 10:15:18.837             9.260           847.625
       107   04 Jun 2027 10:15:27.922   04 Jun 2027 10:15:31.568             3.646           165.000
       108   04 Jun 2027 11:47:41.974   04 Jun 2027 11:47:57.086            15.112          6717.094
       109   04 Jun 2027 11:48:16.904   04 Jun 2027 11:48:17.475             0.571           275.937
       110   04 Jun 2027 11:49:37.943   04 Jun 2027 11:49:43.874             5.931           188.219
       111   04 Jun 2027 11:49:48.053   04 Jun 2027 11:49:48.691             0.638            57.875
       112   04 Jun 2027 11:49:57.609   04 Jun 2027 11:50:00.952             3.343           278.688
       113   04 Jun 2027 11:50:17.121   04 Jun 2027 11:50:17.555             0.434           204.937
       114   04 Jun 2027 11:50:56.317   04 Jun 2027 11:50:57.811             1.494           123.375
       115   04 Jun 2027 11:51:22.017   04 Jun 2027 11:51:23.415             1.398           477.781
       116   05 Jun 2027 03:58:41.201   05 Jun 2027 03:59:05.889            24.688         12344.000
       117   05 Jun 2027 04:10:11.442   05 Jun 2027 04:11:49.975            98.533         49266.500
       118   05 Jun 2027 05:32:50.701   05 Jun 2027 05:33:49.557            58.856         29428.000
       119   05 Jun 2027 05:34:26.212   05 Jun 2027 05:34:35.910             9.698          4849.000
       120   05 Jun 2027 05:35:00.628   05 Jun 2027 05:35:23.437            22.809         11404.500
       121   05 Jun 2027 07:08:09.722   05 Jun 2027 07:09:09.851            60.129         30064.500
       122   05 Jun 2027 07:09:42.348   05 Jun 2027 07:10:33.873            51.525         25762.500
       123   05 Jun 2027 07:10:55.112   05 Jun 2027 07:10:57.536             2.424           789.593
       124   05 Jun 2027 07:12:40.329   05 Jun 2027 07:12:41.477             1.148           574.000
       125   05 Jun 2027 07:13:01.864   05 Jun 2027 07:13:12.292            10.428          3191.750
       126   05 Jun 2027 07:14:07.051   05 Jun 2027 07:14:11.147             4.096          1689.781
       127   05 Jun 2027 08:44:41.477   05 Jun 2027 08:44:44.695             3.218          1547.125
       128   05 Jun 2027 08:45:40.241   05 Jun 2027 08:45:43.907             3.666          1015.219
       129   05 Jun 2027 08:48:04.888   05 Jun 2027 08:48:06.288             1.400           362.937
       130   05 Jun 2027 08:48:29.585   05 Jun 2027 08:48:31.250             1.665           475.031
       131   05 Jun 2027 08:49:48.360   05 Jun 2027 08:49:52.094             3.734           971.781
       132   05 Jun 2027 08:50:24.164   05 Jun 2027 08:50:28.413             4.249           948.656
       133   05 Jun 2027 08:50:46.248   05 Jun 2027 08:50:48.601             2.353           388.625
       134   05 Jun 2027 08:51:24.239   05 Jun 2027 08:51:27.142             2.903           728.406
       135   05 Jun 2027 08:52:10.586   05 Jun 2027 08:52:11.001             0.415           207.500
       136   05 Jun 2027 10:21:45.477   05 Jun 2027 10:21:59.001            13.524          5335.469
       137   05 Jun 2027 10:23:58.660   05 Jun 2027 10:24:00.059             1.399           354.219
       138   05 Jun 2027 10:24:21.764   05 Jun 2027 10:24:22.867             1.103            67.906
       139   05 Jun 2027 10:25:25.682   05 Jun 2027 10:25:27.745             2.063             6.688
       140   05 Jun 2027 10:26:09.162   05 Jun 2027 10:26:11.535             2.373          1159.563
       141   05 Jun 2027 10:26:31.067   05 Jun 2027 10:26:35.792             4.725           351.125
       142   05 Jun 2027 10:27:44.023   05 Jun 2027 10:27:51.273             7.250          1655.937
       143   05 Jun 2027 11:59:39.779   05 Jun 2027 11:59:51.871            12.092          5376.094
       144   06 Jun 2027 04:09:58.182   06 Jun 2027 04:10:33.815            35.633         17816.500
       145   06 Jun 2027 04:22:10.704   06 Jun 2027 04:22:53.042            42.338         21169.000
       146   06 Jun 2027 05:44:26.527   06 Jun 2027 05:45:33.009            66.482         33241.000
       147   06 Jun 2027 05:46:21.950   06 Jun 2027 05:47:12.301            50.351         25175.500
       148   06 Jun 2027 05:48:28.980   06 Jun 2027 05:48:44.109            15.129          7564.500
       149   06 Jun 2027 07:19:19.819   06 Jun 2027 07:21:11.724           111.905         55210.500
       150   06 Jun 2027 07:21:37.332   06 Jun 2027 07:21:37.332             0.000             0.000
       151   06 Jun 2027 07:22:31.226   06 Jun 2027 07:22:38.096             6.870          2184.281
       152   06 Jun 2027 07:23:02.738   06 Jun 2027 07:23:04.394             1.656           702.312
       153   06 Jun 2027 07:23:29.138   06 Jun 2027 07:23:33.824             4.686           475.219
       154   06 Jun 2027 07:24:36.956   06 Jun 2027 07:24:40.685             3.729          1357.437
       155   06 Jun 2027 07:24:59.726   06 Jun 2027 07:25:01.859             2.133           595.031
       156   06 Jun 2027 07:25:24.346   06 Jun 2027 07:25:30.682             6.336           418.812
       157   06 Jun 2027 07:25:53.199   06 Jun 2027 07:25:54.176             0.977           259.094
       158   06 Jun 2027 07:25:57.271   06 Jun 2027 07:26:03.400             6.129            92.969
       159   06 Jun 2027 07:27:22.398   06 Jun 2027 07:27:25.555             3.157          1230.875
       160   06 Jun 2027 08:56:53.954   06 Jun 2027 08:57:07.695            13.741          4897.062
       161   06 Jun 2027 08:57:43.485   06 Jun 2027 08:57:47.091             3.606          1043.000
       162   06 Jun 2027 08:59:42.775   06 Jun 2027 08:59:47.221             4.446          1498.312
       163   06 Jun 2027 09:00:32.367   06 Jun 2027 09:00:37.894             5.527          1134.094
       164   06 Jun 2027 09:01:01.675   06 Jun 2027 09:01:06.110             4.435           669.687
       165   06 Jun 2027 09:01:20.040   06 Jun 2027 09:01:24.868             4.828           343.312
       166   06 Jun 2027 09:01:42.398   06 Jun 2027 09:01:43.468             1.070           451.531
       167   06 Jun 2027 09:02:03.870   06 Jun 2027 09:02:06.696             2.826           599.031
       168   06 Jun 2027 09:03:23.409   06 Jun 2027 09:03:28.567             5.158          1845.719
       169   06 Jun 2027 09:04:01.064   06 Jun 2027 09:04:03.519             2.455          1015.531
       170   06 Jun 2027 09:04:05.946   06 Jun 2027 09:04:07.088             1.142            10.875
       171   06 Jun 2027 09:04:14.344   06 Jun 2027 09:04:14.438             0.094            47.000
       172   06 Jun 2027 10:33:36.695   06 Jun 2027 10:33:48.190            11.495          5287.094
       173   06 Jun 2027 10:34:51.255   06 Jun 2027 10:34:53.555             2.300           273.156
       174   06 Jun 2027 10:36:20.776   06 Jun 2027 10:36:26.059             5.283          2082.094
       175   06 Jun 2027 10:37:16.634   06 Jun 2027 10:37:22.652             6.018          1527.500
       176   06 Jun 2027 10:37:54.808   06 Jun 2027 10:37:57.042             2.234           490.969
       177   06 Jun 2027 10:39:49.655   06 Jun 2027 10:39:50.221             0.566           283.000
       178   06 Jun 2027 10:39:54.448   06 Jun 2027 10:40:01.954             7.506          2267.844
       179   07 Jun 2027 03:00:00.000   07 Jun 2027 03:00:06.337             6.337          3168.500
       180   07 Jun 2027 03:00:36.743   07 Jun 2027 03:01:03.257            26.514         13257.000
       181   07 Jun 2027 03:01:35.684   07 Jun 2027 03:01:38.604             2.920          1460.000
       182   07 Jun 2027 03:01:50.492   07 Jun 2027 03:01:51.754             1.262           631.000
       183   07 Jun 2027 03:03:11.500   07 Jun 2027 03:03:17.762             6.262          3131.000
       184   07 Jun 2027 03:03:42.191   07 Jun 2027 03:03:49.004             6.813          3406.500
       185   07 Jun 2027 03:04:34.147   07 Jun 2027 03:04:36.394             2.247          1123.500
       186   07 Jun 2027 04:22:03.811   07 Jun 2027 04:22:48.432            44.621         22310.500
       187   07 Jun 2027 04:34:24.992   07 Jun 2027 04:34:44.561            19.569          9784.500
       188   07 Jun 2027 05:55:55.440   07 Jun 2027 05:57:18.649            83.209         41604.500
       189   07 Jun 2027 05:57:56.291   07 Jun 2027 05:58:42.970            46.679         23339.500
       190   07 Jun 2027 05:59:36.732   07 Jun 2027 05:59:58.142            21.410         10705.000
       191   07 Jun 2027 07:30:50.384   07 Jun 2027 07:32:06.770            76.386         37272.844
       192   07 Jun 2027 07:33:07.844   07 Jun 2027 07:33:09.546             1.702            57.844
       193   07 Jun 2027 07:33:34.933   07 Jun 2027 07:33:36.038             1.105           507.156
       194   07 Jun 2027 07:34:12.044   07 Jun 2027 07:34:13.495             1.451           718.156
       195   07 Jun 2027 07:35:05.059   07 Jun 2027 07:35:08.093             3.034          1174.875
       196   07 Jun 2027 07:35:54.145   07 Jun 2027 07:35:54.145             0.000             0.000
       197   07 Jun 2027 07:36:30.668   07 Jun 2027 07:36:36.027             5.359          2207.938
       198   07 Jun 2027 07:37:02.816   07 Jun 2027 07:37:02.816             0.000             0.000
       199   07 Jun 2027 07:37:31.997   07 Jun 2027 07:37:36.194             4.197          1609.094
       200   07 Jun 2027 07:38:00.973   07 Jun 2027 07:38:06.904             5.931           352.187
       201   07 Jun 2027 07:38:22.025   07 Jun 2027 07:38:24.004             1.979           267.750
       202   07 Jun 2027 07:38:58.710   07 Jun 2027 07:38:58.949             0.239           119.500
       203   07 Jun 2027 07:39:46.551   07 Jun 2027 07:39:51.168             4.617          1497.563
       204   07 Jun 2027 09:08:48.019   07 Jun 2027 09:08:59.162            11.143          5253.250
       205   07 Jun 2027 09:12:55.208   07 Jun 2027 09:12:57.207             1.999           944.437
       206   07 Jun 2027 09:14:12.570   07 Jun 2027 09:14:17.319             4.749          2145.344
       207   07 Jun 2027 09:15:06.720   07 Jun 2027 09:15:10.494             3.774          1349.156
       208   07 Jun 2027 09:15:43.106   07 Jun 2027 09:15:45.222             2.116          1019.125
       209   07 Jun 2027 09:15:50.926   07 Jun 2027 09:15:53.463             2.537           139.812
       210   07 Jun 2027 10:45:42.852   07 Jun 2027 10:45:50.587             7.735          3867.500
       211   07 Jun 2027 10:45:58.498   07 Jun 2027 10:46:04.430             5.932          2190.500
       212   07 Jun 2027 10:48:34.886   07 Jun 2027 10:48:38.429             3.543           507.969
       213   07 Jun 2027 10:48:46.159   07 Jun 2027 10:48:46.690             0.531           241.562
       214   07 Jun 2027 10:49:19.529   07 Jun 2027 10:49:36.156            16.627           501.750
       215   07 Jun 2027 10:49:42.668   07 Jun 2027 10:49:46.321             3.653           138.281
       216   07 Jun 2027 10:50:08.713   07 Jun 2027 10:50:10.304             1.591           513.125
       217   07 Jun 2027 10:50:13.538   07 Jun 2027 10:50:15.658             2.120            66.469
       218   07 Jun 2027 10:50:27.809   07 Jun 2027 10:50:32.100             4.291            42.875
       219   07 Jun 2027 10:51:23.773   07 Jun 2027 10:51:28.677             4.904          1037.094
       220   07 Jun 2027 10:51:45.633   07 Jun 2027 10:51:47.038             1.405           529.875
       221   07 Jun 2027 10:51:54.748   07 Jun 2027 10:52:07.614            12.866           172.187
       222   08 Jun 2027 03:10:11.345   08 Jun 2027 03:10:40.186            28.841         14420.500
       223   08 Jun 2027 03:11:14.130   08 Jun 2027 03:11:46.042            31.912         15956.000
       224   08 Jun 2027 03:12:12.739   08 Jun 2027 03:12:22.593             9.854          4927.000
       225   08 Jun 2027 03:13:25.956   08 Jun 2027 03:14:33.406            67.450         33725.000
       226   08 Jun 2027 04:33:59.604   08 Jun 2027 04:34:25.917            26.313         13156.500
       227   08 Jun 2027 04:35:48.825   08 Jun 2027 04:35:53.517             4.692          2346.000
       228   08 Jun 2027 04:35:56.734   08 Jun 2027 04:35:56.734             0.000             0.000
       229   08 Jun 2027 06:09:59.751   08 Jun 2027 06:12:43.816           164.065         82032.500
       230   08 Jun 2027 06:13:04.983   08 Jun 2027 06:13:12.317             7.334          1692.718
       231   08 Jun 2027 07:43:43.970   08 Jun 2027 07:44:00.681            16.711          3373.937
       232   08 Jun 2027 07:45:11.121   08 Jun 2027 07:45:12.543             1.422           381.594
       233   08 Jun 2027 07:46:16.883   08 Jun 2027 07:46:18.762             1.879           409.594
       234   08 Jun 2027 07:46:34.393   08 Jun 2027 07:46:34.393             0.000             0.000
       235   08 Jun 2027 07:47:19.622   08 Jun 2027 07:47:23.486             3.864          1883.531
       236   08 Jun 2027 07:48:39.690   08 Jun 2027 07:48:45.369             5.679          2033.563
       237   08 Jun 2027 07:49:12.687   08 Jun 2027 07:49:13.333             0.646           215.844
       238   08 Jun 2027 07:50:18.619   08 Jun 2027 07:50:24.864             6.245          1612.156
       239   08 Jun 2027 07:50:48.504   08 Jun 2027 07:50:51.469             2.965           386.500
       240   08 Jun 2027 07:51:05.474   08 Jun 2027 07:51:10.405             4.931           437.656
       241   08 Jun 2027 07:51:37.576   08 Jun 2027 07:51:39.591             2.015           849.094
       242   08 Jun 2027 09:21:09.272   08 Jun 2027 09:21:23.632            14.360          6693.719
       243   08 Jun 2027 09:25:03.596   08 Jun 2027 09:25:11.234             7.638          2737.750
       244   08 Jun 2027 09:26:21.641   08 Jun 2027 09:26:22.585             0.944            46.469
       245   08 Jun 2027 09:27:21.972   08 Jun 2027 09:27:27.805             5.833          1676.719
       246   08 Jun 2027 09:27:54.560   08 Jun 2027 09:27:58.290             3.730           556.406
       247   08 Jun 2027 10:58:12.842   08 Jun 2027 10:58:25.212            12.370          5146.313
       248   08 Jun 2027 11:01:33.716   08 Jun 2027 11:01:37.772             4.056          1643.969
       249   08 Jun 2027 11:01:50.036   08 Jun 2027 11:01:55.390             5.354           310.062
       250   08 Jun 2027 11:02:00.400   08 Jun 2027 11:02:00.801             0.401            50.406
       251   08 Jun 2027 11:02:33.621   08 Jun 2027 11:02:35.990             2.369           934.750
       252   08 Jun 2027 11:03:43.134   08 Jun 2027 11:03:49.130             5.996          2045.875
       253   09 Jun 2027 03:22:29.996   09 Jun 2027 03:26:02.905           212.909        106454.500
       254   09 Jun 2027 04:45:51.170   09 Jun 2027 04:46:25.779            34.609         17304.500
       255   09 Jun 2027 04:46:53.813   09 Jun 2027 04:46:53.813             0.000             0.000
       256   09 Jun 2027 06:22:14.325   09 Jun 2027 06:23:41.990            87.665         42678.281
       257   09 Jun 2027 06:24:12.782   09 Jun 2027 06:24:15.835             3.053           366.906
       258   09 Jun 2027 06:25:04.798   09 Jun 2027 06:25:08.431             3.633          1530.094
       259   09 Jun 2027 07:56:18.613   09 Jun 2027 07:56:26.541             7.928          2578.813
       260   09 Jun 2027 07:58:15.393   09 Jun 2027 07:58:17.364             1.971           216.687
       261   09 Jun 2027 07:59:08.919   09 Jun 2027 07:59:12.753             3.834          1477.031
       262   09 Jun 2027 08:00:01.316   09 Jun 2027 08:00:06.940             5.624           639.125
       263   09 Jun 2027 08:01:27.980   09 Jun 2027 08:01:35.045             7.065          2448.594
       264   09 Jun 2027 08:01:41.426   09 Jun 2027 08:01:43.591             2.165           199.406
       265   09 Jun 2027 08:02:30.319   09 Jun 2027 08:02:30.538             0.219            88.875
       266   09 Jun 2027 08:03:08.451   09 Jun 2027 08:03:11.528             3.077          1020.250
       267   09 Jun 2027 08:04:03.527   09 Jun 2027 08:04:11.099             7.572          1495.313
       268   09 Jun 2027 08:04:13.807   09 Jun 2027 08:04:15.014             1.207            84.625
       269   09 Jun 2027 09:33:22.481   09 Jun 2027 09:33:39.962            17.481          6030.000
       270   09 Jun 2027 09:37:48.404   09 Jun 2027 09:37:51.958             3.554          1722.375
       271   09 Jun 2027 09:38:37.946   09 Jun 2027 09:38:40.085             2.139           349.531
       272   09 Jun 2027 09:39:31.773   09 Jun 2027 09:39:32.460             0.687           194.031
       273   09 Jun 2027 11:10:18.737   09 Jun 2027 11:10:31.336            12.599          5811.938
       274   09 Jun 2027 11:10:42.833   09 Jun 2027 11:10:43.809             0.976           213.250
       275   09 Jun 2027 11:14:13.542   09 Jun 2027 11:14:18.832             5.290          1419.500
       276   10 Jun 2027 03:34:58.931   10 Jun 2027 03:38:15.586           196.655         98327.500
       277   10 Jun 2027 03:38:24.321   10 Jun 2027 03:38:24.321             0.000             0.000
       278   10 Jun 2027 04:57:55.860   10 Jun 2027 04:58:04.901             9.041          4520.500
       279   10 Jun 2027 04:58:11.259   10 Jun 2027 04:58:24.119            12.860          6430.000
       280   10 Jun 2027 04:59:37.792   10 Jun 2027 04:59:54.918            17.126          8563.000
       281   10 Jun 2027 06:34:24.806   10 Jun 2027 06:35:41.439            76.633         37909.906
       282   10 Jun 2027 06:36:07.271   10 Jun 2027 06:36:08.870             1.599           133.406
       283   10 Jun 2027 06:36:40.113   10 Jun 2027 06:36:42.124             2.011           698.875
       284   10 Jun 2027 06:36:52.812   10 Jun 2027 06:36:54.224             1.412           140.094
       285   10 Jun 2027 08:09:30.387   10 Jun 2027 08:09:37.357             6.970          2093.000
       286   10 Jun 2027 08:10:06.153   10 Jun 2027 08:10:08.550             2.397           120.875
       287   10 Jun 2027 08:11:10.371   10 Jun 2027 08:11:16.808             6.437           663.125
       288   10 Jun 2027 08:12:35.651   10 Jun 2027 08:12:39.157             3.506          1408.844
       289   10 Jun 2027 08:13:11.221   10 Jun 2027 08:13:13.881             2.660           974.813
       290   10 Jun 2027 08:13:40.836   10 Jun 2027 08:13:47.199             6.363           842.344
       291   10 Jun 2027 08:14:45.008   10 Jun 2027 08:14:46.377             1.369           351.531
       292   10 Jun 2027 08:15:16.607   10 Jun 2027 08:15:20.031             3.424           944.687
       293   10 Jun 2027 08:16:01.208   10 Jun 2027 08:16:02.993             1.785           864.625
       294   10 Jun 2027 08:16:08.184   10 Jun 2027 08:16:10.569             2.385           127.875
       295   10 Jun 2027 09:45:52.590   10 Jun 2027 09:46:07.141            14.551          6290.719
       296   10 Jun 2027 09:48:24.090   10 Jun 2027 09:48:26.528             2.438           532.219
       297   10 Jun 2027 09:48:43.900   10 Jun 2027 09:48:46.115             2.215           393.375
       298   10 Jun 2027 09:49:26.505   10 Jun 2027 09:49:32.293             5.788          1262.187
       299   10 Jun 2027 09:49:54.388   10 Jun 2027 09:49:56.043             1.655           182.562
       300   10 Jun 2027 09:50:35.924   10 Jun 2027 09:50:39.739             3.815           683.063
       301   10 Jun 2027 09:51:40.343   10 Jun 2027 09:51:42.251             1.908           892.000
       302   10 Jun 2027 09:52:03.301   10 Jun 2027 09:52:04.629             1.328           391.656
       303   10 Jun 2027 11:23:20.969   10 Jun 2027 11:23:34.293            13.324          5907.531
       304   10 Jun 2027 11:25:25.654   10 Jun 2027 11:25:32.164             6.510          1028.938
       305   10 Jun 2027 11:26:04.588   10 Jun 2027 11:26:04.901             0.313            24.031
       306   10 Jun 2027 11:26:30.350   10 Jun 2027 11:26:32.634             2.284           795.281
       307   10 Jun 2027 11:27:18.213   10 Jun 2027 11:27:23.814             5.601          1424.344
       308   11 Jun 2027 03:46:32.012   11 Jun 2027 03:47:09.196            37.184         18592.000
       309   11 Jun 2027 03:47:21.758   11 Jun 2027 03:48:33.988            72.230         36115.000
       310   11 Jun 2027 03:49:01.111   11 Jun 2027 03:49:15.077            13.966          6983.000
       311   11 Jun 2027 03:49:54.542   11 Jun 2027 03:50:11.140            16.598          8299.000
       312   11 Jun 2027 05:10:00.167   11 Jun 2027 05:11:12.217            72.050         36025.000
       313   11 Jun 2027 06:46:29.134   11 Jun 2027 06:48:01.895            92.761         44744.906
       314   11 Jun 2027 06:48:20.038   11 Jun 2027 06:48:22.028             1.990           365.500
       315   11 Jun 2027 06:48:54.349   11 Jun 2027 06:48:56.090             1.741           763.969
       316   11 Jun 2027 06:49:36.800   11 Jun 2027 06:49:41.450             4.650          1065.531
       317   11 Jun 2027 08:21:39.564   11 Jun 2027 08:21:46.166             6.602          2440.125
       318   11 Jun 2027 08:23:07.954   11 Jun 2027 08:23:13.617             5.663          2173.062
       319   11 Jun 2027 08:24:26.798   11 Jun 2027 08:24:32.085             5.287           751.031
       320   11 Jun 2027 08:24:41.024   11 Jun 2027 08:24:41.024             0.000             0.000
       321   11 Jun 2027 08:25:13.636   11 Jun 2027 08:25:24.200            10.564          1298.469
       322   11 Jun 2027 08:26:52.608   11 Jun 2027 08:26:57.971             5.363          2184.312
       323   11 Jun 2027 08:27:53.534   11 Jun 2027 08:27:59.427             5.893          1723.156
       324   11 Jun 2027 09:57:52.456   11 Jun 2027 09:58:03.432            10.976          5127.375
       325   11 Jun 2027 10:00:46.628   11 Jun 2027 10:00:51.525             4.897           474.125
       326   11 Jun 2027 10:00:57.761   11 Jun 2027 10:00:58.377             0.616           194.875
       327   11 Jun 2027 10:01:58.927   11 Jun 2027 10:02:04.112             5.185          1444.469
       328   11 Jun 2027 10:02:34.346   11 Jun 2027 10:02:37.414             3.068           846.188
       329   11 Jun 2027 10:03:03.999   11 Jun 2027 10:03:12.754             8.755           830.781
       330   11 Jun 2027 11:35:27.451   11 Jun 2027 11:35:41.944            14.493          6771.875
       331   11 Jun 2027 11:37:46.146   11 Jun 2027 11:37:48.047             1.901           120.688
       332   11 Jun 2027 11:38:05.190   11 Jun 2027 11:38:06.013             0.823           386.750
       333   11 Jun 2027 11:38:33.817   11 Jun 2027 11:38:36.920             3.103           758.188
       334   11 Jun 2027 11:39:19.887   11 Jun 2027 11:39:28.151             8.264          1199.156
       335   11 Jun 2027 11:39:31.823   11 Jun 2027 11:39:34.407             2.584            28.750
       336   11 Jun 2027 11:39:57.302   11 Jun 2027 11:39:58.974             1.672           180.688
       337   12 Jun 2027 03:47:38.742   12 Jun 2027 03:47:48.576             9.834          4917.000
       338   12 Jun 2027 03:58:29.098   12 Jun 2027 04:01:22.600           173.502         86751.000
       339   12 Jun 2027 04:01:56.243   12 Jun 2027 04:02:05.199             8.956          4478.000
       340   12 Jun 2027 05:22:26.969   12 Jun 2027 05:23:00.859            33.890         16945.000
       341   12 Jun 2027 05:24:32.118   12 Jun 2027 05:24:54.824            22.706         11353.000
       342   12 Jun 2027 06:58:13.390   12 Jun 2027 06:59:27.593            74.203         36131.344
       343   12 Jun 2027 06:59:49.743   12 Jun 2027 06:59:51.946             2.203           680.375
       344   12 Jun 2027 07:00:59.900   12 Jun 2027 07:01:01.386             1.486           743.000
       345   12 Jun 2027 07:01:11.005   12 Jun 2027 07:01:18.086             7.081           948.781
       346   12 Jun 2027 07:02:18.836   12 Jun 2027 07:02:18.836             0.000             0.000
       347   12 Jun 2027 08:32:59.595   12 Jun 2027 08:33:11.741            12.146          3248.656
       348   12 Jun 2027 08:33:56.912   12 Jun 2027 08:33:59.900             2.988           637.562
       349   12 Jun 2027 08:35:28.998   12 Jun 2027 08:35:31.325             2.327           529.531
       350   12 Jun 2027 08:36:15.708   12 Jun 2027 08:36:23.985             8.277          1206.812
       351   12 Jun 2027 08:37:15.802   12 Jun 2027 08:37:26.161            10.359          1520.313
       352   12 Jun 2027 08:37:59.420   12 Jun 2027 08:38:06.711             7.291           490.000
       353   12 Jun 2027 08:38:38.317   12 Jun 2027 08:38:38.804             0.487           105.969
       354   12 Jun 2027 08:39:28.380   12 Jun 2027 08:39:32.332             3.952          1259.281
       355   12 Jun 2027 08:40:21.966   12 Jun 2027 08:40:25.503             3.537          1363.844
       356   12 Jun 2027 10:09:40.217   12 Jun 2027 10:09:52.204            11.987          5800.062
       357   12 Jun 2027 10:11:55.055   12 Jun 2027 10:11:56.769             1.714           493.750
       358   12 Jun 2027 10:12:14.705   12 Jun 2027 10:12:19.329             4.624            74.719
       359   12 Jun 2027 10:12:50.056   12 Jun 2027 10:12:56.542             6.486           949.469
       360   12 Jun 2027 10:13:21.454   12 Jun 2027 10:13:25.087             3.633           515.969
       361   12 Jun 2027 10:13:58.521   12 Jun 2027 10:14:02.959             4.438           991.531
       362   12 Jun 2027 10:14:03.419   12 Jun 2027 10:14:03.581             0.162            14.375
       363   12 Jun 2027 10:14:52.286   12 Jun 2027 10:14:57.572             5.286           980.813
       364   12 Jun 2027 10:15:20.714   12 Jun 2027 10:15:22.387             1.673           723.187
       365   12 Jun 2027 10:16:00.724   12 Jun 2027 10:16:03.365             2.641           572.344
       366   12 Jun 2027 11:47:58.023   12 Jun 2027 11:48:11.658            13.635          6595.563
       367   12 Jun 2027 11:49:25.267   12 Jun 2027 11:49:30.413             5.146          1639.719
       368   12 Jun 2027 11:51:08.582   12 Jun 2027 11:51:12.689             4.107          1657.563
       369   12 Jun 2027 11:51:21.623   12 Jun 2027 11:51:26.923             5.300           279.188
       370   13 Jun 2027 03:58:54.897   13 Jun 2027 03:59:20.461            25.564         12782.000
       371   13 Jun 2027 04:10:27.255   13 Jun 2027 04:12:05.206            97.951         48975.500
       372   13 Jun 2027 05:33:06.152   13 Jun 2027 05:34:04.343            58.191         29095.500
       373   13 Jun 2027 05:34:41.824   13 Jun 2027 05:34:49.631             7.807          3903.500
       374   13 Jun 2027 05:36:57.585   13 Jun 2027 05:36:57.585             0.000             0.000
       375   13 Jun 2027 05:37:06.695   13 Jun 2027 05:37:17.780            11.085          5542.500
       376   13 Jun 2027 07:08:18.238   13 Jun 2027 07:09:26.641            68.403         34201.500
       377   13 Jun 2027 07:09:57.005   13 Jun 2027 07:10:55.121            58.116         28439.187
       378   13 Jun 2027 07:11:17.272   13 Jun 2027 07:11:21.175             3.903           188.219
       379   13 Jun 2027 07:12:57.247   13 Jun 2027 07:13:02.341             5.094          2530.250
       380   13 Jun 2027 07:13:54.649   13 Jun 2027 07:13:59.388             4.739          1262.281
       381   13 Jun 2027 07:14:31.884   13 Jun 2027 07:14:33.341             1.457           265.125
       382   13 Jun 2027 08:44:58.559   13 Jun 2027 08:45:05.043             6.484          1680.500
       383   13 Jun 2027 08:48:20.487   13 Jun 2027 08:48:27.522             7.035           298.937
       384   13 Jun 2027 08:49:17.681   13 Jun 2027 08:49:22.748             5.067          1290.500
       385   13 Jun 2027 08:50:03.107   13 Jun 2027 08:50:05.870             2.763           953.906
       386   13 Jun 2027 08:50:39.378   13 Jun 2027 08:50:43.101             3.723           884.594
       387   13 Jun 2027 08:51:36.815   13 Jun 2027 08:51:40.722             3.907          1455.156
       388   13 Jun 2027 08:52:26.451   13 Jun 2027 08:52:27.012             0.561           280.500
       389   13 Jun 2027 10:22:01.318   13 Jun 2027 10:22:15.561            14.243          7096.969
       390   13 Jun 2027 10:24:14.147   13 Jun 2027 10:24:18.124             3.977           293.781
       391   13 Jun 2027 10:24:56.512   13 Jun 2027 10:24:58.421             1.909           698.062
       392   13 Jun 2027 10:26:07.424   13 Jun 2027 10:26:10.357             2.933          1055.469
       393   13 Jun 2027 10:26:35.116   13 Jun 2027 10:26:37.795             2.679           594.156
       394   13 Jun 2027 10:27:12.386   13 Jun 2027 10:27:14.393             2.007           857.969
       395   13 Jun 2027 10:27:40.110   13 Jun 2027 10:27:41.192             1.082           208.531
       396   13 Jun 2027 11:59:55.461   13 Jun 2027 12:00:00.000             4.539          2269.500
