uniorb/output/strategy_4/Camera/Camera_KinoSat_110809.txt

KinoSat_110809
-------------------------
    Access    *     Start Time (UTCG)     *     Stop Time (UTCG)  *   Duration (s) *   Data (Mbytes)
         1   01 Jun 2027 04:33:07.268   01 Jun 2027 04:35:24.229           136.961         68480.500
         2   01 Jun 2027 04:35:54.977   01 Jun 2027 04:36:01.518             6.541          3270.500
         3   01 Jun 2027 06:05:17.589   01 Jun 2027 06:05:26.601             9.012          4506.000
         4   01 Jun 2027 06:07:14.202   01 Jun 2027 06:08:58.300           104.098         52049.000
         5   01 Jun 2027 06:09:41.910   01 Jun 2027 06:09:45.450             3.540          1770.000
         6   01 Jun 2027 06:11:26.676   01 Jun 2027 06:11:31.649             4.973          2486.500
         7   01 Jun 2027 06:13:20.622   01 Jun 2027 06:13:39.604            18.982          9491.000
         8   01 Jun 2027 07:44:12.299   01 Jun 2027 07:46:40.625           148.326         74163.000
         9   01 Jun 2027 07:47:05.440   01 Jun 2027 07:47:14.586             9.146          4573.000
        10   01 Jun 2027 07:48:07.939   01 Jun 2027 07:48:17.206             9.267          4633.500
        11   01 Jun 2027 07:48:36.556   01 Jun 2027 07:48:36.556             0.000             0.000
        12   01 Jun 2027 09:21:30.272   01 Jun 2027 09:22:46.516            76.244         38122.000
        13   01 Jun 2027 09:23:36.582   01 Jun 2027 09:24:43.781            67.199         33599.500
        14   01 Jun 2027 09:25:41.871   01 Jun 2027 09:26:09.664            27.793         13896.500
        15   01 Jun 2027 10:57:57.557   01 Jun 2027 11:00:21.675           144.118         72059.000
        16   02 Jun 2027 03:08:48.376   02 Jun 2027 03:08:52.326             3.950          1975.000
        17   02 Jun 2027 03:09:18.201   02 Jun 2027 03:09:19.485             1.284           642.000
        18   02 Jun 2027 03:09:41.793   02 Jun 2027 03:09:56.325            14.532          7266.000
        19   02 Jun 2027 04:45:16.573   02 Jun 2027 04:47:58.251           161.678         80839.000
        20   02 Jun 2027 06:20:27.295   02 Jun 2027 06:23:32.087           184.792         92396.000
        21   02 Jun 2027 06:24:10.066   02 Jun 2027 06:25:02.988            52.922         26461.000
        22   02 Jun 2027 06:27:02.578   02 Jun 2027 06:27:04.598             2.020          1010.000
        23   02 Jun 2027 07:56:46.287   02 Jun 2027 08:00:13.418           207.131        103565.500
        24   02 Jun 2027 09:34:09.748   02 Jun 2027 09:35:08.799            59.051         29521.906
        25   02 Jun 2027 09:38:21.841   02 Jun 2027 09:38:31.947            10.106           917.781
        26   02 Jun 2027 11:10:21.305   02 Jun 2027 11:10:36.195            14.890          5459.781
        27   02 Jun 2027 11:13:00.660   02 Jun 2027 11:13:06.857             6.197          1486.656
        28   02 Jun 2027 11:14:34.555   02 Jun 2027 11:14:34.602             0.047            23.500
        29   03 Jun 2027 03:20:49.487   03 Jun 2027 03:21:06.723            17.236          8618.000
        30   03 Jun 2027 03:23:07.510   03 Jun 2027 03:23:08.419             0.909           454.500
        31   03 Jun 2027 03:23:41.419   03 Jun 2027 03:23:45.662             4.243          2121.500
        32   03 Jun 2027 04:57:17.212   03 Jun 2027 05:00:39.804           202.592        101296.000
        33   03 Jun 2027 06:32:30.019   03 Jun 2027 06:33:56.259            86.240         42365.938
        34   03 Jun 2027 06:34:55.550   03 Jun 2027 06:35:00.024             4.474          1665.469
        35   03 Jun 2027 06:35:16.079   03 Jun 2027 06:35:17.640             1.561           314.000
        36   03 Jun 2027 06:35:21.920   03 Jun 2027 06:35:21.920             0.000             0.000
        37   03 Jun 2027 06:35:23.892   03 Jun 2027 06:35:26.187             2.295           195.375
        38   03 Jun 2027 06:37:02.435   03 Jun 2027 06:37:13.540            11.105          2478.156
        39   03 Jun 2027 06:38:10.818   03 Jun 2027 06:38:15.836             5.018          1651.406
        40   03 Jun 2027 06:38:49.109   03 Jun 2027 06:38:52.944             3.835           555.187
        41   03 Jun 2027 08:08:25.242   03 Jun 2027 08:08:27.258             2.016           877.469
        42   03 Jun 2027 08:10:08.070   03 Jun 2027 08:10:11.090             3.020           937.000
        43   03 Jun 2027 08:13:55.761   03 Jun 2027 08:13:57.387             1.626           101.063
        44   03 Jun 2027 09:46:24.246   03 Jun 2027 09:46:35.644            11.398          5324.406
        45   03 Jun 2027 09:47:20.994   03 Jun 2027 09:47:22.971             1.977           164.344
        46   03 Jun 2027 09:50:12.234   03 Jun 2027 09:50:15.162             2.928           702.125
        47   03 Jun 2027 09:50:38.026   03 Jun 2027 09:50:41.117             3.091           635.656
        48   03 Jun 2027 11:22:15.871   03 Jun 2027 11:22:26.652            10.781          5344.125
        49   04 Jun 2027 03:33:15.763   04 Jun 2027 03:33:16.980             1.217           608.500
        50   04 Jun 2027 03:33:30.883   04 Jun 2027 03:33:35.758             4.875          2437.500
        51   04 Jun 2027 03:35:46.338   04 Jun 2027 03:35:50.930             4.592          2296.000
        52   04 Jun 2027 05:09:01.031   04 Jun 2027 05:10:58.283           117.252         58626.000
        53   04 Jun 2027 05:10:58.878   04 Jun 2027 05:12:40.917           102.039         51019.500
        54   04 Jun 2027 05:13:08.086   04 Jun 2027 05:13:09.174             1.088           544.000
        55   04 Jun 2027 06:43:44.927   04 Jun 2027 06:44:56.872            71.945         35858.188
        56   04 Jun 2027 06:46:59.106   04 Jun 2027 06:47:01.294             2.188           500.469
        57   04 Jun 2027 06:47:20.910   04 Jun 2027 06:47:22.554             1.644            82.469
        58   04 Jun 2027 06:48:27.966   04 Jun 2027 06:48:32.272             4.306          1350.500
        59   04 Jun 2027 06:49:20.934   04 Jun 2027 06:49:22.738             1.804           592.281
        60   04 Jun 2027 06:50:03.386   04 Jun 2027 06:50:04.406             1.020           339.719
        61   04 Jun 2027 06:51:06.637   04 Jun 2027 06:51:09.259             2.622           999.750
        62   04 Jun 2027 08:20:33.859   04 Jun 2027 08:20:40.491             6.632          2828.406
        63   04 Jun 2027 08:22:23.300   04 Jun 2027 08:22:24.983             1.683           840.219
        64   04 Jun 2027 08:26:30.281   04 Jun 2027 08:26:30.561             0.280            87.781
        65   04 Jun 2027 09:58:47.015   04 Jun 2027 09:59:06.724            19.709          6670.094
        66   04 Jun 2027 10:00:37.835   04 Jun 2027 10:00:39.421             1.586           720.500
        67   04 Jun 2027 10:01:55.193   04 Jun 2027 10:02:03.445             8.252          1736.531
        68   04 Jun 2027 10:02:20.487   04 Jun 2027 10:02:21.608             1.121           459.875
        69   04 Jun 2027 10:02:30.326   04 Jun 2027 10:02:31.036             0.710            46.750
        70   04 Jun 2027 11:32:04.730   04 Jun 2027 11:32:17.801            13.071          6346.813
        71   05 Jun 2027 03:43:51.140   05 Jun 2027 03:43:53.342             2.202          1101.000
        72   05 Jun 2027 03:44:43.395   05 Jun 2027 03:44:51.999             8.604          4302.000
        73   05 Jun 2027 03:45:43.860   05 Jun 2027 03:46:04.142            20.282         10141.000
        74   05 Jun 2027 05:18:54.544   05 Jun 2027 05:20:13.331            78.787         39393.500
        75   05 Jun 2027 05:20:45.108   05 Jun 2027 05:21:36.491            51.383         25691.500
        76   05 Jun 2027 05:22:21.233   05 Jun 2027 05:23:12.491            51.258         25629.000
        77   05 Jun 2027 05:23:17.136   05 Jun 2027 05:23:17.136             0.000             0.000
        78   05 Jun 2027 06:55:53.050   05 Jun 2027 06:57:46.011           112.961         55760.094
        79   05 Jun 2027 06:58:34.670   05 Jun 2027 06:58:35.433             0.763            59.375
        80   05 Jun 2027 06:59:20.210   05 Jun 2027 06:59:24.249             4.039          1380.094
        81   05 Jun 2027 06:59:48.881   05 Jun 2027 06:59:48.881             0.000             0.000
        82   05 Jun 2027 07:01:00.868   05 Jun 2027 07:01:09.682             8.814          3019.344
        83   05 Jun 2027 07:01:34.060   05 Jun 2027 07:01:34.060             0.000             0.000
        84   05 Jun 2027 07:01:58.217   05 Jun 2027 07:02:01.340             3.123          1076.719
        85   05 Jun 2027 07:02:23.737   05 Jun 2027 07:02:28.184             4.447           495.844
        86   05 Jun 2027 07:03:07.292   05 Jun 2027 07:03:09.699             2.407           938.656
        87   05 Jun 2027 08:32:51.148   05 Jun 2027 08:32:59.495             8.347          4050.875
        88   05 Jun 2027 08:35:10.852   05 Jun 2027 08:35:17.358             6.506          1161.562
        89   05 Jun 2027 08:36:34.942   05 Jun 2027 08:36:37.725             2.783          1327.750
        90   05 Jun 2027 08:38:14.426   05 Jun 2027 08:38:20.133             5.707           258.688
        91   05 Jun 2027 08:38:34.824   05 Jun 2027 08:38:35.863             1.039           225.906
        92   05 Jun 2027 10:10:46.291   05 Jun 2027 10:11:01.230            14.939          7312.469
        93   05 Jun 2027 10:11:45.297   05 Jun 2027 10:11:49.146             3.849          1260.219
        94   05 Jun 2027 10:12:20.489   05 Jun 2027 10:12:24.554             4.065           601.406
        95   05 Jun 2027 10:13:40.819   05 Jun 2027 10:13:45.162             4.343          1990.406
        96   05 Jun 2027 10:13:51.588   05 Jun 2027 10:13:56.570             4.982           145.344
        97   05 Jun 2027 10:14:27.480   05 Jun 2027 10:14:29.996             2.516           948.969
        98   05 Jun 2027 11:44:05.691   05 Jun 2027 11:44:16.305            10.614          4358.688
        99   06 Jun 2027 03:55:15.532   06 Jun 2027 03:55:46.420            30.888         15444.000
       100   06 Jun 2027 03:58:54.668   06 Jun 2027 03:59:12.433            17.765          8882.500
       101   06 Jun 2027 05:30:19.462   06 Jun 2027 05:33:06.882           167.420         83710.000
       102   06 Jun 2027 05:33:17.378   06 Jun 2027 05:33:21.166             3.788          1894.000
       103   06 Jun 2027 05:33:29.938   06 Jun 2027 05:33:37.134             7.196          3598.000
       104   06 Jun 2027 05:37:40.296   06 Jun 2027 05:37:46.913             6.617          3308.500
       105   06 Jun 2027 05:38:26.367   06 Jun 2027 05:38:41.778            15.411          7705.500
       106   06 Jun 2027 05:38:43.997   06 Jun 2027 05:38:58.135            14.138          7069.000
       107   06 Jun 2027 07:07:55.208   06 Jun 2027 07:09:27.937            92.729         41323.000
       108   06 Jun 2027 07:10:14.805   06 Jun 2027 07:10:17.135             2.330          1155.906
       109   06 Jun 2027 07:10:48.945   06 Jun 2027 07:10:50.860             1.915           759.406
       110   06 Jun 2027 07:11:21.867   06 Jun 2027 07:11:27.586             5.719           299.813
       111   06 Jun 2027 07:11:55.630   06 Jun 2027 07:11:57.402             1.772           875.437
       112   06 Jun 2027 07:12:23.013   06 Jun 2027 07:12:24.322             1.309           288.656
       113   06 Jun 2027 07:13:26.440   06 Jun 2027 07:13:26.440             0.000             0.000
       114   06 Jun 2027 07:13:55.367   06 Jun 2027 07:13:58.982             3.615          1180.406
       115   06 Jun 2027 08:44:40.779   06 Jun 2027 08:44:49.939             9.160          4000.375
       116   06 Jun 2027 08:47:09.920   06 Jun 2027 08:47:12.576             2.656           852.687
       117   06 Jun 2027 08:48:10.527   06 Jun 2027 08:48:14.079             3.552           573.969
       118   06 Jun 2027 08:48:38.713   06 Jun 2027 08:48:41.405             2.692            25.406
       119   06 Jun 2027 08:48:54.962   06 Jun 2027 08:48:55.070             0.108             4.250
       120   06 Jun 2027 08:49:45.998   06 Jun 2027 08:49:48.126             2.128           399.875
       121   06 Jun 2027 08:50:57.244   06 Jun 2027 08:51:01.407             4.163          1400.563
       122   06 Jun 2027 10:22:45.619   06 Jun 2027 10:23:03.675            18.056          6726.187
       123   06 Jun 2027 10:23:08.930   06 Jun 2027 10:23:13.747             4.817           103.906
       124   06 Jun 2027 10:24:25.653   06 Jun 2027 10:24:29.709             4.056          1878.625
       125   06 Jun 2027 10:26:14.570   06 Jun 2027 10:26:17.041             2.471           558.500
       126   06 Jun 2027 10:26:49.572   06 Jun 2027 10:26:51.140             1.568           783.094
       127   06 Jun 2027 11:56:32.149   06 Jun 2027 11:56:39.418             7.269          1103.469
       128   07 Jun 2027 04:06:57.671   07 Jun 2027 04:07:28.430            30.759         15379.500
       129   07 Jun 2027 05:41:50.234   07 Jun 2027 05:44:33.596           163.362         81681.000
       130   07 Jun 2027 05:49:40.232   07 Jun 2027 05:49:52.489            12.257          6128.500
       131   07 Jun 2027 05:50:23.703   07 Jun 2027 05:50:27.162             3.459          1729.500
       132   07 Jun 2027 05:50:54.319   07 Jun 2027 05:51:04.109             9.790          4895.000
       133   07 Jun 2027 07:19:55.607   07 Jun 2027 07:21:55.452           119.845         59922.500
       134   07 Jun 2027 07:22:18.765   07 Jun 2027 07:22:25.706             6.941          2782.187
       135   07 Jun 2027 07:23:23.186   07 Jun 2027 07:23:29.044             5.858          1501.250
       136   07 Jun 2027 07:23:56.346   07 Jun 2027 07:23:57.948             1.602           792.812
       137   07 Jun 2027 07:24:56.103   07 Jun 2027 07:25:00.973             4.870          1594.000
       138   07 Jun 2027 07:25:28.925   07 Jun 2027 07:25:31.698             2.773           804.656
       139   07 Jun 2027 07:27:06.267   07 Jun 2027 07:27:07.386             1.119           306.406
       140   07 Jun 2027 08:56:49.222   07 Jun 2027 08:57:00.236            11.014          4819.406
       141   07 Jun 2027 08:58:50.425   07 Jun 2027 08:58:55.414             4.989          2205.000
       142   07 Jun 2027 09:00:25.037   07 Jun 2027 09:00:27.734             2.697           380.281
       143   07 Jun 2027 09:00:59.754   07 Jun 2027 09:01:01.879             2.125            79.406
       144   07 Jun 2027 09:01:19.348   07 Jun 2027 09:01:20.191             0.843           314.750
       145   07 Jun 2027 09:02:17.217   07 Jun 2027 09:02:19.525             2.308           833.969
       146   07 Jun 2027 09:02:55.549   07 Jun 2027 09:02:57.580             2.031           634.281
       147   07 Jun 2027 10:33:58.688   07 Jun 2027 10:34:12.618            13.930          6227.250
       148   07 Jun 2027 10:36:30.303   07 Jun 2027 10:36:41.139            10.836          1798.906
       149   07 Jun 2027 10:37:20.082   07 Jun 2027 10:37:30.103            10.021            74.000
       150   07 Jun 2027 10:38:21.623   07 Jun 2027 10:38:25.652             4.029          1610.000
       151   08 Jun 2027 04:21:16.845   08 Jun 2027 04:22:05.700            48.855         24427.500
       152   08 Jun 2027 04:23:24.355   08 Jun 2027 04:23:27.635             3.280          1640.000
       153   08 Jun 2027 04:24:17.651   08 Jun 2027 04:24:23.283             5.632          2816.000
       154   08 Jun 2027 05:54:50.149   08 Jun 2027 05:57:36.135           165.986         82993.000
       155   08 Jun 2027 05:59:24.813   08 Jun 2027 05:59:26.722             1.909           954.500
       156   08 Jun 2027 06:01:02.491   08 Jun 2027 06:01:07.340             4.849          2424.500
       157   08 Jun 2027 06:01:39.174   08 Jun 2027 06:02:00.646            21.472         10736.000
       158   08 Jun 2027 06:02:19.503   08 Jun 2027 06:03:12.684            53.181         26590.500
       159   08 Jun 2027 06:03:22.524   08 Jun 2027 06:03:23.787             1.263           631.500
       160   08 Jun 2027 07:32:18.731   08 Jun 2027 07:32:38.204            19.473          9201.656
       161   08 Jun 2027 07:34:15.196   08 Jun 2027 07:34:17.362             2.166           287.875
       162   08 Jun 2027 07:38:01.093   08 Jun 2027 07:38:02.261             1.168             4.969
       163   08 Jun 2027 07:38:19.678   08 Jun 2027 07:38:20.673             0.995           435.375
       164   08 Jun 2027 07:38:55.878   08 Jun 2027 07:38:57.846             1.968           610.781
       165   08 Jun 2027 09:09:17.230   08 Jun 2027 09:09:30.860            13.630          6255.937
       166   08 Jun 2027 09:11:07.281   08 Jun 2027 09:11:12.379             5.098            86.281
       167   08 Jun 2027 09:12:36.747   08 Jun 2027 09:12:42.825             6.078          1116.563
       168   08 Jun 2027 09:13:37.017   08 Jun 2027 09:13:40.568             3.551          1198.813
       169   08 Jun 2027 09:13:52.684   08 Jun 2027 09:13:53.680             0.996            22.688
       170   08 Jun 2027 10:46:11.274   08 Jun 2027 10:46:28.185            16.911          7982.344
       171   08 Jun 2027 10:48:04.100   08 Jun 2027 10:48:07.659             3.559           451.563
       172   08 Jun 2027 10:48:34.465   08 Jun 2027 10:48:37.567             3.102           169.500
       173   08 Jun 2027 10:50:32.201   08 Jun 2027 10:50:37.716             5.515           138.500
       174   09 Jun 2027 04:33:21.964   09 Jun 2027 04:35:20.428           118.464         59232.000
       175   09 Jun 2027 04:35:39.276   09 Jun 2027 04:35:39.276             0.000             0.000
       176   09 Jun 2027 04:36:09.861   09 Jun 2027 04:36:19.418             9.557          4778.500
       177   09 Jun 2027 06:05:31.657   09 Jun 2027 06:05:41.372             9.715          4857.500
       178   09 Jun 2027 06:07:29.016   09 Jun 2027 06:10:09.564           160.548         78407.219
       179   09 Jun 2027 06:12:06.110   09 Jun 2027 06:12:06.110             0.000             0.000
       180   09 Jun 2027 06:12:43.071   09 Jun 2027 06:12:50.019             6.948          2931.594
       181   09 Jun 2027 06:13:14.866   09 Jun 2027 06:13:14.866             0.000             0.000
       182   09 Jun 2027 06:13:33.910   09 Jun 2027 06:13:36.991             3.081          1351.531
       183   09 Jun 2027 06:14:48.044   09 Jun 2027 06:14:48.044             0.000             0.000
       184   09 Jun 2027 06:15:14.474   09 Jun 2027 06:15:18.057             3.583          1791.500
       185   09 Jun 2027 07:44:27.510   09 Jun 2027 07:44:27.790             0.280           114.375
       186   09 Jun 2027 07:50:06.780   09 Jun 2027 07:50:07.283             0.503           192.719
       187   09 Jun 2027 07:50:45.783   09 Jun 2027 07:50:47.968             2.185           979.750
       188   09 Jun 2027 09:21:47.546   09 Jun 2027 09:22:02.725            15.179          5201.406
       189   09 Jun 2027 09:26:25.204   09 Jun 2027 09:26:29.185             3.981           742.531
       190   09 Jun 2027 10:58:12.697   09 Jun 2027 10:58:26.351            13.654          6637.594
       191   09 Jun 2027 11:00:23.694   09 Jun 2027 11:00:25.756             2.062           646.219
       192   09 Jun 2027 11:02:50.796   09 Jun 2027 11:02:54.232             3.436           700.250
       193   10 Jun 2027 03:09:20.265   10 Jun 2027 03:09:31.301            11.036          5518.000
       194   10 Jun 2027 03:11:19.089   10 Jun 2027 03:11:19.089             0.000             0.000
       195   10 Jun 2027 03:11:23.582   10 Jun 2027 03:11:37.434            13.852          6926.000
       196   10 Jun 2027 03:11:56.052   10 Jun 2027 03:11:56.052             0.000             0.000
       197   10 Jun 2027 04:45:31.645   10 Jun 2027 04:48:30.494           178.849         89424.500
       198   10 Jun 2027 04:48:47.628   10 Jun 2027 04:49:10.006            22.378         11189.000
       199   10 Jun 2027 06:20:42.530   10 Jun 2027 06:22:05.430            82.900         40177.969
       200   10 Jun 2027 06:22:44.803   10 Jun 2027 06:22:49.087             4.284          1139.063
       201   10 Jun 2027 06:23:25.917   10 Jun 2027 06:23:27.940             2.023            47.375
       202   10 Jun 2027 06:23:32.483   10 Jun 2027 06:23:36.205             3.722            74.469
       203   10 Jun 2027 06:24:05.569   10 Jun 2027 06:24:07.794             2.225           178.625
       204   10 Jun 2027 06:25:17.770   10 Jun 2027 06:25:23.625             5.855          1845.625
       205   10 Jun 2027 06:26:29.690   10 Jun 2027 06:26:34.237             4.547          1802.031
       206   10 Jun 2027 06:26:45.016   10 Jun 2027 06:26:45.662             0.646           269.719
       207   10 Jun 2027 06:27:11.881   10 Jun 2027 06:27:16.975             5.094           663.969
       208   10 Jun 2027 07:57:01.284   10 Jun 2027 07:57:07.548             6.264           951.500
       209   10 Jun 2027 08:01:56.935   10 Jun 2027 08:01:59.503             2.568           104.250
       210   10 Jun 2027 08:02:25.757   10 Jun 2027 08:02:28.331             2.574           358.687
       211   10 Jun 2027 09:34:24.386   10 Jun 2027 09:34:43.680            19.294          6127.750
       212   10 Jun 2027 09:35:39.696   10 Jun 2027 09:35:41.414             1.718           494.250
       213   10 Jun 2027 09:38:20.071   10 Jun 2027 09:38:24.518             4.447            28.156
       214   10 Jun 2027 09:38:29.952   10 Jun 2027 09:38:30.944             0.992            41.813
       215   10 Jun 2027 11:10:35.144   10 Jun 2027 11:10:46.879            11.735          5446.031
       216   11 Jun 2027 03:21:04.157   11 Jun 2027 03:21:22.556            18.399          9199.500
       217   11 Jun 2027 03:21:36.672   11 Jun 2027 03:21:40.436             3.764          1882.000
       218   11 Jun 2027 04:57:31.532   11 Jun 2027 05:00:54.140           202.608        101304.000
       219   11 Jun 2027 06:32:44.544   11 Jun 2027 06:34:05.540            80.996         39522.750
       220   11 Jun 2027 06:35:11.508   11 Jun 2027 06:35:15.020             3.512          1670.531
       221   11 Jun 2027 06:35:32.483   11 Jun 2027 06:35:35.650             3.167           361.094
       222   11 Jun 2027 06:35:37.501   11 Jun 2027 06:35:39.309             1.808            57.844
       223   11 Jun 2027 06:37:17.858   11 Jun 2027 06:37:28.169            10.311          3079.656
       224   11 Jun 2027 06:38:26.879   11 Jun 2027 06:38:33.769             6.890          1619.062
       225   11 Jun 2027 06:39:03.763   11 Jun 2027 06:39:04.979             1.216           522.219
       226   11 Jun 2027 08:08:39.937   11 Jun 2027 08:08:41.875             1.938           763.344
       227   11 Jun 2027 08:10:23.079   11 Jun 2027 08:10:28.105             5.026           948.187
       228   11 Jun 2027 09:46:38.876   11 Jun 2027 09:46:48.096             9.220          4526.313
       229   11 Jun 2027 09:47:35.952   11 Jun 2027 09:47:42.260             6.308           156.937
       230   11 Jun 2027 09:50:05.337   11 Jun 2027 09:50:05.412             0.075            15.062
       231   11 Jun 2027 09:50:33.227   11 Jun 2027 09:50:33.733             0.506           183.000
       232   11 Jun 2027 11:22:30.413   11 Jun 2027 11:22:41.555            11.142          4658.312
       233   12 Jun 2027 03:33:30.275   12 Jun 2027 03:33:35.528             5.253          2626.500
       234   12 Jun 2027 03:36:02.672   12 Jun 2027 03:36:27.624            24.952         12476.000
       235   12 Jun 2027 05:09:15.922   12 Jun 2027 05:12:28.915           192.993         96496.500
       236   12 Jun 2027 05:13:35.654   12 Jun 2027 05:13:37.506             1.852           926.000
       237   12 Jun 2027 06:43:59.747   12 Jun 2027 06:45:26.033            86.286         43094.282
       238   12 Jun 2027 06:45:49.041   12 Jun 2027 06:45:52.286             3.245           566.219
       239   12 Jun 2027 06:47:34.660   12 Jun 2027 06:47:38.185             3.525           578.219
       240   12 Jun 2027 06:48:00.866   12 Jun 2027 06:48:02.587             1.721           685.719
       241   12 Jun 2027 06:49:17.381   12 Jun 2027 06:49:21.593             4.212          1048.656
       242   12 Jun 2027 06:50:08.357   12 Jun 2027 06:50:11.156             2.799           948.063
       243   12 Jun 2027 06:50:52.933   12 Jun 2027 06:50:58.962             6.029          1042.219
       244   12 Jun 2027 08:20:49.464   12 Jun 2027 08:20:51.356             1.892           582.187
       245   12 Jun 2027 08:22:11.521   12 Jun 2027 08:22:15.869             4.348           740.875
       246   12 Jun 2027 08:22:43.159   12 Jun 2027 08:22:43.457             0.298            92.438
       247   12 Jun 2027 08:26:15.385   12 Jun 2027 08:26:20.740             5.355           594.094
       248   12 Jun 2027 09:59:01.421   12 Jun 2027 09:59:15.217            13.796          6132.094
       249   12 Jun 2027 10:00:52.818   12 Jun 2027 10:00:54.532             1.714           669.469
       250   12 Jun 2027 10:01:15.440   12 Jun 2027 10:01:19.150             3.710           653.375
       251   12 Jun 2027 10:02:15.404   12 Jun 2027 10:02:16.194             0.790           154.750
       252   12 Jun 2027 10:02:36.009   12 Jun 2027 10:02:38.840             2.831           471.406
       253   12 Jun 2027 10:02:45.955   12 Jun 2027 10:02:50.039             4.084             0.813
       254   12 Jun 2027 11:32:19.207   12 Jun 2027 11:32:32.758            13.551          6510.312
       255   13 Jun 2027 03:44:05.395   13 Jun 2027 03:44:08.575             3.180          1590.000
       256   13 Jun 2027 03:44:21.090   13 Jun 2027 03:44:21.090             0.000             0.000
       257   13 Jun 2027 03:44:58.447   13 Jun 2027 03:45:06.636             8.189          4094.500
       258   13 Jun 2027 03:46:00.694   13 Jun 2027 03:46:19.246            18.552          9276.000
       259   13 Jun 2027 03:47:26.732   13 Jun 2027 03:47:26.732             0.000             0.000
       260   13 Jun 2027 03:47:45.428   13 Jun 2027 03:48:01.415            15.987          7993.500
       261   13 Jun 2027 05:19:08.913   13 Jun 2027 05:19:55.972            47.059         23529.500
       262   13 Jun 2027 05:20:59.641   13 Jun 2027 05:21:43.380            43.739         21869.500
       263   13 Jun 2027 05:21:52.173   13 Jun 2027 05:22:35.881            43.708         21854.000
       264   13 Jun 2027 05:23:37.092   13 Jun 2027 05:24:12.883            35.791         17895.500
       265   13 Jun 2027 05:25:45.412   13 Jun 2027 05:25:53.447             8.035          4017.500
       266   13 Jun 2027 06:56:07.741   13 Jun 2027 06:58:02.715           114.974         55026.937
       267   13 Jun 2027 06:58:50.431   13 Jun 2027 06:58:51.773             1.342            44.125
       268   13 Jun 2027 07:00:05.111   13 Jun 2027 07:00:08.990             3.879           891.594
       269   13 Jun 2027 07:02:14.551   13 Jun 2027 07:02:18.511             3.960          1822.187
       270   13 Jun 2027 07:02:38.242   13 Jun 2027 07:02:40.418             2.176           418.719
       271   13 Jun 2027 08:33:05.789   13 Jun 2027 08:33:09.815             4.026          1978.031
       272   13 Jun 2027 08:35:25.838   13 Jun 2027 08:35:29.270             3.432          1104.531
       273   13 Jun 2027 08:36:50.092   13 Jun 2027 08:36:54.912             4.820          1228.969
       274   13 Jun 2027 08:38:29.550   13 Jun 2027 08:38:35.336             5.786           242.094
       275   13 Jun 2027 08:38:51.133   13 Jun 2027 08:38:55.639             4.506           302.938
       276   13 Jun 2027 10:11:01.530   13 Jun 2027 10:11:17.332            15.802          6778.219
       277   13 Jun 2027 10:12:15.577   13 Jun 2027 10:12:20.104             4.527          1687.906
       278   13 Jun 2027 10:12:52.093   13 Jun 2027 10:12:53.414             1.321           469.469
       279   13 Jun 2027 10:13:12.206   13 Jun 2027 10:13:16.548             4.342           433.594
       280   13 Jun 2027 10:14:24.183   13 Jun 2027 10:14:26.014             1.831           874.594
       281   13 Jun 2027 10:14:38.275   13 Jun 2027 10:14:39.142             0.867            67.719
       282   13 Jun 2027 10:14:40.808   13 Jun 2027 10:14:41.728             0.920            52.063
       283   13 Jun 2027 11:44:21.340   13 Jun 2027 11:44:29.817             8.477          4022.812
