uniorb/output/strategy_4/Camera/Camera_KinoSat_111407.txt

KinoSat_111407
-------------------------
    Access    *     Start Time (UTCG)     *     Stop Time (UTCG)  *   Duration (s) *   Data (Mbytes)
         1   01 Jun 2027 03:02:48.219   01 Jun 2027 03:03:05.541            17.322          8661.000
         2   01 Jun 2027 03:03:50.857   01 Jun 2027 03:04:21.230            30.373         15186.500
         3   01 Jun 2027 03:04:44.506   01 Jun 2027 03:04:52.878             8.372          4186.000
         4   01 Jun 2027 03:05:53.130   01 Jun 2027 03:06:16.329            23.199         11599.500
         5   01 Jun 2027 03:08:24.522   01 Jun 2027 03:08:33.905             9.383          4691.500
         6   01 Jun 2027 03:10:25.885   01 Jun 2027 03:10:31.622             5.737          2868.500
         7   01 Jun 2027 04:40:59.677   01 Jun 2027 04:41:37.064            37.387         18693.500
         8   01 Jun 2027 04:42:07.225   01 Jun 2027 04:43:20.143            72.918         36459.000
         9   01 Jun 2027 06:05:05.673   01 Jun 2027 06:06:32.974            87.301         43650.500
        10   01 Jun 2027 07:40:51.268   01 Jun 2027 07:43:13.481           142.213         71106.500
        11   01 Jun 2027 07:43:25.425   01 Jun 2027 07:43:25.425             0.000             0.000
        12   01 Jun 2027 09:15:48.713   01 Jun 2027 09:18:12.308           143.595         71797.500
        13   01 Jun 2027 09:18:37.631   01 Jun 2027 09:18:39.799             2.168          1084.000
        14   01 Jun 2027 09:19:04.345   01 Jun 2027 09:19:26.077            21.732         10866.000
        15   01 Jun 2027 09:22:25.887   01 Jun 2027 09:22:44.779            18.892          9446.000
        16   01 Jun 2027 09:22:46.516   01 Jun 2027 09:22:49.438             2.922          1461.000
        17   01 Jun 2027 10:52:00.956   01 Jun 2027 10:53:21.375            80.419         40209.500
        18   01 Jun 2027 10:57:08.180   01 Jun 2027 10:57:19.812            11.632          5816.000
        19   01 Jun 2027 10:57:42.434   01 Jun 2027 10:58:24.416            41.982         20991.000
        20   02 Jun 2027 03:15:53.453   02 Jun 2027 03:17:43.680           110.227         55113.500
        21   02 Jun 2027 03:18:22.180   02 Jun 2027 03:18:26.722             4.542          2271.000
        22   02 Jun 2027 03:20:59.442   02 Jun 2027 03:21:32.029            32.587         16293.500
        23   02 Jun 2027 03:22:51.423   02 Jun 2027 03:22:55.018             3.595          1797.500
        24   02 Jun 2027 04:41:53.305   02 Jun 2027 04:42:13.701            20.396         10198.000
        25   02 Jun 2027 04:52:55.790   02 Jun 2027 04:54:39.185           103.395         51697.500
        26   02 Jun 2027 04:54:50.536   02 Jun 2027 04:56:15.234            84.698         42349.000
        27   02 Jun 2027 06:15:55.329   02 Jun 2027 06:16:43.862            48.533         24266.500
        28   02 Jun 2027 06:19:07.565   02 Jun 2027 06:19:15.982             8.417          4208.500
        29   02 Jun 2027 06:19:26.332   02 Jun 2027 06:19:33.198             6.866          3433.000
        30   02 Jun 2027 07:51:27.273   02 Jun 2027 07:51:33.593             6.320          3160.000
        31   02 Jun 2027 07:52:36.993   02 Jun 2027 07:55:20.895           163.902         81951.000
        32   02 Jun 2027 07:55:59.780   02 Jun 2027 07:56:14.164            14.384          7192.000
        33   02 Jun 2027 07:56:52.023   02 Jun 2027 07:57:03.119            11.096          5548.000
        34   02 Jun 2027 09:27:22.387   02 Jun 2027 09:29:01.649            99.262         48603.249
        35   02 Jun 2027 09:29:02.654   02 Jun 2027 09:29:03.281             0.627            31.406
        36   02 Jun 2027 09:29:27.112   02 Jun 2027 09:29:31.752             4.640           374.344
        37   02 Jun 2027 09:30:54.204   02 Jun 2027 09:30:59.744             5.540          2551.500
        38   02 Jun 2027 09:31:28.338   02 Jun 2027 09:31:28.338             0.000             0.000
        39   02 Jun 2027 09:32:08.098   02 Jun 2027 09:32:14.048             5.950          1747.531
        40   02 Jun 2027 09:32:50.975   02 Jun 2027 09:32:54.473             3.498           561.906
        41   02 Jun 2027 09:33:26.984   02 Jun 2027 09:33:31.453             4.469          1008.688
        42   02 Jun 2027 09:34:38.116   02 Jun 2027 09:34:45.241             7.125          1932.875
        43   02 Jun 2027 11:04:22.451   02 Jun 2027 11:04:37.031            14.580          7165.469
        44   02 Jun 2027 11:05:17.033   02 Jun 2027 11:05:20.247             3.214           885.156
        45   02 Jun 2027 11:06:24.327   02 Jun 2027 11:06:26.556             2.229           581.531
        46   02 Jun 2027 11:06:52.083   02 Jun 2027 11:06:58.686             6.603           489.969
        47   02 Jun 2027 11:07:29.910   02 Jun 2027 11:07:33.620             3.710           694.844
        48   02 Jun 2027 11:08:15.006   02 Jun 2027 11:08:17.736             2.730           467.719
        49   02 Jun 2027 11:08:44.640   02 Jun 2027 11:08:56.109            11.469           715.750
        50   02 Jun 2027 11:09:17.485   02 Jun 2027 11:09:26.916             9.431           668.000
        51   02 Jun 2027 11:09:42.130   02 Jun 2027 11:09:42.607             0.477           221.719
        52   02 Jun 2027 11:10:26.173   02 Jun 2027 11:10:26.434             0.261            81.375
        53   03 Jun 2027 03:28:17.280   03 Jun 2027 03:31:43.775           206.495        103247.500
        54   03 Jun 2027 03:33:59.579   03 Jun 2027 03:34:30.277            30.698         15349.000
        55   03 Jun 2027 04:53:15.633   03 Jun 2027 04:53:44.002            28.369         14184.500
        56   03 Jun 2027 05:04:57.586   03 Jun 2027 05:06:17.433            79.847         39923.500
        57   03 Jun 2027 06:27:11.485   03 Jun 2027 06:27:22.779            11.294          5008.343
        58   03 Jun 2027 06:27:39.754   03 Jun 2027 06:27:41.248             1.494           416.500
        59   03 Jun 2027 06:29:11.511   03 Jun 2027 06:29:15.424             3.913          1924.562
        60   03 Jun 2027 06:29:26.891   03 Jun 2027 06:29:28.457             1.566           177.313
        61   03 Jun 2027 06:29:56.429   03 Jun 2027 06:29:58.981             2.552           631.094
        62   03 Jun 2027 06:30:36.210   03 Jun 2027 06:30:42.418             6.208           889.062
        63   03 Jun 2027 06:31:56.302   03 Jun 2027 06:32:06.887            10.585          1807.844
        64   03 Jun 2027 08:02:19.074   03 Jun 2027 08:02:22.937             3.863          1888.031
        65   03 Jun 2027 08:03:27.628   03 Jun 2027 08:03:34.366             6.738          1332.531
        66   03 Jun 2027 08:04:36.928   03 Jun 2027 08:04:39.141             2.213          1106.500
        67   03 Jun 2027 08:06:02.288   03 Jun 2027 08:06:13.709            11.421          2877.000
        68   03 Jun 2027 08:06:19.893   03 Jun 2027 08:06:30.502            10.609           146.000
        69   03 Jun 2027 08:07:26.690   03 Jun 2027 08:07:29.378             2.688          1173.813
        70   03 Jun 2027 08:07:48.964   03 Jun 2027 08:07:50.253             1.289            23.469
        71   03 Jun 2027 08:08:51.246   03 Jun 2027 08:08:55.536             4.290          1820.281
        72   03 Jun 2027 09:39:30.757   03 Jun 2027 09:39:42.513            11.756          3218.875
        73   03 Jun 2027 09:41:37.813   03 Jun 2027 09:41:44.569             6.756          2729.719
        74   03 Jun 2027 09:43:14.084   03 Jun 2027 09:43:15.915             1.831           514.188
        75   03 Jun 2027 09:44:15.727   03 Jun 2027 09:44:20.666             4.939          1419.375
        76   03 Jun 2027 09:44:44.095   03 Jun 2027 09:44:46.287             2.192           732.156
        77   03 Jun 2027 09:45:19.930   03 Jun 2027 09:45:21.800             1.870           884.313
        78   03 Jun 2027 09:46:21.583   03 Jun 2027 09:46:28.815             7.232          1546.062
        79   03 Jun 2027 09:46:55.969   03 Jun 2027 09:46:56.416             0.447           223.500
        80   03 Jun 2027 11:16:28.127   03 Jun 2027 11:16:48.455            20.328          7912.406
        81   03 Jun 2027 11:18:07.862   03 Jun 2027 11:18:09.088             1.226           603.656
        82   03 Jun 2027 11:19:08.160   03 Jun 2027 11:19:10.126             1.966           564.281
        83   03 Jun 2027 11:19:40.048   03 Jun 2027 11:19:43.312             3.264           798.500
        84   03 Jun 2027 11:20:16.876   03 Jun 2027 11:20:20.126             3.250           429.094
        85   03 Jun 2027 11:20:56.131   03 Jun 2027 11:20:57.455             1.324           520.188
        86   03 Jun 2027 11:22:23.752   03 Jun 2027 11:22:28.280             4.528          2199.094
        87   04 Jun 2027 03:40:35.839   04 Jun 2027 03:42:52.449           136.610         68305.000
        88   04 Jun 2027 03:43:42.981   04 Jun 2027 03:44:18.955            35.974         17987.000
        89   04 Jun 2027 03:44:25.362   04 Jun 2027 03:45:42.568            77.206         38603.000
        90   04 Jun 2027 03:47:20.063   04 Jun 2027 03:47:20.063             0.000             0.000
        91   04 Jun 2027 03:47:20.155   04 Jun 2027 03:47:21.024             0.869           434.500
        92   04 Jun 2027 05:04:42.168   04 Jun 2027 05:05:25.314            43.146         21573.000
        93   04 Jun 2027 05:16:54.443   04 Jun 2027 05:17:33.250            38.807         19403.500
        94   04 Jun 2027 06:38:56.482   04 Jun 2027 06:39:08.545            12.063          3707.125
        95   04 Jun 2027 06:40:07.991   04 Jun 2027 06:40:11.064             3.073          1469.094
        96   04 Jun 2027 06:41:07.690   04 Jun 2027 06:41:07.690             0.000             0.000
        97   04 Jun 2027 06:41:38.900   04 Jun 2027 06:41:44.855             5.955          1491.250
        98   04 Jun 2027 06:43:15.694   04 Jun 2027 06:43:21.532             5.838          2300.094
        99   04 Jun 2027 06:43:33.636   04 Jun 2027 06:43:37.549             3.913           378.250
       100   04 Jun 2027 06:43:57.943   04 Jun 2027 06:43:59.606             1.663           206.156
       101   04 Jun 2027 06:44:14.987   04 Jun 2027 06:44:14.987             0.000             0.000
       102   04 Jun 2027 08:13:48.725   04 Jun 2027 08:13:54.432             5.707          2259.281
       103   04 Jun 2027 08:15:50.495   04 Jun 2027 08:15:51.972             1.477           598.844
       104   04 Jun 2027 08:18:02.779   04 Jun 2027 08:18:09.549             6.770          3283.250
       105   04 Jun 2027 08:19:27.516   04 Jun 2027 08:19:35.847             8.331          2251.750
       106   04 Jun 2027 08:20:16.099   04 Jun 2027 08:20:20.369             4.270           669.313
       107   04 Jun 2027 08:20:32.284   04 Jun 2027 08:20:33.271             0.987           334.500
       108   04 Jun 2027 08:20:45.630   04 Jun 2027 08:20:45.630             0.000             0.000
       109   04 Jun 2027 08:21:35.313   04 Jun 2027 08:21:38.191             2.878          1439.000
       110   04 Jun 2027 08:22:04.193   04 Jun 2027 08:22:06.241             2.048           254.656
       111   04 Jun 2027 08:22:08.026   04 Jun 2027 08:22:08.908             0.882             2.688
       112   04 Jun 2027 09:51:32.492   04 Jun 2027 09:51:44.151            11.659          4832.625
       113   04 Jun 2027 09:53:45.433   04 Jun 2027 09:53:47.207             1.774           793.000
       114   04 Jun 2027 09:55:50.534   04 Jun 2027 09:55:53.993             3.459          1296.500
       115   04 Jun 2027 09:56:53.652   04 Jun 2027 09:56:58.877             5.225          1864.344
       116   04 Jun 2027 09:57:13.824   04 Jun 2027 09:57:15.390             1.566           243.594
       117   04 Jun 2027 09:57:37.636   04 Jun 2027 09:57:42.232             4.596           671.031
       118   04 Jun 2027 09:58:04.766   04 Jun 2027 09:58:08.027             3.261            96.281
       119   04 Jun 2027 09:58:17.272   04 Jun 2027 09:58:20.554             3.282            46.000
       120   04 Jun 2027 09:58:46.573   04 Jun 2027 09:58:48.552             1.979           491.812
       121   04 Jun 2027 09:58:57.213   04 Jun 2027 09:58:57.653             0.440           196.500
       122   04 Jun 2027 11:28:20.601   04 Jun 2027 11:28:32.125            11.524          5652.281
       123   04 Jun 2027 11:28:42.616   04 Jun 2027 11:28:48.718             6.102             5.094
       124   04 Jun 2027 11:30:58.291   04 Jun 2027 11:31:05.834             7.543          1827.531
       125   04 Jun 2027 11:31:58.099   04 Jun 2027 11:32:04.730             6.631          1050.063
       126   04 Jun 2027 11:32:24.847   04 Jun 2027 11:32:28.046             3.199           434.094
       127   04 Jun 2027 11:32:38.016   04 Jun 2027 11:32:38.749             0.733           311.562
       128   04 Jun 2027 11:32:48.599   04 Jun 2027 11:32:51.010             2.411           177.406
       129   04 Jun 2027 11:34:06.574   04 Jun 2027 11:34:13.730             7.156          2361.375
       130   04 Jun 2027 11:34:39.008   04 Jun 2027 11:34:40.822             1.814           625.469
       131   04 Jun 2027 11:34:55.059   04 Jun 2027 11:35:02.803             7.744           146.937
       132   05 Jun 2027 03:52:41.020   05 Jun 2027 03:55:24.508           163.488         81744.000
       133   05 Jun 2027 03:55:51.591   05 Jun 2027 03:56:42.396            50.805         25402.500
       134   05 Jun 2027 03:56:49.812   05 Jun 2027 03:57:13.403            23.591         11795.500
       135   05 Jun 2027 05:16:46.130   05 Jun 2027 05:17:27.855            41.725         20862.500
       136   05 Jun 2027 06:52:43.583   05 Jun 2027 06:54:23.896           100.313         47467.250
       137   05 Jun 2027 06:54:47.503   05 Jun 2027 06:54:50.336             2.833           652.187
       138   05 Jun 2027 06:55:24.665   05 Jun 2027 06:55:26.270             1.605           363.750
       139   05 Jun 2027 06:55:47.709   05 Jun 2027 06:55:51.909             4.200           416.625
       140   05 Jun 2027 08:26:32.986   05 Jun 2027 08:26:47.575            14.589          2523.781
       141   05 Jun 2027 08:28:31.350   05 Jun 2027 08:28:34.127             2.777          1190.562
       142   05 Jun 2027 08:28:56.635   05 Jun 2027 08:28:58.311             1.676           442.000
       143   05 Jun 2027 08:29:05.700   05 Jun 2027 08:29:07.085             1.385           230.906
       144   05 Jun 2027 08:30:18.193   05 Jun 2027 08:30:25.421             7.228           929.812
       145   05 Jun 2027 08:30:45.692   05 Jun 2027 08:30:47.551             1.859           558.813
       146   05 Jun 2027 08:31:40.094   05 Jun 2027 08:31:45.905             5.811           588.344
       147   05 Jun 2027 08:32:48.831   05 Jun 2027 08:32:48.831             0.000             0.000
       148   05 Jun 2027 08:32:59.247   05 Jun 2027 08:33:06.291             7.044          1970.219
       149   05 Jun 2027 08:33:36.899   05 Jun 2027 08:33:44.267             7.368           956.500
       150   05 Jun 2027 10:03:35.969   05 Jun 2027 10:03:47.868            11.899          5630.219
       151   05 Jun 2027 10:05:35.794   05 Jun 2027 10:05:41.204             5.410          2364.281
       152   05 Jun 2027 10:05:46.620   05 Jun 2027 10:05:47.804             1.184           169.250
       153   05 Jun 2027 10:07:13.695   05 Jun 2027 10:07:16.681             2.986          1049.781
       154   05 Jun 2027 10:07:44.329   05 Jun 2027 10:07:46.735             2.406           424.469
       155   05 Jun 2027 10:08:55.993   05 Jun 2027 10:09:01.287             5.294          2164.312
       156   05 Jun 2027 10:09:32.504   05 Jun 2027 10:09:34.908             2.404           954.563
       157   05 Jun 2027 10:10:09.376   05 Jun 2027 10:10:17.063             7.687          1054.875
       158   05 Jun 2027 10:10:21.202   05 Jun 2027 10:10:21.400             0.198            26.125
       159   05 Jun 2027 10:10:29.229   05 Jun 2027 10:10:30.884             1.655           244.656
       160   05 Jun 2027 11:40:30.674   05 Jun 2027 11:40:43.128            12.454          5454.000
       161   05 Jun 2027 11:41:03.841   05 Jun 2027 11:41:05.195             1.354           647.281
       162   05 Jun 2027 11:43:37.864   05 Jun 2027 11:43:42.495             4.631           492.219
       163   05 Jun 2027 11:44:23.480   05 Jun 2027 11:44:26.671             3.191           284.688
       164   05 Jun 2027 11:44:56.454   05 Jun 2027 11:45:02.619             6.165           930.719
       165   05 Jun 2027 11:45:12.588   05 Jun 2027 11:45:14.706             2.118            45.438
       166   05 Jun 2027 11:46:01.226   05 Jun 2027 11:46:05.447             4.221          1311.000
       167   05 Jun 2027 11:46:27.508   05 Jun 2027 11:46:30.798             3.290           587.500
       168   06 Jun 2027 04:05:16.113   06 Jun 2027 04:08:19.063           182.950         91475.000
       169   06 Jun 2027 04:09:21.495   06 Jun 2027 04:09:39.883            18.388          9194.000
       170   06 Jun 2027 05:28:41.045   06 Jun 2027 05:28:55.340            14.295          7147.500
       171   06 Jun 2027 07:05:00.670   06 Jun 2027 07:06:55.255           114.585         56201.031
       172   06 Jun 2027 07:07:52.086   06 Jun 2027 07:08:01.579             9.493          1741.406
       173   06 Jun 2027 08:38:31.088   06 Jun 2027 08:38:41.189            10.101          2616.344
       174   06 Jun 2027 08:40:46.249   06 Jun 2027 08:40:46.249             0.000             0.000
       175   06 Jun 2027 08:40:58.805   06 Jun 2027 08:41:00.193             1.388           694.000
       176   06 Jun 2027 08:41:32.973   06 Jun 2027 08:41:38.358             5.385          1417.625
       177   06 Jun 2027 08:42:23.489   06 Jun 2027 08:42:28.458             4.969          1030.469
       178   06 Jun 2027 08:45:19.354   06 Jun 2027 08:45:28.074             8.720          4221.188
       179   06 Jun 2027 08:45:38.105   06 Jun 2027 08:45:39.670             1.565           234.187
       180   06 Jun 2027 08:45:57.215   06 Jun 2027 08:46:06.846             9.631           482.063
       181   06 Jun 2027 08:46:41.016   06 Jun 2027 08:46:42.634             1.618           616.281
       182   06 Jun 2027 10:16:01.886   06 Jun 2027 10:16:11.584             9.698          4648.625
       183   06 Jun 2027 10:19:33.959   06 Jun 2027 10:19:41.880             7.921          2130.125
       184   06 Jun 2027 10:20:54.030   06 Jun 2027 10:20:55.876             1.846           315.875
       185   06 Jun 2027 10:21:39.641   06 Jun 2027 10:21:43.502             3.861           951.031
       186   06 Jun 2027 10:22:10.915   06 Jun 2027 10:22:12.155             1.240            96.406
       187   06 Jun 2027 10:22:19.043   06 Jun 2027 10:22:23.081             4.038           215.250
       188   06 Jun 2027 10:22:32.321   06 Jun 2027 10:22:33.998             1.677            36.062
       189   06 Jun 2027 10:22:43.545   06 Jun 2027 10:22:45.114             1.569           277.156
       190   06 Jun 2027 11:52:58.283   06 Jun 2027 11:53:10.722            12.439          6086.969
       191   06 Jun 2027 11:54:06.820   06 Jun 2027 11:54:10.819             3.999          1063.469
       192   06 Jun 2027 11:55:53.228   06 Jun 2027 11:55:59.250             6.022          1930.531
       193   06 Jun 2027 11:56:18.022   06 Jun 2027 11:56:18.893             0.871           304.750
       194   06 Jun 2027 11:57:03.484   06 Jun 2027 11:57:10.553             7.069          1089.094
       195   06 Jun 2027 11:58:19.117   06 Jun 2027 11:58:23.560             4.443          1954.563
       196   06 Jun 2027 11:58:29.919   06 Jun 2027 11:58:31.534             1.615           159.844
       197   07 Jun 2027 04:16:54.847   07 Jun 2027 04:18:22.388            87.541         43770.500
       198   07 Jun 2027 04:18:30.103   07 Jun 2027 04:18:54.186            24.083         12041.500
       199   07 Jun 2027 04:19:47.400   07 Jun 2027 04:19:47.400             0.000             0.000
       200   07 Jun 2027 05:40:31.739   07 Jun 2027 05:41:26.102            54.363         27181.500
       201   07 Jun 2027 07:17:02.956   07 Jun 2027 07:19:36.607           153.651         76616.969
       202   07 Jun 2027 07:20:23.515   07 Jun 2027 07:20:27.217             3.702          1397.938
       203   07 Jun 2027 08:51:10.844   07 Jun 2027 08:51:20.196             9.352          3243.594
       204   07 Jun 2027 08:52:59.738   07 Jun 2027 08:53:01.758             2.020           217.375
       205   07 Jun 2027 08:53:52.289   07 Jun 2027 08:53:59.255             6.966          1059.062
       206   07 Jun 2027 08:54:58.262   07 Jun 2027 08:55:00.759             2.497           837.313
       207   07 Jun 2027 08:55:58.511   07 Jun 2027 08:56:02.563             4.052          1326.312
       208   07 Jun 2027 08:56:18.422   07 Jun 2027 08:56:19.734             1.312           388.375
       209   07 Jun 2027 08:57:05.492   07 Jun 2027 08:57:08.715             3.223            34.875
       210   07 Jun 2027 08:57:59.026   07 Jun 2027 08:58:00.506             1.480           627.781
       211   07 Jun 2027 08:58:37.116   07 Jun 2027 08:58:40.284             3.168           276.500
       212   07 Jun 2027 08:58:56.241   07 Jun 2027 08:58:56.732             0.491           245.500
       213   07 Jun 2027 10:28:08.677   07 Jun 2027 10:28:21.413            12.736          6196.187
       214   07 Jun 2027 10:30:24.146   07 Jun 2027 10:30:27.074             2.928            90.312
       215   07 Jun 2027 10:32:35.722   07 Jun 2027 10:32:37.731             2.009           600.031
       216   07 Jun 2027 10:32:42.195   07 Jun 2027 10:32:44.026             1.831           139.500
       217   07 Jun 2027 10:33:08.204   07 Jun 2027 10:33:11.354             3.150           545.250
       218   07 Jun 2027 10:34:08.830   07 Jun 2027 10:34:12.618             3.788          1665.531
       219   07 Jun 2027 10:34:42.197   07 Jun 2027 10:34:44.124             1.927           924.344
       220   07 Jun 2027 10:34:46.734   07 Jun 2027 10:34:49.711             2.977            81.562
       221   08 Jun 2027 04:29:20.019   08 Jun 2027 04:29:46.668            26.649         13324.500
       222   08 Jun 2027 04:30:08.029   08 Jun 2027 04:31:57.668           109.639         54819.500
       223   08 Jun 2027 04:32:52.825   08 Jun 2027 04:33:00.553             7.728          3864.000
       224   08 Jun 2027 04:33:16.012   08 Jun 2027 04:33:19.085             3.073          1536.500
       225   08 Jun 2027 05:52:41.551   08 Jun 2027 05:53:36.348            54.797         27398.500
       226   08 Jun 2027 07:29:12.437   08 Jun 2027 07:31:04.832           112.395         55339.563
       227   08 Jun 2027 07:32:05.448   08 Jun 2027 07:32:10.771             5.323          1391.000
       228   08 Jun 2027 09:04:22.364   08 Jun 2027 09:04:31.057             8.693          4155.437
       229   08 Jun 2027 09:04:42.836   08 Jun 2027 09:04:43.765             0.929           333.594
       230   08 Jun 2027 09:05:53.702   08 Jun 2027 09:05:54.588             0.886           383.656
       231   08 Jun 2027 09:07:21.397   08 Jun 2027 09:07:25.275             3.878          1223.937
       232   08 Jun 2027 09:07:43.917   08 Jun 2027 09:07:45.448             1.531            68.531
       233   08 Jun 2027 09:09:39.155   08 Jun 2027 09:09:44.665             5.510          2519.094
       234   08 Jun 2027 09:10:17.999   08 Jun 2027 09:10:20.477             2.478           882.062
       235   08 Jun 2027 09:10:50.008   08 Jun 2027 09:10:51.738             1.730           565.500
       236   08 Jun 2027 10:40:44.861   08 Jun 2027 10:40:55.395            10.534          5191.719
       237   08 Jun 2027 10:42:36.332   08 Jun 2027 10:42:39.281             2.949          1136.875
       238   08 Jun 2027 10:42:45.178   08 Jun 2027 10:42:47.315             2.137           149.594
       239   08 Jun 2027 10:42:58.622   08 Jun 2027 10:42:59.186             0.564           106.844
       240   08 Jun 2027 10:44:41.261   08 Jun 2027 10:44:48.737             7.476          2578.969
       241   08 Jun 2027 10:45:27.418   08 Jun 2027 10:45:33.243             5.825           842.469
       242   08 Jun 2027 10:45:47.616   08 Jun 2027 10:45:50.148             2.532            69.156
       243   08 Jun 2027 10:46:02.450   08 Jun 2027 10:46:07.485             5.035           106.625
       244   08 Jun 2027 10:46:23.498   08 Jun 2027 10:46:24.866             1.368           400.531
       245   08 Jun 2027 10:46:28.621   08 Jun 2027 10:46:29.788             1.167           117.344
       246   08 Jun 2027 10:46:36.959   08 Jun 2027 10:46:38.677             1.718           224.094
       247   08 Jun 2027 10:46:43.561   08 Jun 2027 10:46:44.027             0.466             6.500
       248   09 Jun 2027 03:03:04.494   09 Jun 2027 03:03:42.635            38.141         19070.500
       249   09 Jun 2027 03:04:15.143   09 Jun 2027 03:04:35.851            20.708         10354.000
       250   09 Jun 2027 03:05:00.825   09 Jun 2027 03:05:04.223             3.398          1699.000
       251   09 Jun 2027 03:06:07.878   09 Jun 2027 03:06:17.654             9.776          4888.000
       252   09 Jun 2027 03:08:03.824   09 Jun 2027 03:08:09.073             5.249          2624.500
       253   09 Jun 2027 03:09:08.318   09 Jun 2027 03:09:12.527             4.209          2104.500
       254   09 Jun 2027 03:11:18.721   09 Jun 2027 03:11:57.092            38.371         19185.500
       255   09 Jun 2027 04:41:15.734   09 Jun 2027 04:41:53.598            37.864         18932.000
       256   09 Jun 2027 04:42:23.235   09 Jun 2027 04:43:41.199            77.964         38982.000
       257   09 Jun 2027 04:44:25.448   09 Jun 2027 04:44:41.947            16.499          8249.500
       258   09 Jun 2027 04:44:50.804   09 Jun 2027 04:44:51.824             1.020           510.000
       259   09 Jun 2027 06:05:21.615   09 Jun 2027 06:06:21.708            60.093         30046.500
       260   09 Jun 2027 06:07:29.197   09 Jun 2027 06:07:53.573            24.376         12188.000
       261   09 Jun 2027 07:41:06.978   09 Jun 2027 07:41:23.614            16.636          7368.970
       262   09 Jun 2027 07:41:55.558   09 Jun 2027 07:42:05.952            10.394           753.594
       263   09 Jun 2027 07:42:38.657   09 Jun 2027 07:42:44.909             6.252           731.281
       264   09 Jun 2027 07:43:13.403   09 Jun 2027 07:43:15.204             1.801           795.563
       265   09 Jun 2027 07:43:38.115   09 Jun 2027 07:43:38.115             0.000             0.000
       266   09 Jun 2027 07:43:42.082   09 Jun 2027 07:43:45.722             3.640           383.000
       267   09 Jun 2027 07:44:07.383   09 Jun 2027 07:44:07.383             0.000             0.000
       268   09 Jun 2027 07:44:29.941   09 Jun 2027 07:44:33.041             3.100          1271.781
       269   09 Jun 2027 09:16:04.355   09 Jun 2027 09:16:09.039             4.684          2299.219
       270   09 Jun 2027 09:16:29.325   09 Jun 2027 09:16:29.325             0.000             0.000
       271   09 Jun 2027 09:17:54.709   09 Jun 2027 09:18:03.749             9.040          2691.937
       272   09 Jun 2027 09:18:30.783   09 Jun 2027 09:18:35.923             5.140           692.500
       273   09 Jun 2027 09:19:08.957   09 Jun 2027 09:19:09.913             0.956           407.000
       274   09 Jun 2027 09:19:44.213   09 Jun 2027 09:19:46.182             1.969           840.344
       275   09 Jun 2027 09:21:38.827   09 Jun 2027 09:21:44.234             5.407          2426.969
       276   09 Jun 2027 09:22:46.754   09 Jun 2027 09:22:55.950             9.196          1942.125
       277   09 Jun 2027 09:23:03.103   09 Jun 2027 09:23:06.439             3.336           108.000
       278   09 Jun 2027 10:52:16.996   09 Jun 2027 10:52:28.866            11.870          5247.687
       279   09 Jun 2027 10:54:48.880   09 Jun 2027 10:54:50.158             1.278           594.125
       280   09 Jun 2027 10:55:19.691   09 Jun 2027 10:55:21.609             1.918           922.906
       281   09 Jun 2027 10:55:29.263   09 Jun 2027 10:55:30.222             0.959           239.188
       282   09 Jun 2027 10:56:24.097   09 Jun 2027 10:56:31.344             7.247           627.812
       283   09 Jun 2027 10:57:00.213   09 Jun 2027 10:57:02.033             1.820           711.125
       284   09 Jun 2027 10:58:04.241   09 Jun 2027 10:58:06.957             2.716          1250.250
       285   09 Jun 2027 10:58:16.390   09 Jun 2027 10:58:17.108             0.718           139.844
       286   10 Jun 2027 03:16:09.873   10 Jun 2027 03:18:42.658           152.785         76392.500
       287   10 Jun 2027 03:18:48.492   10 Jun 2027 03:19:11.723            23.231         11615.500
       288   10 Jun 2027 03:19:41.009   10 Jun 2027 03:19:54.215            13.206          6603.000
       289   10 Jun 2027 03:22:44.644   10 Jun 2027 03:22:49.684             5.040          2520.000
       290   10 Jun 2027 03:23:08.549   10 Jun 2027 03:23:17.400             8.851          4425.500
       291   10 Jun 2027 04:42:07.277   10 Jun 2027 04:42:31.176            23.899         11949.500
       292   10 Jun 2027 04:53:11.897   10 Jun 2027 04:54:48.711            96.814         48378.219
       293   10 Jun 2027 04:56:01.358   10 Jun 2027 04:56:02.346             0.988           195.531
       294   10 Jun 2027 06:16:10.117   10 Jun 2027 06:16:21.018            10.901          4131.875
       295   10 Jun 2027 06:17:01.029   10 Jun 2027 06:17:04.987             3.958          1221.437
       296   10 Jun 2027 06:17:35.111   10 Jun 2027 06:17:37.774             2.663           749.563
       297   10 Jun 2027 06:17:42.370   10 Jun 2027 06:17:44.037             1.667            43.500
       298   10 Jun 2027 06:18:09.103   10 Jun 2027 06:18:14.007             4.904           574.937
       299   10 Jun 2027 06:19:22.527   10 Jun 2027 06:19:33.636            11.109          1844.250
       300   10 Jun 2027 06:19:43.098   10 Jun 2027 06:19:43.098             0.000             0.000
       301   10 Jun 2027 06:19:48.972   10 Jun 2027 06:19:53.309             4.337           479.250
       302   10 Jun 2027 07:51:42.461   10 Jun 2027 07:51:49.319             6.858          2294.344
       303   10 Jun 2027 07:52:52.854   10 Jun 2027 07:52:57.253             4.399          1228.719
       304   10 Jun 2027 07:54:18.948   10 Jun 2027 07:54:24.001             5.053          2197.875
       305   10 Jun 2027 07:54:35.537   10 Jun 2027 07:54:37.414             1.877            38.219
       306   10 Jun 2027 07:55:41.509   10 Jun 2027 07:55:43.196             1.687           121.781
       307   10 Jun 2027 07:56:16.347   10 Jun 2027 07:56:24.004             7.657          1035.969
       308   10 Jun 2027 07:57:07.548   10 Jun 2027 07:57:11.652             4.104          1138.406
       309   10 Jun 2027 09:27:37.806   10 Jun 2027 09:27:47.539             9.733          3040.656
       310   10 Jun 2027 09:28:35.985   10 Jun 2027 09:28:37.250             1.265           269.625
       311   10 Jun 2027 09:30:40.071   10 Jun 2027 09:30:45.931             5.860          1401.000
       312   10 Jun 2027 09:31:31.305   10 Jun 2027 09:31:34.351             3.046           611.906
       313   10 Jun 2027 09:32:26.351   10 Jun 2027 09:32:28.998             2.647          1247.156
       314   10 Jun 2027 09:33:05.718   10 Jun 2027 09:33:06.855             1.137           457.000
       315   10 Jun 2027 09:33:23.417   10 Jun 2027 09:33:25.889             2.472           377.250
       316   10 Jun 2027 09:33:33.246   10 Jun 2027 09:33:34.724             1.478            22.656
       317   10 Jun 2027 09:33:51.994   10 Jun 2027 09:33:54.645             2.651           539.687
       318   10 Jun 2027 11:04:39.228   10 Jun 2027 11:04:54.270            15.042          6755.031
       319   10 Jun 2027 11:06:20.280   10 Jun 2027 11:06:22.449             2.169            51.125
       320   10 Jun 2027 11:06:22.891   10 Jun 2027 11:06:24.829             1.938            13.812
       321   10 Jun 2027 11:07:25.062   10 Jun 2027 11:07:27.164             2.102           796.094
       322   10 Jun 2027 11:08:17.109   10 Jun 2027 11:08:19.566             2.457          1088.031
       323   10 Jun 2027 11:08:38.711   10 Jun 2027 11:08:45.487             6.776           503.500
       324   10 Jun 2027 11:09:19.252   10 Jun 2027 11:09:25.738             6.486           560.219
       325   10 Jun 2027 11:09:53.376   10 Jun 2027 11:09:57.301             3.925           743.500
       326   11 Jun 2027 03:28:35.802   11 Jun 2027 03:31:09.143           153.341         76670.500
       327   11 Jun 2027 03:32:20.004   11 Jun 2027 03:32:35.837            15.833          7916.500
       328   11 Jun 2027 03:32:47.504   11 Jun 2027 03:33:55.317            67.813         33906.500
       329   11 Jun 2027 04:53:31.418   11 Jun 2027 04:53:40.423             9.005          4502.500
       330   11 Jun 2027 04:54:05.721   11 Jun 2027 04:54:10.582             4.861          2430.500
       331   11 Jun 2027 05:05:14.205   11 Jun 2027 05:06:32.873            78.668         39186.000
       332   11 Jun 2027 06:27:26.819   11 Jun 2027 06:27:38.422            11.603          3885.031
       333   11 Jun 2027 06:28:04.814   11 Jun 2027 06:28:10.758             5.944           722.875
       334   11 Jun 2027 06:29:55.766   11 Jun 2027 06:29:59.560             3.794          1415.156
       335   11 Jun 2027 06:31:32.613   11 Jun 2027 06:31:36.834             4.221          2110.500
       336   11 Jun 2027 06:32:22.891   11 Jun 2027 06:32:32.269             9.378          1838.594
       337   11 Jun 2027 08:02:34.195   11 Jun 2027 08:02:38.039             3.844          1655.875
       338   11 Jun 2027 08:03:46.393   11 Jun 2027 08:03:49.221             2.828          1337.563
       339   11 Jun 2027 08:04:54.272   11 Jun 2027 08:04:55.439             1.167           583.500
       340   11 Jun 2027 08:06:19.765   11 Jun 2027 08:06:29.177             9.412          3455.906
       341   11 Jun 2027 08:06:40.585   11 Jun 2027 08:06:46.417             5.832           258.313
       342   11 Jun 2027 08:07:42.963   11 Jun 2027 08:07:46.488             3.525          1358.281
       343   11 Jun 2027 08:08:11.065   11 Jun 2027 08:08:13.930             2.865           445.187
       344   11 Jun 2027 08:09:10.003   11 Jun 2027 08:09:12.601             2.598          1299.000
       345   11 Jun 2027 09:39:47.547   11 Jun 2027 09:39:54.857             7.310          3557.656
       346   11 Jun 2027 09:41:55.212   11 Jun 2027 09:42:10.340            15.128          2706.812
       347   11 Jun 2027 09:43:32.889   11 Jun 2027 09:43:37.605             4.716           509.281
       348   11 Jun 2027 09:44:34.221   11 Jun 2027 09:44:39.864             5.643          1432.469
       349   11 Jun 2027 09:45:00.273   11 Jun 2027 09:45:02.058             1.785           200.531
       350   11 Jun 2027 09:45:12.387   11 Jun 2027 09:45:16.687             4.300           322.781
       351   11 Jun 2027 09:46:14.759   11 Jun 2027 09:46:18.403             3.644          1213.250
       352   11 Jun 2027 11:16:43.765   11 Jun 2027 11:16:55.231            11.466          5175.594
       353   11 Jun 2027 11:18:40.542   11 Jun 2027 11:18:42.702             2.160           544.500
       354   11 Jun 2027 11:19:15.761   11 Jun 2027 11:19:17.325             1.564           405.156
       355   11 Jun 2027 11:20:18.284   11 Jun 2027 11:20:23.658             5.374          1675.219
       356   11 Jun 2027 11:20:58.439   11 Jun 2027 11:21:03.362             4.923           758.625
       357   11 Jun 2027 11:21:11.581   11 Jun 2027 11:21:13.494             1.913           241.312
       358   11 Jun 2027 11:22:39.435   11 Jun 2027 11:22:44.154             4.719          2185.812
       359   11 Jun 2027 11:22:44.583   11 Jun 2027 11:22:44.875             0.292            13.406
       360   12 Jun 2027 03:40:50.399   12 Jun 2027 03:43:07.065           136.666         68333.000
       361   12 Jun 2027 03:43:59.794   12 Jun 2027 03:44:35.806            36.012         18006.000
       362   12 Jun 2027 03:44:41.123   12 Jun 2027 03:45:41.708            60.585         30292.500
       363   12 Jun 2027 05:04:59.420   12 Jun 2027 05:05:41.447            42.027         21013.500
       364   12 Jun 2027 05:17:11.106   12 Jun 2027 05:17:48.788            37.682         18841.000
       365   12 Jun 2027 06:39:12.426   12 Jun 2027 06:39:43.355            30.929         15064.844
       366   12 Jun 2027 06:40:01.376   12 Jun 2027 06:40:02.559             1.183           563.156
       367   12 Jun 2027 06:40:28.189   12 Jun 2027 06:40:29.422             1.233           101.219
       368   12 Jun 2027 06:41:25.139   12 Jun 2027 06:41:29.060             3.921          1583.781
       369   12 Jun 2027 06:41:57.270   12 Jun 2027 06:42:00.080             2.810           393.563
       370   12 Jun 2027 06:43:30.823   12 Jun 2027 06:43:35.588             4.765          2273.687
       371   12 Jun 2027 06:43:48.603   12 Jun 2027 06:43:49.576             0.973           276.125
       372   12 Jun 2027 06:44:30.254   12 Jun 2027 06:44:36.665             6.411          1271.187
       373   12 Jun 2027 08:14:03.650   12 Jun 2027 08:14:06.488             2.838          1415.219
       374   12 Jun 2027 08:15:43.905   12 Jun 2027 08:15:47.480             3.575          1602.594
       375   12 Jun 2027 08:16:03.920   12 Jun 2027 08:16:06.778             2.858           425.875
       376   12 Jun 2027 08:16:32.351   12 Jun 2027 08:16:35.302             2.951           787.219
       377   12 Jun 2027 08:18:20.219   12 Jun 2027 08:18:27.237             7.018          2412.375
       378   12 Jun 2027 08:19:44.078   12 Jun 2027 08:19:51.073             6.995          2229.250
       379   12 Jun 2027 08:20:40.832   12 Jun 2027 08:20:44.141             3.309           878.125
       380   12 Jun 2027 08:21:02.920   12 Jun 2027 08:21:04.285             1.365           426.688
       381   12 Jun 2027 09:51:49.559   12 Jun 2027 09:52:09.166            19.607          4693.125
       382   12 Jun 2027 09:54:42.167   12 Jun 2027 09:54:45.660             3.493          1273.312
       383   12 Jun 2027 09:56:09.286   12 Jun 2027 09:56:11.692             2.406            86.156
       384   12 Jun 2027 09:56:52.327   12 Jun 2027 09:56:55.736             3.409            81.813
       385   12 Jun 2027 09:57:12.509   12 Jun 2027 09:57:13.456             0.947            31.344
       386   12 Jun 2027 09:57:21.039   12 Jun 2027 09:57:24.196             3.157           193.719
       387   12 Jun 2027 09:57:44.951   12 Jun 2027 09:57:52.424             7.473           465.375
       388   12 Jun 2027 09:58:24.106   12 Jun 2027 09:58:26.924             2.818           201.406
       389   12 Jun 2027 09:58:31.955   12 Jun 2027 09:58:35.508             3.553             8.219
       390   12 Jun 2027 09:59:02.279   12 Jun 2027 09:59:03.676             1.397           614.375
       391   12 Jun 2027 09:59:12.757   12 Jun 2027 09:59:13.266             0.509            29.000
       392   12 Jun 2027 11:28:37.161   12 Jun 2027 11:28:47.224            10.063          4784.094
       393   12 Jun 2027 11:29:00.194   12 Jun 2027 11:29:05.555             5.361           101.813
       394   12 Jun 2027 11:31:16.930   12 Jun 2027 11:31:23.198             6.268          1872.906
       395   12 Jun 2027 11:32:02.190   12 Jun 2027 11:32:08.593             6.403          1218.500
       396   12 Jun 2027 11:32:26.326   12 Jun 2027 11:32:30.242             3.916           287.563
       397   12 Jun 2027 11:32:59.381   12 Jun 2027 11:33:01.913             2.532           548.094
       398   12 Jun 2027 11:33:35.027   12 Jun 2027 11:33:41.133             6.106           894.469
       399   12 Jun 2027 11:34:22.640   12 Jun 2027 11:34:28.276             5.636           866.187
       400   12 Jun 2027 11:34:54.968   12 Jun 2027 11:34:56.749             1.781           695.812
       401   12 Jun 2027 11:35:12.167   12 Jun 2027 11:35:19.515             7.348           186.438
       402   13 Jun 2027 03:52:58.712   13 Jun 2027 03:55:39.314           160.602         80301.000
       403   13 Jun 2027 03:56:59.972   13 Jun 2027 03:57:09.832             9.860          4930.000
       404   13 Jun 2027 03:58:06.622   13 Jun 2027 03:58:06.622             0.000             0.000
       405   13 Jun 2027 05:17:02.242   13 Jun 2027 05:17:54.452            52.210         26105.000
       406   13 Jun 2027 06:52:59.467   13 Jun 2027 06:54:42.451           102.984         51382.250
       407   13 Jun 2027 06:56:08.491   13 Jun 2027 06:56:10.953             2.462          1231.000
       408   13 Jun 2027 06:56:17.532   13 Jun 2027 06:56:17.794             0.262           131.000
       409   13 Jun 2027 08:26:49.358   13 Jun 2027 08:27:02.668            13.310          2811.875
       410   13 Jun 2027 08:28:48.592   13 Jun 2027 08:28:53.695             5.103          1188.844
       411   13 Jun 2027 08:29:11.899   13 Jun 2027 08:29:12.821             0.922           372.906
       412   13 Jun 2027 08:30:20.214   13 Jun 2027 08:30:26.908             6.694          2106.031
       413   13 Jun 2027 08:31:43.676   13 Jun 2027 08:31:51.290             7.614          2125.375
       414   13 Jun 2027 08:32:42.534   13 Jun 2027 08:32:46.135             3.601          1601.375
       415   13 Jun 2027 08:33:16.800   13 Jun 2027 08:33:18.652             1.852           899.750
       416   13 Jun 2027 08:33:36.511   13 Jun 2027 08:33:39.238             2.727           558.094
       417   13 Jun 2027 08:34:34.402   13 Jun 2027 08:34:37.544             3.142          1257.469
       418   13 Jun 2027 10:03:52.805   13 Jun 2027 10:04:07.711            14.906          5065.406
       419   13 Jun 2027 10:05:53.059   13 Jun 2027 10:05:57.800             4.741          2303.531
       420   13 Jun 2027 10:07:30.531   13 Jun 2027 10:07:33.158             2.627          1108.469
       421   13 Jun 2027 10:08:00.899   13 Jun 2027 10:08:02.895             1.996           456.500
       422   13 Jun 2027 10:09:11.628   13 Jun 2027 10:09:16.241             4.613          2147.906
       423   13 Jun 2027 10:09:45.483   13 Jun 2027 10:09:47.154             1.671           805.031
       424   13 Jun 2027 10:10:25.423   13 Jun 2027 10:10:31.571             6.148          1086.219
       425   13 Jun 2027 10:10:40.220   13 Jun 2027 10:10:44.369             4.149           116.875
       426   13 Jun 2027 10:10:46.591   13 Jun 2027 10:10:46.803             0.212            47.750
       427   13 Jun 2027 11:40:47.445   13 Jun 2027 11:40:59.098            11.653          5811.094
       428   13 Jun 2027 11:41:21.089   13 Jun 2027 11:41:23.383             2.294           680.906
       429   13 Jun 2027 11:43:09.821   13 Jun 2027 11:43:14.792             4.971          1585.531
       430   13 Jun 2027 11:43:54.151   13 Jun 2027 11:44:00.843             6.692           497.656
       431   13 Jun 2027 11:44:27.620   13 Jun 2027 11:44:29.817             2.197           285.344
       432   13 Jun 2027 11:44:37.679   13 Jun 2027 11:44:43.671             5.992           245.688
       433   13 Jun 2027 11:45:28.998   13 Jun 2027 11:45:31.496             2.498           825.219
       434   13 Jun 2027 11:46:04.593   13 Jun 2027 11:46:08.494             3.901           877.406
       435   13 Jun 2027 11:46:48.293   13 Jun 2027 11:46:50.346             2.053           918.656
