uniorb/output/strategy_4/Camera/Camera_KinoSat_111810.txt

KinoSat_111810
-------------------------
    Access    *     Start Time (UTCG)     *     Stop Time (UTCG)  *   Duration (s) *   Data (Mbytes)
         1   01 Jun 2027 03:54:15.685   01 Jun 2027 03:54:38.846            23.161         11580.500
         2   01 Jun 2027 03:54:42.305   01 Jun 2027 03:55:56.636            74.331         37165.500
         3   01 Jun 2027 03:56:16.827   01 Jun 2027 03:57:17.941            61.114         30557.000
         4   01 Jun 2027 05:32:38.365   01 Jun 2027 05:34:34.471           116.106         58053.000
         5   01 Jun 2027 05:35:00.801   01 Jun 2027 05:35:07.545             6.744          3372.000
         6   01 Jun 2027 05:35:38.367   01 Jun 2027 05:35:57.083            18.716          9358.000
         7   01 Jun 2027 05:36:08.742   01 Jun 2027 05:36:26.877            18.135          9067.500
         8   01 Jun 2027 06:56:41.256   01 Jun 2027 06:58:22.224           100.968         50484.000
         9   01 Jun 2027 08:32:38.498   01 Jun 2027 08:34:16.345            97.847         48923.500
        10   01 Jun 2027 10:06:28.180   01 Jun 2027 10:08:19.964           111.784         55892.000
        11   01 Jun 2027 10:08:56.126   01 Jun 2027 10:08:56.126             0.000             0.000
        12   01 Jun 2027 10:11:16.092   01 Jun 2027 10:11:42.871            26.779         13389.500
        13   01 Jun 2027 10:14:19.654   01 Jun 2027 10:14:58.301            38.647         19323.500
        14   01 Jun 2027 11:43:32.127   01 Jun 2027 11:44:19.651            47.524         23762.000
        15   01 Jun 2027 11:48:56.811   01 Jun 2027 11:50:01.306            64.495         32247.500
        16   02 Jun 2027 04:06:53.246   02 Jun 2027 04:07:14.452            21.206         10603.000
        17   02 Jun 2027 04:07:44.234   02 Jun 2027 04:08:29.563            45.329         22664.500
        18   02 Jun 2027 04:08:31.392   02 Jun 2027 04:09:28.350            56.958         28479.000
        19   02 Jun 2027 04:10:18.155   02 Jun 2027 04:10:30.183            12.028          6014.000
        20   02 Jun 2027 04:10:47.764   02 Jun 2027 04:10:58.216            10.452          5226.000
        21   02 Jun 2027 04:11:27.226   02 Jun 2027 04:11:32.917             5.691          2845.500
        22   02 Jun 2027 05:45:13.268   02 Jun 2027 05:49:51.130           277.862        138931.000
        23   02 Jun 2027 07:08:35.553   02 Jun 2027 07:09:52.332            76.779         38389.500
        24   02 Jun 2027 08:44:57.421   02 Jun 2027 08:47:41.296           163.875         81937.500
        25   02 Jun 2027 10:18:26.516   02 Jun 2027 10:19:33.502            66.986         33493.000
        26   02 Jun 2027 10:20:26.920   02 Jun 2027 10:21:07.448            40.528         19903.313
        27   02 Jun 2027 10:25:28.269   02 Jun 2027 10:25:45.235            16.966          7724.812
        28   02 Jun 2027 10:26:02.670   02 Jun 2027 10:26:03.875             1.205           537.187
        29   02 Jun 2027 11:55:58.945   02 Jun 2027 11:56:08.642             9.697          4046.188
        30   02 Jun 2027 11:58:15.703   02 Jun 2027 11:58:17.429             1.726           309.094
        31   02 Jun 2027 11:59:06.193   02 Jun 2027 11:59:14.509             8.316           489.156
        32   02 Jun 2027 11:59:21.456   02 Jun 2027 11:59:21.901             0.445           217.094
        33   03 Jun 2027 04:18:46.832   03 Jun 2027 04:18:52.158             5.326          2663.000
        34   03 Jun 2027 04:19:16.822   03 Jun 2027 04:20:55.117            98.295         49147.500
        35   03 Jun 2027 04:22:19.876   03 Jun 2027 04:22:25.821             5.945          2972.500
        36   03 Jun 2027 05:58:37.136   03 Jun 2027 06:01:27.723           170.587         85293.500
        37   03 Jun 2027 07:20:26.727   03 Jun 2027 07:21:24.607            57.880         28590.531
        38   03 Jun 2027 07:21:47.425   03 Jun 2027 07:21:48.667             1.242           480.344
        39   03 Jun 2027 07:22:54.592   03 Jun 2027 07:23:01.499             6.907          1907.219
        40   03 Jun 2027 08:56:59.604   03 Jun 2027 08:57:11.501            11.897          2868.813
        41   03 Jun 2027 08:57:49.342   03 Jun 2027 08:57:50.961             1.619           613.438
        42   03 Jun 2027 08:58:28.113   03 Jun 2027 08:58:32.955             4.842           199.344
        43   03 Jun 2027 08:58:48.255   03 Jun 2027 08:58:49.419             1.164           437.281
        44   03 Jun 2027 09:00:01.301   03 Jun 2027 09:00:05.185             3.884          1059.531
        45   03 Jun 2027 10:31:30.214   03 Jun 2027 10:31:37.382             7.168          3278.781
        46   03 Jun 2027 10:33:03.668   03 Jun 2027 10:33:05.810             2.142           403.625
        47   03 Jun 2027 10:34:44.546   03 Jun 2027 10:34:52.711             8.165          3085.500
        48   03 Jun 2027 10:35:03.567   03 Jun 2027 10:35:05.401             1.834           195.531
        49   03 Jun 2027 10:36:02.356   03 Jun 2027 10:36:08.551             6.195          1519.531
        50   03 Jun 2027 10:36:32.979   03 Jun 2027 10:36:34.697             1.718           708.125
        51   03 Jun 2027 10:37:04.821   03 Jun 2027 10:37:06.857             2.036           136.281
        52   03 Jun 2027 10:37:31.328   03 Jun 2027 10:37:39.815             8.487           753.531
        53   03 Jun 2027 10:38:04.551   03 Jun 2027 10:38:06.206             1.655           361.344
        54   03 Jun 2027 10:38:17.920   03 Jun 2027 10:38:18.879             0.959           155.563
        55   03 Jun 2027 10:38:39.218   03 Jun 2027 10:38:39.926             0.708           354.000
        56   03 Jun 2027 10:38:52.070   03 Jun 2027 10:38:52.524             0.454           227.000
        57   04 Jun 2027 03:00:00.000   04 Jun 2027 03:00:00.927             0.927           463.500
        58   04 Jun 2027 04:30:55.698   04 Jun 2027 04:31:57.749            62.051         31025.500
        59   04 Jun 2027 04:32:04.738   04 Jun 2027 04:33:16.389            71.651         35825.500
        60   04 Jun 2027 04:34:30.878   04 Jun 2027 04:34:49.070            18.192          9096.000
        61   04 Jun 2027 04:35:16.143   04 Jun 2027 04:35:25.625             9.482          4741.000
        62   04 Jun 2027 06:09:14.372   04 Jun 2027 06:09:45.463            31.091         15545.500
        63   04 Jun 2027 06:10:03.907   04 Jun 2027 06:12:05.992           122.085         59849.968
        64   04 Jun 2027 06:12:40.826   04 Jun 2027 06:12:46.159             5.333           961.281
        65   04 Jun 2027 07:32:37.257   04 Jun 2027 07:32:48.071            10.814          4704.094
        66   04 Jun 2027 07:33:29.940   04 Jun 2027 07:33:31.967             2.027           764.844
        67   04 Jun 2027 07:33:57.159   04 Jun 2027 07:34:01.516             4.357           697.000
        68   04 Jun 2027 07:35:15.958   04 Jun 2027 07:35:20.937             4.979          1985.656
        69   04 Jun 2027 07:35:35.098   04 Jun 2027 07:35:35.098             0.000             0.000
        70   04 Jun 2027 09:09:24.559   04 Jun 2027 09:09:37.154            12.595          5477.000
        71   04 Jun 2027 09:10:22.258   04 Jun 2027 09:10:22.828             0.570           285.000
        72   04 Jun 2027 09:10:42.074   04 Jun 2027 09:10:43.949             1.875           604.469
        73   04 Jun 2027 09:11:29.444   04 Jun 2027 09:11:32.639             3.195          1169.063
        74   04 Jun 2027 09:12:07.580   04 Jun 2027 09:12:11.179             3.599          1025.625
        75   04 Jun 2027 10:44:40.619   04 Jun 2027 10:44:52.198            11.579          5033.281
        76   04 Jun 2027 10:47:11.165   04 Jun 2027 10:47:18.275             7.110          3194.875
        77   04 Jun 2027 10:50:30.847   04 Jun 2027 10:50:43.315            12.468          5348.344
        78   04 Jun 2027 10:50:48.510   04 Jun 2027 10:50:53.008             4.498           135.688
        79   05 Jun 2027 03:04:45.239   05 Jun 2027 03:04:51.783             6.544          3272.000
        80   05 Jun 2027 03:05:13.322   05 Jun 2027 03:05:35.416            22.094         11047.000
        81   05 Jun 2027 03:05:49.236   05 Jun 2027 03:06:10.375            21.139         10569.500
        82   05 Jun 2027 03:06:38.534   05 Jun 2027 03:06:50.872            12.338          6169.000
        83   05 Jun 2027 03:08:17.001   05 Jun 2027 03:08:21.263             4.262          2131.000
        84   05 Jun 2027 03:09:13.914   05 Jun 2027 03:09:13.914             0.000             0.000
        85   05 Jun 2027 03:10:15.203   05 Jun 2027 03:10:23.971             8.768          4384.000
        86   05 Jun 2027 03:11:24.768   05 Jun 2027 03:11:25.476             0.708           354.000
        87   05 Jun 2027 04:44:02.502   05 Jun 2027 04:47:16.900           194.398         97199.000
        88   05 Jun 2027 04:48:21.898   05 Jun 2027 04:48:35.382            13.484          6742.000
        89   05 Jun 2027 06:21:11.432   05 Jun 2027 06:21:50.274            38.842         19421.000
        90   05 Jun 2027 06:22:12.789   05 Jun 2027 06:22:25.226            12.437          5669.562
        91   05 Jun 2027 07:45:14.172   05 Jun 2027 07:45:24.427            10.255          3566.156
        92   05 Jun 2027 07:46:05.551   05 Jun 2027 07:46:16.642            11.091           469.063
        93   05 Jun 2027 07:47:40.176   05 Jun 2027 07:47:42.628             2.452           822.625
        94   05 Jun 2027 09:21:02.201   05 Jun 2027 09:21:14.137            11.936          2263.438
        95   05 Jun 2027 09:22:39.850   05 Jun 2027 09:22:47.186             7.336          2579.188
        96   05 Jun 2027 09:23:13.204   05 Jun 2027 09:23:16.384             3.180           382.625
        97   05 Jun 2027 09:24:16.574   05 Jun 2027 09:24:20.085             3.511          1418.906
        98   05 Jun 2027 10:55:59.369   05 Jun 2027 10:56:06.302             6.933          2097.344
        99   05 Jun 2027 10:57:55.958   05 Jun 2027 10:57:55.958             0.000             0.000
       100   05 Jun 2027 10:58:37.518   05 Jun 2027 10:58:46.772             9.254          4087.000
       101   05 Jun 2027 10:59:50.351   05 Jun 2027 10:59:55.282             4.931          1672.906
       102   05 Jun 2027 11:00:34.255   05 Jun 2027 11:00:37.395             3.140           662.219
       103   05 Jun 2027 11:01:57.052   05 Jun 2027 11:02:00.289             3.237          1541.969
       104   05 Jun 2027 11:02:43.455   05 Jun 2027 11:02:46.289             2.834           740.094
       105   05 Jun 2027 11:02:46.478   05 Jun 2027 11:02:46.616             0.138             5.906
       106   06 Jun 2027 03:17:23.615   06 Jun 2027 03:20:15.087           171.472         85736.000
       107   06 Jun 2027 03:20:40.247   06 Jun 2027 03:20:59.866            19.619          9809.500
       108   06 Jun 2027 04:56:06.309   06 Jun 2027 04:58:07.849           121.540         60770.000
       109   06 Jun 2027 05:02:15.597   06 Jun 2027 05:02:35.998            20.401          9877.656
       110   06 Jun 2027 05:03:40.146   06 Jun 2027 05:03:44.217             4.071          1840.750
       111   06 Jun 2027 06:22:00.891   06 Jun 2027 06:22:10.178             9.287          4465.531
       112   06 Jun 2027 06:33:07.467   06 Jun 2027 06:33:13.307             5.840          2509.969
       113   06 Jun 2027 07:56:04.801   06 Jun 2027 07:56:20.482            15.681          6907.188
       114   06 Jun 2027 07:57:55.426   06 Jun 2027 07:58:04.427             9.001          2054.219
       115   06 Jun 2027 07:59:16.424   06 Jun 2027 07:59:25.180             8.756          2178.844
       116   06 Jun 2027 09:31:21.401   06 Jun 2027 09:31:28.421             7.020          2542.063
       117   06 Jun 2027 09:32:46.887   06 Jun 2027 09:32:52.853             5.966          1244.812
       118   06 Jun 2027 09:34:22.536   06 Jun 2027 09:34:26.525             3.989          1664.344
       119   06 Jun 2027 09:35:38.088   06 Jun 2027 09:35:38.634             0.546           173.937
       120   06 Jun 2027 09:36:28.420   06 Jun 2027 09:36:32.876             4.456          1336.656
       121   06 Jun 2027 09:37:16.128   06 Jun 2027 09:37:16.352             0.224           112.000
       122   06 Jun 2027 11:10:27.349   06 Jun 2027 11:10:50.918            23.569          8255.625
       123   06 Jun 2027 11:14:26.156   06 Jun 2027 11:14:37.468            11.312          5179.125
       124   06 Jun 2027 11:14:45.343   06 Jun 2027 11:14:45.968             0.625           107.906
       125   07 Jun 2027 03:29:29.995   07 Jun 2027 03:31:14.187           104.192         52096.000
       126   07 Jun 2027 03:31:16.147   07 Jun 2027 03:32:40.204            84.057         42028.500
       127   07 Jun 2027 03:33:11.604   07 Jun 2027 03:33:38.641            27.037         13518.500
       128   07 Jun 2027 05:08:35.917   07 Jun 2027 05:10:07.388            91.471         44552.875
       129   07 Jun 2027 05:10:20.349   07 Jun 2027 05:10:27.863             7.514           403.094
       130   07 Jun 2027 05:13:40.138   07 Jun 2027 05:13:53.124            12.986          5547.594
       131   07 Jun 2027 05:13:55.065   07 Jun 2027 05:13:55.560             0.495            60.656
       132   07 Jun 2027 05:14:30.358   07 Jun 2027 05:14:33.422             3.064           738.500
       133   07 Jun 2027 06:33:27.998   07 Jun 2027 06:33:37.121             9.123          4561.500
       134   07 Jun 2027 06:33:42.290   07 Jun 2027 06:33:47.988             5.698          1220.563
       135   07 Jun 2027 06:34:09.203   07 Jun 2027 06:34:09.203             0.000             0.000
       136   07 Jun 2027 06:34:41.098   07 Jun 2027 06:34:44.282             3.184          1131.063
       137   07 Jun 2027 06:45:10.178   07 Jun 2027 06:45:21.723            11.545          2991.219
       138   07 Jun 2027 08:07:23.704   07 Jun 2027 08:07:39.841            16.137          7429.906
       139   07 Jun 2027 08:07:57.407   07 Jun 2027 08:07:58.079             0.672           125.688
       140   07 Jun 2027 08:08:07.206   07 Jun 2027 08:08:11.102             3.896           161.688
       141   07 Jun 2027 08:09:55.189   07 Jun 2027 08:10:04.317             9.128          2109.937
       142   07 Jun 2027 08:11:15.780   07 Jun 2027 08:11:28.291            12.511          2044.219
       143   07 Jun 2027 08:12:18.501   07 Jun 2027 08:12:21.942             3.441          1365.656
       144   07 Jun 2027 09:42:28.617   07 Jun 2027 09:42:33.802             5.185          2420.688
       145   07 Jun 2027 09:44:43.169   07 Jun 2027 09:44:44.557             1.388           568.656
       146   07 Jun 2027 09:46:07.131   07 Jun 2027 09:46:11.231             4.100          1240.125
       147   07 Jun 2027 09:48:59.965   07 Jun 2027 09:49:12.869            12.904          4706.344
       148   07 Jun 2027 11:19:47.568   07 Jun 2027 11:19:56.280             8.712          4085.281
       149   07 Jun 2027 11:20:50.278   07 Jun 2027 11:20:55.474             5.196           773.719
       150   07 Jun 2027 11:22:54.931   07 Jun 2027 11:23:03.780             8.849          3420.469
       151   07 Jun 2027 11:25:08.420   07 Jun 2027 11:25:17.096             8.676          3895.000
       152   07 Jun 2027 11:26:01.219   07 Jun 2027 11:26:03.833             2.614           862.563
       153   07 Jun 2027 11:26:35.084   07 Jun 2027 11:26:36.366             1.282           625.844
       154   07 Jun 2027 11:26:45.723   07 Jun 2027 11:26:48.980             3.257           204.188
       155   07 Jun 2027 11:27:08.788   07 Jun 2027 11:27:09.378             0.590            84.625
       156   08 Jun 2027 03:41:49.408   08 Jun 2027 03:42:13.035            23.627         11813.500
       157   08 Jun 2027 03:44:00.291   08 Jun 2027 03:44:00.579             0.288           144.000
       158   08 Jun 2027 03:44:02.516   08 Jun 2027 03:45:54.188           111.672         55836.000
       159   08 Jun 2027 03:47:27.301   08 Jun 2027 03:47:49.296            21.995         10997.500
       160   08 Jun 2027 05:20:37.113   08 Jun 2027 05:22:56.950           139.837         69918.500
       161   08 Jun 2027 05:24:23.734   08 Jun 2027 05:24:40.527            16.793          7808.437
       162   08 Jun 2027 05:24:51.158   08 Jun 2027 05:24:53.724             2.566           286.344
       163   08 Jun 2027 05:25:24.065   08 Jun 2027 05:25:25.403             1.338           361.469
       164   08 Jun 2027 05:25:55.666   08 Jun 2027 05:25:57.719             2.053           887.188
       165   08 Jun 2027 05:26:55.863   08 Jun 2027 05:27:06.109            10.246          1276.438
       166   08 Jun 2027 05:27:35.092   08 Jun 2027 05:27:37.105             2.013           565.500
       167   08 Jun 2027 06:44:57.409   08 Jun 2027 06:45:08.820            11.411          5651.812
       168   08 Jun 2027 06:46:06.594   08 Jun 2027 06:46:11.565             4.971          1805.437
       169   08 Jun 2027 06:57:12.104   08 Jun 2027 06:57:18.828             6.724          3270.656
       170   08 Jun 2027 08:19:08.618   08 Jun 2027 08:19:23.833            15.215          7235.719
       171   08 Jun 2027 08:19:39.014   08 Jun 2027 08:19:43.460             4.446           100.500
       172   08 Jun 2027 08:20:25.625   08 Jun 2027 08:20:28.293             2.668           684.906
       173   08 Jun 2027 08:21:11.291   08 Jun 2027 08:21:13.904             2.613           333.031
       174   08 Jun 2027 08:21:53.393   08 Jun 2027 08:21:54.352             0.959           479.500
       175   08 Jun 2027 08:22:48.308   08 Jun 2027 08:22:56.073             7.765          2440.656
       176   08 Jun 2027 08:23:37.717   08 Jun 2027 08:23:39.753             2.036           728.406
       177   08 Jun 2027 09:53:56.846   08 Jun 2027 09:54:04.522             7.676          2645.500
       178   08 Jun 2027 09:55:47.097   08 Jun 2027 09:55:47.687             0.590           191.844
       179   08 Jun 2027 09:56:35.501   08 Jun 2027 09:56:39.863             4.362          1435.906
       180   08 Jun 2027 09:57:45.037   08 Jun 2027 09:57:45.037             0.000             0.000
       181   08 Jun 2027 09:59:33.882   08 Jun 2027 09:59:42.918             9.036          4039.813
       182   08 Jun 2027 10:00:54.123   08 Jun 2027 10:01:00.511             6.388           419.094
       183   08 Jun 2027 10:01:46.584   08 Jun 2027 10:01:51.813             5.229          1415.469
       184   08 Jun 2027 11:33:50.865   08 Jun 2027 11:34:09.817            18.952          7911.500
       185   08 Jun 2027 11:36:02.239   08 Jun 2027 11:36:07.363             5.124          1479.375
       186   08 Jun 2027 11:36:18.496   08 Jun 2027 11:36:19.809             1.313           161.656
       187   08 Jun 2027 11:36:55.320   08 Jun 2027 11:36:59.976             4.656           757.437
       188   08 Jun 2027 11:38:11.882   08 Jun 2027 11:38:17.348             5.466          1976.312
       189   08 Jun 2027 11:38:34.891   08 Jun 2027 11:38:37.431             2.540           364.344
       190   08 Jun 2027 11:39:06.762   08 Jun 2027 11:39:09.427             2.665           857.719
       191   09 Jun 2027 03:54:33.682   09 Jun 2027 03:56:12.593            98.911         49455.500
       192   09 Jun 2027 03:56:35.874   09 Jun 2027 03:57:39.677            63.803         31901.500
       193   09 Jun 2027 03:57:58.704   09 Jun 2027 03:57:58.704             0.000             0.000
       194   09 Jun 2027 03:59:14.629   09 Jun 2027 03:59:15.034             0.405           202.500
       195   09 Jun 2027 03:59:27.716   09 Jun 2027 03:59:40.047            12.331          6165.500
       196   09 Jun 2027 05:32:59.006   09 Jun 2027 05:34:32.850            93.844         46922.000
       197   09 Jun 2027 05:35:00.471   09 Jun 2027 05:35:51.737            51.266         25548.156
       198   09 Jun 2027 05:36:10.325   09 Jun 2027 05:36:11.853             1.528           268.438
       199   09 Jun 2027 05:36:53.986   09 Jun 2027 05:36:57.826             3.840           224.250
       200   09 Jun 2027 05:37:28.363   09 Jun 2027 05:37:28.945             0.582            77.375
       201   09 Jun 2027 05:38:00.559   09 Jun 2027 05:38:01.024             0.465            57.219
       202   09 Jun 2027 06:56:57.861   09 Jun 2027 06:57:13.847            15.986          7408.844
       203   09 Jun 2027 06:59:02.714   09 Jun 2027 06:59:03.391             0.677           338.500
       204   09 Jun 2027 08:32:55.356   09 Jun 2027 08:33:14.343            18.987          7889.156
       205   09 Jun 2027 08:33:45.533   09 Jun 2027 08:33:52.708             7.175           953.250
       206   09 Jun 2027 08:34:31.467   09 Jun 2027 08:34:37.494             6.027          1209.562
       207   09 Jun 2027 08:35:40.451   09 Jun 2027 08:35:44.530             4.079           884.125
       208   09 Jun 2027 08:36:13.924   09 Jun 2027 08:36:18.017             4.093           734.781
       209   09 Jun 2027 10:06:45.445   09 Jun 2027 10:06:53.553             8.108          2476.031
       210   09 Jun 2027 10:08:14.661   09 Jun 2027 10:08:19.176             4.515          1015.281
       211   09 Jun 2027 10:08:48.961   09 Jun 2027 10:08:50.237             1.276           283.344
       212   09 Jun 2027 10:09:20.526   09 Jun 2027 10:09:23.147             2.621           332.594
       213   09 Jun 2027 10:12:45.564   09 Jun 2027 10:12:50.243             4.679          2244.844
       214   09 Jun 2027 10:13:03.433   09 Jun 2027 10:13:05.645             2.212           412.188
       215   09 Jun 2027 10:13:55.370   09 Jun 2027 10:13:59.134             3.764          1474.437
       216   09 Jun 2027 10:14:04.995   09 Jun 2027 10:14:05.561             0.566           183.156
       217   09 Jun 2027 10:14:47.158   09 Jun 2027 10:14:50.542             3.384          1238.125
       218   09 Jun 2027 11:43:52.094   09 Jun 2027 11:44:06.572            14.478          5939.375
       219   09 Jun 2027 11:44:58.936   09 Jun 2027 11:45:04.933             5.997          1044.094
       220   09 Jun 2027 11:46:10.059   09 Jun 2027 11:46:12.838             2.779           456.469
       221   09 Jun 2027 11:47:59.100   09 Jun 2027 11:48:11.716            12.616          1228.937
       222   09 Jun 2027 11:48:16.076   09 Jun 2027 11:48:20.557             4.481            50.062
       223   09 Jun 2027 11:48:30.895   09 Jun 2027 11:48:31.998             1.103           323.063
       224   09 Jun 2027 11:49:10.130   09 Jun 2027 11:49:14.997             4.867           552.500
       225   09 Jun 2027 11:49:23.618   09 Jun 2027 11:49:26.432             2.814           212.781
       226   09 Jun 2027 11:50:07.354   09 Jun 2027 11:50:13.905             6.551          1026.156
       227   09 Jun 2027 11:50:28.667   09 Jun 2027 11:50:29.559             0.892           291.250
       228   10 Jun 2027 04:07:20.939   10 Jun 2027 04:07:29.646             8.707          4353.500
       229   10 Jun 2027 04:07:58.165   10 Jun 2027 04:08:46.268            48.103         24051.500
       230   10 Jun 2027 04:08:48.819   10 Jun 2027 04:10:01.630            72.811         36405.500
       231   10 Jun 2027 04:11:02.249   10 Jun 2027 04:11:11.907             9.658          4829.000
       232   10 Jun 2027 04:11:39.924   10 Jun 2027 04:11:49.651             9.727          4863.500
       233   10 Jun 2027 05:45:29.642   10 Jun 2027 05:46:00.267            30.625         15312.500
       234   10 Jun 2027 05:47:14.907   10 Jun 2027 05:49:36.869           141.962         70981.000
       235   10 Jun 2027 07:08:52.675   10 Jun 2027 07:09:11.729            19.054          8743.844
       236   10 Jun 2027 07:10:23.731   10 Jun 2027 07:10:27.057             3.326          1663.000
       237   10 Jun 2027 07:11:17.055   10 Jun 2027 07:11:18.509             1.454           727.000
       238   10 Jun 2027 08:45:16.344   10 Jun 2027 08:45:24.728             8.384          3993.062
       239   10 Jun 2027 08:45:47.962   10 Jun 2027 08:45:49.943             1.981           587.563
       240   10 Jun 2027 08:45:58.842   10 Jun 2027 08:46:00.090             1.248           268.813
       241   10 Jun 2027 08:47:58.981   10 Jun 2027 08:48:06.287             7.306          3582.000
       242   10 Jun 2027 10:18:44.438   10 Jun 2027 10:18:55.624            11.186          3922.406
       243   10 Jun 2027 10:19:42.934   10 Jun 2027 10:19:49.221             6.287           243.406
       244   10 Jun 2027 10:21:05.519   10 Jun 2027 10:21:06.742             1.223           589.000
       245   10 Jun 2027 10:21:41.912   10 Jun 2027 10:21:44.280             2.368           844.625
       246   10 Jun 2027 10:24:33.959   10 Jun 2027 10:24:38.161             4.202          1908.594
       247   10 Jun 2027 10:26:05.754   10 Jun 2027 10:26:12.870             7.116           557.000
       248   10 Jun 2027 10:27:13.652   10 Jun 2027 10:27:15.343             1.691           845.500
       249   10 Jun 2027 11:56:18.219   10 Jun 2027 11:56:33.943            15.724          6265.188
       250   10 Jun 2027 11:57:44.443   10 Jun 2027 11:57:47.523             3.080           497.906
       251   10 Jun 2027 11:59:14.707   10 Jun 2027 11:59:18.622             3.915          1352.969
       252   10 Jun 2027 11:59:59.147   10 Jun 2027 12:00:00.000             0.853           426.500
       253   11 Jun 2027 04:19:04.711   11 Jun 2027 04:19:09.044             4.333          2166.500
       254   11 Jun 2027 04:19:34.002   11 Jun 2027 04:21:08.819            94.817         47408.500
       255   11 Jun 2027 04:22:30.789   11 Jun 2027 04:23:28.603            57.814         28907.000
       256   11 Jun 2027 04:24:36.936   11 Jun 2027 04:24:37.636             0.700           350.000
       257   11 Jun 2027 04:24:55.183   11 Jun 2027 04:25:02.138             6.955          3477.500
       258   11 Jun 2027 05:58:59.551   11 Jun 2027 06:01:37.526           157.975         78987.500
       259   11 Jun 2027 07:20:40.235   11 Jun 2027 07:21:06.067            25.832         12916.000
       260   11 Jun 2027 07:22:10.797   11 Jun 2027 07:22:19.701             8.904          2185.812
       261   11 Jun 2027 07:22:42.488   11 Jun 2027 07:22:44.714             2.226           482.687
       262   11 Jun 2027 08:57:17.998   11 Jun 2027 08:57:25.218             7.220          2829.719
       263   11 Jun 2027 08:58:03.649   11 Jun 2027 08:58:06.725             3.076           535.531
       264   11 Jun 2027 08:58:34.775   11 Jun 2027 08:58:37.724             2.949           839.063
       265   11 Jun 2027 08:58:52.245   11 Jun 2027 08:58:55.130             2.885           191.344
       266   11 Jun 2027 08:59:58.883   11 Jun 2027 09:00:04.598             5.715          1894.500
       267   11 Jun 2027 10:33:07.223   11 Jun 2027 10:33:19.163            11.940          5314.187
       268   11 Jun 2027 10:33:25.394   11 Jun 2027 10:33:28.807             3.413            48.562
       269   11 Jun 2027 10:35:31.216   11 Jun 2027 10:35:33.908             2.692           733.187
       270   11 Jun 2027 10:36:29.524   11 Jun 2027 10:36:32.424             2.900           981.969
       271   11 Jun 2027 10:37:24.305   11 Jun 2027 10:37:24.694             0.389           116.031
       272   11 Jun 2027 10:38:08.758   11 Jun 2027 10:38:09.596             0.838           419.000
       273   11 Jun 2027 10:38:12.506   11 Jun 2027 10:38:13.978             1.472           324.969
       274   11 Jun 2027 10:38:19.967   11 Jun 2027 10:38:23.008             3.041           138.625
       275   11 Jun 2027 10:38:37.188   11 Jun 2027 10:38:37.481             0.293            38.437
       276   11 Jun 2027 10:39:04.098   11 Jun 2027 10:39:05.590             1.492           316.281
       277   12 Jun 2027 03:00:00.000   12 Jun 2027 03:00:17.564            17.564          8782.000
       278   12 Jun 2027 04:31:13.408   12 Jun 2027 04:32:15.368            61.960         30980.000
       279   12 Jun 2027 04:32:21.833   12 Jun 2027 04:33:50.165            88.332         44166.000
       280   12 Jun 2027 04:33:58.014   12 Jun 2027 04:34:02.955             4.941          2470.500
       281   12 Jun 2027 04:35:57.564   12 Jun 2027 04:36:11.420            13.856          6928.000
       282   12 Jun 2027 04:36:23.932   12 Jun 2027 04:36:24.090             0.158            79.000
       283   12 Jun 2027 06:09:31.866   12 Jun 2027 06:10:04.065            32.199         16099.500
       284   12 Jun 2027 06:10:21.039   12 Jun 2027 06:12:04.668           103.629         51695.156
       285   12 Jun 2027 07:32:54.341   12 Jun 2027 07:33:02.637             8.296          3856.875
       286   12 Jun 2027 07:33:46.177   12 Jun 2027 07:33:47.897             1.720           784.437
       287   12 Jun 2027 07:34:14.835   12 Jun 2027 07:34:16.491             1.656           706.375
       288   12 Jun 2027 07:35:32.266   12 Jun 2027 07:35:38.664             6.398          2039.875
       289   12 Jun 2027 07:35:45.326   12 Jun 2027 07:35:46.708             1.382            63.250
       290   12 Jun 2027 09:09:26.235   12 Jun 2027 09:09:38.384            12.149          5831.406
       291   12 Jun 2027 09:10:42.537   12 Jun 2027 09:10:48.471             5.934          1916.313
       292   12 Jun 2027 09:11:47.294   12 Jun 2027 09:11:53.516             6.222          1542.406
       293   12 Jun 2027 09:12:25.653   12 Jun 2027 09:12:28.727             3.074          1004.281
       294   12 Jun 2027 10:44:56.848   12 Jun 2027 10:45:08.719            11.871          4922.688
       295   12 Jun 2027 10:46:07.279   12 Jun 2027 10:46:07.279             0.000             0.000
       296   12 Jun 2027 10:47:28.553   12 Jun 2027 10:47:34.877             6.324          3115.937
       297   12 Jun 2027 10:50:51.277   12 Jun 2027 10:51:02.719            11.442          5521.188
       298   13 Jun 2027 03:05:02.930   13 Jun 2027 03:05:15.992            13.062          6531.000
       299   13 Jun 2027 03:05:35.413   13 Jun 2027 03:06:10.386            34.973         17486.500
       300   13 Jun 2027 03:09:42.952   13 Jun 2027 03:10:00.580            17.628          8814.000
       301   13 Jun 2027 03:10:41.809   13 Jun 2027 03:10:42.935             1.126           563.000
       302   13 Jun 2027 03:11:04.499   13 Jun 2027 03:11:13.114             8.615          4307.500
       303   13 Jun 2027 04:44:20.024   13 Jun 2027 04:48:07.890           227.866        113933.000
       304   13 Jun 2027 04:48:39.108   13 Jun 2027 04:48:47.142             8.034          3518.406
       305   13 Jun 2027 04:51:19.524   13 Jun 2027 04:51:28.923             9.399          4664.656
       306   13 Jun 2027 04:52:16.852   13 Jun 2027 04:52:17.348             0.496           248.000
       307   13 Jun 2027 06:21:28.365   13 Jun 2027 06:21:53.109            24.744         12296.375
       308   13 Jun 2027 06:22:28.247   13 Jun 2027 06:22:30.511             2.264           888.313
       309   13 Jun 2027 07:45:24.730   13 Jun 2027 07:45:34.340             9.610          4450.062
       310   13 Jun 2027 07:46:04.918   13 Jun 2027 07:46:05.585             0.667           315.188
       311   13 Jun 2027 07:47:29.822   13 Jun 2027 07:47:38.382             8.560          2420.844
       312   13 Jun 2027 09:21:19.476   13 Jun 2027 09:21:29.883            10.407          3449.750
       313   13 Jun 2027 09:23:00.069   13 Jun 2027 09:23:07.069             7.000          2696.500
       314   13 Jun 2027 09:23:31.652   13 Jun 2027 09:23:33.196             1.544           381.562
       315   13 Jun 2027 09:24:34.873   13 Jun 2027 09:24:37.968             3.095          1433.906
       316   13 Jun 2027 10:56:15.300   13 Jun 2027 10:56:28.328            13.028          5407.281
       317   13 Jun 2027 10:58:58.940   13 Jun 2027 10:59:11.297            12.357          4260.406
       318   13 Jun 2027 11:02:54.135   13 Jun 2027 11:03:14.018            19.883          6802.719
