uniorb/output/strategy_4/Camera/Camera_KinoSat_111802.txt

KinoSat_111802
-------------------------
    Access    *     Start Time (UTCG)     *     Stop Time (UTCG)  *   Duration (s) *   Data (Mbytes)
         1   01 Jun 2027 03:34:07.685   01 Jun 2027 03:36:15.261           127.576         63788.000
         2   01 Jun 2027 03:37:16.565   01 Jun 2027 03:37:37.329            20.764         10382.000
         3   01 Jun 2027 05:13:39.798   01 Jun 2027 05:15:11.946            92.148         46074.000
         4   01 Jun 2027 05:15:33.982   01 Jun 2027 05:15:35.585             1.603           801.500
         5   01 Jun 2027 05:16:00.424   01 Jun 2027 05:16:17.794            17.370          8685.000
         6   01 Jun 2027 05:16:55.298   01 Jun 2027 05:16:55.298             0.000             0.000
         7   01 Jun 2027 05:17:11.727   01 Jun 2027 05:17:15.771             4.044          2022.000
         8   01 Jun 2027 05:18:28.314   01 Jun 2027 05:18:39.007            10.693          5346.500
         9   01 Jun 2027 05:20:00.592   01 Jun 2027 05:20:18.143            17.551          8775.500
        10   01 Jun 2027 06:38:00.939   01 Jun 2027 06:39:18.686            77.747         38873.500
        11   01 Jun 2027 06:49:40.894   01 Jun 2027 06:49:59.933            19.039          9519.500
        12   01 Jun 2027 08:11:58.852   01 Jun 2027 08:13:05.244            66.392         33196.000
        13   01 Jun 2027 08:13:52.795   01 Jun 2027 08:15:20.156            87.361         43680.500
        14   01 Jun 2027 09:46:53.363   01 Jun 2027 09:47:27.708            34.345         17172.500
        15   01 Jun 2027 09:47:55.996   01 Jun 2027 09:48:22.607            26.611         13305.500
        16   01 Jun 2027 09:50:29.826   01 Jun 2027 09:50:29.826             0.000             0.000
        17   01 Jun 2027 11:30:37.819   01 Jun 2027 11:31:44.629            66.810         33405.000
        18   02 Jun 2027 03:46:34.984   02 Jun 2027 03:46:52.919            17.935          8967.500
        19   02 Jun 2027 03:47:00.492   02 Jun 2027 03:47:30.247            29.755         14877.500
        20   02 Jun 2027 03:47:35.163   02 Jun 2027 03:47:35.331             0.168            84.000
        21   02 Jun 2027 03:48:34.985   02 Jun 2027 03:50:30.384           115.399         57699.500
        22   02 Jun 2027 03:51:51.244   02 Jun 2027 03:51:52.707             1.463           731.500
        23   02 Jun 2027 05:25:16.585   02 Jun 2027 05:29:18.626           242.041        121020.500
        24   02 Jun 2027 05:29:53.227   02 Jun 2027 05:29:54.193             0.966           483.000
        25   02 Jun 2027 05:30:02.436   02 Jun 2027 05:30:13.651            11.215          5607.500
        26   02 Jun 2027 06:49:34.681   02 Jun 2027 06:50:15.659            40.978         20489.000
        27   02 Jun 2027 06:50:57.978   02 Jun 2027 06:51:21.628            23.650         11825.000
        28   02 Jun 2027 07:01:56.460   02 Jun 2027 07:02:14.253            17.793          8896.500
        29   02 Jun 2027 08:23:30.788   02 Jun 2027 08:24:50.918            80.130         40065.000
        30   02 Jun 2027 08:25:39.220   02 Jun 2027 08:27:18.085            98.865         49432.500
        31   02 Jun 2027 09:58:23.894   02 Jun 2027 09:59:12.146            48.252         22865.374
        32   02 Jun 2027 10:00:15.071   02 Jun 2027 10:00:19.919             4.848          1831.500
        33   02 Jun 2027 10:00:40.939   02 Jun 2027 10:00:41.936             0.997           333.656
        34   02 Jun 2027 10:01:09.832   02 Jun 2027 10:01:11.622             1.790           547.281
        35   02 Jun 2027 10:01:57.661   02 Jun 2027 10:01:57.661             0.000             0.000
        36   02 Jun 2027 10:04:07.760   02 Jun 2027 10:04:09.695             1.935           967.500
        37   02 Jun 2027 10:05:09.781   02 Jun 2027 10:05:09.781             0.000             0.000
        38   02 Jun 2027 10:05:23.476   02 Jun 2027 10:05:38.896            15.420          6785.312
        39   02 Jun 2027 10:05:43.862   02 Jun 2027 10:05:44.867             1.005           155.188
        40   02 Jun 2027 10:07:21.712   02 Jun 2027 10:07:26.406             4.694          1752.469
        41   02 Jun 2027 11:36:19.987   02 Jun 2027 11:36:25.965             5.978          2989.000
        42   02 Jun 2027 11:40:35.704   02 Jun 2027 11:40:57.857            22.153          9313.000
        43   02 Jun 2027 11:41:13.561   02 Jun 2027 11:41:21.240             7.679           439.656
        44   02 Jun 2027 11:42:39.461   02 Jun 2027 11:42:45.309             5.848          2064.500
        45   02 Jun 2027 11:42:55.755   02 Jun 2027 11:42:57.421             1.666           304.219
        46   02 Jun 2027 11:43:08.900   02 Jun 2027 11:43:10.561             1.661           339.969
        47   03 Jun 2027 03:59:10.967   03 Jun 2027 03:59:23.555            12.588          6294.000
        48   03 Jun 2027 03:59:33.954   03 Jun 2027 04:00:22.361            48.407         24203.500
        49   03 Jun 2027 04:00:33.403   03 Jun 2027 04:00:34.452             1.049           524.500
        50   03 Jun 2027 04:00:42.723   03 Jun 2027 04:01:10.244            27.521         13760.500
        51   03 Jun 2027 04:01:19.921   03 Jun 2027 04:02:51.803            91.882         45941.000
        52   03 Jun 2027 04:03:45.551   03 Jun 2027 04:03:51.378             5.827          2913.500
        53   03 Jun 2027 04:04:06.392   03 Jun 2027 04:04:29.918            23.526         11763.000
        54   03 Jun 2027 05:37:42.126   03 Jun 2027 05:38:56.270            74.144         37072.000
        55   03 Jun 2027 05:39:42.261   03 Jun 2027 05:40:24.401            42.140         19985.844
        56   03 Jun 2027 05:41:12.151   03 Jun 2027 05:41:14.236             2.085           879.437
        57   03 Jun 2027 05:42:24.876   03 Jun 2027 05:42:29.074             4.198           573.562
        58   03 Jun 2027 05:42:34.411   03 Jun 2027 05:42:36.654             2.243           166.781
        59   03 Jun 2027 07:01:30.526   03 Jun 2027 07:01:53.485            22.959          6921.719
        60   03 Jun 2027 07:02:36.922   03 Jun 2027 07:02:36.922             0.000             0.000
        61   03 Jun 2027 07:03:41.895   03 Jun 2027 07:03:47.139             5.244          2622.000
        62   03 Jun 2027 08:37:30.271   03 Jun 2027 08:37:42.778            12.507          6253.500
        63   03 Jun 2027 08:38:09.228   03 Jun 2027 08:38:18.124             8.896          1433.250
        64   03 Jun 2027 08:39:03.865   03 Jun 2027 08:39:07.706             3.841          1362.875
        65   03 Jun 2027 08:40:15.154   03 Jun 2027 08:40:17.280             2.126           907.875
        66   03 Jun 2027 08:40:48.148   03 Jun 2027 08:40:51.552             3.404           964.625
        67   03 Jun 2027 10:11:17.776   03 Jun 2027 10:11:26.440             8.664          3111.094
        68   03 Jun 2027 10:13:25.611   03 Jun 2027 10:13:27.856             2.245           823.187
        69   03 Jun 2027 10:13:34.765   03 Jun 2027 10:13:34.765             0.000             0.000
        70   03 Jun 2027 10:13:53.091   03 Jun 2027 10:13:56.183             3.092           786.781
        71   03 Jun 2027 10:15:12.216   03 Jun 2027 10:15:12.908             0.692            94.187
        72   03 Jun 2027 10:17:16.481   03 Jun 2027 10:17:22.595             6.114          2159.000
        73   03 Jun 2027 10:18:09.326   03 Jun 2027 10:18:14.433             5.107           142.219
        74   03 Jun 2027 10:18:45.337   03 Jun 2027 10:18:46.539             1.202           132.375
        75   03 Jun 2027 11:48:32.386   03 Jun 2027 11:48:52.404            20.018          6810.687
        76   03 Jun 2027 11:53:24.538   03 Jun 2027 11:53:40.636            16.098          6663.969
        77   03 Jun 2027 11:54:41.418   03 Jun 2027 11:54:46.872             5.454          1819.031
        78   03 Jun 2027 11:55:11.131   03 Jun 2027 11:55:12.410             1.279           372.344
        79   03 Jun 2027 11:55:18.727   03 Jun 2027 11:55:20.121             1.394           131.875
        80   04 Jun 2027 04:11:44.176   04 Jun 2027 04:12:11.028            26.852         13426.000
        81   04 Jun 2027 04:12:21.898   04 Jun 2027 04:14:12.216           110.318         55159.000
        82   04 Jun 2027 04:15:23.139   04 Jun 2027 04:15:52.460            29.321         14660.500
        83   04 Jun 2027 04:15:53.113   04 Jun 2027 04:16:27.637            34.524         17262.000
        84   04 Jun 2027 04:16:54.201   04 Jun 2027 04:17:01.408             7.207          3603.500
        85   04 Jun 2027 05:50:00.765   04 Jun 2027 05:50:22.657            21.892         10946.000
        86   04 Jun 2027 05:51:00.470   04 Jun 2027 05:52:33.508            93.038         46507.657
        87   04 Jun 2027 05:53:29.953   04 Jun 2027 05:53:35.606             5.653          1433.813
        88   04 Jun 2027 05:54:25.772   04 Jun 2027 05:54:27.552             1.780           298.250
        89   04 Jun 2027 07:13:22.750   04 Jun 2027 07:13:42.718            19.968          8134.531
        90   04 Jun 2027 07:14:44.301   04 Jun 2027 07:14:47.897             3.596          1787.375
        91   04 Jun 2027 07:15:05.082   04 Jun 2027 07:15:07.607             2.525           469.906
        92   04 Jun 2027 07:15:18.416   04 Jun 2027 07:15:18.416             0.000             0.000
        93   04 Jun 2027 08:49:44.321   04 Jun 2027 08:50:07.533            23.212          9184.219
        94   04 Jun 2027 08:50:24.622   04 Jun 2027 08:50:27.018             2.396           310.625
        95   04 Jun 2027 08:50:53.114   04 Jun 2027 08:50:54.702             1.588           771.313
        96   04 Jun 2027 08:51:42.359   04 Jun 2027 08:51:44.443             2.084           801.875
        97   04 Jun 2027 08:52:17.615   04 Jun 2027 08:52:21.625             4.010          1029.906
        98   04 Jun 2027 10:22:02.721   04 Jun 2027 10:22:14.033            11.312          2483.219
        99   04 Jun 2027 10:23:49.585   04 Jun 2027 10:23:52.497             2.912           738.844
       100   04 Jun 2027 10:25:32.943   04 Jun 2027 10:25:37.845             4.902          2381.031
       101   04 Jun 2027 10:25:46.829   04 Jun 2027 10:25:48.467             1.638            40.312
       102   04 Jun 2027 10:28:06.296   04 Jun 2027 10:28:06.296             0.000             0.000
       103   04 Jun 2027 10:29:03.543   04 Jun 2027 10:29:12.730             9.187          4399.125
       104   04 Jun 2027 10:30:58.082   04 Jun 2027 10:30:59.711             1.629           814.500
       105   04 Jun 2027 10:31:46.346   04 Jun 2027 10:31:48.791             2.445          1222.500
       106   05 Jun 2027 04:23:50.590   05 Jun 2027 04:24:02.701            12.111          6055.500
       107   05 Jun 2027 04:24:39.876   05 Jun 2027 04:24:52.201            12.325          6162.500
       108   05 Jun 2027 04:24:58.162   05 Jun 2027 04:27:00.916           122.754         61377.000
       109   05 Jun 2027 04:28:31.793   05 Jun 2027 04:28:34.389             2.596          1298.000
       110   05 Jun 2027 06:03:44.239   05 Jun 2027 06:06:26.819           162.580         81290.000
       111   05 Jun 2027 07:25:26.189   05 Jun 2027 07:25:55.155            28.966         14076.844
       112   05 Jun 2027 07:26:24.669   05 Jun 2027 07:26:24.669             0.000             0.000
       113   05 Jun 2027 07:26:31.419   05 Jun 2027 07:26:35.709             4.290          1058.156
       114   05 Jun 2027 07:27:37.423   05 Jun 2027 07:27:37.423             0.000             0.000
       115   05 Jun 2027 09:01:51.573   05 Jun 2027 09:02:02.011            10.438          4050.031
       116   05 Jun 2027 09:04:32.598   05 Jun 2027 09:04:41.902             9.304          4168.313
       117   05 Jun 2027 10:36:59.899   05 Jun 2027 10:37:08.212             8.313          2963.500
       118   05 Jun 2027 10:38:06.552   05 Jun 2027 10:38:10.400             3.848           881.406
       119   05 Jun 2027 10:40:04.323   05 Jun 2027 10:40:15.464            11.141          3507.313
       120   05 Jun 2027 10:41:29.143   05 Jun 2027 10:41:37.676             8.533          1869.000
       121   05 Jun 2027 10:42:45.599   05 Jun 2027 10:42:47.448             1.849           831.875
       122   05 Jun 2027 10:43:14.913   05 Jun 2027 10:43:19.125             4.212           400.000
       123   05 Jun 2027 10:43:40.544   05 Jun 2027 10:43:41.753             1.209           377.406
       124   05 Jun 2027 10:43:42.472   05 Jun 2027 10:43:42.572             0.100            22.469
       125   06 Jun 2027 03:00:00.000   06 Jun 2027 03:00:09.158             9.158          4579.000
       126   06 Jun 2027 03:01:19.001   06 Jun 2027 03:01:26.617             7.616          3808.000
       127   06 Jun 2027 03:01:36.598   06 Jun 2027 03:01:52.346            15.748          7874.000
       128   06 Jun 2027 03:02:10.210   06 Jun 2027 03:02:10.210             0.000             0.000
       129   06 Jun 2027 03:03:10.118   06 Jun 2027 03:03:10.437             0.319           159.500
       130   06 Jun 2027 03:03:48.100   06 Jun 2027 03:04:10.935            22.835         11417.500
       131   06 Jun 2027 04:35:49.396   06 Jun 2027 04:36:34.840            45.444         22722.000
       132   06 Jun 2027 04:36:55.649   06 Jun 2027 04:38:03.495            67.846         33923.000
       133   06 Jun 2027 04:38:30.324   06 Jun 2027 04:39:08.271            37.947         18973.500
       134   06 Jun 2027 04:39:26.344   06 Jun 2027 04:39:35.575             9.231          4615.500
       135   06 Jun 2027 04:40:07.435   06 Jun 2027 04:40:09.619             2.184          1092.000
       136   06 Jun 2027 04:40:14.079   06 Jun 2027 04:40:31.158            17.079          8539.500
       137   06 Jun 2027 04:41:04.284   06 Jun 2027 04:41:13.055             8.771          4385.500
       138   06 Jun 2027 06:14:02.872   06 Jun 2027 06:15:26.107            83.235         41250.812
       139   06 Jun 2027 07:37:24.054   06 Jun 2027 07:37:34.889            10.835          5178.438
       140   06 Jun 2027 07:38:46.273   06 Jun 2027 07:38:51.776             5.503          2230.750
       141   06 Jun 2027 07:38:57.393   06 Jun 2027 07:39:00.631             3.238            57.500
       142   06 Jun 2027 07:40:35.265   06 Jun 2027 07:40:38.420             3.155          1577.500
       143   06 Jun 2027 09:14:13.269   06 Jun 2027 09:14:24.647            11.378          5434.937
       144   06 Jun 2027 09:16:31.682   06 Jun 2027 09:16:38.568             6.886          2384.281
       145   06 Jun 2027 09:17:02.478   06 Jun 2027 09:17:06.402             3.924            76.531
       146   06 Jun 2027 10:49:11.204   06 Jun 2027 10:49:19.741             8.537          3353.625
       147   06 Jun 2027 10:50:31.258   06 Jun 2027 10:50:37.343             6.085          2013.469
       148   06 Jun 2027 10:52:18.365   06 Jun 2027 10:52:28.430            10.065          2510.500
       149   06 Jun 2027 10:55:33.326   06 Jun 2027 10:55:45.662            12.336          5778.000
       150   07 Jun 2027 03:09:37.291   07 Jun 2027 03:09:52.858            15.567          7783.500
       151   07 Jun 2027 03:09:59.964   07 Jun 2027 03:10:00.042             0.078            39.000
       152   07 Jun 2027 03:10:01.876   07 Jun 2027 03:10:53.218            51.342         25671.000
       153   07 Jun 2027 03:11:22.480   07 Jun 2027 03:11:26.267             3.787          1893.500
       154   07 Jun 2027 03:11:29.872   07 Jun 2027 03:11:41.894            12.022          6011.000
       155   07 Jun 2027 03:11:57.147   07 Jun 2027 03:12:27.113            29.966         14983.000
       156   07 Jun 2027 03:13:48.320   07 Jun 2027 03:13:53.908             5.588          2794.000
       157   07 Jun 2027 03:14:36.231   07 Jun 2027 03:14:43.650             7.419          3709.500
       158   07 Jun 2027 03:15:12.874   07 Jun 2027 03:15:16.267             3.393          1696.500
       159   07 Jun 2027 03:15:45.070   07 Jun 2027 03:15:45.786             0.716           358.000
       160   07 Jun 2027 04:48:54.768   07 Jun 2027 04:51:30.498           155.730         77865.000
       161   07 Jun 2027 04:52:57.191   07 Jun 2027 04:53:11.188            13.997          6998.500
       162   07 Jun 2027 04:53:35.976   07 Jun 2027 04:53:42.858             6.882          1023.906
       163   07 Jun 2027 04:55:44.427   07 Jun 2027 04:55:49.655             5.228          2487.656
       164   07 Jun 2027 06:15:16.003   07 Jun 2027 06:15:23.444             7.441          3720.500
       165   07 Jun 2027 06:26:00.604   07 Jun 2027 06:26:08.450             7.846          2952.907
       166   07 Jun 2027 06:26:58.998   07 Jun 2027 06:27:01.924             2.926          1431.313
       167   07 Jun 2027 07:50:00.430   07 Jun 2027 07:50:10.047             9.617          3950.969
       168   07 Jun 2027 07:52:07.764   07 Jun 2027 07:52:15.003             7.239          3057.063
       169   07 Jun 2027 09:25:45.229   07 Jun 2027 09:25:53.584             8.355          3773.437
       170   07 Jun 2027 09:27:43.572   07 Jun 2027 09:27:52.231             8.659          3082.375
       171   07 Jun 2027 09:28:14.401   07 Jun 2027 09:28:16.241             1.840           147.594
       172   07 Jun 2027 09:28:29.982   07 Jun 2027 09:28:32.869             2.887           393.594
       173   07 Jun 2027 11:00:36.910   07 Jun 2027 11:00:47.232            10.322          3836.625
       174   07 Jun 2027 11:03:00.045   07 Jun 2027 11:03:08.162             8.117          3411.656
       175   07 Jun 2027 11:07:24.709   07 Jun 2027 11:07:39.905            15.196          7338.219
       176   08 Jun 2027 03:22:17.778   08 Jun 2027 03:24:55.459           157.681         78840.500
       177   08 Jun 2027 03:26:55.354   08 Jun 2027 03:27:16.183            20.829         10414.500
       178   08 Jun 2027 03:28:38.807   08 Jun 2027 03:28:40.438             1.631           815.500
       179   08 Jun 2027 05:01:15.502   08 Jun 2027 05:03:13.072           117.570         58629.906
       180   08 Jun 2027 05:07:09.326   08 Jun 2027 05:07:23.182            13.856          6637.875
       181   08 Jun 2027 05:08:33.295   08 Jun 2027 05:08:37.446             4.151          2029.344
       182   08 Jun 2027 06:26:33.045   08 Jun 2027 06:26:41.293             8.248          3849.781
       183   08 Jun 2027 06:27:17.809   08 Jun 2027 06:27:17.809             0.000             0.000
       184   08 Jun 2027 06:37:59.288   08 Jun 2027 06:38:06.558             7.270          3020.844
       185   08 Jun 2027 08:00:38.497   08 Jun 2027 08:00:49.379            10.882          5206.094
       186   08 Jun 2027 08:02:14.145   08 Jun 2027 08:02:19.482             5.337          1601.594
       187   08 Jun 2027 08:02:59.284   08 Jun 2027 08:03:02.600             3.316           844.594
       188   08 Jun 2027 08:04:47.517   08 Jun 2027 08:04:51.023             3.506          1603.781
       189   08 Jun 2027 09:35:59.505   08 Jun 2027 09:36:06.545             7.040          2031.406
       190   08 Jun 2027 09:36:42.504   08 Jun 2027 09:36:53.171            10.667           396.156
       191   08 Jun 2027 09:40:15.291   08 Jun 2027 09:40:24.503             9.212          2722.531
       192   08 Jun 2027 09:40:40.925   08 Jun 2027 09:40:44.634             3.709           513.188
       193   08 Jun 2027 09:41:25.710   08 Jun 2027 09:41:31.002             5.292           877.937
       194   08 Jun 2027 11:15:33.447   08 Jun 2027 11:15:50.924            17.477          8738.500
       195   08 Jun 2027 11:19:11.709   08 Jun 2027 11:19:31.712            20.003          6515.593
       196   08 Jun 2027 11:19:36.710   08 Jun 2027 11:19:37.215             0.505           150.344
       197   09 Jun 2027 03:34:25.952   09 Jun 2027 03:37:18.809           172.857         86428.500
       198   09 Jun 2027 03:37:28.120   09 Jun 2027 03:37:47.437            19.317          9658.500
       199   09 Jun 2027 03:38:46.508   09 Jun 2027 03:38:53.768             7.260          3630.000
       200   09 Jun 2027 03:39:01.460   09 Jun 2027 03:39:21.285            19.825          9912.500
       201   09 Jun 2027 03:40:04.826   09 Jun 2027 03:40:11.647             6.821          3410.500
       202   09 Jun 2027 05:13:31.397   09 Jun 2027 05:15:07.369            95.972         47709.844
       203   09 Jun 2027 05:16:09.853   09 Jun 2027 05:16:11.682             1.829           897.313
       204   09 Jun 2027 05:17:53.724   09 Jun 2027 05:17:57.082             3.358          1550.938
       205   09 Jun 2027 05:18:17.179   09 Jun 2027 05:18:19.928             2.749           367.469
       206   09 Jun 2027 05:18:45.482   09 Jun 2027 05:18:46.384             0.902           361.656
       207   09 Jun 2027 05:19:16.368   09 Jun 2027 05:19:17.777             1.409           478.719
       208   09 Jun 2027 06:37:46.807   09 Jun 2027 06:37:54.030             7.223          3558.656
       209   09 Jun 2027 06:38:29.899   09 Jun 2027 06:38:32.264             2.365           504.344
       210   09 Jun 2027 06:38:57.049   09 Jun 2027 06:38:58.302             1.253           422.500
       211   09 Jun 2027 06:49:58.588   09 Jun 2027 06:50:03.683             5.095          1749.781
       212   09 Jun 2027 08:12:14.793   09 Jun 2027 08:12:27.052            12.259          6129.500
       213   09 Jun 2027 08:13:01.298   09 Jun 2027 08:13:04.370             3.072          1535.531
       214   09 Jun 2027 08:14:10.415   09 Jun 2027 08:14:14.072             3.657          1539.969
       215   09 Jun 2027 08:14:34.321   09 Jun 2027 08:14:38.680             4.359           387.063
       216   09 Jun 2027 08:15:46.815   09 Jun 2027 08:15:51.393             4.578          1889.563
       217   09 Jun 2027 08:16:27.576   09 Jun 2027 08:16:30.806             3.230           656.500
       218   09 Jun 2027 09:47:08.570   09 Jun 2027 09:47:16.242             7.672          2926.781
       219   09 Jun 2027 09:48:15.106   09 Jun 2027 09:48:24.262             9.156           982.594
       220   09 Jun 2027 09:48:31.646   09 Jun 2027 09:48:38.205             6.559           230.750
       221   09 Jun 2027 09:50:24.276   09 Jun 2027 09:50:26.582             2.306           201.406
       222   09 Jun 2027 09:52:25.233   09 Jun 2027 09:52:31.299             6.066          2965.594
       223   09 Jun 2027 09:53:11.752   09 Jun 2027 09:53:11.995             0.243           121.500
       224   09 Jun 2027 09:53:46.642   09 Jun 2027 09:53:49.439             2.797          1398.500
       225   09 Jun 2027 09:55:12.816   09 Jun 2027 09:55:17.744             4.928          2147.906
       226   09 Jun 2027 11:27:23.271   09 Jun 2027 11:27:23.271             0.000             0.000
       227   09 Jun 2027 11:27:29.960   09 Jun 2027 11:27:42.739            12.779          6389.500
       228   09 Jun 2027 11:28:12.257   09 Jun 2027 11:28:24.718            12.461          4730.688
       229   09 Jun 2027 11:29:09.768   09 Jun 2027 11:29:11.484             1.716           382.969
       230   09 Jun 2027 11:29:41.924   09 Jun 2027 11:29:44.069             2.145           592.594
       231   09 Jun 2027 11:31:05.000   09 Jun 2027 11:31:10.292             5.292          2141.531
       232   09 Jun 2027 11:31:28.621   09 Jun 2027 11:31:30.450             1.829           462.594
       233   10 Jun 2027 03:46:52.790   10 Jun 2027 03:47:09.396            16.606          8303.000
       234   10 Jun 2027 03:47:18.799   10 Jun 2027 03:47:47.668            28.869         14434.500
       235   10 Jun 2027 03:47:52.390   10 Jun 2027 03:48:46.706            54.316         27158.000
       236   10 Jun 2027 03:48:47.908   10 Jun 2027 03:50:36.646           108.738         54369.000
       237   10 Jun 2027 03:51:20.783   10 Jun 2027 03:51:34.238            13.455          6727.500
       238   10 Jun 2027 05:25:36.375   10 Jun 2027 05:27:03.495            87.120         43178.781
       239   10 Jun 2027 05:27:29.092   10 Jun 2027 05:27:30.241             1.149           447.156
       240   10 Jun 2027 05:27:51.874   10 Jun 2027 05:27:53.616             1.742           309.563
       241   10 Jun 2027 05:29:02.396   10 Jun 2027 05:29:04.409             2.013           384.812
       242   10 Jun 2027 05:29:45.622   10 Jun 2027 05:29:47.855             2.233           326.625
       243   10 Jun 2027 05:30:19.689   10 Jun 2027 05:30:24.256             4.567           561.687
       244   10 Jun 2027 05:31:01.709   10 Jun 2027 05:31:07.143             5.434          1015.750
       245   10 Jun 2027 05:31:51.623   10 Jun 2027 05:31:56.037             4.414          1307.500
       246   10 Jun 2027 06:49:52.346   10 Jun 2027 06:50:04.763            12.417          6029.187
       247   10 Jun 2027 06:50:37.118   10 Jun 2027 06:50:37.118             0.000             0.000
       248   10 Jun 2027 06:50:58.695   10 Jun 2027 06:51:02.248             3.553          1387.969
       249   10 Jun 2027 06:51:19.704   10 Jun 2027 06:51:21.880             2.176           188.406
       250   10 Jun 2027 06:51:48.611   10 Jun 2027 06:51:50.770             2.159           331.156
       251   10 Jun 2027 07:02:19.865   10 Jun 2027 07:02:25.951             6.086          3043.000
       252   10 Jun 2027 08:23:44.296   10 Jun 2027 08:24:02.229            17.933          8644.313
       253   10 Jun 2027 08:24:31.938   10 Jun 2027 08:24:33.672             1.734           153.469
       254   10 Jun 2027 08:25:43.900   10 Jun 2027 08:25:49.940             6.040          1192.656
       255   10 Jun 2027 08:26:36.089   10 Jun 2027 08:26:41.986             5.897          1326.781
       256   10 Jun 2027 08:27:33.454   10 Jun 2027 08:27:36.625             3.171          1507.281
       257   10 Jun 2027 08:28:04.852   10 Jun 2027 08:28:08.839             3.987           558.906
       258   10 Jun 2027 08:28:53.137   10 Jun 2027 08:28:58.353             5.216           709.844
       259   10 Jun 2027 09:58:39.263   10 Jun 2027 09:58:47.078             7.815          3255.750
       260   10 Jun 2027 10:01:00.511   10 Jun 2027 10:01:02.652             2.141           856.719
       261   10 Jun 2027 10:01:55.176   10 Jun 2027 10:02:01.792             6.616          1574.063
       262   10 Jun 2027 10:02:24.086   10 Jun 2027 10:02:25.632             1.546           299.250
       263   10 Jun 2027 10:05:42.259   10 Jun 2027 10:05:47.540             5.281          2400.938
       264   10 Jun 2027 10:06:01.280   10 Jun 2027 10:06:09.248             7.968           429.375
       265   10 Jun 2027 10:07:37.751   10 Jun 2027 10:07:44.004             6.253          1761.563
       266   10 Jun 2027 11:36:36.314   10 Jun 2027 11:36:49.268            12.954          4841.063
       267   10 Jun 2027 11:39:12.693   10 Jun 2027 11:39:22.872            10.179          4482.031
       268   10 Jun 2027 11:39:54.861   10 Jun 2027 11:39:59.150             4.289           834.500
       269   10 Jun 2027 11:40:52.036   10 Jun 2027 11:40:56.426             4.390          1358.312
       270   10 Jun 2027 11:42:25.950   10 Jun 2027 11:42:35.019             9.069          2756.500
       271   10 Jun 2027 11:42:55.342   10 Jun 2027 11:42:57.597             2.255           308.562
       272   10 Jun 2027 11:43:09.583   10 Jun 2027 11:43:12.719             3.136           258.750
       273   10 Jun 2027 11:43:23.496   10 Jun 2027 11:43:25.305             1.809           255.906
       274   11 Jun 2027 03:59:29.539   11 Jun 2027 03:59:40.559            11.020          5510.000
       275   11 Jun 2027 03:59:52.206   11 Jun 2027 04:00:53.577            61.371         30685.500
       276   11 Jun 2027 04:00:59.461   11 Jun 2027 04:01:30.625            31.164         15582.000
       277   11 Jun 2027 04:01:37.616   11 Jun 2027 04:03:06.242            88.626         44313.000
       278   11 Jun 2027 04:04:00.273   11 Jun 2027 04:04:00.536             0.263           131.500
       279   11 Jun 2027 04:04:35.465   11 Jun 2027 04:05:05.502            30.037         15018.500
       280   11 Jun 2027 05:37:59.182   11 Jun 2027 05:39:11.162            71.980         35990.000
       281   11 Jun 2027 05:40:00.730   11 Jun 2027 05:40:39.520            38.790         18597.750
       282   11 Jun 2027 05:41:26.441   11 Jun 2027 05:41:28.852             2.411           773.938
       283   11 Jun 2027 05:42:38.749   11 Jun 2027 05:42:44.384             5.635           538.594
       284   11 Jun 2027 05:42:51.515   11 Jun 2027 05:42:52.842             1.327           222.844
       285   11 Jun 2027 07:01:48.956   11 Jun 2027 07:02:09.318            20.362          6931.969
       286   11 Jun 2027 07:03:59.728   11 Jun 2027 07:04:04.209             4.481          2240.500
       287   11 Jun 2027 08:37:47.974   11 Jun 2027 08:37:59.174            11.200          5068.938
       288   11 Jun 2027 08:38:04.912   11 Jun 2027 08:38:05.220             0.308            83.969
       289   11 Jun 2027 08:38:37.504   11 Jun 2027 08:38:40.360             2.856           653.844
       290   11 Jun 2027 08:40:50.347   11 Jun 2027 08:40:58.415             8.068          3971.250
       291   11 Jun 2027 10:11:32.947   11 Jun 2027 10:11:44.088            11.141          2348.000
       292   11 Jun 2027 10:13:18.802   11 Jun 2027 10:13:23.176             4.374          1395.969
       293   11 Jun 2027 10:13:55.002   11 Jun 2027 10:14:04.842             9.840           520.812
       294   11 Jun 2027 10:16:25.000   11 Jun 2027 10:16:33.951             8.951          4224.250
       295   11 Jun 2027 10:17:31.977   11 Jun 2027 10:17:35.073             3.096           854.281
       296   11 Jun 2027 10:18:29.275   11 Jun 2027 10:18:30.467             1.192           157.281
       297   11 Jun 2027 11:48:57.413   11 Jun 2027 11:49:12.192            14.779          6803.000
       298   11 Jun 2027 11:51:04.764   11 Jun 2027 11:51:07.913             3.149          1459.031
       299   11 Jun 2027 11:53:35.884   11 Jun 2027 11:53:52.243            16.359          4366.812
       300   11 Jun 2027 11:54:57.172   11 Jun 2027 11:55:01.929             4.757          1784.844
       301   11 Jun 2027 11:55:16.986   11 Jun 2027 11:55:21.194             4.208            43.594
       302   11 Jun 2027 11:55:29.774   11 Jun 2027 11:55:30.481             0.707            21.125
       303   11 Jun 2027 11:55:35.838   11 Jun 2027 11:55:38.372             2.534           167.406
       304   12 Jun 2027 04:12:00.637   12 Jun 2027 04:12:08.553             7.916          3958.000
       305   12 Jun 2027 04:12:14.156   12 Jun 2027 04:12:27.266            13.110          6555.000
       306   12 Jun 2027 04:12:34.152   12 Jun 2027 04:13:56.227            82.075         41037.500
       307   12 Jun 2027 04:14:26.217   12 Jun 2027 04:15:36.935            70.718         35359.000
       308   12 Jun 2027 04:15:58.735   12 Jun 2027 04:16:16.201            17.466          8733.000
       309   12 Jun 2027 04:17:23.268   12 Jun 2027 04:17:23.946             0.678           339.000
       310   12 Jun 2027 05:49:59.643   12 Jun 2027 05:50:37.276            37.633         18816.500
       311   12 Jun 2027 05:52:10.832   12 Jun 2027 05:52:40.848            30.016         15008.000
       312   12 Jun 2027 05:53:01.514   12 Jun 2027 05:54:21.823            80.309         39635.125
       313   12 Jun 2027 05:54:40.242   12 Jun 2027 05:54:41.180             0.938           292.687
       314   12 Jun 2027 07:13:40.506   12 Jun 2027 07:13:58.702            18.196          7893.156
       315   12 Jun 2027 07:15:26.044   12 Jun 2027 07:15:31.477             5.433          2612.250
       316   12 Jun 2027 08:50:02.586   12 Jun 2027 08:50:16.566            13.980          6896.781
       317   12 Jun 2027 08:50:38.157   12 Jun 2027 08:50:38.524             0.367           116.844
       318   12 Jun 2027 08:50:41.884   12 Jun 2027 08:50:46.979             5.095           105.000
       319   12 Jun 2027 08:51:13.231   12 Jun 2027 08:51:16.124             2.893           790.031
       320   12 Jun 2027 08:51:58.374   12 Jun 2027 08:52:00.315             1.941           744.281
       321   12 Jun 2027 08:53:08.067   12 Jun 2027 08:53:08.067             0.000             0.000
       322   12 Jun 2027 10:24:06.794   12 Jun 2027 10:24:13.866             7.072          3282.500
       323   12 Jun 2027 10:25:52.852   12 Jun 2027 10:26:02.913            10.061          2442.938
       324   12 Jun 2027 10:27:04.232   12 Jun 2027 10:27:10.396             6.164          1900.719
       325   12 Jun 2027 10:29:19.332   12 Jun 2027 10:29:23.393             4.061          1734.437
       326   12 Jun 2027 10:30:06.547   12 Jun 2027 10:30:09.514             2.967          1282.437
       327   12 Jun 2027 10:30:40.082   12 Jun 2027 10:30:41.360             1.278           490.281
       328   12 Jun 2027 10:31:18.630   12 Jun 2027 10:31:23.874             5.244           860.437
       329   12 Jun 2027 10:31:27.822   12 Jun 2027 10:31:29.310             1.488            10.719
       330   12 Jun 2027 10:31:51.113   12 Jun 2027 10:31:52.014             0.901           158.562
       331   12 Jun 2027 10:32:03.398   12 Jun 2027 10:32:06.172             2.774            88.625
       332   13 Jun 2027 04:24:06.666   13 Jun 2027 04:24:26.126            19.460          9730.000
       333   13 Jun 2027 04:24:54.813   13 Jun 2027 04:25:08.705            13.892          6946.000
       334   13 Jun 2027 04:25:15.213   13 Jun 2027 04:27:37.515           142.302         71151.000
       335   13 Jun 2027 06:03:12.982   13 Jun 2027 06:05:53.628           160.646         79120.813
       336   13 Jun 2027 07:25:44.334   13 Jun 2027 07:25:58.142            13.808          6903.344
       337   13 Jun 2027 07:26:42.056   13 Jun 2027 07:26:45.949             3.893           902.156
       338   13 Jun 2027 07:27:27.813   13 Jun 2027 07:27:31.815             4.002          1258.406
       339   13 Jun 2027 07:28:27.258   13 Jun 2027 07:28:32.913             5.655           996.938
       340   13 Jun 2027 09:02:13.468   13 Jun 2027 09:02:27.500            14.032          3760.438
       341   13 Jun 2027 09:04:18.396   13 Jun 2027 09:04:24.844             6.448          3201.313
       342   13 Jun 2027 09:05:13.019   13 Jun 2027 09:05:16.573             3.554          1103.969
       343   13 Jun 2027 10:37:18.732   13 Jun 2027 10:37:29.215            10.483          3807.500
       344   13 Jun 2027 10:38:26.268   13 Jun 2027 10:38:26.268             0.000             0.000
       345   13 Jun 2027 10:38:32.462   13 Jun 2027 10:38:37.462             5.000          1179.219
       346   13 Jun 2027 10:40:24.256   13 Jun 2027 10:40:26.747             2.491           599.437
       347   13 Jun 2027 10:41:41.882   13 Jun 2027 10:41:47.007             5.125          1398.125
       348   13 Jun 2027 10:42:59.849   13 Jun 2027 10:43:03.109             3.260           645.406
       349   13 Jun 2027 10:43:27.582   13 Jun 2027 10:43:28.771             1.189           274.625
       350   13 Jun 2027 10:43:58.127   13 Jun 2027 10:44:00.308             2.181           741.188
