uniorb/output/strategy_4/Camera/Camera_KinoSat_110201.txt

KinoSat_110201
-------------------------
    Access    *     Start Time (UTCG)     *     Stop Time (UTCG)  *   Duration (s) *   Data (Mbytes)
         1   01 Jun 2027 03:03:43.318   01 Jun 2027 03:04:28.931            45.613         22806.500
         2   01 Jun 2027 03:04:44.483   01 Jun 2027 03:04:53.043             8.560          4280.000
         3   01 Jun 2027 03:05:37.230   01 Jun 2027 03:06:10.503            33.273         16636.500
         4   01 Jun 2027 03:07:21.090   01 Jun 2027 03:07:42.902            21.812         10906.000
         5   01 Jun 2027 03:08:35.747   01 Jun 2027 03:08:41.671             5.924          2962.000
         6   01 Jun 2027 03:08:56.296   01 Jun 2027 03:09:05.916             9.620          4810.000
         7   01 Jun 2027 03:09:15.695   01 Jun 2027 03:09:22.119             6.424          3212.000
         8   01 Jun 2027 03:10:15.053   01 Jun 2027 03:10:31.949            16.896          8448.000
         9   01 Jun 2027 03:10:34.036   01 Jun 2027 03:10:42.698             8.662          4331.000
        10   01 Jun 2027 04:40:12.244   01 Jun 2027 04:42:42.089           149.845         74922.500
        11   01 Jun 2027 04:43:00.239   01 Jun 2027 04:43:24.698            24.459         12229.500
        12   01 Jun 2027 04:44:20.593   01 Jun 2027 04:44:23.145             2.552          1276.000
        13   01 Jun 2027 04:44:31.014   01 Jun 2027 04:44:36.154             5.140          2570.000
        14   01 Jun 2027 04:45:16.659   01 Jun 2027 04:45:38.035            21.376         10688.000
        15   01 Jun 2027 04:46:01.032   01 Jun 2027 04:46:06.027             4.995          2497.500
        16   01 Jun 2027 06:18:30.020   01 Jun 2027 06:21:32.699           182.679         91339.500
        17   01 Jun 2027 07:53:56.948   01 Jun 2027 07:56:17.008           140.060         70030.000
        18   01 Jun 2027 07:57:02.779   01 Jun 2027 07:57:14.540            11.761          5880.500
        19   01 Jun 2027 07:57:17.928   01 Jun 2027 07:57:29.743            11.815          5907.500
        20   01 Jun 2027 07:58:54.564   01 Jun 2027 07:59:18.244            23.680         11840.000
        21   02 Jun 2027 03:15:25.712   02 Jun 2027 03:22:58.355           452.643        226321.500
        22   02 Jun 2027 04:52:32.563   02 Jun 2027 04:56:01.825           209.262        104631.000
        23   02 Jun 2027 04:56:10.459   02 Jun 2027 04:58:19.212           128.753         64376.500
        24   02 Jun 2027 04:58:49.921   02 Jun 2027 04:58:51.568             1.647           823.500
        25   02 Jun 2027 06:30:27.847   02 Jun 2027 06:34:25.840           237.993        118996.500
        26   02 Jun 2027 08:03:32.905   02 Jun 2027 08:09:53.423           380.518        190259.000
        27   02 Jun 2027 08:10:41.654   02 Jun 2027 08:11:34.760            53.106         26553.000
        28   03 Jun 2027 03:27:43.988   03 Jun 2027 03:35:02.344           438.356        219178.000
        29   03 Jun 2027 05:04:28.591   03 Jun 2027 05:11:01.410           392.819        196409.500
        30   03 Jun 2027 06:42:27.090   03 Jun 2027 06:46:37.999           250.909        125454.500
        31   03 Jun 2027 08:16:04.955   03 Jun 2027 08:22:24.772           379.817        189908.500
        32   03 Jun 2027 08:23:06.448   03 Jun 2027 08:23:29.271            22.823         11411.500
        33   04 Jun 2027 03:39:37.220   04 Jun 2027 03:47:02.312           445.092        222546.000
        34   04 Jun 2027 05:16:21.238   04 Jun 2027 05:22:12.051           350.813        175406.500
        35   04 Jun 2027 05:22:48.114   04 Jun 2027 05:23:05.158            17.044          8522.000
        36   04 Jun 2027 06:54:28.574   04 Jun 2027 06:58:37.174           248.600        124300.000
        37   04 Jun 2027 08:30:12.153   04 Jun 2027 08:34:34.456           262.303        131151.500
        38   05 Jun 2027 03:51:45.069   05 Jun 2027 03:59:02.616           437.547        218773.500
        39   05 Jun 2027 05:28:59.627   05 Jun 2027 05:33:30.937           271.310        135655.000
        40   05 Jun 2027 05:33:40.767   05 Jun 2027 05:34:51.776            71.009         35504.500
        41   05 Jun 2027 07:05:49.986   05 Jun 2027 07:10:33.148           283.162        141581.000
        42   05 Jun 2027 08:42:37.069   05 Jun 2027 08:45:36.263           179.194         89597.000
        43   06 Jun 2027 04:04:10.287   06 Jun 2027 04:10:52.383           402.096        201048.000
        44   06 Jun 2027 05:41:09.128   06 Jun 2027 05:46:33.712           324.584        162292.000
        45   06 Jun 2027 07:17:55.983   06 Jun 2027 07:22:26.597           270.614        135307.000
        46   06 Jun 2027 08:56:06.436   06 Jun 2027 08:57:09.340            62.904         31452.000
        47   07 Jun 2027 04:16:36.330   07 Jun 2027 04:22:58.414           382.084        191042.000
        48   07 Jun 2027 05:54:10.360   07 Jun 2027 05:58:31.965           261.605        130802.500
        49   07 Jun 2027 07:30:13.565   07 Jun 2027 07:34:23.512           249.947        124973.500
        50   08 Jun 2027 04:28:48.240   08 Jun 2027 04:34:31.459           343.219        171609.500
        51   08 Jun 2027 04:34:34.157   08 Jun 2027 04:34:51.528            17.371          8685.500
        52   08 Jun 2027 06:06:13.792   08 Jun 2027 06:10:46.558           272.766        136383.000
        53   08 Jun 2027 07:42:17.678   08 Jun 2027 07:46:28.227           250.549        125274.500
        54   08 Jun 2027 07:46:33.409   08 Jun 2027 07:47:09.230            35.821         17910.500
        55   09 Jun 2027 03:03:57.446   09 Jun 2027 03:11:12.422           434.976        217488.000
        56   09 Jun 2027 04:40:27.472   09 Jun 2027 04:46:51.048           383.576        191788.000
        57   09 Jun 2027 06:19:32.839   09 Jun 2027 06:22:39.334           186.495         93247.500
        58   09 Jun 2027 07:54:14.718   09 Jun 2027 07:58:13.383           238.665        119332.500
        59   09 Jun 2027 07:58:43.031   09 Jun 2027 07:59:33.363            50.332         25166.000
        60   10 Jun 2027 03:15:40.853   10 Jun 2027 03:23:13.270           452.417        226208.500
        61   10 Jun 2027 04:52:47.196   10 Jun 2027 04:58:50.964           363.768        181884.000
        62   10 Jun 2027 06:30:48.223   10 Jun 2027 06:34:40.709           232.486        116243.000
        63   10 Jun 2027 08:03:47.812   10 Jun 2027 08:10:08.550           380.738        190369.000
        64   10 Jun 2027 08:10:59.618   10 Jun 2027 08:11:46.603            46.985         23492.500
        65   11 Jun 2027 03:27:58.626   11 Jun 2027 03:35:17.161           438.535        219267.500
        66   11 Jun 2027 05:04:43.234   11 Jun 2027 05:10:55.834           372.600        186300.000
        67   11 Jun 2027 05:11:05.195   11 Jun 2027 05:11:16.316            11.121          5560.500
        68   11 Jun 2027 06:42:41.859   11 Jun 2027 06:46:52.787           250.928        125464.000
        69   11 Jun 2027 08:16:34.323   11 Jun 2027 08:23:44.079           429.756        214878.000
        70   12 Jun 2027 03:39:52.157   12 Jun 2027 03:47:17.353           445.196        222598.000
        71   12 Jun 2027 05:16:36.248   12 Jun 2027 05:23:19.859           403.611        201805.500
        72   12 Jun 2027 06:54:33.405   12 Jun 2027 06:58:52.039           258.634        129317.000
        73   12 Jun 2027 08:30:31.815   12 Jun 2027 08:34:48.379           256.564        128282.000
        74   13 Jun 2027 03:52:00.398   13 Jun 2027 03:59:17.142           436.744        218372.000
        75   13 Jun 2027 05:29:14.880   13 Jun 2027 05:33:45.664           270.784        135392.000
        76   13 Jun 2027 05:34:19.157   13 Jun 2027 05:35:06.545            47.388         23694.000
        77   13 Jun 2027 07:06:38.194   13 Jun 2027 07:10:48.221           250.027        125013.500
        78   13 Jun 2027 08:42:55.168   13 Jun 2027 08:45:50.894           175.726         87863.000
