uniorb/output/strategy_4/Camera/Camera_KinoSat_110506.txt

KinoSat_110506
-------------------------
    Access    *     Start Time (UTCG)     *     Stop Time (UTCG)  *   Duration (s) *   Data (Mbytes)
         1   01 Jun 2027 03:36:56.272   01 Jun 2027 03:37:54.755            58.483         29241.500
         2   01 Jun 2027 03:38:27.927   01 Jun 2027 03:38:49.485            21.558         10779.000
         3   01 Jun 2027 03:39:21.527   01 Jun 2027 03:39:33.572            12.045          6022.500
         4   01 Jun 2027 03:39:51.131   01 Jun 2027 03:39:51.131             0.000             0.000
         5   01 Jun 2027 03:40:27.072   01 Jun 2027 03:40:48.867            21.795         10897.500
         6   01 Jun 2027 03:42:16.178   01 Jun 2027 03:42:16.178             0.000             0.000
         7   01 Jun 2027 03:42:23.230   01 Jun 2027 03:42:28.074             4.844          2422.000
         8   01 Jun 2027 05:13:25.959   01 Jun 2027 05:16:03.803           157.844         78922.000
         9   01 Jun 2027 05:16:19.398   01 Jun 2027 05:16:38.142            18.744          9372.000
        10   01 Jun 2027 05:18:02.939   01 Jun 2027 05:18:19.524            16.585          8292.500
        11   01 Jun 2027 05:20:47.914   01 Jun 2027 05:20:56.556             8.642          4321.000
        12   01 Jun 2027 06:50:30.873   01 Jun 2027 06:52:51.605           140.732         70366.000
        13   01 Jun 2027 06:53:37.933   01 Jun 2027 06:53:47.781             9.848          4924.000
        14   01 Jun 2027 06:54:16.124   01 Jun 2027 06:54:33.853            17.729          8864.500
        15   01 Jun 2027 06:55:04.328   01 Jun 2027 06:55:10.553             6.225          3112.500
        16   01 Jun 2027 08:28:25.065   01 Jun 2027 08:30:59.844           154.779         77389.500
        17   01 Jun 2027 08:31:56.805   01 Jun 2027 08:32:16.988            20.183         10091.500
        18   01 Jun 2027 10:01:33.361   01 Jun 2027 10:04:38.777           185.416         92708.000
        19   01 Jun 2027 10:04:54.613   01 Jun 2027 10:05:07.362            12.749          6374.500
        20   01 Jun 2027 10:06:51.900   01 Jun 2027 10:07:11.700            19.800          9900.000
        21   01 Jun 2027 10:08:20.235   01 Jun 2027 10:08:31.590            11.355          5677.500
        22   01 Jun 2027 10:09:00.606   01 Jun 2027 10:09:14.721            14.115          7057.500
        23   02 Jun 2027 03:48:05.792   02 Jun 2027 03:50:08.463           122.671         61335.500
        24   02 Jun 2027 03:50:14.918   02 Jun 2027 03:54:25.711           250.793        125396.500
        25   02 Jun 2027 03:56:07.127   02 Jun 2027 03:56:35.434            28.307         14153.500
        26   02 Jun 2027 05:25:39.329   02 Jun 2027 05:28:24.671           165.342         82671.000
        27   02 Jun 2027 05:29:39.993   02 Jun 2027 05:29:54.504            14.511          7255.500
        28   02 Jun 2027 05:31:14.094   02 Jun 2027 05:32:29.460            75.366         37683.000
        29   02 Jun 2027 05:32:59.553   02 Jun 2027 05:32:59.997             0.444           222.000
        30   02 Jun 2027 07:02:21.798   02 Jun 2027 07:08:33.913           372.115        186057.500
        31   02 Jun 2027 08:40:37.273   02 Jun 2027 08:44:34.409           237.136        118568.000
        32   02 Jun 2027 10:14:02.146   02 Jun 2027 10:21:12.205           430.059        215029.500
        33   03 Jun 2027 03:59:36.414   03 Jun 2027 04:07:43.897           487.483        243741.500
        34   03 Jun 2027 04:08:21.971   03 Jun 2027 04:09:02.360            40.389         20194.500
        35   03 Jun 2027 05:37:33.236   03 Jun 2027 05:45:01.387           448.151        224075.500
        36   03 Jun 2027 07:14:26.409   03 Jun 2027 07:19:49.813           323.404        161702.000
        37   03 Jun 2027 07:20:35.233   03 Jun 2027 07:20:59.314            24.081         12040.500
        38   03 Jun 2027 08:52:12.336   03 Jun 2027 08:56:32.931           260.595        130297.500
        39   03 Jun 2027 10:26:25.135   03 Jun 2027 10:27:39.558            74.423         37211.500
        40   03 Jun 2027 10:28:12.185   03 Jun 2027 10:31:46.060           213.875        106937.500
        41   04 Jun 2027 04:12:30.126   04 Jun 2027 04:21:03.465           513.339        256669.500
        42   04 Jun 2027 05:49:53.862   04 Jun 2027 05:56:54.843           420.981        210490.500
        43   04 Jun 2027 07:28:02.006   04 Jun 2027 07:31:27.041           205.035        102517.500
        44   04 Jun 2027 07:31:34.636   04 Jun 2027 07:32:48.071            73.435         36717.500
        45   04 Jun 2027 09:03:48.088   04 Jun 2027 09:08:30.935           282.847        141423.500
        46   04 Jun 2027 10:38:59.500   04 Jun 2027 10:39:07.113             7.613          3806.500
        47   04 Jun 2027 10:41:10.486   04 Jun 2027 10:43:30.841           140.355         70177.500
        48   05 Jun 2027 04:25:02.784   05 Jun 2027 04:31:57.631           414.847        207423.500
        49   05 Jun 2027 04:31:59.686   05 Jun 2027 04:33:00.775            61.089         30544.500
        50   05 Jun 2027 06:02:07.354   05 Jun 2027 06:08:50.008           402.654        201327.000
        51   05 Jun 2027 07:39:03.343   05 Jun 2027 07:43:27.551           264.208        132104.000
        52   05 Jun 2027 07:43:28.317   05 Jun 2027 07:44:03.470            35.153         17576.500
        53   05 Jun 2027 09:15:55.857   05 Jun 2027 09:20:31.917           276.060        138030.000
        54   05 Jun 2027 10:54:28.473   05 Jun 2027 10:54:59.973            31.500         15750.000
        55   06 Jun 2027 03:03:09.301   06 Jun 2027 03:06:39.115           209.814        104907.000
        56   06 Jun 2027 04:38:14.244   06 Jun 2027 04:45:01.971           407.727        203863.500
        57   06 Jun 2027 06:14:36.165   06 Jun 2027 06:20:56.465           380.300        190150.000
        58   06 Jun 2027 07:52:17.551   06 Jun 2027 07:56:32.618           255.067        127533.500
        59   06 Jun 2027 09:28:22.053   06 Jun 2027 09:32:25.626           243.573        121786.500
        60   07 Jun 2027 03:15:13.856   07 Jun 2027 03:18:38.999           205.143        102571.500
        61   07 Jun 2027 04:50:24.270   07 Jun 2027 04:57:00.519           396.249        198124.500
        62   07 Jun 2027 06:26:38.936   07 Jun 2027 06:32:28.988           350.052        175026.000
        63   07 Jun 2027 08:04:13.335   07 Jun 2027 08:08:43.471           270.136        135068.000
        64   07 Jun 2027 09:40:48.425   07 Jun 2027 09:44:25.239           216.814        108407.000
        65   07 Jun 2027 09:44:29.391   07 Jun 2027 09:45:13.355            43.964         21982.000
        66   08 Jun 2027 03:26:57.529   08 Jun 2027 03:31:11.454           253.925        126962.500
        67   08 Jun 2027 05:01:48.630   08 Jun 2027 05:09:10.877           442.247        221123.500
        68   08 Jun 2027 06:38:33.536   08 Jun 2027 06:44:48.166           374.630        187315.000
        69   08 Jun 2027 08:16:54.659   08 Jun 2027 08:20:36.826           222.167        111083.500
        70   08 Jun 2027 09:50:02.708   08 Jun 2027 09:50:11.382             8.674          4337.000
        71   08 Jun 2027 09:52:24.417   08 Jun 2027 09:56:14.224           229.807        114903.500
        72   08 Jun 2027 09:56:33.648   08 Jun 2027 09:57:31.940            58.292         29146.000
        73   09 Jun 2027 03:37:10.248   09 Jun 2027 03:38:09.609            59.361         29680.500
        74   09 Jun 2027 03:38:42.393   09 Jun 2027 03:43:30.277           287.884        143942.000
        75   09 Jun 2027 05:13:40.987   09 Jun 2027 05:20:46.086           425.099        212549.500
        76   09 Jun 2027 05:21:10.654   09 Jun 2027 05:21:11.227             0.573           286.500
        77   09 Jun 2027 06:50:45.420   09 Jun 2027 06:56:36.036           350.616        175308.000
        78   09 Jun 2027 06:56:51.901   09 Jun 2027 06:56:56.296             4.395          2197.500
        79   09 Jun 2027 08:29:02.837   09 Jun 2027 08:32:39.335           216.498        108249.000
        80   09 Jun 2027 10:01:48.521   09 Jun 2027 10:08:13.360           384.839        192419.500
        81   09 Jun 2027 10:08:43.639   09 Jun 2027 10:09:44.709            61.070         30535.000
        82   10 Jun 2027 03:48:20.080   10 Jun 2027 03:50:23.158           123.078         61539.000
        83   10 Jun 2027 03:50:29.637   10 Jun 2027 03:55:49.973           320.336        160168.000
        84   10 Jun 2027 03:56:32.566   10 Jun 2027 03:56:50.329            17.763          8881.500
        85   10 Jun 2027 05:25:53.848   10 Jun 2027 05:33:14.693           440.845        220422.500
        86   10 Jun 2027 07:02:47.844   10 Jun 2027 07:08:49.673           361.829        180914.500
        87   10 Jun 2027 07:08:54.846   10 Jun 2027 07:09:14.334            19.488          9744.000
        88   10 Jun 2027 08:40:51.189   10 Jun 2027 08:44:49.002           237.813        118906.500
        89   10 Jun 2027 10:14:16.953   10 Jun 2027 10:20:20.659           363.706        181853.000
        90   11 Jun 2027 03:59:50.793   11 Jun 2027 04:07:58.492           487.699        243849.500
        91   11 Jun 2027 04:08:37.984   11 Jun 2027 04:09:17.191            39.207         19603.500
        92   11 Jun 2027 05:37:47.751   11 Jun 2027 05:45:16.069           448.318        224159.000
        93   11 Jun 2027 07:14:42.127   11 Jun 2027 07:20:03.889           321.762        160881.000
        94   11 Jun 2027 07:20:52.705   11 Jun 2027 07:21:13.728            21.023         10511.500
        95   11 Jun 2027 08:52:29.465   11 Jun 2027 08:56:47.501           258.036        129018.000
        96   11 Jun 2027 10:26:40.012   11 Jun 2027 10:27:40.335            60.323         30161.500
        97   11 Jun 2027 10:28:28.828   11 Jun 2027 10:32:00.349           211.521        105760.500
        98   12 Jun 2027 04:12:44.246   12 Jun 2027 04:21:18.024           513.778        256889.000
        99   12 Jun 2027 05:50:08.589   12 Jun 2027 05:57:09.459           420.870        210435.000
       100   12 Jun 2027 07:28:17.314   12 Jun 2027 07:31:41.632           204.318        102159.000
       101   12 Jun 2027 07:31:49.124   12 Jun 2027 07:33:02.637            73.513         36756.500
       102   12 Jun 2027 09:04:02.444   12 Jun 2027 09:08:45.563           283.119        141559.500
       103   12 Jun 2027 10:39:15.249   12 Jun 2027 10:39:21.675             6.426          3213.000
       104   12 Jun 2027 10:41:26.956   12 Jun 2027 10:43:45.219           138.263         69131.500
       105   13 Jun 2027 04:25:17.499   13 Jun 2027 04:32:12.200           414.701        207350.500
       106   13 Jun 2027 04:32:14.278   13 Jun 2027 04:32:40.532            26.254         13127.000
       107   13 Jun 2027 04:32:57.064   13 Jun 2027 04:32:58.683             1.619           809.500
       108   13 Jun 2027 04:33:03.203   13 Jun 2027 04:33:15.274            12.071          6035.500
       109   13 Jun 2027 06:02:22.088   13 Jun 2027 06:09:04.627           402.539        201269.500
       110   13 Jun 2027 07:39:45.169   13 Jun 2027 07:44:18.405           273.236        136618.000
       111   13 Jun 2027 09:16:10.806   13 Jun 2027 09:20:46.822           276.016        138008.000
       112   13 Jun 2027 10:54:38.913   13 Jun 2027 10:55:14.322            35.409         17704.500
