uniorb/output/strategy_4/Camera/Camera_KinoSat_110810.txt

KinoSat_110810
-------------------------
    Access    *     Start Time (UTCG)     *     Stop Time (UTCG)  *   Duration (s) *   Data (Mbytes)
         1   01 Jun 2027 04:23:32.640   01 Jun 2027 04:25:09.504            96.864         48432.000
         2   01 Jun 2027 04:25:27.317   01 Jun 2027 04:25:34.934             7.617          3808.500
         3   01 Jun 2027 04:26:27.120   01 Jun 2027 04:26:28.654             1.534           767.000
         4   01 Jun 2027 05:57:01.952   01 Jun 2027 05:59:21.899           139.947         69973.500
         5   01 Jun 2027 06:00:02.960   01 Jun 2027 06:00:03.018             0.058            29.000
         6   01 Jun 2027 06:00:16.963   01 Jun 2027 06:00:30.055            13.092          6546.000
         7   01 Jun 2027 06:02:10.569   01 Jun 2027 06:02:12.813             2.244          1122.000
         8   01 Jun 2027 06:02:36.243   01 Jun 2027 06:02:38.798             2.555          1277.500
         9   01 Jun 2027 06:03:26.780   01 Jun 2027 06:03:33.097             6.317          3158.500
        10   01 Jun 2027 06:04:27.521   01 Jun 2027 06:04:30.977             3.456          1728.000
        11   01 Jun 2027 06:05:15.318   01 Jun 2027 06:05:18.531             3.213          1606.500
        12   01 Jun 2027 06:05:25.943   01 Jun 2027 06:05:29.791             3.848          1924.000
        13   01 Jun 2027 06:05:32.445   01 Jun 2027 06:05:34.245             1.800           900.000
        14   01 Jun 2027 07:34:33.964   01 Jun 2027 07:36:53.168           139.204         69602.000
        15   01 Jun 2027 07:38:08.875   01 Jun 2027 07:38:18.255             9.380          4690.000
        16   01 Jun 2027 07:38:28.861   01 Jun 2027 07:38:46.299            17.438          8719.000
        17   01 Jun 2027 09:11:30.273   01 Jun 2027 09:14:37.529           187.256         93628.000
        18   01 Jun 2027 09:15:50.183   01 Jun 2027 09:15:56.446             6.263          3131.500
        19   01 Jun 2027 09:16:55.432   01 Jun 2027 09:17:17.640            22.208         11104.000
        20   01 Jun 2027 10:48:20.909   01 Jun 2027 10:51:13.015           172.106         86053.000
        21   02 Jun 2027 03:00:00.000   02 Jun 2027 03:00:18.807            18.807          9403.500
        22   02 Jun 2027 04:35:34.217   02 Jun 2027 04:37:06.469            92.252         46126.000
        23   02 Jun 2027 04:37:33.781   02 Jun 2027 04:37:53.139            19.358          9679.000
        24   02 Jun 2027 04:38:49.268   02 Jun 2027 04:39:08.769            19.501          9750.500
        25   02 Jun 2027 06:09:41.529   02 Jun 2027 06:12:48.462           186.933         93466.500
        26   02 Jun 2027 06:12:58.034   02 Jun 2027 06:13:16.918            18.884          9442.000
        27   02 Jun 2027 06:16:08.550   02 Jun 2027 06:16:25.273            16.723          8361.500
        28   02 Jun 2027 06:17:10.165   02 Jun 2027 06:17:27.118            16.953          8476.500
        29   02 Jun 2027 07:46:40.015   02 Jun 2027 07:49:31.530           171.515         85757.500
        30   02 Jun 2027 07:52:10.271   02 Jun 2027 07:52:25.941            15.670          7835.000
        31   02 Jun 2027 07:52:50.152   02 Jun 2027 07:53:20.737            30.585         15292.500
        32   02 Jun 2027 09:24:19.235   02 Jun 2027 09:25:53.146            93.911         46587.157
        33   02 Jun 2027 09:26:13.114   02 Jun 2027 09:26:14.526             1.412           386.906
        34   02 Jun 2027 09:28:05.747   02 Jun 2027 09:28:08.834             3.087           780.875
        35   02 Jun 2027 09:28:43.277   02 Jun 2027 09:28:45.646             2.369           981.594
        36   02 Jun 2027 11:00:23.967   02 Jun 2027 11:00:36.976            13.009          6478.656
        37   02 Jun 2027 11:03:56.305   02 Jun 2027 11:04:02.147             5.842          1069.375
        38   02 Jun 2027 11:04:35.861   02 Jun 2027 11:04:38.274             2.413           775.938
        39   03 Jun 2027 03:11:13.449   03 Jun 2027 03:11:24.130            10.681          5340.500
        40   03 Jun 2027 03:12:18.157   03 Jun 2027 03:12:32.690            14.533          7266.500
        41   03 Jun 2027 04:47:44.026   03 Jun 2027 04:51:19.038           215.012        107506.000
        42   03 Jun 2027 06:22:54.068   03 Jun 2027 06:24:10.481            76.413         34628.000
        43   03 Jun 2027 06:25:04.644   03 Jun 2027 06:25:07.470             2.826          1397.656
        44   03 Jun 2027 06:25:34.368   03 Jun 2027 06:25:37.877             3.509            54.938
        45   03 Jun 2027 06:25:40.902   03 Jun 2027 06:25:44.517             3.615            33.813
        46   03 Jun 2027 06:27:27.933   03 Jun 2027 06:27:33.764             5.831          2460.500
        47   03 Jun 2027 06:28:42.834   03 Jun 2027 06:28:47.548             4.714          1924.562
        48   03 Jun 2027 06:29:01.997   03 Jun 2027 06:29:05.248             3.251           185.313
        49   03 Jun 2027 07:59:16.100   03 Jun 2027 07:59:16.760             0.660           166.844
        50   03 Jun 2027 08:04:19.247   03 Jun 2027 08:04:20.561             1.314           419.094
        51   03 Jun 2027 09:36:33.720   03 Jun 2027 09:36:44.907            11.187          5360.344
        52   03 Jun 2027 09:40:40.646   03 Jun 2027 09:40:44.469             3.823           399.687
        53   03 Jun 2027 09:40:53.295   03 Jun 2027 09:40:57.261             3.966           236.406
        54   03 Jun 2027 11:12:46.142   03 Jun 2027 11:12:58.793            12.651          5748.500
        55   03 Jun 2027 11:16:59.590   03 Jun 2027 11:17:02.445             2.855           675.250
        56   04 Jun 2027 03:23:53.254   04 Jun 2027 03:23:58.003             4.749          2374.500
        57   04 Jun 2027 03:26:11.407   04 Jun 2027 03:26:15.523             4.116          2058.000
        58   04 Jun 2027 04:59:38.910   04 Jun 2027 05:03:18.324           219.414        109707.000
        59   04 Jun 2027 06:34:36.315   04 Jun 2027 06:35:40.138            63.823         31911.500
        60   04 Jun 2027 06:35:54.798   04 Jun 2027 06:35:59.266             4.468           612.907
        61   04 Jun 2027 06:37:18.488   04 Jun 2027 06:37:22.233             3.745          1512.187
        62   04 Jun 2027 06:37:42.180   04 Jun 2027 06:37:43.747             1.567           359.219
        63   04 Jun 2027 06:38:08.862   04 Jun 2027 06:38:08.862             0.000             0.000
        64   04 Jun 2027 06:39:27.937   04 Jun 2027 06:39:37.222             9.285          3245.250
        65   04 Jun 2027 06:40:34.229   04 Jun 2027 06:40:37.737             3.508          1560.812
        66   04 Jun 2027 06:41:12.667   04 Jun 2027 06:41:14.527             1.860           371.937
        67   04 Jun 2027 08:10:48.793   04 Jun 2027 08:10:55.810             7.017           859.219
        68   04 Jun 2027 09:48:49.958   04 Jun 2027 09:49:03.517            13.559          6136.031
        69   04 Jun 2027 09:49:41.606   04 Jun 2027 09:49:44.235             2.629            56.156
        70   04 Jun 2027 09:52:34.129   04 Jun 2027 09:52:36.117             1.988           498.281
        71   04 Jun 2027 11:24:29.825   04 Jun 2027 11:24:41.816            11.991          4998.625
        72   05 Jun 2027 03:34:42.563   05 Jun 2027 03:34:51.676             9.113          4556.500
        73   05 Jun 2027 03:35:57.755   05 Jun 2027 03:36:08.330            10.575          5287.500
        74   05 Jun 2027 05:10:14.942   05 Jun 2027 05:10:21.817             6.875          3437.500
        75   05 Jun 2027 05:11:24.698   05 Jun 2027 05:12:47.151            82.453         41226.500
        76   05 Jun 2027 05:13:28.130   05 Jun 2027 05:15:00.164            92.034         46017.000
        77   05 Jun 2027 05:15:35.166   05 Jun 2027 05:15:39.565             4.399          2199.500
        78   05 Jun 2027 06:46:10.009   05 Jun 2027 06:47:57.996           107.987         52565.751
        79   05 Jun 2027 06:48:33.985   05 Jun 2027 06:48:39.258             5.273          1124.656
        80   05 Jun 2027 06:49:06.466   05 Jun 2027 06:49:09.911             3.445           728.000
        81   05 Jun 2027 06:49:44.316   05 Jun 2027 06:49:45.973             1.657           762.469
        82   05 Jun 2027 06:50:10.987   05 Jun 2027 06:50:12.549             1.562           737.781
        83   05 Jun 2027 06:51:47.220   05 Jun 2027 06:51:49.651             2.431          1181.906
        84   05 Jun 2027 06:52:25.440   05 Jun 2027 06:52:26.942             1.502           467.250
        85   05 Jun 2027 06:53:01.232   05 Jun 2027 06:53:03.422             2.190          1045.000
        86   05 Jun 2027 08:23:10.237   05 Jun 2027 08:23:15.182             4.945          2052.000
        87   05 Jun 2027 08:24:47.855   05 Jun 2027 08:24:49.843             1.988           871.656
        88   05 Jun 2027 08:28:39.298   05 Jun 2027 08:28:41.706             2.408           273.594
        89   05 Jun 2027 10:01:11.466   05 Jun 2027 10:01:24.387            12.921          5887.313
        90   05 Jun 2027 10:02:41.628   05 Jun 2027 10:02:45.961             4.333          2106.469
        91   05 Jun 2027 10:03:03.258   05 Jun 2027 10:03:03.743             0.485           172.437
        92   05 Jun 2027 10:03:52.414   05 Jun 2027 10:03:55.069             2.655           891.406
        93   05 Jun 2027 10:04:14.277   05 Jun 2027 10:04:17.633             3.356           520.469
        94   05 Jun 2027 10:04:25.468   05 Jun 2027 10:04:30.944             5.476           244.844
        95   05 Jun 2027 10:04:46.539   05 Jun 2027 10:04:48.210             1.671           362.625
        96   05 Jun 2027 10:04:57.075   05 Jun 2027 10:04:57.359             0.284            85.688
        97   05 Jun 2027 11:34:25.637   05 Jun 2027 11:34:38.779            13.142          5905.562
        98   06 Jun 2027 03:45:58.808   06 Jun 2027 03:46:19.130            20.322         10161.000
        99   06 Jun 2027 03:49:36.339   06 Jun 2027 03:49:45.748             9.409          4704.500
       100   06 Jun 2027 05:21:06.689   06 Jun 2027 05:22:39.913            93.224         46612.000
       101   06 Jun 2027 05:23:08.018   06 Jun 2027 05:23:55.828            47.810         23905.000
       102   06 Jun 2027 05:24:46.903   06 Jun 2027 05:25:41.889            54.986         27493.000
       103   06 Jun 2027 06:58:18.321   06 Jun 2027 07:00:01.125           102.804         49376.875
       104   06 Jun 2027 07:00:56.596   06 Jun 2027 07:01:01.360             4.764          1733.469
       105   06 Jun 2027 07:01:46.203   06 Jun 2027 07:01:49.582             3.379           852.750
       106   06 Jun 2027 07:03:26.091   06 Jun 2027 07:03:31.513             5.422          2201.500
       107   06 Jun 2027 07:03:56.210   06 Jun 2027 07:04:02.443             6.233           193.438
       108   06 Jun 2027 07:04:45.649   06 Jun 2027 07:04:47.754             2.105           704.812
       109   06 Jun 2027 07:05:32.807   06 Jun 2027 07:05:36.254             3.447          1271.344
       110   06 Jun 2027 08:35:15.684   06 Jun 2027 08:35:20.590             4.906          1760.125
       111   06 Jun 2027 08:39:04.089   06 Jun 2027 08:39:07.516             3.427          1306.969
       112   06 Jun 2027 08:39:22.271   06 Jun 2027 08:39:23.876             1.605           128.500
       113   06 Jun 2027 08:40:45.554   06 Jun 2027 08:40:46.249             0.695            41.437
       114   06 Jun 2027 08:41:01.806   06 Jun 2027 08:41:05.135             3.329           448.469
       115   06 Jun 2027 10:13:08.679   06 Jun 2027 10:13:23.613            14.934          6483.281
       116   06 Jun 2027 10:15:02.379   06 Jun 2027 10:15:07.437             5.058           473.656
       117   06 Jun 2027 10:16:34.105   06 Jun 2027 10:16:36.311             2.206           947.031
       118   06 Jun 2027 10:16:43.870   06 Jun 2027 10:16:44.188             0.318            31.031
       119   06 Jun 2027 11:46:36.792   06 Jun 2027 11:46:40.831             4.039          1227.031
       120   07 Jun 2027 03:57:43.851   07 Jun 2027 03:57:52.764             8.913          4456.500
       121   07 Jun 2027 03:58:28.168   07 Jun 2027 03:58:39.379            11.211          5605.500
       122   07 Jun 2027 04:00:49.341   07 Jun 2027 04:01:00.621            11.280          5640.000
       123   07 Jun 2027 05:32:36.342   07 Jun 2027 05:35:01.736           145.394         72697.000
       124   07 Jun 2027 05:35:55.399   07 Jun 2027 05:36:30.248            34.849         17424.500
       125   07 Jun 2027 05:36:49.872   07 Jun 2027 05:36:57.975             8.103          4051.500
       126   07 Jun 2027 05:41:26.102   07 Jun 2027 05:41:33.763             7.661          3830.500
       127   07 Jun 2027 07:10:19.770   07 Jun 2027 07:12:16.891           117.121         58559.687
       128   07 Jun 2027 07:12:48.930   07 Jun 2027 07:12:52.641             3.711           392.406
       129   07 Jun 2027 07:13:18.706   07 Jun 2027 07:13:21.213             2.507           273.781
       130   07 Jun 2027 07:13:54.094   07 Jun 2027 07:13:54.094             0.000             0.000
       131   07 Jun 2027 07:14:22.940   07 Jun 2027 07:14:25.612             2.672          1150.813
       132   07 Jun 2027 07:16:23.454   07 Jun 2027 07:16:24.996             1.542            85.094
       133   07 Jun 2027 07:17:32.615   07 Jun 2027 07:17:39.590             6.975          1549.687
       134   07 Jun 2027 08:47:07.921   07 Jun 2027 08:47:21.251            13.330          4617.812
       135   07 Jun 2027 08:49:56.020   07 Jun 2027 08:50:00.304             4.284            86.406
       136   07 Jun 2027 08:50:50.097   07 Jun 2027 08:50:52.842             2.745           332.344
       137   07 Jun 2027 08:51:59.637   07 Jun 2027 08:52:02.184             2.547          1086.594
       138   07 Jun 2027 08:53:10.159   07 Jun 2027 08:53:18.399             8.240          2009.500
       139   07 Jun 2027 10:25:10.263   07 Jun 2027 10:25:26.784            16.521          6331.781
       140   07 Jun 2027 10:25:40.595   07 Jun 2027 10:25:43.308             2.713           288.000
       141   07 Jun 2027 10:26:52.278   07 Jun 2027 10:26:59.608             7.330          2125.906
       142   07 Jun 2027 10:28:15.796   07 Jun 2027 10:28:18.092             2.296           723.688
       143   07 Jun 2027 10:28:30.564   07 Jun 2027 10:28:31.046             0.482           176.875
       144   07 Jun 2027 10:28:50.339   07 Jun 2027 10:28:53.204             2.865           267.406
       145   07 Jun 2027 11:59:02.238   07 Jun 2027 11:59:10.709             8.471           473.906
       146   08 Jun 2027 04:11:30.623   08 Jun 2027 04:12:02.172            31.549         15774.500
       147   08 Jun 2027 04:13:39.933   08 Jun 2027 04:13:39.933             0.000             0.000
       148   08 Jun 2027 04:14:01.123   08 Jun 2027 04:14:02.527             1.404           702.000
       149   08 Jun 2027 04:14:48.140   08 Jun 2027 04:15:10.230            22.090         11045.000
       150   08 Jun 2027 05:45:20.232   08 Jun 2027 05:47:49.462           149.230         74615.000
       151   08 Jun 2027 05:49:48.189   08 Jun 2027 05:49:50.538             2.349          1174.500
       152   08 Jun 2027 05:51:23.171   08 Jun 2027 05:51:40.718            17.547          8773.500
       153   08 Jun 2027 05:53:36.348   08 Jun 2027 05:53:36.348             0.000             0.000
       154   08 Jun 2027 05:53:44.470   08 Jun 2027 05:53:49.835             5.365          2682.500
       155   08 Jun 2027 07:22:23.066   08 Jun 2027 07:24:12.514           109.448         54178.875
       156   08 Jun 2027 07:24:43.525   08 Jun 2027 07:24:47.354             3.829           815.750
       157   08 Jun 2027 07:25:41.648   08 Jun 2027 07:25:48.206             6.558          1366.750
       158   08 Jun 2027 07:25:57.449   08 Jun 2027 07:26:00.140             2.691           262.969
       159   08 Jun 2027 07:27:20.926   08 Jun 2027 07:27:24.802             3.876          1538.031
       160   08 Jun 2027 08:59:17.960   08 Jun 2027 08:59:28.113            10.153          4733.969
       161   08 Jun 2027 09:03:35.245   08 Jun 2027 09:03:39.087             3.842           229.250
       162   08 Jun 2027 09:04:06.201   08 Jun 2027 09:04:09.082             2.881           493.938
       163   08 Jun 2027 10:36:23.892   08 Jun 2027 10:36:37.388            13.496          5024.219
       164   08 Jun 2027 10:39:32.105   08 Jun 2027 10:39:34.296             2.191          1074.313
       165   08 Jun 2027 10:39:50.821   08 Jun 2027 10:40:01.699            10.878           207.937
       166   08 Jun 2027 10:40:48.682   08 Jun 2027 10:40:51.349             2.667           832.719
       167   09 Jun 2027 04:23:47.733   09 Jun 2027 04:25:10.194            82.461         41230.500
       168   09 Jun 2027 04:25:54.410   09 Jun 2027 04:26:03.240             8.830          4415.000
       169   09 Jun 2027 04:26:49.071   09 Jun 2027 04:26:49.071             0.000             0.000
       170   09 Jun 2027 05:57:17.421   09 Jun 2027 05:58:34.526            77.105         38552.500
       171   09 Jun 2027 05:58:53.226   09 Jun 2027 05:59:51.485            58.259         29129.500
       172   09 Jun 2027 06:00:50.585   09 Jun 2027 06:01:01.093            10.508          5254.000
       173   09 Jun 2027 06:03:42.422   09 Jun 2027 06:04:16.992            34.570         17285.000
       174   09 Jun 2027 06:05:38.762   09 Jun 2027 06:05:49.075            10.313          5156.500
       175   09 Jun 2027 07:34:48.793   09 Jun 2027 07:35:30.197            41.404         19651.313
       176   09 Jun 2027 07:39:38.388   09 Jun 2027 07:39:41.372             2.984           959.594
       177   09 Jun 2027 07:40:30.309   09 Jun 2027 07:40:32.695             2.386            24.938
       178   09 Jun 2027 07:40:49.028   09 Jun 2027 07:40:50.815             1.787           209.125
       179   09 Jun 2027 09:11:45.276   09 Jun 2027 09:11:58.908            13.632          6155.625
       180   09 Jun 2027 09:16:48.397   09 Jun 2027 09:16:52.746             4.349          1405.250
       181   09 Jun 2027 10:48:36.024   09 Jun 2027 10:48:52.567            16.543          7884.094
       182   09 Jun 2027 10:50:41.279   09 Jun 2027 10:50:43.379             2.100           713.500
       183   09 Jun 2027 10:53:04.239   09 Jun 2027 10:53:05.244             1.005           291.250
       184   10 Jun 2027 03:00:00.000   10 Jun 2027 03:00:09.725             9.725          4862.500
       185   10 Jun 2027 03:00:34.291   10 Jun 2027 03:00:42.067             7.776          3888.000
       186   10 Jun 2027 04:35:49.786   10 Jun 2027 04:36:31.728            41.942         20971.000
       187   10 Jun 2027 04:36:55.670   10 Jun 2027 04:37:20.967            25.297         12648.500
       188   10 Jun 2027 04:37:47.847   10 Jun 2027 04:39:23.614            95.767         47883.500
       189   10 Jun 2027 06:09:56.876   10 Jun 2027 06:11:52.169           115.293         57583.719
       190   10 Jun 2027 06:12:05.743   10 Jun 2027 06:12:07.148             1.405           240.688
       191   10 Jun 2027 06:12:28.121   10 Jun 2027 06:12:31.350             3.229           288.437
       192   10 Jun 2027 06:13:51.916   10 Jun 2027 06:13:57.438             5.522          2417.937
       193   10 Jun 2027 06:14:27.714   10 Jun 2027 06:14:32.220             4.506           726.000
       194   10 Jun 2027 06:15:22.595   10 Jun 2027 06:15:29.081             6.486          1574.219
       195   10 Jun 2027 06:16:45.868   10 Jun 2027 06:16:50.926             5.058          1898.062
       196   10 Jun 2027 06:17:32.915   10 Jun 2027 06:17:37.774             4.859          1207.063
       197   10 Jun 2027 06:17:42.370   10 Jun 2027 06:17:44.037             1.667            43.500
       198   10 Jun 2027 07:46:55.098   10 Jun 2027 07:46:56.963             1.865           794.469
       199   10 Jun 2027 07:52:30.062   10 Jun 2027 07:52:34.580             4.518           163.562
       200   10 Jun 2027 07:53:04.624   10 Jun 2027 07:53:07.824             3.200           691.250
       201   10 Jun 2027 07:53:27.543   10 Jun 2027 07:53:28.548             1.005            74.187
       202   10 Jun 2027 09:24:35.623   10 Jun 2027 09:24:50.881            15.258          6778.875
       203   10 Jun 2027 09:26:37.696   10 Jun 2027 09:26:41.117             3.421           736.094
       204   10 Jun 2027 09:28:30.067   10 Jun 2027 09:28:35.691             5.624          2040.688
       205   10 Jun 2027 11:00:38.519   10 Jun 2027 11:00:51.812            13.293          4854.125
       206   10 Jun 2027 11:04:30.929   10 Jun 2027 11:04:34.463             3.534           551.719
       207   11 Jun 2027 03:11:28.216   11 Jun 2027 03:11:39.133            10.917          5458.500
       208   11 Jun 2027 03:14:27.285   11 Jun 2027 03:14:29.302             2.017          1008.500
       209   11 Jun 2027 04:47:59.031   11 Jun 2027 04:51:33.665           214.634        107317.000
       210   11 Jun 2027 06:23:08.966   11 Jun 2027 06:24:24.002            75.036         35990.500
       211   11 Jun 2027 06:25:48.455   11 Jun 2027 06:25:52.457             4.002           886.219
       212   11 Jun 2027 06:25:58.906   11 Jun 2027 06:25:58.906             0.000             0.000
       213   11 Jun 2027 06:26:25.109   11 Jun 2027 06:26:26.995             1.886           902.344
       214   11 Jun 2027 06:27:43.372   11 Jun 2027 06:27:49.000             5.628          2190.531
       215   11 Jun 2027 06:28:58.473   11 Jun 2027 06:29:02.303             3.830          1878.812
       216   11 Jun 2027 06:29:17.456   11 Jun 2027 06:29:21.950             4.494           181.937
       217   11 Jun 2027 08:04:33.892   11 Jun 2027 08:04:35.408             1.516           408.156
       218   11 Jun 2027 09:36:47.769   11 Jun 2027 09:37:05.377            17.608          6254.781
       219   11 Jun 2027 09:40:14.110   11 Jun 2027 09:40:20.045             5.935          1560.437
       220   11 Jun 2027 09:40:56.201   11 Jun 2027 09:40:58.539             2.338          1074.125
       221   11 Jun 2027 09:41:08.334   11 Jun 2027 09:41:14.299             5.965           235.156
       222   11 Jun 2027 11:13:01.207   11 Jun 2027 11:13:17.055            15.848          6968.844
       223   12 Jun 2027 03:24:08.084   12 Jun 2027 03:24:13.056             4.972          2486.000
       224   12 Jun 2027 03:26:27.731   12 Jun 2027 03:26:40.121            12.390          6195.000
       225   12 Jun 2027 04:59:53.565   12 Jun 2027 05:00:30.365            36.800         18400.000
       226   12 Jun 2027 05:01:05.102   12 Jun 2027 05:03:49.021           163.919         81959.500
       227   12 Jun 2027 06:34:50.937   12 Jun 2027 06:36:11.633            80.696         40142.844
       228   12 Jun 2027 06:36:20.877   12 Jun 2027 06:36:21.491             0.614           270.406
       229   12 Jun 2027 06:37:34.475   12 Jun 2027 06:37:37.982             3.507          1517.594
       230   12 Jun 2027 06:37:59.794   12 Jun 2027 06:38:02.098             2.304            37.937
       231   12 Jun 2027 06:38:24.885   12 Jun 2027 06:38:24.885             0.000             0.000
       232   12 Jun 2027 06:39:43.355   12 Jun 2027 06:39:52.128             8.773          3164.281
       233   12 Jun 2027 06:40:49.946   12 Jun 2027 06:40:54.284             4.338          1517.813
       234   12 Jun 2027 06:41:27.310   12 Jun 2027 06:41:29.060             1.750           338.062
       235   12 Jun 2027 08:11:03.478   12 Jun 2027 08:11:05.692             2.214          1102.188
       236   12 Jun 2027 08:12:46.025   12 Jun 2027 08:12:49.404             3.379           896.156
       237   12 Jun 2027 09:49:14.912   12 Jun 2027 09:49:29.624            14.712          5782.219
       238   12 Jun 2027 09:49:55.019   12 Jun 2027 09:49:56.593             1.574           415.000
       239   12 Jun 2027 09:50:17.903   12 Jun 2027 09:50:19.531             1.628           665.937
       240   12 Jun 2027 09:52:49.290   12 Jun 2027 09:52:52.204             2.914           500.156
       241   12 Jun 2027 11:24:44.333   12 Jun 2027 11:24:56.015            11.682          5057.656
       242   13 Jun 2027 03:34:56.878   13 Jun 2027 03:35:06.694             9.816          4908.000
       243   13 Jun 2027 03:36:13.928   13 Jun 2027 03:36:24.088            10.160          5080.000
       244   13 Jun 2027 05:10:29.357   13 Jun 2027 05:10:37.236             7.879          3939.500
       245   13 Jun 2027 05:11:39.485   13 Jun 2027 05:13:43.330           123.845         61922.500
       246   13 Jun 2027 05:13:57.992   13 Jun 2027 05:14:44.342            46.350         23175.000
       247   13 Jun 2027 05:15:33.259   13 Jun 2027 05:15:50.677            17.418          8709.000
       248   13 Jun 2027 05:15:56.680   13 Jun 2027 05:15:59.146             2.466          1233.000
       249   13 Jun 2027 06:46:24.555   13 Jun 2027 06:48:04.517            99.962         49398.937
       250   13 Jun 2027 06:48:49.659   13 Jun 2027 06:48:53.605             3.946          1070.094
       251   13 Jun 2027 06:50:00.704   13 Jun 2027 06:50:02.473             1.769           631.156
       252   13 Jun 2027 06:50:27.124   13 Jun 2027 06:50:28.572             1.448           679.219
       253   13 Jun 2027 06:52:30.132   13 Jun 2027 06:52:35.704             5.572          2024.375
       254   13 Jun 2027 06:53:15.809   13 Jun 2027 06:53:18.972             3.163           993.562
       255   13 Jun 2027 08:23:25.244   13 Jun 2027 08:23:27.830             2.586           942.750
       256   13 Jun 2027 08:25:02.512   13 Jun 2027 08:25:04.414             1.902           856.969
       257   13 Jun 2027 08:28:41.151   13 Jun 2027 08:28:42.076             0.925            37.281
       258   13 Jun 2027 08:28:56.319   13 Jun 2027 08:28:57.515             1.196           315.062
       259   13 Jun 2027 10:01:25.975   13 Jun 2027 10:01:36.002            10.027          4768.469
       260   13 Jun 2027 10:02:58.701   13 Jun 2027 10:03:02.326             3.625           307.531
       261   13 Jun 2027 10:03:41.389   13 Jun 2027 10:03:43.137             1.748           489.188
       262   13 Jun 2027 10:04:32.916   13 Jun 2027 10:04:35.464             2.548           958.781
       263   13 Jun 2027 10:05:11.438   13 Jun 2027 10:05:13.935             2.497          1073.781
       264   13 Jun 2027 11:34:39.880   13 Jun 2027 11:34:50.589            10.709          5339.031
