uniorb/output/strategy_4/Camera/Camera_KinoSat_111408.txt

KinoSat_111408
-------------------------
    Access    *     Start Time (UTCG)     *     Stop Time (UTCG)  *   Duration (s) *   Data (Mbytes)
         1   01 Jun 2027 04:31:28.045   01 Jun 2027 04:31:59.067            31.022         15511.000
         2   01 Jun 2027 04:32:17.613   01 Jun 2027 04:34:08.098           110.485         55242.500
         3   01 Jun 2027 04:35:06.428   01 Jun 2027 04:35:06.428             0.000             0.000
         4   01 Jun 2027 05:54:50.532   01 Jun 2027 05:56:05.325            74.793         37396.500
         5   01 Jun 2027 05:56:28.503   01 Jun 2027 05:56:59.516            31.013         15506.500
         6   01 Jun 2027 07:31:22.415   01 Jun 2027 07:33:31.445           129.030         64515.000
         7   01 Jun 2027 07:33:59.792   01 Jun 2027 07:34:13.553            13.761          6880.500
         8   01 Jun 2027 09:06:32.423   01 Jun 2027 09:08:48.215           135.792         67896.000
         9   01 Jun 2027 09:09:29.304   01 Jun 2027 09:09:49.242            19.938          9969.000
        10   01 Jun 2027 09:12:58.265   01 Jun 2027 09:13:08.975            10.710          5355.000
        11   01 Jun 2027 10:42:57.678   01 Jun 2027 10:45:42.172           164.494         82247.000
        12   01 Jun 2027 10:49:05.013   01 Jun 2027 10:49:06.917             1.904           952.000
        13   02 Jun 2027 03:05:14.907   02 Jun 2027 03:05:22.996             8.089          4044.500
        14   02 Jun 2027 03:06:16.187   02 Jun 2027 03:07:06.069            49.882         24941.000
        15   02 Jun 2027 03:07:18.081   02 Jun 2027 03:07:29.567            11.486          5743.000
        16   02 Jun 2027 03:08:24.457   02 Jun 2027 03:08:34.801            10.344          5172.000
        17   02 Jun 2027 03:08:41.088   02 Jun 2027 03:08:53.726            12.638          6319.000
        18   02 Jun 2027 03:09:35.242   02 Jun 2027 03:09:36.351             1.109           554.500
        19   02 Jun 2027 03:12:49.774   02 Jun 2027 03:12:57.765             7.991          3995.500
        20   02 Jun 2027 03:13:03.400   02 Jun 2027 03:13:09.795             6.395          3197.500
        21   02 Jun 2027 04:43:24.852   02 Jun 2027 04:44:03.869            39.017         19508.500
        22   02 Jun 2027 04:44:26.754   02 Jun 2027 04:46:30.603           123.849         61924.500
        23   02 Jun 2027 04:46:40.420   02 Jun 2027 04:46:46.212             5.792          2896.000
        24   02 Jun 2027 04:46:54.814   02 Jun 2027 04:47:00.131             5.317          2658.500
        25   02 Jun 2027 06:06:53.372   02 Jun 2027 06:07:48.734            55.362         27681.000
        26   02 Jun 2027 06:08:58.792   02 Jun 2027 06:09:38.516            39.724         19862.000
        27   02 Jun 2027 07:43:15.564   02 Jun 2027 07:45:46.366           150.802         75401.000
        28   02 Jun 2027 09:18:11.543   02 Jun 2027 09:21:06.528           174.985         87492.500
        29   02 Jun 2027 09:24:49.497   02 Jun 2027 09:25:16.198            26.701         12619.312
        30   02 Jun 2027 10:54:30.565   02 Jun 2027 10:54:43.999            13.434          6548.594
        31   02 Jun 2027 10:56:41.644   02 Jun 2027 10:56:43.164             1.520           219.844
        32   02 Jun 2027 10:57:25.890   02 Jun 2027 10:57:29.996             4.106           803.437
        33   02 Jun 2027 10:58:49.287   02 Jun 2027 10:58:57.748             8.461          2171.719
        34   02 Jun 2027 10:59:49.268   02 Jun 2027 11:00:02.067            12.799          1610.000
        35   02 Jun 2027 11:00:46.628   02 Jun 2027 11:00:50.587             3.959          1392.531
        36   03 Jun 2027 03:18:19.867   03 Jun 2027 03:21:02.040           162.173         81086.500
        37   03 Jun 2027 03:24:22.370   03 Jun 2027 03:24:41.094            18.724          9362.000
        38   03 Jun 2027 03:25:29.691   03 Jun 2027 03:25:55.785            26.094         13047.000
        39   03 Jun 2027 04:44:10.040   03 Jun 2027 04:44:39.489            29.449         14724.500
        40   03 Jun 2027 04:44:46.464   03 Jun 2027 04:45:00.000            13.535          6767.500
        41   03 Jun 2027 04:55:21.177   03 Jun 2027 04:56:51.169            89.992         44623.781
        42   03 Jun 2027 04:57:30.091   03 Jun 2027 04:57:33.067             2.976           164.781
        43   03 Jun 2027 04:58:16.786   03 Jun 2027 04:58:18.160             1.374           532.594
        44   03 Jun 2027 06:18:17.265   03 Jun 2027 06:18:27.338            10.073          4285.250
        45   03 Jun 2027 06:19:11.549   03 Jun 2027 06:19:11.549             0.000             0.000
        46   03 Jun 2027 06:19:38.027   03 Jun 2027 06:19:43.094             5.067          2095.031
        47   03 Jun 2027 06:19:51.976   03 Jun 2027 06:19:52.741             0.765            33.000
        48   03 Jun 2027 06:21:42.302   03 Jun 2027 06:21:52.587            10.285          3216.031
        49   03 Jun 2027 07:53:34.236   03 Jun 2027 07:53:38.359             4.123          1486.781
        50   03 Jun 2027 07:55:16.343   03 Jun 2027 07:55:23.352             7.009          1745.281
        51   03 Jun 2027 07:56:02.640   03 Jun 2027 07:56:07.115             4.475           716.219
        52   03 Jun 2027 07:56:42.466   03 Jun 2027 07:56:44.947             2.481          1104.719
        53   03 Jun 2027 07:57:52.410   03 Jun 2027 07:57:55.342             2.932            82.719
        54   03 Jun 2027 07:58:08.013   03 Jun 2027 07:58:08.837             0.824           395.969
        55   03 Jun 2027 07:59:08.258   03 Jun 2027 07:59:16.021             7.763          1590.344
        56   03 Jun 2027 07:59:16.760   03 Jun 2027 07:59:16.760             0.000             0.000
        57   03 Jun 2027 07:59:24.940   03 Jun 2027 07:59:25.938             0.998           278.719
        58   03 Jun 2027 09:29:44.995   03 Jun 2027 09:29:49.970             4.975          2464.906
        59   03 Jun 2027 09:32:03.582   03 Jun 2027 09:32:22.799            19.217          2760.313
        60   03 Jun 2027 09:33:21.320   03 Jun 2027 09:33:23.548             2.228           865.875
        61   03 Jun 2027 09:33:51.988   03 Jun 2027 09:33:54.563             2.575           881.938
        62   03 Jun 2027 09:34:35.235   03 Jun 2027 09:34:40.110             4.875          1271.000
        63   03 Jun 2027 09:35:21.449   03 Jun 2027 09:35:27.424             5.975           354.969
        64   03 Jun 2027 09:35:46.909   03 Jun 2027 09:35:49.004             2.095           245.125
        65   03 Jun 2027 09:37:02.007   03 Jun 2027 09:37:08.683             6.676          1821.656
        66   03 Jun 2027 11:06:50.238   03 Jun 2027 11:07:01.225            10.987          5335.313
        67   03 Jun 2027 11:08:32.514   03 Jun 2027 11:08:36.863             4.349           136.312
        68   03 Jun 2027 11:09:34.154   03 Jun 2027 11:09:37.189             3.035           799.062
        69   03 Jun 2027 11:10:46.116   03 Jun 2027 11:10:52.445             6.329          1462.812
        70   03 Jun 2027 11:11:11.498   03 Jun 2027 11:11:21.262             9.764           294.844
        71   03 Jun 2027 11:11:38.588   03 Jun 2027 11:11:42.462             3.874           541.438
        72   03 Jun 2027 11:12:49.237   03 Jun 2027 11:12:55.338             6.101          2086.719
        73   04 Jun 2027 03:30:49.471   04 Jun 2027 03:34:12.111           202.640        101320.000
        74   04 Jun 2027 03:34:58.766   04 Jun 2027 03:35:50.012            51.246         25623.000
        75   04 Jun 2027 03:36:18.626   04 Jun 2027 03:36:21.412             2.786          1393.000
        76   04 Jun 2027 03:37:01.450   04 Jun 2027 03:37:06.530             5.080          2540.000
        77   04 Jun 2027 04:55:41.037   04 Jun 2027 04:55:48.558             7.521          3760.500
        78   04 Jun 2027 05:07:23.827   04 Jun 2027 05:08:30.103            66.276         32217.563
        79   04 Jun 2027 06:29:37.037   04 Jun 2027 06:29:43.296             6.259          2484.250
        80   04 Jun 2027 06:30:07.573   04 Jun 2027 06:30:12.261             4.688           439.156
        81   04 Jun 2027 06:30:17.939   04 Jun 2027 06:30:21.365             3.426           165.531
        82   04 Jun 2027 06:31:37.713   04 Jun 2027 06:31:43.701             5.988          1569.562
        83   04 Jun 2027 06:31:52.866   04 Jun 2027 06:31:52.866             0.000             0.000
        84   04 Jun 2027 06:32:02.667   04 Jun 2027 06:32:04.192             1.525           546.937
        85   04 Jun 2027 06:33:02.717   04 Jun 2027 06:33:09.265             6.548          1794.594
        86   04 Jun 2027 08:04:40.545   04 Jun 2027 08:04:48.217             7.672          3209.531
        87   04 Jun 2027 08:05:34.120   04 Jun 2027 08:05:34.414             0.294            41.344
        88   04 Jun 2027 08:06:17.926   04 Jun 2027 08:06:22.556             4.630           661.406
        89   04 Jun 2027 08:07:37.665   04 Jun 2027 08:07:41.714             4.049          1599.250
        90   04 Jun 2027 08:08:09.835   04 Jun 2027 08:08:11.316             1.481           733.313
        91   04 Jun 2027 08:08:40.789   04 Jun 2027 08:08:57.103            16.314           489.844
        92   04 Jun 2027 08:10:11.179   04 Jun 2027 08:10:13.057             1.878           617.531
        93   04 Jun 2027 08:10:28.215   04 Jun 2027 08:10:32.929             4.714           283.219
        94   04 Jun 2027 08:11:05.123   04 Jun 2027 08:11:08.166             3.043           246.062
        95   04 Jun 2027 09:42:03.716   04 Jun 2027 09:42:14.031            10.315          3576.031
        96   04 Jun 2027 09:44:06.210   04 Jun 2027 09:44:13.927             7.717            43.375
        97   04 Jun 2027 09:45:30.448   04 Jun 2027 09:45:31.457             1.009           411.156
        98   04 Jun 2027 09:45:44.366   04 Jun 2027 09:45:51.200             6.834           403.406
        99   04 Jun 2027 09:46:43.436   04 Jun 2027 09:46:46.856             3.420          1467.719
       100   04 Jun 2027 09:47:09.616   04 Jun 2027 09:47:11.532             1.916            74.500
       101   04 Jun 2027 09:47:22.347   04 Jun 2027 09:47:25.530             3.183           326.000
       102   04 Jun 2027 09:48:21.286   04 Jun 2027 09:48:26.014             4.728          1159.406
       103   04 Jun 2027 11:18:51.898   04 Jun 2027 11:19:03.632            11.734          4464.188
       104   04 Jun 2027 11:21:04.097   04 Jun 2027 11:21:04.497             0.400           144.500
       105   04 Jun 2027 11:21:33.621   04 Jun 2027 11:21:35.136             1.515           497.500
       106   04 Jun 2027 11:22:14.142   04 Jun 2027 11:22:18.754             4.612          1009.344
       107   04 Jun 2027 11:22:37.013   04 Jun 2027 11:22:41.314             4.301           349.031
       108   04 Jun 2027 11:23:05.893   04 Jun 2027 11:23:13.215             7.322           759.062
       109   04 Jun 2027 11:23:20.556   04 Jun 2027 11:23:27.247             6.691           222.562
       110   04 Jun 2027 11:24:49.268   04 Jun 2027 11:24:54.273             5.005          2214.531
       111   04 Jun 2027 11:24:57.618   04 Jun 2027 11:24:59.163             1.545            76.469
       112   05 Jun 2027 03:42:49.931   05 Jun 2027 03:45:34.327           164.396         82198.000
       113   05 Jun 2027 03:49:42.961   05 Jun 2027 03:49:55.836            12.875          6437.500
       114   05 Jun 2027 05:07:11.784   05 Jun 2027 05:07:51.514            39.730         19865.000
       115   05 Jun 2027 05:19:25.182   05 Jun 2027 05:19:56.824            31.642         15821.000
       116   05 Jun 2027 06:41:20.839   05 Jun 2027 06:42:32.025            71.186         35116.281
       117   05 Jun 2027 06:43:23.744   05 Jun 2027 06:43:26.534             2.790          1204.344
       118   05 Jun 2027 06:43:36.106   05 Jun 2027 06:43:36.343             0.237           118.500
       119   05 Jun 2027 06:44:35.753   05 Jun 2027 06:44:43.978             8.225          1918.594
       120   05 Jun 2027 06:46:17.146   05 Jun 2027 06:46:24.096             6.950          2168.688
       121   05 Jun 2027 08:16:08.866   05 Jun 2027 08:16:18.596             9.730          2775.812
       122   05 Jun 2027 08:16:59.687   05 Jun 2027 08:17:02.687             3.000          1284.094
       123   05 Jun 2027 08:18:11.198   05 Jun 2027 08:18:12.416             1.218           428.687
       124   05 Jun 2027 08:19:11.922   05 Jun 2027 08:19:23.739            11.817          1790.531
       125   05 Jun 2027 08:19:34.606   05 Jun 2027 08:19:35.620             1.014            76.344
       126   05 Jun 2027 08:20:12.355   05 Jun 2027 08:20:14.626             2.271           440.594
       127   05 Jun 2027 08:21:45.898   05 Jun 2027 08:21:52.486             6.588          2416.500
       128   05 Jun 2027 08:21:56.364   05 Jun 2027 08:21:56.364             0.000             0.000
       129   05 Jun 2027 08:22:54.420   05 Jun 2027 08:23:01.113             6.693          1914.687
       130   05 Jun 2027 08:23:15.216   05 Jun 2027 08:23:16.461             1.245           314.125
       131   05 Jun 2027 08:24:29.314   05 Jun 2027 08:24:32.887             3.573          1718.031
       132   05 Jun 2027 08:24:51.844   05 Jun 2027 08:24:57.175             5.331           518.875
       133   05 Jun 2027 09:53:58.374   05 Jun 2027 09:54:07.651             9.277          4395.094
       134   05 Jun 2027 09:55:36.954   05 Jun 2027 09:55:38.733             1.779           124.375
       135   05 Jun 2027 09:56:12.582   05 Jun 2027 09:56:17.166             4.584          1054.187
       136   05 Jun 2027 09:56:57.037   05 Jun 2027 09:56:57.630             0.593           234.187
       137   05 Jun 2027 09:58:14.608   05 Jun 2027 09:58:24.488             9.880          1215.094
       138   05 Jun 2027 09:59:41.154   05 Jun 2027 09:59:45.996             4.842          1459.937
       139   05 Jun 2027 09:59:57.574   05 Jun 2027 10:00:00.393             2.819            60.281
       140   05 Jun 2027 10:00:51.986   05 Jun 2027 10:00:56.176             4.190          1093.281
       141   05 Jun 2027 10:01:18.822   05 Jun 2027 10:01:21.118             2.296           429.188
       142   05 Jun 2027 11:30:42.785   05 Jun 2027 11:30:53.680            10.895          4930.719
       143   05 Jun 2027 11:31:13.120   05 Jun 2027 11:31:19.457             6.337           314.156
       144   05 Jun 2027 11:33:05.156   05 Jun 2027 11:33:12.088             6.932          1926.563
       145   05 Jun 2027 11:33:31.974   05 Jun 2027 11:33:37.284             5.310           197.219
       146   05 Jun 2027 11:34:03.072   05 Jun 2027 11:34:08.925             5.853           677.094
       147   05 Jun 2027 11:34:51.271   05 Jun 2027 11:34:56.425             5.154          1323.313
       148   05 Jun 2027 11:35:17.664   05 Jun 2027 11:35:18.595             0.931           329.094
       149   05 Jun 2027 11:35:43.826   05 Jun 2027 11:35:48.110             4.284           591.156
       150   05 Jun 2027 11:36:32.608   05 Jun 2027 11:36:35.904             3.296           959.281
       151   05 Jun 2027 11:37:04.566   05 Jun 2027 11:37:08.618             4.052           502.313
       152   05 Jun 2027 11:37:20.741   05 Jun 2027 11:37:28.734             7.993             3.000
       153   06 Jun 2027 03:55:09.483   06 Jun 2027 03:56:25.098            75.615         37807.500
       154   06 Jun 2027 03:56:54.798   06 Jun 2027 03:57:51.422            56.624         28312.000
       155   06 Jun 2027 03:59:07.531   06 Jun 2027 04:00:17.083            69.552         34776.000
       156   06 Jun 2027 05:19:10.524   06 Jun 2027 05:19:46.799            36.275         18137.500
       157   06 Jun 2027 06:55:07.216   06 Jun 2027 06:56:36.959            89.743         43674.781
       158   06 Jun 2027 06:56:47.114   06 Jun 2027 06:56:48.968             1.854           297.875
       159   06 Jun 2027 06:57:37.878   06 Jun 2027 06:57:40.583             2.705          1206.969
       160   06 Jun 2027 06:57:51.135   06 Jun 2027 06:57:54.476             3.341           310.625
       161   06 Jun 2027 06:58:07.980   06 Jun 2027 06:58:09.455             1.475           232.750
       162   06 Jun 2027 08:28:57.709   06 Jun 2027 08:29:05.276             7.567          2768.469
       163   06 Jun 2027 08:31:21.980   06 Jun 2027 08:31:24.617             2.637           578.500
       164   06 Jun 2027 08:32:14.638   06 Jun 2027 08:32:19.800             5.162          1385.531
       165   06 Jun 2027 08:34:22.281   06 Jun 2027 08:34:30.831             8.550          3555.563
       166   06 Jun 2027 08:34:56.254   06 Jun 2027 08:34:57.262             1.008           196.656
       167   06 Jun 2027 08:35:39.578   06 Jun 2027 08:35:49.398             9.820           593.375
       168   06 Jun 2027 08:36:11.990   06 Jun 2027 08:36:14.771             2.781           677.188
       169   06 Jun 2027 08:37:01.258   06 Jun 2027 08:37:04.512             3.254          1310.281
       170   06 Jun 2027 10:06:05.124   06 Jun 2027 10:06:20.697            15.573          5285.562
       171   06 Jun 2027 10:08:19.818   06 Jun 2027 10:08:22.462             2.644           447.625
       172   06 Jun 2027 10:09:59.168   06 Jun 2027 10:10:04.727             5.559          2264.125
       173   06 Jun 2027 10:10:30.539   06 Jun 2027 10:10:33.475             2.936           580.250
       174   06 Jun 2027 10:10:48.701   06 Jun 2027 10:10:50.222             1.521           318.219
       175   06 Jun 2027 10:11:08.526   06 Jun 2027 10:11:12.397             3.871           239.031
       176   06 Jun 2027 10:11:47.473   06 Jun 2027 10:11:50.082             2.609           569.125
       177   06 Jun 2027 10:12:28.128   06 Jun 2027 10:12:29.432             1.304           421.406
       178   06 Jun 2027 10:12:55.470   06 Jun 2027 10:12:58.727             3.257           813.687
       179   06 Jun 2027 10:13:02.464   06 Jun 2027 10:13:02.911             0.447           116.781
       180   06 Jun 2027 11:43:08.196   06 Jun 2027 11:43:21.662            13.466          6591.656
       181   06 Jun 2027 11:45:32.625   06 Jun 2027 11:45:34.119             1.494           112.156
       182   06 Jun 2027 11:46:40.968   06 Jun 2027 11:46:45.784             4.816          1733.000
       183   06 Jun 2027 11:47:23.429   06 Jun 2027 11:47:30.028             6.599           958.625
       184   06 Jun 2027 11:47:45.203   06 Jun 2027 11:47:53.210             8.007           301.531
       185   06 Jun 2027 11:48:29.400   06 Jun 2027 11:48:30.168             0.768           116.313
       186   06 Jun 2027 11:48:52.547   06 Jun 2027 11:48:54.243             1.696           556.344
       187   07 Jun 2027 04:07:43.420   07 Jun 2027 04:08:19.982            36.562         18281.000
       188   07 Jun 2027 04:08:55.793   07 Jun 2027 04:10:03.591            67.798         33899.000
       189   07 Jun 2027 04:10:17.774   07 Jun 2027 04:10:28.428            10.654          5327.000
       190   07 Jun 2027 04:11:04.068   07 Jun 2027 04:11:11.180             7.112          3556.000
       191   07 Jun 2027 04:11:30.796   07 Jun 2027 04:11:36.844             6.048          3024.000
       192   07 Jun 2027 05:31:04.941   07 Jun 2027 05:32:01.300            56.359         28179.500
       193   07 Jun 2027 05:33:23.382   07 Jun 2027 05:33:29.517             6.135          3067.500
       194   07 Jun 2027 07:07:29.086   07 Jun 2027 07:09:38.777           129.691         64250.375
       195   07 Jun 2027 07:09:54.380   07 Jun 2027 07:09:57.207             2.827           367.875
       196   07 Jun 2027 07:10:28.156   07 Jun 2027 07:10:28.156             0.000             0.000
       197   07 Jun 2027 08:41:11.854   07 Jun 2027 08:41:18.548             6.694          3067.031
       198   07 Jun 2027 08:43:24.444   07 Jun 2027 08:43:28.221             3.777           873.469
       199   07 Jun 2027 08:44:13.176   07 Jun 2027 08:44:14.101             0.925           462.500
       200   07 Jun 2027 08:44:27.872   07 Jun 2027 08:44:31.016             3.144          1372.687
       201   07 Jun 2027 08:45:51.456   07 Jun 2027 08:45:56.114             4.658          1900.469
       202   07 Jun 2027 08:46:23.483   07 Jun 2027 08:46:23.521             0.038            19.000
       203   07 Jun 2027 08:47:10.808   07 Jun 2027 08:47:15.571             4.763          2314.000
       204   07 Jun 2027 08:47:54.292   07 Jun 2027 08:47:55.470             1.178           422.375
       205   07 Jun 2027 08:48:04.020   07 Jun 2027 08:48:06.848             2.828            71.937
       206   07 Jun 2027 08:48:57.022   07 Jun 2027 08:49:05.108             8.086          1171.406
       207   07 Jun 2027 10:18:31.649   07 Jun 2027 10:18:46.019            14.370          5228.062
       208   07 Jun 2027 10:20:32.557   07 Jun 2027 10:20:33.817             1.260           178.719
       209   07 Jun 2027 10:21:27.729   07 Jun 2027 10:21:28.862             1.133           393.687
       210   07 Jun 2027 10:21:43.933   07 Jun 2027 10:21:45.121             1.188           349.063
       211   07 Jun 2027 10:23:00.418   07 Jun 2027 10:23:07.878             7.460          1513.781
       212   07 Jun 2027 10:23:36.311   07 Jun 2027 10:23:38.690             2.379           539.594
       213   07 Jun 2027 10:24:41.788   07 Jun 2027 10:24:46.458             4.670          1313.562
       214   07 Jun 2027 11:55:28.421   07 Jun 2027 11:55:43.287            14.866          6069.063
       215   07 Jun 2027 11:57:38.689   07 Jun 2027 11:57:42.034             3.345           440.625
       216   07 Jun 2027 11:58:24.321   07 Jun 2027 11:58:24.903             0.582           251.688
       217   07 Jun 2027 11:58:33.136   07 Jun 2027 11:58:33.782             0.646            48.750
       218   07 Jun 2027 11:59:45.656   07 Jun 2027 11:59:49.385             3.729          1864.500
       219   07 Jun 2027 11:59:51.791   07 Jun 2027 11:59:55.857             4.066           381.563
       220   08 Jun 2027 04:19:58.279   08 Jun 2027 04:22:13.102           134.823         67411.500
       221   08 Jun 2027 04:23:17.953   08 Jun 2027 04:23:30.784            12.831          6415.500
       222   08 Jun 2027 05:42:52.192   08 Jun 2027 05:43:48.658            56.466         28233.000
       223   08 Jun 2027 07:19:32.442   08 Jun 2027 07:21:35.273           122.831         59763.625
       224   08 Jun 2027 07:22:29.703   08 Jun 2027 07:22:31.959             2.256          1128.000
       225   08 Jun 2027 08:54:31.454   08 Jun 2027 08:54:44.908            13.454          4134.250
       226   08 Jun 2027 08:55:33.339   08 Jun 2027 08:55:34.508             1.169           523.969
       227   08 Jun 2027 08:56:18.358   08 Jun 2027 08:56:26.524             8.166           932.188
       228   08 Jun 2027 08:57:49.404   08 Jun 2027 08:57:49.404             0.000             0.000
       229   08 Jun 2027 08:58:05.396   08 Jun 2027 08:58:09.863             4.467          2069.219
       230   08 Jun 2027 08:58:44.015   08 Jun 2027 08:58:47.372             3.357           509.406
       231   08 Jun 2027 08:59:32.579   08 Jun 2027 08:59:32.866             0.287            90.344
       232   08 Jun 2027 08:59:49.888   08 Jun 2027 08:59:50.903             1.015           363.438
       233   08 Jun 2027 09:00:30.968   08 Jun 2027 09:00:32.713             1.745           820.937
       234   08 Jun 2027 09:01:12.372   08 Jun 2027 09:01:14.960             2.588          1095.781
       235   08 Jun 2027 09:01:20.736   08 Jun 2027 09:01:23.720             2.984           180.500
       236   08 Jun 2027 10:30:39.706   08 Jun 2027 10:30:48.416             8.710          3860.375
       237   08 Jun 2027 10:33:10.293   08 Jun 2027 10:33:14.142             3.849           933.719
       238   08 Jun 2027 10:34:15.240   08 Jun 2027 10:34:19.421             4.181           886.406
       239   08 Jun 2027 10:35:15.480   08 Jun 2027 10:35:19.335             3.855          1751.844
       240   08 Jun 2027 10:35:42.454   08 Jun 2027 10:35:43.864             1.410           531.125
       241   08 Jun 2027 10:36:01.233   08 Jun 2027 10:36:10.890             9.657           210.625
       242   08 Jun 2027 10:36:37.388   08 Jun 2027 10:36:38.576             1.188           338.156
       243   08 Jun 2027 10:37:07.931   08 Jun 2027 10:37:10.237             2.306           917.344
       244   09 Jun 2027 04:31:44.388   09 Jun 2027 04:32:15.957            31.569         15784.500
       245   09 Jun 2027 04:32:33.970   09 Jun 2027 04:34:25.211           111.241         55620.500
       246   09 Jun 2027 04:35:18.809   09 Jun 2027 04:35:24.378             5.569          2784.500
       247   09 Jun 2027 05:55:06.765   09 Jun 2027 05:55:30.055            23.290         11645.000
       248   09 Jun 2027 05:56:16.552   09 Jun 2027 05:56:21.319             4.767          2383.500
       249   09 Jun 2027 05:57:58.696   09 Jun 2027 05:58:14.707            16.011          8005.500
       250   09 Jun 2027 07:31:38.723   09 Jun 2027 07:33:38.115           119.392         59360.844
       251   09 Jun 2027 07:34:16.263   09 Jun 2027 07:34:16.263             0.000             0.000
       252   09 Jun 2027 07:34:31.646   09 Jun 2027 07:34:35.264             3.618          1309.219
       253   09 Jun 2027 09:06:49.123   09 Jun 2027 09:06:54.535             5.412          1877.281
       254   09 Jun 2027 09:07:05.997   09 Jun 2027 09:07:06.571             0.574           281.062
       255   09 Jun 2027 09:08:19.690   09 Jun 2027 09:08:21.261             1.571           102.156
       256   09 Jun 2027 09:09:46.321   09 Jun 2027 09:09:49.087             2.766          1117.875
       257   09 Jun 2027 09:10:08.056   09 Jun 2027 09:10:09.069             1.013           134.594
       258   09 Jun 2027 09:12:04.855   09 Jun 2027 09:12:12.119             7.264          2506.375
       259   09 Jun 2027 09:13:13.177   09 Jun 2027 09:13:16.701             3.524          1181.687
       260   09 Jun 2027 10:43:12.057   09 Jun 2027 10:43:24.659            12.602          5979.219
       261   09 Jun 2027 10:44:51.691   09 Jun 2027 10:44:54.562             2.871           918.906
       262   09 Jun 2027 10:45:04.931   09 Jun 2027 10:45:05.901             0.970            39.437
       263   09 Jun 2027 10:46:20.685   09 Jun 2027 10:46:24.972             4.287          1768.000
       264   09 Jun 2027 10:47:02.329   09 Jun 2027 10:47:06.481             4.152           556.813
       265   09 Jun 2027 10:47:09.843   09 Jun 2027 10:47:10.317             0.474           105.063
       266   09 Jun 2027 10:47:47.760   09 Jun 2027 10:47:52.343             4.583          1170.094
       267   09 Jun 2027 10:48:16.048   09 Jun 2027 10:48:18.623             2.575           740.562
       268   09 Jun 2027 10:48:27.206   09 Jun 2027 10:48:29.445             2.239           236.969
       269   09 Jun 2027 10:48:43.443   09 Jun 2027 10:48:45.056             1.613           357.906
       270   09 Jun 2027 10:48:58.778   09 Jun 2027 10:49:02.879             4.101            52.219
       271   10 Jun 2027 03:06:32.499   10 Jun 2027 03:07:28.134            55.635         27817.500
       272   10 Jun 2027 03:07:45.499   10 Jun 2027 03:07:52.983             7.484          3742.000
       273   10 Jun 2027 03:08:36.542   10 Jun 2027 03:08:39.027             2.485          1242.500
       274   10 Jun 2027 03:09:05.618   10 Jun 2027 03:09:08.239             2.621          1310.500
       275   10 Jun 2027 03:09:26.048   10 Jun 2027 03:09:39.632            13.584          6792.000
       276   10 Jun 2027 03:10:10.071   10 Jun 2027 03:10:15.656             5.585          2792.500
       277   10 Jun 2027 03:10:41.202   10 Jun 2027 03:11:07.331            26.129         13064.500
       278   10 Jun 2027 04:43:41.187   10 Jun 2027 04:44:20.258            39.071         19535.500
       279   10 Jun 2027 04:44:42.181   10 Jun 2027 04:46:10.191            88.010         44005.000
       280   10 Jun 2027 04:46:33.079   10 Jun 2027 04:46:45.051            11.972          5986.000
       281   10 Jun 2027 04:46:55.797   10 Jun 2027 04:47:01.445             5.648          2824.000
       282   10 Jun 2027 06:07:36.393   10 Jun 2027 06:08:40.379            63.986         30955.313
       283   10 Jun 2027 06:09:53.528   10 Jun 2027 06:09:57.998             4.470          2053.219
       284   10 Jun 2027 07:43:31.277   10 Jun 2027 07:43:39.697             8.420          2181.250
       285   10 Jun 2027 07:44:43.821   10 Jun 2027 07:44:48.977             5.156          1918.156
       286   10 Jun 2027 07:45:11.241   10 Jun 2027 07:45:14.779             3.538           248.750
       287   10 Jun 2027 07:45:35.864   10 Jun 2027 07:45:39.499             3.635           364.500
       288   10 Jun 2027 07:46:04.147   10 Jun 2027 07:46:05.689             1.542           642.031
       289   10 Jun 2027 07:46:14.456   10 Jun 2027 07:46:18.664             4.208           257.781
       290   10 Jun 2027 07:46:51.075   10 Jun 2027 07:46:51.075             0.000             0.000
       291   10 Jun 2027 07:47:17.612   10 Jun 2027 07:47:25.387             7.775          1376.219
       292   10 Jun 2027 09:18:26.715   10 Jun 2027 09:18:32.894             6.179          2701.281
       293   10 Jun 2027 09:20:20.604   10 Jun 2027 09:20:26.432             5.828          2782.219
       294   10 Jun 2027 09:21:24.312   10 Jun 2027 09:21:26.086             1.774           519.750
       295   10 Jun 2027 09:22:10.495   10 Jun 2027 09:22:13.427             2.932           891.719
       296   10 Jun 2027 09:24:04.391   10 Jun 2027 09:24:09.750             5.359          2393.438
       297   10 Jun 2027 09:25:23.949   10 Jun 2027 09:25:29.834             5.885          2268.062
       298   10 Jun 2027 10:54:46.532   10 Jun 2027 10:54:55.910             9.378          4567.969
       299   10 Jun 2027 10:56:58.896   10 Jun 2027 10:56:59.846             0.950            82.531
       300   10 Jun 2027 10:57:17.055   10 Jun 2027 10:57:18.315             1.260           180.625
       301   10 Jun 2027 10:57:50.328   10 Jun 2027 10:57:50.834             0.506           245.625
       302   10 Jun 2027 10:59:04.411   10 Jun 2027 10:59:13.755             9.344          2015.250
       303   10 Jun 2027 11:00:33.369   10 Jun 2027 11:00:38.081             4.712          1390.969
       304   10 Jun 2027 11:00:43.035   10 Jun 2027 11:00:45.528             2.493            19.969
       305   10 Jun 2027 11:01:04.341   10 Jun 2027 11:01:06.059             1.718             3.344
       306   10 Jun 2027 11:01:09.806   10 Jun 2027 11:01:10.527             0.721            20.062
       307   11 Jun 2027 03:18:36.144   11 Jun 2027 03:21:08.147           152.003         76001.500
       308   11 Jun 2027 03:22:32.351   11 Jun 2027 03:22:37.179             4.828          2414.000
       309   11 Jun 2027 03:23:23.788   11 Jun 2027 03:23:41.656            17.868          8934.000
       310   11 Jun 2027 03:25:15.583   11 Jun 2027 03:26:10.851            55.268         27634.000
       311   11 Jun 2027 04:44:23.864   11 Jun 2027 04:44:56.970            33.106         16553.000
       312   11 Jun 2027 04:55:37.220   11 Jun 2027 04:56:56.323            79.103         39265.156
       313   11 Jun 2027 04:58:16.076   11 Jun 2027 04:58:21.159             5.083          2184.094
       314   11 Jun 2027 06:18:13.805   11 Jun 2027 06:18:23.742             9.937          4714.719
       315   11 Jun 2027 06:19:55.052   11 Jun 2027 06:20:00.446             5.394          2096.406
       316   11 Jun 2027 06:21:59.000   11 Jun 2027 06:22:09.353            10.353          3509.563
       317   11 Jun 2027 06:22:32.935   11 Jun 2027 06:22:36.347             3.412           736.938
       318   11 Jun 2027 07:53:48.923   11 Jun 2027 07:53:52.297             3.374          1390.406
       319   11 Jun 2027 07:55:15.907   11 Jun 2027 07:55:16.739             0.832           416.000
       320   11 Jun 2027 07:55:31.689   11 Jun 2027 07:55:35.867             4.178          1178.219
       321   11 Jun 2027 07:56:18.927   11 Jun 2027 07:56:23.756             4.829           728.594
       322   11 Jun 2027 07:56:58.034   11 Jun 2027 07:57:01.498             3.464          1038.812
       323   11 Jun 2027 07:58:08.595   11 Jun 2027 07:58:09.033             0.438            18.344
       324   11 Jun 2027 07:58:52.356   11 Jun 2027 07:58:56.848             4.492          1353.844
       325   11 Jun 2027 07:59:32.273   11 Jun 2027 07:59:34.637             2.364          1025.906
       326   11 Jun 2027 09:30:00.622   11 Jun 2027 09:30:06.860             6.238          3119.000
       327   11 Jun 2027 09:30:31.171   11 Jun 2027 09:30:33.491             2.320           964.500
       328   11 Jun 2027 09:32:21.025   11 Jun 2027 09:32:38.434            17.409          2744.562
       329   11 Jun 2027 09:33:36.000   11 Jun 2027 09:33:37.533             1.533           724.531
       330   11 Jun 2027 09:34:13.432   11 Jun 2027 09:34:24.815            11.383          1003.500
       331   11 Jun 2027 09:35:19.235   11 Jun 2027 09:35:23.277             4.042          1024.531
       332   11 Jun 2027 09:35:37.201   11 Jun 2027 09:35:38.259             1.058           384.594
       333   11 Jun 2027 09:36:07.586   11 Jun 2027 09:36:08.558             0.972           402.781
       334   11 Jun 2027 09:37:16.816   11 Jun 2027 09:37:24.739             7.923          1792.125
       335   11 Jun 2027 11:07:06.846   11 Jun 2027 11:07:24.804            17.958          7796.281
       336   11 Jun 2027 11:09:18.488   11 Jun 2027 11:09:19.178             0.690           245.688
       337   11 Jun 2027 11:09:50.316   11 Jun 2027 11:09:53.130             2.814           236.094
       338   11 Jun 2027 11:11:01.204   11 Jun 2027 11:11:04.687             3.483          1324.188
       339   11 Jun 2027 11:11:25.393   11 Jun 2027 11:11:26.520             1.127           202.969
       340   11 Jun 2027 11:11:43.427   11 Jun 2027 11:11:54.050            10.623           501.312
       341   11 Jun 2027 11:11:58.451   11 Jun 2027 11:12:03.538             5.087           137.531
       342   11 Jun 2027 11:12:45.239   11 Jun 2027 11:12:46.958             1.719           627.000
       343   11 Jun 2027 11:13:09.443   11 Jun 2027 11:13:10.676             1.233           533.594
       344   12 Jun 2027 03:31:05.548   12 Jun 2027 03:33:34.150           148.602         74301.000
       345   12 Jun 2027 03:34:00.460   12 Jun 2027 03:34:39.243            38.783         19391.500
       346   12 Jun 2027 03:35:10.379   12 Jun 2027 03:35:16.104             5.725          2862.500
       347   12 Jun 2027 03:36:33.223   12 Jun 2027 03:36:59.688            26.465         13232.500
       348   12 Jun 2027 03:37:52.305   12 Jun 2027 03:38:13.380            21.075         10537.500
       349   12 Jun 2027 04:55:56.893   12 Jun 2027 04:56:09.672            12.779          6389.500
       350   12 Jun 2027 04:56:31.628   12 Jun 2027 04:56:32.050             0.422           211.000
       351   12 Jun 2027 04:56:36.406   12 Jun 2027 04:56:36.406             0.000             0.000
       352   12 Jun 2027 04:56:57.419   12 Jun 2027 04:57:09.886            12.467          6233.500
       353   12 Jun 2027 05:07:39.801   12 Jun 2027 05:08:41.788            61.987         30993.500
       354   12 Jun 2027 06:29:54.280   12 Jun 2027 06:30:21.324            27.044         12735.095
       355   12 Jun 2027 06:30:49.510   12 Jun 2027 06:30:54.825             5.315           632.156
       356   12 Jun 2027 06:32:51.484   12 Jun 2027 06:32:57.016             5.532          2351.375
       357   12 Jun 2027 06:33:36.577   12 Jun 2027 06:33:38.008             1.431           512.094
       358   12 Jun 2027 06:34:03.224   12 Jun 2027 06:34:03.224             0.000             0.000
       359   12 Jun 2027 06:34:47.539   12 Jun 2027 06:34:50.937             3.398          1553.219
       360   12 Jun 2027 08:04:55.552   12 Jun 2027 08:05:03.741             8.189          2348.469
       361   12 Jun 2027 08:05:51.093   12 Jun 2027 08:05:53.270             2.177            48.250
       362   12 Jun 2027 08:06:34.646   12 Jun 2027 08:06:37.279             2.633           596.125
       363   12 Jun 2027 08:07:53.510   12 Jun 2027 08:07:57.861             4.351          1558.250
       364   12 Jun 2027 08:08:27.489   12 Jun 2027 08:08:29.750             2.261           769.938
       365   12 Jun 2027 08:08:57.921   12 Jun 2027 08:09:12.122            14.201           569.594
       366   12 Jun 2027 08:10:30.002   12 Jun 2027 08:10:32.286             2.284           697.812
       367   12 Jun 2027 08:11:24.664   12 Jun 2027 08:11:30.908             6.244          1634.625
       368   12 Jun 2027 09:42:20.661   12 Jun 2027 09:42:28.842             8.181          3526.656
       369   12 Jun 2027 09:45:27.957   12 Jun 2027 09:45:32.352             4.395          2096.500
       370   12 Jun 2027 09:46:37.256   12 Jun 2027 09:46:41.364             4.108          1558.625
       371   12 Jun 2027 09:47:29.853   12 Jun 2027 09:47:33.038             3.185          1069.187
       372   12 Jun 2027 09:48:00.435   12 Jun 2027 09:48:02.452             2.017           826.312
       373   12 Jun 2027 09:49:03.897   12 Jun 2027 09:49:07.270             3.373          1367.844
       374   12 Jun 2027 09:49:38.875   12 Jun 2027 09:49:39.245             0.370           185.000
       375   12 Jun 2027 11:19:08.210   12 Jun 2027 11:19:19.776            11.566          4828.062
       376   12 Jun 2027 11:20:43.431   12 Jun 2027 11:20:50.770             7.339           507.500
       377   12 Jun 2027 11:21:50.122   12 Jun 2027 11:21:52.658             2.536           428.156
       378   12 Jun 2027 11:22:33.338   12 Jun 2027 11:22:36.487             3.149          1107.594
       379   12 Jun 2027 11:22:56.647   12 Jun 2027 11:22:58.010             1.363           630.000
       380   12 Jun 2027 11:23:21.067   12 Jun 2027 11:23:22.694             1.627           539.188
       381   12 Jun 2027 11:23:33.460   12 Jun 2027 11:23:35.038             1.578           336.437
       382   12 Jun 2027 11:24:27.163   12 Jun 2027 11:24:33.900             6.737          1628.906
       383   12 Jun 2027 11:25:09.972   12 Jun 2027 11:25:13.414             3.442           732.281
       384   13 Jun 2027 03:43:06.724   13 Jun 2027 03:45:51.887           165.163         82581.500
       385   13 Jun 2027 03:46:14.676   13 Jun 2027 03:46:24.486             9.810          4905.000
       386   13 Jun 2027 03:47:01.439   13 Jun 2027 03:47:21.235            19.796          9898.000
       387   13 Jun 2027 03:47:59.152   13 Jun 2027 03:48:20.631            21.479         10739.500
       388   13 Jun 2027 03:50:05.186   13 Jun 2027 03:50:10.812             5.626          2813.000
       389   13 Jun 2027 05:07:28.737   13 Jun 2027 05:08:07.645            38.908         19454.000
       390   13 Jun 2027 05:19:41.653   13 Jun 2027 05:20:13.138            31.485         15742.500
       391   13 Jun 2027 06:41:35.929   13 Jun 2027 06:42:38.556            62.627         28669.531
       392   13 Jun 2027 06:43:39.214   13 Jun 2027 06:43:39.572             0.358           179.000
       393   13 Jun 2027 06:43:53.818   13 Jun 2027 06:43:58.795             4.977           810.969
       394   13 Jun 2027 06:44:29.112   13 Jun 2027 06:44:30.742             1.630           579.031
       395   13 Jun 2027 06:45:55.876   13 Jun 2027 06:46:05.166             9.290          2210.656
       396   13 Jun 2027 06:46:11.989   13 Jun 2027 06:46:14.793             2.804           180.719
       397   13 Jun 2027 06:46:44.160   13 Jun 2027 06:46:44.160             0.000             0.000
       398   13 Jun 2027 06:46:50.237   13 Jun 2027 06:46:54.687             4.450          1107.625
       399   13 Jun 2027 08:16:24.356   13 Jun 2027 08:16:28.809             4.453          2185.969
       400   13 Jun 2027 08:17:15.636   13 Jun 2027 08:17:18.719             3.083          1221.375
       401   13 Jun 2027 08:18:32.272   13 Jun 2027 08:18:33.329             1.057           183.656
       402   13 Jun 2027 08:19:14.730   13 Jun 2027 08:19:28.369            13.639          1293.781
       403   13 Jun 2027 08:20:45.999   13 Jun 2027 08:20:51.585             5.586          2353.781
       404   13 Jun 2027 08:22:09.703   13 Jun 2027 08:22:14.586             4.883          2213.969
       405   13 Jun 2027 08:23:11.533   13 Jun 2027 08:23:20.532             8.999          1779.594
       406   13 Jun 2027 08:23:32.544   13 Jun 2027 08:23:34.197             1.653           375.375
       407   13 Jun 2027 08:24:48.995   13 Jun 2027 08:24:52.669             3.674          1772.875
       408   13 Jun 2027 08:25:09.649   13 Jun 2027 08:25:18.243             8.594           530.625
       409   13 Jun 2027 09:54:14.750   13 Jun 2027 09:54:24.800            10.050          4816.031
       410   13 Jun 2027 09:56:20.034   13 Jun 2027 09:56:25.381             5.347          2523.781
       411   13 Jun 2027 09:58:29.954   13 Jun 2027 09:58:34.597             4.643          1167.094
       412   13 Jun 2027 09:59:13.234   13 Jun 2027 09:59:17.933             4.699          1207.406
       413   13 Jun 2027 09:59:39.019   13 Jun 2027 09:59:40.098             1.079            32.375
       414   13 Jun 2027 10:00:10.505   13 Jun 2027 10:00:12.173             1.668           497.094
       415   13 Jun 2027 10:00:35.247   13 Jun 2027 10:00:41.427             6.180           704.531
       416   13 Jun 2027 10:00:53.540   13 Jun 2027 10:00:54.587             1.047           214.187
       417   13 Jun 2027 10:00:55.388   13 Jun 2027 10:00:55.792             0.404            25.031
       418   13 Jun 2027 10:01:24.508   13 Jun 2027 10:01:25.975             1.467           588.500
       419   13 Jun 2027 10:01:36.002   13 Jun 2027 10:01:38.759             2.757            63.969
       420   13 Jun 2027 11:30:59.475   13 Jun 2027 11:31:12.660            13.185          5564.125
       421   13 Jun 2027 11:31:30.621   13 Jun 2027 11:31:34.582             3.961           409.594
       422   13 Jun 2027 11:33:21.164   13 Jun 2027 11:33:27.683             6.519          1921.156
       423   13 Jun 2027 11:33:48.398   13 Jun 2027 11:33:50.531             2.133           128.656
       424   13 Jun 2027 11:33:58.558   13 Jun 2027 11:34:00.526             1.968           149.156
       425   13 Jun 2027 11:34:45.250   13 Jun 2027 11:34:50.432             5.182          1142.438
       426   13 Jun 2027 11:35:21.514   13 Jun 2027 11:35:22.631             1.117           425.719
       427   13 Jun 2027 11:35:46.261   13 Jun 2027 11:35:50.471             4.210           633.344
       428   13 Jun 2027 11:36:18.763   13 Jun 2027 11:36:24.547             5.784           791.250
       429   13 Jun 2027 11:36:46.872   13 Jun 2027 11:36:48.169             1.297           330.375
       430   13 Jun 2027 11:37:09.098   13 Jun 2027 11:37:10.955             1.857           638.250
       431   13 Jun 2027 11:37:36.597   13 Jun 2027 11:37:44.932             8.335           801.313
