uniorb/output/strategy_4/Camera/Camera_KinoSat_111804.txt

KinoSat_111804
-------------------------
    Access    *     Start Time (UTCG)     *     Stop Time (UTCG)  *   Duration (s) *   Data (Mbytes)
         1   01 Jun 2027 03:14:15.176   01 Jun 2027 03:15:56.264           101.088         50544.000
         2   01 Jun 2027 03:16:09.046   01 Jun 2027 03:16:13.615             4.569          2284.500
         3   01 Jun 2027 03:18:52.429   01 Jun 2027 03:19:01.956             9.527          4763.500
         4   01 Jun 2027 03:20:04.850   01 Jun 2027 03:20:17.610            12.760          6380.000
         5   01 Jun 2027 03:20:25.642   01 Jun 2027 03:20:38.112            12.470          6235.000
         6   01 Jun 2027 03:20:50.389   01 Jun 2027 03:20:51.323             0.934           467.000
         7   01 Jun 2027 04:53:30.992   01 Jun 2027 04:54:53.477            82.485         41242.500
         8   01 Jun 2027 04:55:55.325   01 Jun 2027 04:56:03.629             8.304          4152.000
         9   01 Jun 2027 04:57:20.278   01 Jun 2027 04:57:20.278             0.000             0.000
        10   01 Jun 2027 04:57:28.891   01 Jun 2027 04:57:32.891             4.000          2000.000
        11   01 Jun 2027 04:57:48.523   01 Jun 2027 04:57:54.390             5.867          2933.500
        12   01 Jun 2027 04:57:58.093   01 Jun 2027 04:58:03.210             5.117          2558.500
        13   01 Jun 2027 05:00:28.213   01 Jun 2027 05:01:05.518            37.305         18652.500
        14   01 Jun 2027 06:19:37.034   01 Jun 2027 06:20:06.522            29.488         14744.000
        15   01 Jun 2027 06:30:33.404   01 Jun 2027 06:31:34.789            61.385         30692.500
        16   01 Jun 2027 07:53:52.908   01 Jun 2027 07:55:21.117            88.209         44104.500
        17   01 Jun 2027 09:30:15.598   01 Jun 2027 09:30:47.107            31.509         15754.500
        18   01 Jun 2027 09:32:27.452   01 Jun 2027 09:33:03.087            35.635         17817.500
        19   01 Jun 2027 09:33:33.180   01 Jun 2027 09:33:33.180             0.000             0.000
        20   01 Jun 2027 11:05:25.908   01 Jun 2027 11:07:31.222           125.314         62657.000
        21   01 Jun 2027 11:11:54.896   01 Jun 2027 11:12:33.227            38.331         19165.500
        22   02 Jun 2027 03:26:53.436   02 Jun 2027 03:29:11.660           138.224         69112.000
        23   02 Jun 2027 03:29:17.382   02 Jun 2027 03:29:22.178             4.796          2398.000
        24   02 Jun 2027 03:31:44.635   02 Jun 2027 03:31:53.209             8.574          4287.000
        25   02 Jun 2027 03:32:13.646   02 Jun 2027 03:32:15.416             1.770           885.000
        26   02 Jun 2027 05:05:54.917   02 Jun 2027 05:09:00.784           185.867         92933.500
        27   02 Jun 2027 05:11:38.818   02 Jun 2027 05:13:09.787            90.969         45484.500
        28   02 Jun 2027 06:30:55.264   02 Jun 2027 06:31:02.018             6.754          3377.000
        29   02 Jun 2027 06:42:35.297   02 Jun 2027 06:43:55.445            80.148         40074.000
        30   02 Jun 2027 08:04:51.203   02 Jun 2027 08:06:07.074            75.871         37935.500
        31   02 Jun 2027 08:06:48.229   02 Jun 2027 08:07:35.124            46.895         23447.500
        32   02 Jun 2027 08:08:42.233   02 Jun 2027 08:08:59.421            17.188          8594.000
        33   02 Jun 2027 08:09:51.089   02 Jun 2027 08:09:51.089             0.000             0.000
        34   02 Jun 2027 09:40:03.321   02 Jun 2027 09:41:25.716            82.395         37260.562
        35   02 Jun 2027 09:43:37.437   02 Jun 2027 09:43:45.493             8.056          3425.125
        36   02 Jun 2027 11:17:08.025   02 Jun 2027 11:17:27.970            19.945          8958.750
        37   02 Jun 2027 11:18:19.690   02 Jun 2027 11:18:21.756             2.066          1007.438
        38   02 Jun 2027 11:20:19.420   02 Jun 2027 11:20:22.375             2.955          1477.500
        39   02 Jun 2027 11:23:40.402   02 Jun 2027 11:23:59.856            19.454          8387.844
        40   02 Jun 2027 11:24:11.380   02 Jun 2027 11:24:13.024             1.644           135.344
        41   03 Jun 2027 03:39:11.375   03 Jun 2027 03:41:53.299           161.924         80962.000
        42   03 Jun 2027 03:42:01.573   03 Jun 2027 03:42:29.294            27.721         13860.500
        43   03 Jun 2027 03:43:59.157   03 Jun 2027 03:44:09.250            10.093          5046.500
        44   03 Jun 2027 03:44:51.938   03 Jun 2027 03:44:57.175             5.237          2618.500
        45   03 Jun 2027 05:18:13.693   03 Jun 2027 05:20:10.287           116.594         57689.469
        46   03 Jun 2027 05:20:20.378   03 Jun 2027 05:20:20.749             0.371           185.500
        47   03 Jun 2027 05:20:31.327   03 Jun 2027 05:20:33.080             1.753           460.406
        48   03 Jun 2027 05:21:33.126   03 Jun 2027 05:21:37.250             4.124          1822.625
        49   03 Jun 2027 05:22:36.380   03 Jun 2027 05:22:42.106             5.726          1847.812
        50   03 Jun 2027 05:23:20.883   03 Jun 2027 05:23:24.618             3.735           984.875
        51   03 Jun 2027 05:24:17.228   03 Jun 2027 05:24:19.782             2.554          1167.531
        52   03 Jun 2027 05:24:57.529   03 Jun 2027 05:24:59.453             1.924           347.781
        53   03 Jun 2027 06:42:17.155   03 Jun 2027 06:42:31.035            13.880          5211.844
        54   03 Jun 2027 06:43:31.895   03 Jun 2027 06:43:36.338             4.443          1881.687
        55   03 Jun 2027 06:44:14.103   03 Jun 2027 06:44:18.688             4.585          1180.156
        56   03 Jun 2027 06:54:32.345   03 Jun 2027 06:54:38.719             6.374          2518.250
        57   03 Jun 2027 08:16:32.957   03 Jun 2027 08:16:50.396            17.439          6416.656
        58   03 Jun 2027 08:17:03.428   03 Jun 2027 08:17:03.718             0.290            49.188
        59   03 Jun 2027 08:17:42.214   03 Jun 2027 08:17:46.840             4.626           426.969
        60   03 Jun 2027 08:19:20.335   03 Jun 2027 08:19:25.542             5.207          2270.375
        61   03 Jun 2027 08:19:40.753   03 Jun 2027 08:19:47.644             6.891           466.969
        62   03 Jun 2027 08:21:22.973   03 Jun 2027 08:21:29.317             6.344          2042.250
        63   03 Jun 2027 08:21:41.208   03 Jun 2027 08:21:41.613             0.405            76.250
        64   03 Jun 2027 09:51:30.879   03 Jun 2027 09:51:37.993             7.114          2826.437
        65   03 Jun 2027 09:53:06.653   03 Jun 2027 09:53:06.653             0.000             0.000
        66   03 Jun 2027 09:53:57.952   03 Jun 2027 09:54:01.787             3.835          1628.625
        67   03 Jun 2027 09:55:17.245   03 Jun 2027 09:55:17.245             0.000             0.000
        68   03 Jun 2027 09:56:59.217   03 Jun 2027 09:57:09.067             9.850          4003.063
        69   03 Jun 2027 09:58:21.723   03 Jun 2027 09:58:23.413             1.690           740.875
        70   03 Jun 2027 09:59:43.075   03 Jun 2027 09:59:49.118             6.043           946.250
        71   03 Jun 2027 11:31:08.842   03 Jun 2027 11:31:26.797            17.955          8186.969
        72   03 Jun 2027 11:33:29.049   03 Jun 2027 11:33:39.265            10.216          1566.687
        73   03 Jun 2027 11:33:56.439   03 Jun 2027 11:34:02.015             5.576           386.156
        74   03 Jun 2027 11:35:39.431   03 Jun 2027 11:35:48.567             9.136          2056.344
        75   03 Jun 2027 11:35:48.685   03 Jun 2027 11:35:52.467             3.782             3.688
        76   03 Jun 2027 11:36:12.808   03 Jun 2027 11:36:13.734             0.926           302.344
        77   04 Jun 2027 03:51:57.389   04 Jun 2027 03:52:22.608            25.219         12609.500
        78   04 Jun 2027 03:52:24.955   04 Jun 2027 03:55:49.098           204.143        102071.500
        79   04 Jun 2027 05:30:19.564   04 Jun 2027 05:31:53.809            94.245         47122.500
        80   04 Jun 2027 05:32:28.554   04 Jun 2027 05:32:33.560             5.006          1530.500
        81   04 Jun 2027 05:34:24.513   04 Jun 2027 05:34:29.120             4.607          1803.000
        82   04 Jun 2027 05:35:49.060   04 Jun 2027 05:35:53.820             4.760          1832.156
        83   04 Jun 2027 06:54:24.672   04 Jun 2027 06:54:40.169            15.497          7312.906
        84   04 Jun 2027 06:55:05.825   04 Jun 2027 06:55:08.400             2.575           553.875
        85   04 Jun 2027 06:56:01.275   04 Jun 2027 06:56:05.546             4.271          1652.344
        86   04 Jun 2027 08:28:12.655   04 Jun 2027 08:28:30.811            18.156          8507.687
        87   04 Jun 2027 08:29:30.109   04 Jun 2027 08:29:32.938             2.829          1241.531
        88   04 Jun 2027 08:30:09.067   04 Jun 2027 08:30:10.729             1.662           257.000
        89   04 Jun 2027 08:30:50.804   04 Jun 2027 08:30:53.516             2.712          1049.531
        90   04 Jun 2027 08:31:49.069   04 Jun 2027 08:31:53.536             4.467          1193.344
        91   04 Jun 2027 08:33:15.465   04 Jun 2027 08:33:21.775             6.310          2286.531
        92   04 Jun 2027 08:33:39.511   04 Jun 2027 08:33:42.183             2.672           554.250
        93   04 Jun 2027 10:03:04.779   04 Jun 2027 10:03:10.411             5.632          2239.750
        94   04 Jun 2027 10:05:07.158   04 Jun 2027 10:05:12.359             5.201          2035.875
        95   04 Jun 2027 10:05:53.174   04 Jun 2027 10:05:57.666             4.492           623.844
        96   04 Jun 2027 10:06:46.186   04 Jun 2027 10:06:49.946             3.760          1110.187
        97   04 Jun 2027 10:08:10.321   04 Jun 2027 10:08:13.384             3.063           838.625
        98   04 Jun 2027 10:08:41.561   04 Jun 2027 10:08:47.213             5.652           636.156
        99   04 Jun 2027 10:10:13.761   04 Jun 2027 10:10:19.503             5.742          2329.344
       100   04 Jun 2027 10:10:42.593   04 Jun 2027 10:10:43.076             0.483           214.813
       101   04 Jun 2027 10:11:22.025   04 Jun 2027 10:11:22.240             0.215            29.687
       102   04 Jun 2027 10:11:40.643   04 Jun 2027 10:11:43.623             2.980           523.656
       103   04 Jun 2027 10:12:03.947   04 Jun 2027 10:12:04.884             0.937            48.500
       104   04 Jun 2027 11:41:12.964   04 Jun 2027 11:41:25.269            12.305          5892.375
       105   04 Jun 2027 11:43:45.411   04 Jun 2027 11:43:53.214             7.803          3646.969
       106   04 Jun 2027 11:45:25.124   04 Jun 2027 11:45:35.046             9.922          1285.375
       107   04 Jun 2027 11:45:41.145   04 Jun 2027 11:45:42.911             1.766           190.594
       108   04 Jun 2027 11:45:54.207   04 Jun 2027 11:45:56.153             1.946           340.125
       109   04 Jun 2027 11:46:28.479   04 Jun 2027 11:46:31.312             2.833          1010.188
       110   04 Jun 2027 11:47:25.623   04 Jun 2027 11:47:31.411             5.788          1561.188
       111   04 Jun 2027 11:47:50.121   04 Jun 2027 11:47:54.105             3.984           584.688
       112   04 Jun 2027 11:48:15.677   04 Jun 2027 11:48:16.904             1.227           580.969
       113   05 Jun 2027 04:04:30.131   05 Jun 2027 04:05:22.127            51.996         25998.000
       114   05 Jun 2027 04:05:32.108   05 Jun 2027 04:06:14.047            41.939         20969.500
       115   05 Jun 2027 04:06:14.597   05 Jun 2027 04:07:27.425            72.828         36414.000
       116   05 Jun 2027 04:09:19.859   05 Jun 2027 04:09:29.660             9.801          4900.500
       117   05 Jun 2027 05:42:54.294   05 Jun 2027 05:43:34.162            39.868         19934.000
       118   05 Jun 2027 05:44:37.787   05 Jun 2027 05:45:16.686            38.899         19449.500
       119   05 Jun 2027 05:45:42.839   05 Jun 2027 05:47:09.816            86.977         41867.843
       120   05 Jun 2027 05:47:27.270   05 Jun 2027 05:47:28.927             1.657           461.594
       121   05 Jun 2027 07:06:20.197   05 Jun 2027 07:06:39.418            19.221          7528.375
       122   05 Jun 2027 07:07:34.965   05 Jun 2027 07:07:39.655             4.690          1639.219
       123   05 Jun 2027 08:42:35.051   05 Jun 2027 08:42:47.003            11.952          5401.125
       124   05 Jun 2027 08:43:12.378   05 Jun 2027 08:43:15.868             3.490           792.969
       125   05 Jun 2027 08:43:38.378   05 Jun 2027 08:43:42.257             3.879           678.125
       126   05 Jun 2027 08:44:35.970   05 Jun 2027 08:44:41.477             5.507          1118.125
       127   05 Jun 2027 08:45:07.754   05 Jun 2027 08:45:08.769             1.015           335.094
       128   05 Jun 2027 10:16:07.597   05 Jun 2027 10:16:13.695             6.098          2612.781
       129   05 Jun 2027 10:17:42.869   05 Jun 2027 10:17:46.250             3.381          1088.250
       130   05 Jun 2027 10:18:42.151   05 Jun 2027 10:18:49.148             6.997          1189.906
       131   05 Jun 2027 10:20:58.569   05 Jun 2027 10:21:06.960             8.391          3959.250
       132   05 Jun 2027 10:23:06.815   05 Jun 2027 10:23:12.068             5.253          1994.625
       133   05 Jun 2027 10:23:43.857   05 Jun 2027 10:23:46.825             2.968           750.687
       134   05 Jun 2027 10:24:17.719   05 Jun 2027 10:24:18.889             1.170           495.281
       135   05 Jun 2027 10:24:40.156   05 Jun 2027 10:24:41.098             0.942           457.063
       136   05 Jun 2027 11:53:40.173   05 Jun 2027 11:53:54.844            14.671          6366.031
       137   05 Jun 2027 11:56:23.040   05 Jun 2027 11:56:28.158             5.118          1340.750
       138   05 Jun 2027 11:57:24.373   05 Jun 2027 11:57:28.998             4.625          1127.656
       139   05 Jun 2027 11:57:56.250   05 Jun 2027 11:57:59.485             3.235           250.062
       140   05 Jun 2027 11:58:06.543   05 Jun 2027 11:58:06.913             0.370           165.094
       141   05 Jun 2027 11:58:51.752   05 Jun 2027 11:58:55.772             4.020          1315.094
       142   05 Jun 2027 11:59:45.316   05 Jun 2027 11:59:47.671             2.355          1140.063
       143   05 Jun 2027 11:59:51.871   05 Jun 2027 11:59:55.463             3.592           131.250
       144   06 Jun 2027 04:16:29.966   06 Jun 2027 04:16:37.878             7.912          3956.000
       145   06 Jun 2027 04:16:45.018   06 Jun 2027 04:18:45.653           120.635         60317.500
       146   06 Jun 2027 04:20:15.794   06 Jun 2027 04:20:41.348            25.554         12777.000
       147   06 Jun 2027 04:21:22.067   06 Jun 2027 04:21:22.067             0.000             0.000
       148   06 Jun 2027 04:21:40.003   06 Jun 2027 04:21:53.671            13.668          6834.000
       149   06 Jun 2027 05:54:33.192   06 Jun 2027 05:54:59.200            26.008         13004.000
       150   06 Jun 2027 05:56:09.691   06 Jun 2027 05:57:17.501            67.810         33905.000
       151   06 Jun 2027 05:57:31.838   06 Jun 2027 05:58:46.265            74.427         36292.843
       152   06 Jun 2027 07:18:12.212   06 Jun 2027 07:18:32.533            20.321          7706.906
       153   06 Jun 2027 07:19:36.231   06 Jun 2027 07:19:40.479             4.248          1920.375
       154   06 Jun 2027 07:20:12.219   06 Jun 2027 07:20:15.864             3.645           566.000
       155   06 Jun 2027 08:54:39.411   06 Jun 2027 08:54:52.190            12.779          6201.000
       156   06 Jun 2027 08:55:27.172   06 Jun 2027 08:55:28.801             1.629           441.500
       157   06 Jun 2027 08:57:24.357   06 Jun 2027 08:57:35.641            11.284          3611.125
       158   06 Jun 2027 10:26:54.510   06 Jun 2027 10:26:56.701             2.191          1095.500
       159   06 Jun 2027 10:28:47.053   06 Jun 2027 10:28:51.364             4.311          1134.000
       160   06 Jun 2027 10:30:35.044   06 Jun 2027 10:30:45.380            10.336          2706.937
       161   06 Jun 2027 10:32:09.619   06 Jun 2027 10:32:16.393             6.774          2630.969
       162   06 Jun 2027 10:32:19.177   06 Jun 2027 10:32:19.846             0.669            19.750
       163   06 Jun 2027 10:33:06.259   06 Jun 2027 10:33:16.152             9.893          1450.406
       164   06 Jun 2027 10:33:52.754   06 Jun 2027 10:33:53.467             0.713           197.812
       165   06 Jun 2027 10:35:13.562   06 Jun 2027 10:35:20.092             6.530          1594.219
       166   06 Jun 2027 10:35:42.973   06 Jun 2027 10:35:45.442             2.469           252.156
       167   06 Jun 2027 10:36:12.467   06 Jun 2027 10:36:13.466             0.999           474.625
       168   06 Jun 2027 10:36:26.059   06 Jun 2027 10:36:26.889             0.830           335.406
       169   06 Jun 2027 10:36:29.984   06 Jun 2027 10:36:30.844             0.860            86.500
       170   07 Jun 2027 04:28:38.364   07 Jun 2027 04:29:38.480            60.116         30058.000
       171   07 Jun 2027 04:29:47.443   07 Jun 2027 04:30:11.756            24.313         12156.500
       172   07 Jun 2027 04:30:15.371   07 Jun 2027 04:31:01.166            45.795         22897.500
       173   07 Jun 2027 04:33:14.454   07 Jun 2027 04:33:32.623            18.169          9084.500
       174   07 Jun 2027 04:34:54.539   07 Jun 2027 04:34:59.095             4.556          2278.000
       175   07 Jun 2027 06:06:58.292   07 Jun 2027 06:07:25.216            26.924         13462.000
       176   07 Jun 2027 06:07:46.522   07 Jun 2027 06:10:04.402           137.880         67980.938
       177   07 Jun 2027 07:30:20.534   07 Jun 2027 07:30:30.540            10.006          4157.625
       178   07 Jun 2027 07:31:15.755   07 Jun 2027 07:31:16.634             0.879            85.375
       179   07 Jun 2027 07:31:50.054   07 Jun 2027 07:31:52.568             2.514          1024.750
       180   07 Jun 2027 07:32:58.329   07 Jun 2027 07:33:01.161             2.832          1416.000
       181   07 Jun 2027 09:06:49.946   07 Jun 2027 09:06:58.335             8.389          3051.750
       182   07 Jun 2027 09:07:52.010   07 Jun 2027 09:07:55.364             3.354          1362.375
       183   07 Jun 2027 09:09:20.900   07 Jun 2027 09:09:32.180            11.280          2582.813
       184   07 Jun 2027 10:42:25.423   07 Jun 2027 10:42:35.015             9.592          4434.406
       185   07 Jun 2027 10:43:21.666   07 Jun 2027 10:43:21.666             0.000             0.000
       186   07 Jun 2027 10:44:54.731   07 Jun 2027 10:45:03.444             8.713          3337.187
       187   07 Jun 2027 10:45:48.417   07 Jun 2027 10:45:51.776             3.359          1108.406
       188   07 Jun 2027 10:46:19.856   07 Jun 2027 10:46:31.914            12.058           101.531
       189   07 Jun 2027 10:46:46.249   07 Jun 2027 10:46:49.245             2.996           447.969
       190   07 Jun 2027 10:47:33.927   07 Jun 2027 10:47:36.448             2.521           884.688
       191   07 Jun 2027 10:48:01.962   07 Jun 2027 10:48:07.852             5.890           783.250
       192   07 Jun 2027 10:48:30.042   07 Jun 2027 10:48:31.768             1.726           693.437
       193   07 Jun 2027 10:48:38.429   07 Jun 2027 10:48:39.224             0.795           208.156
       194   08 Jun 2027 03:02:26.703   08 Jun 2027 03:02:32.453             5.750          2875.000
       195   08 Jun 2027 03:02:35.276   08 Jun 2027 03:02:42.265             6.989          3494.500
       196   08 Jun 2027 03:03:08.075   08 Jun 2027 03:03:42.515            34.440         17220.000
       197   08 Jun 2027 03:07:26.902   08 Jun 2027 03:07:39.391            12.489          6244.500
       198   08 Jun 2027 03:08:09.950   08 Jun 2027 03:08:20.415            10.465          5232.500
       199   08 Jun 2027 04:40:43.226   08 Jun 2027 04:40:56.793            13.567          6783.500
       200   08 Jun 2027 04:41:45.568   08 Jun 2027 04:44:59.544           193.976         96988.000
       201   08 Jun 2027 04:45:27.335   08 Jun 2027 04:45:38.311            10.976          5488.000
       202   08 Jun 2027 04:46:05.961   08 Jun 2027 04:46:16.726            10.765          5382.500
       203   08 Jun 2027 04:48:56.847   08 Jun 2027 04:49:17.345            20.498         10249.000
       204   08 Jun 2027 06:18:54.312   08 Jun 2027 06:19:24.974            30.662         12206.343
       205   08 Jun 2027 06:21:38.740   08 Jun 2027 06:21:44.638             5.898          1338.188
       206   08 Jun 2027 06:22:24.604   08 Jun 2027 06:22:27.544             2.940          1041.469
       207   08 Jun 2027 07:43:03.454   08 Jun 2027 07:43:16.506            13.052          3542.938
       208   08 Jun 2027 07:43:37.406   08 Jun 2027 07:43:37.951             0.545           272.500
       209   08 Jun 2027 07:44:57.208   08 Jun 2027 07:45:05.604             8.396          2751.031
       210   08 Jun 2027 09:19:01.573   08 Jun 2027 09:19:10.464             8.891          4293.562
       211   08 Jun 2027 09:20:17.925   08 Jun 2027 09:20:18.289             0.364           182.000
       212   08 Jun 2027 09:20:41.001   08 Jun 2027 09:20:47.738             6.737          2549.375
       213   08 Jun 2027 09:21:13.984   08 Jun 2027 09:21:16.762             2.778           685.688
       214   08 Jun 2027 09:22:13.200   08 Jun 2027 09:22:16.400             3.200          1580.844
       215   08 Jun 2027 10:53:44.759   08 Jun 2027 10:53:50.582             5.823          2295.844
       216   08 Jun 2027 10:55:34.299   08 Jun 2027 10:55:39.983             5.684          2563.219
       217   08 Jun 2027 10:56:51.183   08 Jun 2027 10:56:51.183             0.000             0.000
       218   08 Jun 2027 11:00:22.085   08 Jun 2027 11:00:41.109            19.024          7845.000
       219   09 Jun 2027 03:15:02.033   09 Jun 2027 03:17:10.750           128.717         64358.500
       220   09 Jun 2027 03:17:34.935   09 Jun 2027 03:17:36.421             1.486           743.000
       221   09 Jun 2027 04:53:48.698   09 Jun 2027 04:56:39.002           170.304         85072.344
       222   09 Jun 2027 04:58:09.220   09 Jun 2027 04:58:13.707             4.487          1991.125
       223   09 Jun 2027 04:59:57.673   09 Jun 2027 05:00:04.365             6.692          3028.656
       224   09 Jun 2027 05:00:25.418   09 Jun 2027 05:00:26.717             1.299           470.531
       225   09 Jun 2027 06:19:51.032   09 Jun 2027 06:20:01.268            10.236          4714.500
       226   09 Jun 2027 06:20:21.727   09 Jun 2027 06:20:22.216             0.489           200.563
       227   09 Jun 2027 06:30:50.606   09 Jun 2027 06:30:54.783             4.177          1766.594
       228   09 Jun 2027 07:53:51.554   09 Jun 2027 07:54:00.533             8.979          3941.062
       229   09 Jun 2027 07:54:42.769   09 Jun 2027 07:54:45.343             2.574          1245.250
       230   09 Jun 2027 07:55:06.301   09 Jun 2027 07:55:08.290             1.989           627.250
       231   09 Jun 2027 07:55:49.075   09 Jun 2027 07:55:51.625             2.550           834.625
       232   09 Jun 2027 07:57:38.223   09 Jun 2027 07:57:44.831             6.608          1454.844
       233   09 Jun 2027 09:30:32.149   09 Jun 2027 09:30:45.459            13.310          4041.469
       234   09 Jun 2027 09:32:07.297   09 Jun 2027 09:32:12.666             5.369          1716.625
       235   09 Jun 2027 09:33:16.256   09 Jun 2027 09:33:16.256             0.000             0.000
       236   09 Jun 2027 09:33:19.614   09 Jun 2027 09:33:20.525             0.911           131.687
       237   09 Jun 2027 09:33:47.730   09 Jun 2027 09:33:51.006             3.276           850.156
       238   09 Jun 2027 09:34:48.497   09 Jun 2027 09:34:51.814             3.317          1227.813
       239   09 Jun 2027 11:05:56.048   09 Jun 2027 11:06:06.767            10.719          4559.375
       240   09 Jun 2027 11:08:04.931   09 Jun 2027 11:08:06.725             1.794           854.344
       241   09 Jun 2027 11:09:11.453   09 Jun 2027 11:09:15.703             4.250           789.594
       242   09 Jun 2027 11:10:02.747   09 Jun 2027 11:10:07.124             4.377          1401.906
       243   09 Jun 2027 11:10:51.358   09 Jun 2027 11:10:59.735             8.377           301.656
       244   09 Jun 2027 11:11:35.734   09 Jun 2027 11:11:37.834             2.100           342.281
       245   09 Jun 2027 11:12:03.368   09 Jun 2027 11:12:06.655             3.287           698.062
       246   09 Jun 2027 11:12:46.489   09 Jun 2027 11:12:51.128             4.639          1138.906
       247   10 Jun 2027 03:27:12.187   10 Jun 2027 03:30:27.168           194.981         97490.500
       248   10 Jun 2027 03:31:46.067   10 Jun 2027 03:31:55.066             8.999          4499.500
       249   10 Jun 2027 05:06:14.988   10 Jun 2027 05:07:13.549            58.561         29280.500
       250   10 Jun 2027 05:08:31.317   10 Jun 2027 05:09:16.324            45.007         22503.500
       251   10 Jun 2027 05:11:53.696   10 Jun 2027 05:12:09.262            15.566          7384.218
       252   10 Jun 2027 06:31:11.556   10 Jun 2027 06:31:22.605            11.049          5335.031
       253   10 Jun 2027 06:42:53.282   10 Jun 2027 06:43:00.862             7.580          2996.656
       254   10 Jun 2027 08:05:07.334   10 Jun 2027 08:05:17.927            10.593          5170.594
       255   10 Jun 2027 08:05:18.370   10 Jun 2027 08:05:19.067             0.697             7.625
       256   10 Jun 2027 08:05:44.908   10 Jun 2027 08:05:46.278             1.370           659.031
       257   10 Jun 2027 08:07:05.895   10 Jun 2027 08:07:09.616             3.721          1733.187
       258   10 Jun 2027 08:07:52.301   10 Jun 2027 08:07:59.715             7.414           866.281
       259   10 Jun 2027 08:09:39.602   10 Jun 2027 08:09:43.425             3.823          1738.594
       260   10 Jun 2027 08:10:06.153   10 Jun 2027 08:10:08.550             2.397           120.875
       261   10 Jun 2027 09:40:15.631   10 Jun 2027 09:40:21.944             6.313          1991.313
       262   10 Jun 2027 09:41:02.711   10 Jun 2027 09:41:04.934             2.223           617.563
       263   10 Jun 2027 09:42:16.244   10 Jun 2027 09:42:16.393             0.149            45.250
       264   10 Jun 2027 09:43:52.769   10 Jun 2027 09:43:56.759             3.990          1315.219
       265   10 Jun 2027 09:44:52.765   10 Jun 2027 09:44:59.482             6.717          1610.031
       266   10 Jun 2027 09:45:44.499   10 Jun 2027 09:45:46.764             2.265           878.000
       267   10 Jun 2027 09:46:23.538   10 Jun 2027 09:46:24.828             1.290           382.937
       268   10 Jun 2027 09:46:44.109   10 Jun 2027 09:46:50.898             6.789           595.687
       269   10 Jun 2027 11:17:26.015   10 Jun 2027 11:17:36.057            10.042          4394.562
       270   10 Jun 2027 11:18:04.695   10 Jun 2027 11:18:06.261             1.566           288.844
       271   10 Jun 2027 11:20:39.339   10 Jun 2027 11:20:48.199             8.860          3796.813
       272   10 Jun 2027 11:21:52.840   10 Jun 2027 11:21:57.721             4.881          1852.906
       273   10 Jun 2027 11:23:56.368   10 Jun 2027 11:24:03.019             6.651          2606.594
       274   11 Jun 2027 03:39:29.572   11 Jun 2027 03:40:02.315            32.743         16371.500
       275   11 Jun 2027 03:40:02.746   11 Jun 2027 03:42:17.545           134.799         67399.500
       276   11 Jun 2027 03:42:44.374   11 Jun 2027 03:43:22.262            37.888         18944.000
       277   11 Jun 2027 03:44:30.274   11 Jun 2027 03:44:37.818             7.544          3772.000
       278   11 Jun 2027 03:45:08.277   11 Jun 2027 03:45:11.652             3.375          1687.500
       279   11 Jun 2027 05:18:28.767   11 Jun 2027 05:20:16.321           107.554         53154.719
       280   11 Jun 2027 05:20:50.096   11 Jun 2027 05:20:52.300             2.204           793.500
       281   11 Jun 2027 05:22:51.443   11 Jun 2027 05:22:56.171             4.728          1770.375
       282   11 Jun 2027 05:23:37.937   11 Jun 2027 05:23:40.173             2.236          1036.406
       283   11 Jun 2027 05:24:36.334   11 Jun 2027 05:24:39.555             3.221          1274.688
       284   11 Jun 2027 05:25:15.990   11 Jun 2027 05:25:17.542             1.552           471.750
       285   11 Jun 2027 06:42:37.038   11 Jun 2027 06:42:48.645            11.607          5233.562
       286   11 Jun 2027 06:43:49.181   11 Jun 2027 06:43:53.106             3.925          1891.750
       287   11 Jun 2027 06:44:31.687   11 Jun 2027 06:44:34.993             3.306          1205.656
       288   11 Jun 2027 06:54:50.724   11 Jun 2027 06:54:57.453             6.729          2390.219
       289   11 Jun 2027 08:16:52.514   11 Jun 2027 08:17:05.838            13.324          6632.375
       290   11 Jun 2027 08:17:21.657   11 Jun 2027 08:17:23.528             1.871           101.031
       291   11 Jun 2027 08:18:01.201   11 Jun 2027 08:18:01.201             0.000             0.000
       292   11 Jun 2027 08:18:09.845   11 Jun 2027 08:18:10.740             0.895           447.500
       293   11 Jun 2027 08:19:26.528   11 Jun 2027 08:19:36.621            10.093          2195.593
       294   11 Jun 2027 08:20:33.161   11 Jun 2027 08:20:44.372            11.211          1742.594
       295   11 Jun 2027 08:21:20.326   11 Jun 2027 08:21:24.569             4.243           722.187
       296   11 Jun 2027 09:51:44.583   11 Jun 2027 09:51:52.401             7.818          2459.969
       297   11 Jun 2027 09:54:16.643   11 Jun 2027 09:54:22.133             5.490          1648.750
       298   11 Jun 2027 09:55:32.155   11 Jun 2027 09:55:33.835             1.680           754.063
       299   11 Jun 2027 09:58:17.287   11 Jun 2027 09:58:21.907             4.620          1886.469
       300   11 Jun 2027 09:58:41.020   11 Jun 2027 09:58:43.908             2.888            91.344
       301   11 Jun 2027 10:00:00.173   11 Jun 2027 10:00:04.244             4.071           894.062
       302   11 Jun 2027 11:31:24.744   11 Jun 2027 11:31:41.496            16.752          7690.469
       303   11 Jun 2027 11:35:34.955   11 Jun 2027 11:35:45.159            10.204          4158.625
       304   11 Jun 2027 11:36:04.200   11 Jun 2027 11:36:05.846             1.646           594.813
       305   11 Jun 2027 11:36:17.751   11 Jun 2027 11:36:20.028             2.277           372.031
       306   11 Jun 2027 11:36:27.862   11 Jun 2027 11:36:29.132             1.270           202.781
       307   12 Jun 2027 03:52:15.457   12 Jun 2027 03:53:44.636            89.179         44589.500
       308   12 Jun 2027 03:55:18.416   12 Jun 2027 03:55:40.269            21.853         10926.500
       309   12 Jun 2027 03:56:27.853   12 Jun 2027 03:56:27.853             0.000             0.000
       310   12 Jun 2027 03:56:58.937   12 Jun 2027 03:57:49.731            50.794         25397.000
       311   12 Jun 2027 05:30:38.448   12 Jun 2027 05:32:08.259            89.811         44905.500
       312   12 Jun 2027 05:32:46.967   12 Jun 2027 05:33:42.035            55.068         26983.219
       313   12 Jun 2027 05:34:38.861   12 Jun 2027 05:34:43.473             4.612          1416.906
       314   12 Jun 2027 05:35:46.175   12 Jun 2027 05:35:48.796             2.621          1272.812
       315   12 Jun 2027 06:54:41.918   12 Jun 2027 06:54:55.599            13.681          5391.812
       316   12 Jun 2027 06:55:22.949   12 Jun 2027 06:55:22.949             0.000             0.000
       317   12 Jun 2027 06:55:37.435   12 Jun 2027 06:55:40.692             3.257          1057.969
       318   12 Jun 2027 08:28:27.975   12 Jun 2027 08:28:42.688            14.713          6563.531
       319   12 Jun 2027 08:30:36.512   12 Jun 2027 08:30:42.964             6.452          2815.219
       320   12 Jun 2027 08:30:53.569   12 Jun 2027 08:30:55.632             2.063           331.406
       321   12 Jun 2027 08:31:20.896   12 Jun 2027 08:31:22.354             1.458           342.094
       322   12 Jun 2027 08:32:06.610   12 Jun 2027 08:32:12.555             5.945          1201.750
       323   12 Jun 2027 08:33:41.563   12 Jun 2027 08:33:50.188             8.625          2627.031
       324   12 Jun 2027 10:04:28.682   12 Jun 2027 10:04:35.059             6.377          2696.344
       325   12 Jun 2027 10:05:52.545   12 Jun 2027 10:05:55.365             2.820           855.656
       326   12 Jun 2027 10:06:29.610   12 Jun 2027 10:06:31.237             1.627           519.531
       327   12 Jun 2027 10:07:04.174   12 Jun 2027 10:07:04.718             0.544           123.563
       328   12 Jun 2027 10:08:58.389   12 Jun 2027 10:09:01.868             3.479           621.188
       329   12 Jun 2027 10:10:29.968   12 Jun 2027 10:10:36.757             6.789          2284.406
       330   12 Jun 2027 10:11:39.255   12 Jun 2027 10:11:40.248             0.993           496.500
       331   12 Jun 2027 10:11:57.732   12 Jun 2027 10:12:01.064             3.332          1043.281
       332   12 Jun 2027 10:12:25.543   12 Jun 2027 10:12:26.132             0.589           188.219
       333   12 Jun 2027 11:41:31.511   12 Jun 2027 11:41:47.958            16.447          5993.000
       334   12 Jun 2027 11:44:00.205   12 Jun 2027 11:44:08.303             8.098          3352.906
       335   12 Jun 2027 11:45:41.669   12 Jun 2027 11:45:50.575             8.906           396.469
       336   12 Jun 2027 11:46:14.065   12 Jun 2027 11:46:15.462             1.397           351.563
       337   12 Jun 2027 11:47:01.037   12 Jun 2027 11:47:09.245             8.208          1217.688
       338   12 Jun 2027 11:47:50.481   12 Jun 2027 11:47:53.265             2.784           516.687
       339   12 Jun 2027 11:48:15.777   12 Jun 2027 11:48:17.200             1.423           689.531
       340   12 Jun 2027 11:48:32.747   12 Jun 2027 11:48:39.577             6.830           235.781
       341   13 Jun 2027 04:04:49.948   13 Jun 2027 04:05:38.722            48.774         24387.000
       342   13 Jun 2027 04:05:48.469   13 Jun 2027 04:06:31.327            42.858         21429.000
       343   13 Jun 2027 04:06:32.074   13 Jun 2027 04:07:50.854            78.780         39390.000
       344   13 Jun 2027 05:43:12.387   13 Jun 2027 05:43:48.941            36.554         18277.000
       345   13 Jun 2027 05:44:56.298   13 Jun 2027 05:47:00.691           124.393         62092.719
       346   13 Jun 2027 07:06:36.902   13 Jun 2027 07:06:53.931            17.029          8292.875
       347   13 Jun 2027 07:07:52.222   13 Jun 2027 07:07:55.874             3.652          1697.188
       348   13 Jun 2027 08:42:56.153   13 Jun 2027 08:43:06.562            10.409          4729.938
       349   13 Jun 2027 08:43:26.217   13 Jun 2027 08:43:27.836             1.619           278.344
       350   13 Jun 2027 08:44:17.929   13 Jun 2027 08:44:22.337             4.408          1516.219
       351   13 Jun 2027 08:45:11.409   13 Jun 2027 08:45:15.380             3.971           605.656
       352   13 Jun 2027 08:45:57.847   13 Jun 2027 08:46:00.953             3.106          1005.781
       353   13 Jun 2027 10:16:26.491   13 Jun 2027 10:16:33.768             7.277          3466.563
       354   13 Jun 2027 10:17:52.501   13 Jun 2027 10:17:56.153             3.652           828.062
       355   13 Jun 2027 10:18:45.645   13 Jun 2027 10:18:51.232             5.587           684.031
       356   13 Jun 2027 10:19:12.501   13 Jun 2027 10:19:16.220             3.719           427.437
       357   13 Jun 2027 10:22:18.959   13 Jun 2027 10:22:25.381             6.422          1962.875
       358   13 Jun 2027 10:23:40.002   13 Jun 2027 10:23:41.029             1.027           424.625
       359   13 Jun 2027 10:24:02.132   13 Jun 2027 10:24:03.123             0.991           418.000
       360   13 Jun 2027 10:24:19.022   13 Jun 2027 10:24:19.601             0.579           276.219
       361   13 Jun 2027 10:24:40.241   13 Jun 2027 10:24:42.582             2.341           212.594
       362   13 Jun 2027 11:53:57.615   13 Jun 2027 11:54:09.156            11.541          4812.906
       363   13 Jun 2027 11:56:15.711   13 Jun 2027 11:56:17.465             1.754           370.719
       364   13 Jun 2027 11:57:06.321   13 Jun 2027 11:57:14.455             8.134           830.281
       365   13 Jun 2027 11:58:50.711   13 Jun 2027 11:58:55.882             5.171          2150.750
       366   13 Jun 2027 11:59:49.077   13 Jun 2027 11:59:55.453             6.376          1662.344
