uniorb/output/strategy_4/Camera/Camera_KinoSat_110102.txt

KinoSat_110102
-------------------------
    Access    *     Start Time (UTCG)     *     Stop Time (UTCG)  *   Duration (s) *   Data (Mbytes)
         1   01 Jun 2027 03:00:00.000   01 Jun 2027 03:00:34.495            34.495         17247.500
         2   01 Jun 2027 03:02:13.812   01 Jun 2027 03:02:26.641            12.829          6414.500
         3   01 Jun 2027 03:03:11.353   01 Jun 2027 03:03:28.455            17.102          8551.000
         4   01 Jun 2027 03:03:34.709   01 Jun 2027 03:03:53.053            18.344          9172.000
         5   01 Jun 2027 03:04:28.110   01 Jun 2027 03:04:44.506            16.396          8198.000
         6   01 Jun 2027 03:05:06.727   01 Jun 2027 03:05:27.290            20.563         10281.500
         7   01 Jun 2027 03:05:39.879   01 Jun 2027 03:05:47.471             7.592          3796.000
         8   01 Jun 2027 03:05:49.161   01 Jun 2027 03:05:50.583             1.422           711.000
         9   01 Jun 2027 04:35:36.601   01 Jun 2027 04:38:05.490           148.889         74444.500
        10   01 Jun 2027 04:38:33.429   01 Jun 2027 04:38:40.415             6.986          3493.000
        11   01 Jun 2027 04:38:51.801   01 Jun 2027 04:38:55.919             4.118          2059.000
        12   01 Jun 2027 04:38:58.142   01 Jun 2027 04:39:13.276            15.134          7567.000
        13   01 Jun 2027 04:40:05.731   01 Jun 2027 04:40:18.169            12.438          6219.000
        14   01 Jun 2027 04:40:21.701   01 Jun 2027 04:40:27.388             5.687          2843.500
        15   01 Jun 2027 06:13:26.937   01 Jun 2027 06:16:23.576           176.639         88319.500
        16   01 Jun 2027 06:17:26.981   01 Jun 2027 06:17:48.264            21.283         10641.500
        17   01 Jun 2027 07:49:25.614   01 Jun 2027 07:51:46.616           141.002         70501.000
        18   01 Jun 2027 07:52:35.665   01 Jun 2027 07:52:38.067             2.402          1201.000
        19   01 Jun 2027 07:52:55.619   01 Jun 2027 07:53:13.320            17.701          8850.500
        20   02 Jun 2027 03:11:01.003   02 Jun 2027 03:18:13.744           432.741        216370.500
        21   02 Jun 2027 04:48:13.297   02 Jun 2027 04:52:36.428           263.131        131565.500
        22   02 Jun 2027 04:53:43.460   02 Jun 2027 04:54:03.103            19.643          9821.500
        23   02 Jun 2027 06:24:56.123   02 Jun 2027 06:29:45.337           289.214        144607.000
        24   02 Jun 2027 08:00:15.095   02 Jun 2027 08:00:21.042             5.947          2973.500
        25   02 Jun 2027 08:01:53.329   02 Jun 2027 08:04:46.702           173.373         86686.500
        26   03 Jun 2027 03:23:22.159   03 Jun 2027 03:30:04.586           402.427        201213.500
        27   03 Jun 2027 05:00:19.997   03 Jun 2027 05:05:17.918           297.921        148960.500
        28   03 Jun 2027 06:37:05.731   03 Jun 2027 06:41:44.833           279.102        139551.000
        29   03 Jun 2027 08:15:20.868   03 Jun 2027 08:16:17.422            56.554         28277.000
        30   04 Jun 2027 03:35:48.742   04 Jun 2027 03:42:10.697           381.955        190977.500
        31   04 Jun 2027 05:13:21.528   04 Jun 2027 05:17:45.739           264.211        132105.500
        32   04 Jun 2027 06:49:39.539   04 Jun 2027 06:53:39.585           240.046        120023.000
        33   05 Jun 2027 03:47:56.334   05 Jun 2027 03:53:43.370           347.036        173518.000
        34   05 Jun 2027 03:53:51.712   05 Jun 2027 03:54:01.718            10.006          5003.000
        35   05 Jun 2027 05:25:27.887   05 Jun 2027 05:29:58.678           270.791        135395.500
        36   05 Jun 2027 07:01:39.518   05 Jun 2027 07:05:40.134           240.616        120308.000
        37   05 Jun 2027 07:05:44.394   05 Jun 2027 07:06:25.980            41.586         20793.000
        38   06 Jun 2027 03:59:39.634   06 Jun 2027 04:06:02.924           383.290        191645.000
        39   06 Jun 2027 05:37:57.027   06 Jun 2027 05:41:40.718           223.691        111845.500
        40   06 Jun 2027 07:12:06.197   06 Jun 2027 07:12:42.793            36.596         18298.000
        41   06 Jun 2027 07:13:36.198   06 Jun 2027 07:17:27.086           230.888        115444.000
        42   06 Jun 2027 07:17:51.204   06 Jun 2027 07:18:46.007            54.803         27401.500
        43   07 Jun 2027 04:12:00.679   07 Jun 2027 04:17:49.804           349.125        174562.500
        44   07 Jun 2027 04:17:51.169   07 Jun 2027 04:18:14.075            22.906         11453.000
        45   07 Jun 2027 05:49:54.754   07 Jun 2027 05:53:53.642           238.888        119444.000
        46   07 Jun 2027 07:23:12.265   07 Jun 2027 07:29:25.442           373.177        186588.500
        47   07 Jun 2027 07:30:12.075   07 Jun 2027 07:31:00.758            48.683         24341.500
        48   08 Jun 2027 04:23:52.040   08 Jun 2027 04:29:05.707           313.667        156833.500
        49   08 Jun 2027 04:29:08.128   08 Jun 2027 04:30:05.501            57.373         28686.500
        50   08 Jun 2027 04:30:10.028   08 Jun 2027 04:30:28.885            18.857          9428.500
        51   08 Jun 2027 06:01:54.788   08 Jun 2027 06:06:04.152           249.364        124682.000
        52   08 Jun 2027 07:35:39.317   08 Jun 2027 07:42:55.480           436.163        218081.500
        53   09 Jun 2027 03:00:00.000   09 Jun 2027 03:06:30.309           390.309        195154.500
        54   09 Jun 2027 04:35:52.090   09 Jun 2027 04:41:30.801           338.711        169355.500
        55   09 Jun 2027 04:41:45.319   09 Jun 2027 04:42:30.259            44.940         22470.000
        56   09 Jun 2027 06:13:42.274   09 Jun 2027 06:18:03.024           260.750        130375.000
        57   09 Jun 2027 07:50:41.827   09 Jun 2027 07:53:55.829           194.002         97001.000
        58   10 Jun 2027 03:11:16.570   10 Jun 2027 03:18:28.646           432.076        216038.000
        59   10 Jun 2027 04:48:28.524   10 Jun 2027 04:52:56.768           268.244        134122.000
        60   10 Jun 2027 04:53:15.793   10 Jun 2027 04:54:18.038            62.245         31122.500
        61   10 Jun 2027 06:25:11.520   10 Jun 2027 06:30:00.297           288.777        144388.500
        62   10 Jun 2027 08:02:22.866   10 Jun 2027 08:05:01.440           158.574         79287.000
        63   11 Jun 2027 03:23:36.905   11 Jun 2027 03:30:19.650           402.745        201372.500
        64   11 Jun 2027 05:00:34.825   11 Jun 2027 05:05:32.711           297.886        148943.000
        65   11 Jun 2027 06:37:33.003   11 Jun 2027 06:42:00.249           267.246        133623.000
        66   11 Jun 2027 08:15:32.035   11 Jun 2027 08:16:31.721            59.686         29843.000
        67   12 Jun 2027 03:36:04.753   12 Jun 2027 03:42:25.805           381.052        190526.000
        68   12 Jun 2027 05:13:36.381   12 Jun 2027 05:18:01.102           264.721        132360.500
        69   12 Jun 2027 06:49:56.229   12 Jun 2027 06:53:54.886           238.657        119328.500
        70   13 Jun 2027 03:48:11.490   13 Jun 2027 03:53:58.401           346.911        173455.500
        71   13 Jun 2027 03:54:06.875   13 Jun 2027 03:54:16.573             9.698          4849.000
        72   13 Jun 2027 05:25:42.015   13 Jun 2027 05:30:13.665           271.650        135825.000
        73   13 Jun 2027 07:01:57.237   13 Jun 2027 07:05:55.166           237.929        118964.500
        74   13 Jun 2027 07:05:59.352   13 Jun 2027 07:06:41.705            42.353         21176.500
