uniorb/output/strategy_4/Camera/Camera_KinoSat_111406.txt

KinoSat_111406
-------------------------
    Access    *     Start Time (UTCG)     *     Stop Time (UTCG)  *   Duration (s) *   Data (Mbytes)
         1   01 Jun 2027 03:13:26.374   01 Jun 2027 03:15:07.808           101.434         50717.000
         2   01 Jun 2027 03:15:36.266   01 Jun 2027 03:15:36.266             0.000             0.000
         3   01 Jun 2027 03:15:46.102   01 Jun 2027 03:15:46.826             0.724           362.000
         4   01 Jun 2027 03:15:56.264   01 Jun 2027 03:15:56.727             0.463           231.500
         5   01 Jun 2027 03:16:23.561   01 Jun 2027 03:16:30.126             6.565          3282.500
         6   01 Jun 2027 03:18:00.797   01 Jun 2027 03:18:09.326             8.529          4264.500
         7   01 Jun 2027 03:19:36.555   01 Jun 2027 03:19:50.757            14.202          7101.000
         8   01 Jun 2027 03:20:22.396   01 Jun 2027 03:20:32.304             9.908          4954.000
         9   01 Jun 2027 03:20:51.323   01 Jun 2027 03:21:13.625            22.302         11151.000
        10   01 Jun 2027 04:39:36.088   01 Jun 2027 04:39:52.917            16.829          8414.500
        11   01 Jun 2027 04:50:30.951   01 Jun 2027 04:51:15.365            44.414         22207.000
        12   01 Jun 2027 04:51:55.037   01 Jun 2027 04:52:08.529            13.492          6746.000
        13   01 Jun 2027 04:52:39.951   01 Jun 2027 04:52:49.608             9.657          4828.500
        14   01 Jun 2027 06:14:28.283   01 Jun 2027 06:15:27.437            59.154         29577.000
        15   01 Jun 2027 07:50:13.141   01 Jun 2027 07:52:32.162           139.021         69510.500
        16   01 Jun 2027 07:52:55.273   01 Jun 2027 07:53:05.277            10.004          5002.000
        17   01 Jun 2027 07:53:06.989   01 Jun 2027 07:53:24.212            17.223          8611.500
        18   01 Jun 2027 09:24:56.984   01 Jun 2027 09:26:39.292           102.308         51154.000
        19   01 Jun 2027 09:28:20.231   01 Jun 2027 09:28:24.781             4.550          2275.000
        20   01 Jun 2027 09:30:55.302   01 Jun 2027 09:32:14.129            78.827         39413.500
        21   01 Jun 2027 09:32:25.022   01 Jun 2027 09:32:29.627             4.605          2302.500
        22   01 Jun 2027 11:01:45.281   01 Jun 2027 11:04:12.775           147.494         73747.000
        23   02 Jun 2027 03:25:47.605   02 Jun 2027 03:27:22.111            94.506         47253.000
        24   02 Jun 2027 03:28:56.284   02 Jun 2027 03:29:22.178            25.894         12947.000
        25   02 Jun 2027 03:29:41.152   02 Jun 2027 03:29:53.226            12.074          6037.000
        26   02 Jun 2027 03:30:11.363   02 Jun 2027 03:30:30.137            18.774          9387.000
        27   02 Jun 2027 03:31:13.005   02 Jun 2027 03:31:13.005             0.000             0.000
        28   02 Jun 2027 03:31:52.452   02 Jun 2027 03:32:07.890            15.438          7719.000
        29   02 Jun 2027 03:32:38.160   02 Jun 2027 03:32:43.849             5.689          2844.500
        30   02 Jun 2027 04:50:51.892   02 Jun 2027 04:51:12.421            20.529         10264.500
        31   02 Jun 2027 04:51:23.757   02 Jun 2027 04:51:23.757             0.000             0.000
        32   02 Jun 2027 05:02:31.711   02 Jun 2027 05:03:56.933            85.222         42611.000
        33   02 Jun 2027 06:25:03.799   02 Jun 2027 06:26:04.487            60.688         30344.000
        34   02 Jun 2027 06:26:45.141   02 Jun 2027 06:28:35.032           109.891         54945.500
        35   02 Jun 2027 08:00:06.967   02 Jun 2027 08:01:25.553            78.586         39293.000
        36   02 Jun 2027 08:01:57.600   02 Jun 2027 08:03:36.399            98.799         49399.500
        37   02 Jun 2027 09:37:05.338   02 Jun 2027 09:38:09.803            64.465         31378.844
        38   02 Jun 2027 09:39:58.915   02 Jun 2027 09:40:03.288             4.373          1761.719
        39   02 Jun 2027 09:40:43.961   02 Jun 2027 09:40:45.658             1.697           617.406
        40   02 Jun 2027 09:41:47.833   02 Jun 2027 09:41:51.061             3.228          1365.719
        41   02 Jun 2027 09:42:16.209   02 Jun 2027 09:42:17.851             1.642           477.406
        42   02 Jun 2027 09:42:24.733   02 Jun 2027 09:42:25.205             0.472           140.250
        43   02 Jun 2027 09:43:06.370   02 Jun 2027 09:43:11.640             5.270          1106.906
        44   02 Jun 2027 09:43:19.043   02 Jun 2027 09:43:20.729             1.686           201.156
        45   02 Jun 2027 11:14:03.475   02 Jun 2027 11:14:17.996            14.521          6678.875
        46   02 Jun 2027 11:16:04.874   02 Jun 2027 11:16:07.349             2.475          1184.219
        47   02 Jun 2027 11:16:42.653   02 Jun 2027 11:16:45.056             2.403           631.344
        48   02 Jun 2027 11:17:06.586   02 Jun 2027 11:17:08.025             1.439           603.344
        49   02 Jun 2027 11:17:38.372   02 Jun 2027 11:17:39.982             1.610           676.125
        50   02 Jun 2027 11:17:47.452   02 Jun 2027 11:17:48.026             0.574           224.125
        51   02 Jun 2027 11:18:13.054   02 Jun 2027 11:18:16.640             3.586           640.000
        52   02 Jun 2027 11:18:49.014   02 Jun 2027 11:18:56.310             7.296           916.375
        53   03 Jun 2027 03:38:04.049   03 Jun 2027 03:41:14.407           190.358         95179.000
        54   03 Jun 2027 03:44:09.250   03 Jun 2027 03:44:53.431            44.181         22090.500
        55   03 Jun 2027 05:02:13.026   03 Jun 2027 05:02:59.107            46.081         23040.500
        56   03 Jun 2027 05:14:29.037   03 Jun 2027 05:15:24.299            55.262         27631.000
        57   03 Jun 2027 06:36:28.068   03 Jun 2027 06:36:39.491            11.423          4036.968
        58   03 Jun 2027 06:37:17.973   03 Jun 2027 06:37:25.740             7.767           485.562
        59   03 Jun 2027 06:38:39.140   03 Jun 2027 06:38:43.521             4.381          1833.469
        60   03 Jun 2027 06:39:02.692   03 Jun 2027 06:39:05.359             2.667           424.469
        61   03 Jun 2027 06:39:13.098   03 Jun 2027 06:39:13.548             0.450           217.875
        62   03 Jun 2027 06:40:13.976   03 Jun 2027 06:40:21.098             7.122          1888.375
        63   03 Jun 2027 06:41:25.534   03 Jun 2027 06:41:31.796             6.262          1951.156
        64   03 Jun 2027 08:11:31.708   03 Jun 2027 08:11:37.903             6.195          2010.250
        65   03 Jun 2027 08:12:56.271   03 Jun 2027 08:12:59.451             3.180          1307.844
        66   03 Jun 2027 08:13:19.358   03 Jun 2027 08:13:20.355             0.997           396.125
        67   03 Jun 2027 08:14:16.792   03 Jun 2027 08:14:25.681             8.889          1608.344
        68   03 Jun 2027 08:15:19.560   03 Jun 2027 08:15:23.574             4.014          1086.344
        69   03 Jun 2027 08:16:57.093   03 Jun 2027 08:17:02.625             5.532          2503.875
        70   03 Jun 2027 08:17:48.957   03 Jun 2027 08:17:50.795             1.838           919.000
        71   03 Jun 2027 08:18:35.705   03 Jun 2027 08:18:43.497             7.792          1907.219
        72   03 Jun 2027 09:49:07.645   03 Jun 2027 09:49:17.568             9.923          4031.813
        73   03 Jun 2027 09:51:47.901   03 Jun 2027 09:51:52.436             4.535           921.000
        74   03 Jun 2027 09:53:57.952   03 Jun 2027 09:54:01.787             3.835          1656.688
        75   03 Jun 2027 09:54:09.558   03 Jun 2027 09:54:09.887             0.329            40.750
        76   03 Jun 2027 09:54:32.179   03 Jun 2027 09:54:34.907             2.728           696.625
        77   03 Jun 2027 09:54:49.346   03 Jun 2027 09:54:51.062             1.716           451.219
        78   03 Jun 2027 09:55:17.245   03 Jun 2027 09:55:19.606             2.361           816.437
        79   03 Jun 2027 09:55:35.055   03 Jun 2027 09:55:39.986             4.931            68.781
        80   03 Jun 2027 09:55:54.459   03 Jun 2027 09:55:56.410             1.951           383.531
        81   03 Jun 2027 11:25:53.226   03 Jun 2027 11:26:04.932            11.706          5300.531
        82   03 Jun 2027 11:28:30.873   03 Jun 2027 11:28:37.699             6.826          1773.594
        83   03 Jun 2027 11:30:04.958   03 Jun 2027 11:30:07.509             2.551          1238.594
        84   03 Jun 2027 11:30:12.988   03 Jun 2027 11:30:15.319             2.331           166.031
        85   03 Jun 2027 11:30:16.596   03 Jun 2027 11:30:16.977             0.381            36.906
        86   03 Jun 2027 11:30:24.417   03 Jun 2027 11:30:27.737             3.320            61.219
        87   03 Jun 2027 11:31:57.772   03 Jun 2027 11:32:03.226             5.454          2240.750
        88   03 Jun 2027 11:32:14.487   03 Jun 2027 11:32:15.367             0.880           351.906
        89   03 Jun 2027 11:32:29.527   03 Jun 2027 11:32:31.188             1.661           295.750
        90   04 Jun 2027 03:50:10.535   04 Jun 2027 03:52:57.558           167.023         83511.500
        91   04 Jun 2027 03:53:25.390   04 Jun 2027 03:54:15.491            50.101         25050.500
        92   04 Jun 2027 03:54:31.947   04 Jun 2027 03:55:18.305            46.358         23179.000
        93   04 Jun 2027 05:14:20.788   04 Jun 2027 05:15:02.032            41.244         20622.000
        94   04 Jun 2027 05:26:53.918   04 Jun 2027 05:26:55.636             1.718           859.000
        95   04 Jun 2027 06:48:10.273   04 Jun 2027 06:49:01.981            51.708         22464.031
        96   04 Jun 2027 06:49:52.515   04 Jun 2027 06:49:59.645             7.130           986.906
        97   04 Jun 2027 06:50:38.339   04 Jun 2027 06:50:44.838             6.499          1092.281
        98   04 Jun 2027 06:51:04.181   04 Jun 2027 06:51:06.637             2.456           381.531
        99   04 Jun 2027 06:51:45.338   04 Jun 2027 06:51:47.606             2.268          1040.187
       100   04 Jun 2027 06:52:48.130   04 Jun 2027 06:52:54.363             6.233          1851.438
       101   04 Jun 2027 06:52:58.200   04 Jun 2027 06:52:59.346             1.146            79.219
       102   04 Jun 2027 06:53:35.788   04 Jun 2027 06:53:38.174             2.386           861.531
       103   04 Jun 2027 08:23:02.629   04 Jun 2027 08:23:07.458             4.829          2186.750
       104   04 Jun 2027 08:24:01.299   04 Jun 2027 08:24:06.401             5.102          1017.375
       105   04 Jun 2027 08:25:20.366   04 Jun 2027 08:25:26.455             6.089          2311.406
       106   04 Jun 2027 08:26:33.292   04 Jun 2027 08:26:40.113             6.821           607.219
       107   04 Jun 2027 08:27:22.232   04 Jun 2027 08:27:26.295             4.063          1213.438
       108   04 Jun 2027 08:28:50.380   04 Jun 2027 08:28:56.282             5.902          2289.719
       109   04 Jun 2027 08:29:06.628   04 Jun 2027 08:29:07.745             1.117           156.344
       110   04 Jun 2027 08:30:17.219   04 Jun 2027 08:30:22.785             5.566          1472.188
       111   04 Jun 2027 08:30:36.133   04 Jun 2027 08:30:41.599             5.466           325.719
       112   04 Jun 2027 08:31:07.137   04 Jun 2027 08:31:09.315             2.178           510.406
       113   04 Jun 2027 08:31:49.069   04 Jun 2027 08:31:53.536             4.467          1193.344
       114   04 Jun 2027 08:32:32.924   04 Jun 2027 08:32:36.482             3.558           432.781
       115   04 Jun 2027 10:01:08.175   04 Jun 2027 10:01:21.414            13.239          6403.187
       116   04 Jun 2027 10:02:05.771   04 Jun 2027 10:02:07.191             1.420           247.687
       117   04 Jun 2027 10:02:46.629   04 Jun 2027 10:02:47.903             1.274           557.844
       118   04 Jun 2027 10:04:02.010   04 Jun 2027 10:04:07.199             5.189          1612.469
       119   04 Jun 2027 10:04:47.138   04 Jun 2027 10:04:50.309             3.171           965.594
       120   04 Jun 2027 10:05:21.632   04 Jun 2027 10:05:24.376             2.744           376.656
       121   04 Jun 2027 10:06:34.607   04 Jun 2027 10:06:41.267             6.660           122.687
       122   04 Jun 2027 10:06:44.055   04 Jun 2027 10:06:46.186             2.131            87.125
       123   04 Jun 2027 10:07:43.485   04 Jun 2027 10:07:45.967             2.482          1199.313
       124   04 Jun 2027 10:07:52.275   04 Jun 2027 10:07:56.221             3.946            49.937
       125   04 Jun 2027 10:08:15.398   04 Jun 2027 10:08:20.288             4.890           388.438
       126   04 Jun 2027 11:38:01.974   04 Jun 2027 11:38:13.476            11.502          5429.562
       127   04 Jun 2027 11:39:47.065   04 Jun 2027 11:39:48.554             1.489           368.250
       128   04 Jun 2027 11:40:39.101   04 Jun 2027 11:40:40.749             1.648            27.063
       129   04 Jun 2027 11:41:53.354   04 Jun 2027 11:41:58.906             5.552          1513.469
       130   04 Jun 2027 11:42:19.631   04 Jun 2027 11:42:22.090             2.459           647.656
       131   04 Jun 2027 11:43:42.676   04 Jun 2027 11:43:47.667             4.991          2285.312
       132   04 Jun 2027 11:44:16.046   04 Jun 2027 11:44:17.411             1.365           611.625
       133   05 Jun 2027 04:02:47.871   05 Jun 2027 04:03:37.976            50.105         25052.500
       134   05 Jun 2027 04:04:04.399   05 Jun 2027 04:05:28.676            84.277         42138.500
       135   05 Jun 2027 04:05:52.645   05 Jun 2027 04:07:23.730            91.085         45542.500
       136   05 Jun 2027 05:26:17.259   05 Jun 2027 05:26:36.333            19.074          9537.000
       137   05 Jun 2027 07:02:29.607   05 Jun 2027 07:04:01.359            91.752         43710.031
       138   05 Jun 2027 07:05:26.430   05 Jun 2027 07:05:34.421             7.991          1806.469
       139   05 Jun 2027 08:36:02.951   05 Jun 2027 08:36:10.400             7.449          2097.594
       140   05 Jun 2027 08:37:51.741   05 Jun 2027 08:37:57.017             5.276           963.125
       141   05 Jun 2027 08:38:29.520   05 Jun 2027 08:38:31.626             2.106           220.875
       142   05 Jun 2027 08:38:53.628   05 Jun 2027 08:38:53.628             0.000             0.000
       143   05 Jun 2027 08:39:24.361   05 Jun 2027 08:39:36.623            12.262          1515.562
       144   05 Jun 2027 08:41:31.454   05 Jun 2027 08:41:39.207             7.753          3585.187
       145   05 Jun 2027 08:41:58.456   05 Jun 2027 08:41:59.211             0.755            85.594
       146   05 Jun 2027 08:42:54.008   05 Jun 2027 08:42:58.446             4.438           668.250
       147   05 Jun 2027 08:43:08.686   05 Jun 2027 08:43:11.166             2.480           281.625
       148   05 Jun 2027 08:44:00.190   05 Jun 2027 08:44:07.978             7.788          1500.594
       149   05 Jun 2027 10:13:33.162   05 Jun 2027 10:13:45.162            12.000          5032.375
       150   05 Jun 2027 10:17:08.045   05 Jun 2027 10:17:15.784             7.739          3421.969
       151   05 Jun 2027 10:18:27.705   05 Jun 2027 10:18:34.948             7.243          2105.437
       152   05 Jun 2027 10:19:18.004   05 Jun 2027 10:19:21.778             3.774          1123.063
       153   05 Jun 2027 10:20:06.284   05 Jun 2027 10:20:08.395             2.111           353.625
       154   05 Jun 2027 11:50:30.090   05 Jun 2027 11:50:42.138            12.048          5315.531
       155   05 Jun 2027 11:51:39.751   05 Jun 2027 11:51:45.417             5.666          1037.875
       156   05 Jun 2027 11:52:44.671   05 Jun 2027 11:52:45.471             0.800           278.781
       157   05 Jun 2027 11:53:48.444   05 Jun 2027 11:53:51.117             2.673          1014.281
       158   05 Jun 2027 11:54:49.876   05 Jun 2027 11:54:54.154             4.278           866.500
       159   05 Jun 2027 11:55:05.977   05 Jun 2027 11:55:06.623             0.646           270.438
       160   05 Jun 2027 11:55:59.980   05 Jun 2027 11:56:02.568             2.588           474.312
       161   06 Jun 2027 04:14:28.930   06 Jun 2027 04:17:19.048           170.118         85059.000
       162   06 Jun 2027 04:17:33.143   06 Jun 2027 04:17:43.724            10.581          5290.500
       163   06 Jun 2027 05:38:08.082   06 Jun 2027 05:39:03.341            55.259         27629.500
       164   06 Jun 2027 07:14:34.965   06 Jun 2027 07:16:06.874            91.909         44737.687
       165   06 Jun 2027 07:16:30.559   06 Jun 2027 07:16:33.935             3.376           737.781
       166   06 Jun 2027 07:17:04.790   06 Jun 2027 07:17:07.172             2.382           866.969
       167   06 Jun 2027 07:17:42.976   06 Jun 2027 07:17:46.939             3.963           945.688
       168   06 Jun 2027 08:46:43.712   06 Jun 2027 08:46:48.989             5.277          2613.281
       169   06 Jun 2027 08:50:26.385   06 Jun 2027 08:50:28.887             2.502           393.000
       170   06 Jun 2027 08:50:48.426   06 Jun 2027 08:50:51.057             2.631           610.594
       171   06 Jun 2027 08:52:03.871   06 Jun 2027 08:52:03.871             0.000             0.000
       172   06 Jun 2027 08:52:11.876   06 Jun 2027 08:52:15.036             3.160          1427.250
       173   06 Jun 2027 08:52:27.582   06 Jun 2027 08:52:28.779             1.197           210.219
       174   06 Jun 2027 08:53:12.639   06 Jun 2027 08:53:12.639             0.000             0.000
       175   06 Jun 2027 08:53:44.007   06 Jun 2027 08:53:49.843             5.836          1404.875
       176   06 Jun 2027 08:55:13.044   06 Jun 2027 08:55:19.520             6.476          2503.438
       177   06 Jun 2027 08:55:59.819   06 Jun 2027 08:56:02.515             2.696          1020.219
       178   06 Jun 2027 08:56:15.703   06 Jun 2027 08:56:17.006             1.303            44.906
       179   06 Jun 2027 08:56:32.587   06 Jun 2027 08:56:32.866             0.279            55.500
       180   06 Jun 2027 10:25:40.778   06 Jun 2027 10:25:50.405             9.627          3766.906
       181   06 Jun 2027 10:27:59.312   06 Jun 2027 10:28:01.156             1.844           140.875
       182   06 Jun 2027 10:28:54.439   06 Jun 2027 10:29:02.312             7.873           716.094
       183   06 Jun 2027 10:30:09.918   06 Jun 2027 10:30:11.466             1.548           604.656
       184   06 Jun 2027 10:30:48.574   06 Jun 2027 10:30:50.180             1.606           706.344
       185   06 Jun 2027 10:31:44.849   06 Jun 2027 10:31:53.353             8.504          1708.406
       186   06 Jun 2027 10:32:05.161   06 Jun 2027 10:32:06.286             1.125           350.031
       187   06 Jun 2027 10:32:18.062   06 Jun 2027 10:32:19.177             1.115           368.000
       188   07 Jun 2027 04:27:42.367   07 Jun 2027 04:30:26.858           164.491         82245.500
       189   07 Jun 2027 05:50:16.415   07 Jun 2027 05:50:47.561            31.146         15573.000
       190   07 Jun 2027 05:52:25.953   07 Jun 2027 05:52:59.701            33.748         16874.000
       191   07 Jun 2027 07:26:44.829   07 Jun 2027 07:28:01.420            76.591         37338.470
       192   07 Jun 2027 07:28:17.503   07 Jun 2027 07:28:19.012             1.509            97.094
       193   07 Jun 2027 07:28:23.501   07 Jun 2027 07:28:26.469             2.968            70.844
       194   07 Jun 2027 07:29:08.186   07 Jun 2027 07:29:12.349             4.163          1092.781
       195   07 Jun 2027 07:29:44.158   07 Jun 2027 07:29:46.253             2.095           924.125
       196   07 Jun 2027 09:01:55.968   07 Jun 2027 09:02:01.640             5.672          2517.062
       197   07 Jun 2027 09:03:06.744   07 Jun 2027 09:03:10.819             4.075          1475.594
       198   07 Jun 2027 09:03:27.699   07 Jun 2027 09:03:33.326             5.627           527.500
       199   07 Jun 2027 09:04:56.416   07 Jun 2027 09:04:59.751             3.335          1324.156
       200   07 Jun 2027 09:05:23.599   07 Jun 2027 09:05:25.327             1.728           256.750
       201   07 Jun 2027 09:07:13.425   07 Jun 2027 09:07:20.672             7.247          2527.438
       202   07 Jun 2027 09:08:25.818   07 Jun 2027 09:08:30.262             4.444           834.531
       203   07 Jun 2027 10:38:14.603   07 Jun 2027 10:38:24.157             9.554          4774.156
       204   07 Jun 2027 10:40:21.069   07 Jun 2027 10:40:21.789             0.720            30.562
       205   07 Jun 2027 10:40:56.917   07 Jun 2027 10:41:02.941             6.024           345.656
       206   07 Jun 2027 10:41:27.469   07 Jun 2027 10:41:29.076             1.607           661.875
       207   07 Jun 2027 10:41:52.598   07 Jun 2027 10:41:56.812             4.214           631.344
       208   07 Jun 2027 10:42:21.497   07 Jun 2027 10:42:25.423             3.926           553.688
       209   07 Jun 2027 10:43:37.828   07 Jun 2027 10:43:41.743             3.915          1362.719
       210   07 Jun 2027 10:44:17.661   07 Jun 2027 10:44:21.893             4.232           912.406
       211   08 Jun 2027 03:00:38.307   08 Jun 2027 03:00:51.765            13.458          6729.000
       212   08 Jun 2027 03:01:02.195   08 Jun 2027 03:01:13.763            11.568          5784.000
       213   08 Jun 2027 03:01:48.400   08 Jun 2027 03:01:58.086             9.686          4843.000
       214   08 Jun 2027 03:02:44.434   08 Jun 2027 03:02:44.606             0.172            86.000
       215   08 Jun 2027 03:03:40.515   08 Jun 2027 03:03:53.460            12.945          6472.500
       216   08 Jun 2027 03:04:06.303   08 Jun 2027 03:04:11.549             5.246          2623.000
       217   08 Jun 2027 03:04:41.300   08 Jun 2027 03:04:50.072             8.772          4386.000
       218   08 Jun 2027 03:05:20.632   08 Jun 2027 03:05:22.476             1.844           922.000
       219   08 Jun 2027 03:05:38.614   08 Jun 2027 03:05:44.039             5.425          2712.500
       220   08 Jun 2027 03:06:14.948   08 Jun 2027 03:06:14.948             0.000             0.000
       221   08 Jun 2027 03:09:00.304   08 Jun 2027 03:09:17.108            16.804          8402.000
       222   08 Jun 2027 04:38:51.375   08 Jun 2027 04:39:27.761            36.386         18193.000
       223   08 Jun 2027 04:39:56.361   08 Jun 2027 04:41:40.964           104.603         52301.500
       224   08 Jun 2027 04:42:05.734   08 Jun 2027 04:42:06.924             1.190           595.000
       225   08 Jun 2027 06:02:17.465   08 Jun 2027 06:03:21.131            63.666         31833.000
       226   08 Jun 2027 06:03:58.060   08 Jun 2027 06:04:24.485            26.425         13212.500
       227   08 Jun 2027 07:38:44.691   08 Jun 2027 07:39:01.957            17.266          7329.093
       228   08 Jun 2027 07:39:29.190   08 Jun 2027 07:39:30.967             1.777           725.063
       229   08 Jun 2027 07:40:21.154   08 Jun 2027 07:40:21.154             0.000             0.000
       230   08 Jun 2027 07:40:25.996   08 Jun 2027 07:40:29.051             3.055          1067.969
       231   08 Jun 2027 07:40:55.793   08 Jun 2027 07:41:01.137             5.344           388.656
       232   08 Jun 2027 07:41:23.996   08 Jun 2027 07:41:25.393             1.397           511.313
       233   08 Jun 2027 09:13:57.595   08 Jun 2027 09:14:06.069             8.474          3779.188
       234   08 Jun 2027 09:16:27.124   08 Jun 2027 09:16:30.958             3.834          1024.750
       235   08 Jun 2027 09:17:17.920   08 Jun 2027 09:17:20.288             2.368           803.187
       236   08 Jun 2027 09:19:13.233   08 Jun 2027 09:19:19.010             5.777          2456.125
       237   08 Jun 2027 09:20:08.592   08 Jun 2027 09:20:13.274             4.682          1471.125
       238   08 Jun 2027 09:20:36.333   08 Jun 2027 09:20:37.958             1.625            33.281
       239   08 Jun 2027 10:49:53.382   08 Jun 2027 10:50:10.389            17.007          8038.000
       240   08 Jun 2027 10:52:06.014   08 Jun 2027 10:52:06.081             0.067            28.531
       241   08 Jun 2027 10:52:20.631   08 Jun 2027 10:52:24.023             3.392           454.687
       242   08 Jun 2027 10:52:53.689   08 Jun 2027 10:52:58.140             4.451           927.062
       243   08 Jun 2027 10:53:02.639   08 Jun 2027 10:53:03.412             0.773           140.594
       244   08 Jun 2027 10:53:54.632   08 Jun 2027 10:53:58.475             3.843           926.750
       245   08 Jun 2027 10:54:34.497   08 Jun 2027 10:54:36.899             2.402           717.438
       246   08 Jun 2027 10:55:14.416   08 Jun 2027 10:55:17.384             2.968           479.969
       247   08 Jun 2027 10:55:26.830   08 Jun 2027 10:55:32.460             5.630           295.187
       248   09 Jun 2027 03:13:42.870   09 Jun 2027 03:15:12.972            90.102         45051.000
       249   09 Jun 2027 03:16:17.180   09 Jun 2027 03:16:46.842            29.662         14831.000
       250   09 Jun 2027 03:17:16.403   09 Jun 2027 03:17:27.722            11.319          5659.500
       251   09 Jun 2027 03:17:34.935   09 Jun 2027 03:17:41.960             7.025          3512.500
       252   09 Jun 2027 03:18:36.118   09 Jun 2027 03:18:49.255            13.137          6568.500
       253   09 Jun 2027 03:19:52.489   09 Jun 2027 03:20:08.666            16.177          8088.500
       254   09 Jun 2027 03:20:24.907   09 Jun 2027 03:20:29.996             5.089          2544.500
       255   09 Jun 2027 04:39:50.165   09 Jun 2027 04:40:19.342            29.177         14588.500
       256   09 Jun 2027 04:50:47.018   09 Jun 2027 04:52:43.422           116.404         57038.312
       257   09 Jun 2027 04:53:35.958   09 Jun 2027 04:53:36.688             0.730           149.844
       258   09 Jun 2027 06:14:43.710   09 Jun 2027 06:14:59.852            16.142          6594.187
       259   09 Jun 2027 06:15:24.291   09 Jun 2027 06:15:24.291             0.000             0.000
       260   09 Jun 2027 06:15:43.191   09 Jun 2027 06:15:45.258             2.067           897.406
       261   09 Jun 2027 06:16:58.542   09 Jun 2027 06:17:06.674             8.132          1911.219
       262   09 Jun 2027 07:50:29.435   09 Jun 2027 07:50:41.827            12.392          1799.281
       263   09 Jun 2027 07:51:32.122   09 Jun 2027 07:51:34.678             2.556           846.562
       264   09 Jun 2027 07:52:09.308   09 Jun 2027 07:52:12.850             3.542          1082.187
       265   09 Jun 2027 07:53:06.791   09 Jun 2027 07:53:11.175             4.384          1685.656
       266   09 Jun 2027 07:53:17.342   09 Jun 2027 07:53:20.013             2.671            72.969
       267   09 Jun 2027 07:53:43.088   09 Jun 2027 07:53:44.925             1.837           669.844
       268   09 Jun 2027 07:54:42.769   09 Jun 2027 07:54:45.343             2.574          1245.250
       269   09 Jun 2027 09:25:13.354   09 Jun 2027 09:25:23.345             9.991          2920.719
       270   09 Jun 2027 09:26:01.619   09 Jun 2027 09:26:04.047             2.428           385.844
       271   09 Jun 2027 09:26:55.330   09 Jun 2027 09:26:59.227             3.897           627.562
       272   09 Jun 2027 09:27:27.444   09 Jun 2027 09:27:29.429             1.985           759.375
       273   09 Jun 2027 09:28:07.543   09 Jun 2027 09:28:13.151             5.608          1191.063
       274   09 Jun 2027 09:29:20.207   09 Jun 2027 09:29:23.006             2.799          1154.125
       275   09 Jun 2027 09:29:59.856   09 Jun 2027 09:30:02.577             2.721           676.875
       276   09 Jun 2027 09:30:45.459   09 Jun 2027 09:30:47.800             2.341           705.844
       277   09 Jun 2027 09:31:01.014   09 Jun 2027 09:31:02.601             1.587           270.531
       278   09 Jun 2027 09:32:07.297   09 Jun 2027 09:32:12.666             5.369          1716.625
       279   09 Jun 2027 09:32:41.565   09 Jun 2027 09:32:46.198             4.633           393.812
       280   09 Jun 2027 11:02:03.069   09 Jun 2027 11:02:17.401            14.332          6763.344
       281   09 Jun 2027 11:04:26.453   09 Jun 2027 11:04:29.371             2.918           358.063
       282   09 Jun 2027 11:04:33.095   09 Jun 2027 11:04:35.631             2.536            55.687
       283   09 Jun 2027 11:05:48.474   09 Jun 2027 11:05:51.901             3.427          1207.063
       284   09 Jun 2027 11:06:53.566   09 Jun 2027 11:07:03.122             9.556          1462.469
       285   09 Jun 2027 11:07:05.724   09 Jun 2027 11:07:08.904             3.180            81.313
       286   09 Jun 2027 11:07:11.958   09 Jun 2027 11:07:16.211             4.253            73.687
       287   10 Jun 2027 03:26:04.781   10 Jun 2027 03:29:14.672           189.891         94945.500
       288   10 Jun 2027 03:30:44.793   10 Jun 2027 03:30:44.793             0.000             0.000
       289   10 Jun 2027 03:32:07.946   10 Jun 2027 03:32:24.876            16.930          8465.000
       290   10 Jun 2027 03:32:55.202   10 Jun 2027 03:32:58.678             3.476          1738.000
       291   10 Jun 2027 04:51:08.105   10 Jun 2027 04:51:21.801            13.696          6848.000
       292   10 Jun 2027 04:52:28.531   10 Jun 2027 04:52:34.061             5.530          2765.000
       293   10 Jun 2027 05:02:48.107   10 Jun 2027 05:04:11.614            83.507         40688.282
       294   10 Jun 2027 06:25:04.933   10 Jun 2027 06:25:14.460             9.527          3928.156
       295   10 Jun 2027 06:25:34.795   10 Jun 2027 06:25:36.777             1.982           554.219
       296   10 Jun 2027 06:27:01.114   10 Jun 2027 06:27:04.447             3.333          1447.250
       297   10 Jun 2027 06:27:16.975   10 Jun 2027 06:27:17.535             0.560           159.188
       298   10 Jun 2027 06:29:07.355   10 Jun 2027 06:29:10.457             3.102          1551.000
       299   10 Jun 2027 06:29:44.777   10 Jun 2027 06:29:48.253             3.476          1738.000
       300   10 Jun 2027 08:00:19.685   10 Jun 2027 08:00:24.778             5.093          2296.000
       301   10 Jun 2027 08:00:42.566   10 Jun 2027 08:00:43.400             0.834           103.094
       302   10 Jun 2027 08:02:12.995   10 Jun 2027 08:02:14.976             1.981           833.469
       303   10 Jun 2027 08:02:32.082   10 Jun 2027 08:02:33.374             1.292           117.219
       304   10 Jun 2027 08:03:17.755   10 Jun 2027 08:03:22.748             4.993           452.000
       305   10 Jun 2027 08:03:56.884   10 Jun 2027 08:03:56.884             0.000             0.000
       306   10 Jun 2027 08:04:06.822   10 Jun 2027 08:04:19.431            12.609           997.469
       307   10 Jun 2027 08:05:23.819   10 Jun 2027 08:05:27.273             3.454           885.594
       308   10 Jun 2027 08:06:03.695   10 Jun 2027 08:06:07.319             3.624           922.531
       309   10 Jun 2027 08:06:34.621   10 Jun 2027 08:06:38.360             3.739           562.250
       310   10 Jun 2027 09:37:21.197   10 Jun 2027 09:37:29.716             8.519          3501.969
       311   10 Jun 2027 09:41:02.711   10 Jun 2027 09:41:04.934             2.223           701.750
       312   10 Jun 2027 09:42:06.583   10 Jun 2027 09:42:14.349             7.766          1386.656
       313   10 Jun 2027 09:42:34.199   10 Jun 2027 09:42:35.807             1.608           571.750
       314   10 Jun 2027 09:43:22.079   10 Jun 2027 09:43:26.317             4.238          1106.281
       315   10 Jun 2027 09:43:34.869   10 Jun 2027 09:43:37.385             2.516            69.469
       316   10 Jun 2027 11:14:19.176   10 Jun 2027 11:14:34.309            15.133          6449.687
       317   10 Jun 2027 11:17:58.626   10 Jun 2027 11:18:04.695             6.069          2197.781
       318   10 Jun 2027 11:18:29.873   10 Jun 2027 11:18:34.635             4.762           694.812
       319   10 Jun 2027 11:19:06.404   10 Jun 2027 11:19:12.350             5.946           951.719
       320   11 Jun 2027 03:38:22.381   11 Jun 2027 03:41:35.056           192.675         96337.500
       321   11 Jun 2027 03:42:16.181   11 Jun 2027 03:42:20.236             4.055          2027.500
       322   11 Jun 2027 03:44:26.250   11 Jun 2027 03:44:37.818            11.568          5784.000
       323   11 Jun 2027 05:02:29.254   11 Jun 2027 05:03:15.244            45.990         22995.000
       324   11 Jun 2027 05:14:45.329   11 Jun 2027 05:15:39.746            54.417         27208.500
       325   11 Jun 2027 06:36:44.161   11 Jun 2027 06:36:59.664            15.503          5035.313
       326   11 Jun 2027 06:37:35.069   11 Jun 2027 06:37:40.172             5.103           537.844
       327   11 Jun 2027 06:38:51.662   11 Jun 2027 06:38:55.044             3.382          1660.563
       328   11 Jun 2027 06:39:29.454   11 Jun 2027 06:39:34.454             5.000          1027.906
       329   11 Jun 2027 06:41:05.737   11 Jun 2027 06:41:13.339             7.602          2332.344
       330   11 Jun 2027 06:41:27.249   11 Jun 2027 06:41:28.830             1.581           434.688
       331   11 Jun 2027 06:41:49.872   11 Jun 2027 06:41:54.008             4.136           241.531
       332   11 Jun 2027 06:42:10.333   11 Jun 2027 06:42:16.824             6.491           510.156
       333   11 Jun 2027 08:11:44.674   11 Jun 2027 08:11:48.653             3.979          1450.750
       334   11 Jun 2027 08:13:13.346   11 Jun 2027 08:13:16.168             2.822          1371.438
       335   11 Jun 2027 08:13:36.308   11 Jun 2027 08:13:38.082             1.774           398.188
       336   11 Jun 2027 08:14:35.464   11 Jun 2027 08:14:41.854             6.390          1670.562
       337   11 Jun 2027 08:15:33.971   11 Jun 2027 08:15:37.487             3.516          1042.437
       338   11 Jun 2027 08:16:06.735   11 Jun 2027 08:16:17.843            11.108           914.000
       339   11 Jun 2027 08:17:46.606   11 Jun 2027 08:17:48.885             2.279          1041.313
       340   11 Jun 2027 08:18:54.629   11 Jun 2027 08:19:01.655             7.026          1669.625
       341   11 Jun 2027 09:49:23.251   11 Jun 2027 09:49:32.956             9.705          3934.781
       342   11 Jun 2027 09:54:16.643   11 Jun 2027 09:54:22.133             5.490          1648.750
       343   11 Jun 2027 09:54:26.129   11 Jun 2027 09:54:26.739             0.610           103.188
       344   11 Jun 2027 09:54:47.604   11 Jun 2027 09:54:49.911             2.307           652.031
       345   11 Jun 2027 09:55:05.565   11 Jun 2027 09:55:08.025             2.460           489.188
       346   11 Jun 2027 09:55:32.155   11 Jun 2027 09:55:33.835             1.680           754.063
       347   11 Jun 2027 09:55:54.479   11 Jun 2027 09:55:56.230             1.751           177.344
       348   11 Jun 2027 09:56:09.160   11 Jun 2027 09:56:11.266             2.106           347.469
       349   11 Jun 2027 09:56:24.521   11 Jun 2027 09:56:26.489             1.968            34.344
       350   11 Jun 2027 09:56:40.185   11 Jun 2027 09:56:44.757             4.572           299.250
       351   11 Jun 2027 11:26:09.537   11 Jun 2027 11:26:20.876            11.339          5386.344
       352   11 Jun 2027 11:27:14.042   11 Jun 2027 11:27:17.675             3.633          1473.344
       353   11 Jun 2027 11:28:29.629   11 Jun 2027 11:28:34.930             5.301          1632.969
       354   11 Jun 2027 11:30:21.495   11 Jun 2027 11:30:24.459             2.964          1286.875
       355   11 Jun 2027 11:30:30.595   11 Jun 2027 11:30:31.241             0.646           170.094
       356   11 Jun 2027 11:30:33.375   11 Jun 2027 11:30:34.246             0.871            66.688
       357   11 Jun 2027 11:30:41.266   11 Jun 2027 11:30:42.564             1.298           136.625
       358   11 Jun 2027 11:32:20.553   11 Jun 2027 11:32:28.536             7.983          2222.937
       359   12 Jun 2027 03:50:28.629   12 Jun 2027 03:54:33.059           244.430        122215.000
       360   12 Jun 2027 03:54:46.285   12 Jun 2027 03:55:03.762            17.477          8738.500
       361   12 Jun 2027 05:14:37.117   12 Jun 2027 05:15:18.161            41.044         20522.000
       362   12 Jun 2027 06:48:26.273   12 Jun 2027 06:49:24.948            58.675         28292.781
       363   12 Jun 2027 06:50:23.376   12 Jun 2027 06:50:27.481             4.105           722.094
       364   12 Jun 2027 06:51:11.717   12 Jun 2027 06:51:14.130             2.413           900.500
       365   12 Jun 2027 06:51:34.144   12 Jun 2027 06:51:35.183             1.039           435.156
       366   12 Jun 2027 06:52:04.550   12 Jun 2027 06:52:11.845             7.295           173.625
       367   12 Jun 2027 06:52:37.944   12 Jun 2027 06:52:41.254             3.310           553.344
       368   12 Jun 2027 06:53:11.729   12 Jun 2027 06:53:13.900             2.171           265.406
       369   12 Jun 2027 06:53:42.886   12 Jun 2027 06:53:51.622             8.736           826.281
       370   12 Jun 2027 08:23:18.296   12 Jun 2027 08:23:22.955             4.659          2248.687
       371   12 Jun 2027 08:24:16.198   12 Jun 2027 08:24:18.537             2.339           922.188
       372   12 Jun 2027 08:25:37.287   12 Jun 2027 08:25:42.071             4.784          2301.187
       373   12 Jun 2027 08:26:44.790   12 Jun 2027 08:26:48.292             3.502          1173.125
       374   12 Jun 2027 08:26:56.791   12 Jun 2027 08:26:57.232             0.441           209.469
       375   12 Jun 2027 08:27:39.853   12 Jun 2027 08:27:42.880             3.027          1331.906
       376   12 Jun 2027 08:29:06.425   12 Jun 2027 08:29:11.617             5.192          2247.156
       377   12 Jun 2027 08:29:24.845   12 Jun 2027 08:29:28.319             3.474           209.125
       378   12 Jun 2027 08:30:36.512   12 Jun 2027 08:30:40.641             4.129          1511.500
       379   12 Jun 2027 08:30:53.569   12 Jun 2027 08:30:55.632             2.063           331.406
       380   12 Jun 2027 08:31:20.896   12 Jun 2027 08:31:22.354             1.458           342.094
       381   12 Jun 2027 08:32:06.610   12 Jun 2027 08:32:12.555             5.945          1201.750
       382   12 Jun 2027 08:32:34.150   12 Jun 2027 08:32:45.248            11.098           190.250
       383   12 Jun 2027 10:01:24.480   12 Jun 2027 10:01:36.111            11.631          5192.375
       384   12 Jun 2027 10:02:11.405   12 Jun 2027 10:02:15.404             3.999           455.500
       385   12 Jun 2027 10:03:05.752   12 Jun 2027 10:03:06.789             1.037            96.406
       386   12 Jun 2027 10:04:31.212   12 Jun 2027 10:04:37.087             5.875          2050.531
       387   12 Jun 2027 10:05:37.758   12 Jun 2027 10:05:38.751             0.993           396.375
       388   12 Jun 2027 10:06:12.985   12 Jun 2027 10:06:14.592             1.607           638.750
       389   12 Jun 2027 10:06:25.081   12 Jun 2027 10:06:25.946             0.865           283.750
       390   12 Jun 2027 10:07:00.220   12 Jun 2027 10:07:03.495             3.275           956.562
       391   12 Jun 2027 10:07:59.531   12 Jun 2027 10:08:02.323             2.792          1243.500
       392   12 Jun 2027 10:08:11.350   12 Jun 2027 10:08:12.648             1.298           143.375
       393   12 Jun 2027 10:08:30.617   12 Jun 2027 10:08:35.121             4.504           369.094
       394   12 Jun 2027 11:38:19.380   12 Jun 2027 11:38:31.871            12.491          5323.938
       395   12 Jun 2027 11:38:51.651   12 Jun 2027 11:38:53.486             1.835           614.844
       396   12 Jun 2027 11:39:52.664   12 Jun 2027 11:40:02.150             9.486           979.469
       397   12 Jun 2027 11:41:05.904   12 Jun 2027 11:41:08.361             2.457           915.906
       398   12 Jun 2027 11:42:10.166   12 Jun 2027 11:42:14.932             4.766          1578.781
       399   12 Jun 2027 11:42:36.379   12 Jun 2027 11:42:38.368             1.989           670.219
       400   12 Jun 2027 11:43:23.207   12 Jun 2027 11:43:25.621             2.414          1147.625
       401   12 Jun 2027 11:43:50.826   12 Jun 2027 11:43:52.710             1.884           779.375
       402   12 Jun 2027 11:44:12.087   12 Jun 2027 11:44:13.466             1.379           605.531
       403   12 Jun 2027 11:44:20.116   12 Jun 2027 11:44:22.948             2.832            91.219
       404   13 Jun 2027 04:03:05.097   13 Jun 2027 04:06:10.658           185.561         92780.500
       405   13 Jun 2027 04:07:12.832   13 Jun 2027 04:07:37.246            24.414         12207.000
       406   13 Jun 2027 05:26:33.171   13 Jun 2027 05:26:51.114            17.943          8971.500
       407   13 Jun 2027 07:02:46.308   13 Jun 2027 07:04:29.340           103.032         48843.687
       408   13 Jun 2027 07:04:40.775   13 Jun 2027 07:04:42.554             1.779           199.781
       409   13 Jun 2027 07:05:42.988   13 Jun 2027 07:05:49.054             6.066          1764.969
       410   13 Jun 2027 08:36:19.384   13 Jun 2027 08:36:25.632             6.248          2288.375
       411   13 Jun 2027 08:38:39.451   13 Jun 2027 08:38:41.439             1.988           945.187
       412   13 Jun 2027 08:38:51.538   13 Jun 2027 08:38:51.538             0.000             0.000
       413   13 Jun 2027 08:39:11.242   13 Jun 2027 08:39:11.458             0.216           108.000
       414   13 Jun 2027 08:39:54.086   13 Jun 2027 08:40:00.994             6.908          1977.063
       415   13 Jun 2027 08:41:17.218   13 Jun 2027 08:41:21.832             4.614          1972.969
       416   13 Jun 2027 08:42:13.061   13 Jun 2027 08:42:16.767             3.706          1411.094
       417   13 Jun 2027 08:43:08.569   13 Jun 2027 08:43:13.174             4.605           626.750
       418   13 Jun 2027 08:43:26.217   13 Jun 2027 08:43:27.836             1.619           278.344
       419   13 Jun 2027 08:44:17.929   13 Jun 2027 08:44:22.337             4.408          1516.219
       420   13 Jun 2027 10:13:51.781   13 Jun 2027 10:14:03.454            11.673          4898.844
       421   13 Jun 2027 10:15:52.043   13 Jun 2027 10:15:55.153             3.110           458.563
       422   13 Jun 2027 10:17:36.624   13 Jun 2027 10:17:40.300             3.676           895.219
       423   13 Jun 2027 10:18:59.768   13 Jun 2027 10:19:04.107             4.339           475.469
       424   13 Jun 2027 10:19:39.790   13 Jun 2027 10:19:43.475             3.685           193.406
       425   13 Jun 2027 10:20:25.121   13 Jun 2027 10:20:29.133             4.012           439.563
       426   13 Jun 2027 11:50:47.160   13 Jun 2027 11:51:08.047            20.887          6405.125
       427   13 Jun 2027 11:51:57.386   13 Jun 2027 11:52:01.094             3.708          1037.656
       428   13 Jun 2027 11:52:51.586   13 Jun 2027 11:53:01.325             9.739            49.469
       429   13 Jun 2027 11:53:41.914   13 Jun 2027 11:53:43.812             1.898             0.656
       430   13 Jun 2027 11:54:01.314   13 Jun 2027 11:54:03.906             2.592           512.375
       431   13 Jun 2027 11:55:06.412   13 Jun 2027 11:55:09.347             2.935           861.000
       432   13 Jun 2027 11:55:21.544   13 Jun 2027 11:55:22.844             1.300           297.437
       433   13 Jun 2027 11:56:14.727   13 Jun 2027 11:56:15.667             0.940           433.281
