uniorb/output/strategy_4/Camera/Camera_KinoSat_110507.txt

KinoSat_110507
-------------------------
    Access    *     Start Time (UTCG)     *     Stop Time (UTCG)  *   Duration (s) *   Data (Mbytes)
         1   01 Jun 2027 03:29:05.811   01 Jun 2027 03:30:15.487            69.676         34838.000
         2   01 Jun 2027 03:30:18.438   01 Jun 2027 03:30:23.975             5.537          2768.500
         3   01 Jun 2027 03:31:13.624   01 Jun 2027 03:31:20.347             6.723          3361.500
         4   01 Jun 2027 03:32:13.255   01 Jun 2027 03:32:33.684            20.429         10214.500
         5   01 Jun 2027 05:03:49.681   01 Jun 2027 05:06:30.088           160.407         80203.500
         6   01 Jun 2027 05:07:43.445   01 Jun 2027 05:08:03.676            20.231         10115.500
         7   01 Jun 2027 05:09:18.170   01 Jun 2027 05:09:30.696            12.526          6263.000
         8   01 Jun 2027 05:09:47.412   01 Jun 2027 05:09:50.519             3.107          1553.500
         9   01 Jun 2027 05:10:00.899   01 Jun 2027 05:10:29.353            28.454         14227.000
        10   01 Jun 2027 05:10:43.198   01 Jun 2027 05:10:48.180             4.982          2491.000
        11   01 Jun 2027 06:40:37.641   01 Jun 2027 06:42:56.064           138.423         69211.500
        12   01 Jun 2027 06:44:23.696   01 Jun 2027 06:44:45.557            21.861         10930.500
        13   01 Jun 2027 06:45:10.952   01 Jun 2027 06:45:16.003             5.051          2525.500
        14   01 Jun 2027 06:45:45.287   01 Jun 2027 06:45:55.331            10.044          5022.000
        15   01 Jun 2027 06:46:54.789   01 Jun 2027 06:46:58.639             3.850          1925.000
        16   01 Jun 2027 08:18:52.707   01 Jun 2027 08:21:45.354           172.647         86323.500
        17   01 Jun 2027 08:22:35.530   01 Jun 2027 08:22:47.665            12.135          6067.500
        18   01 Jun 2027 09:52:09.924   01 Jun 2027 09:53:42.314            92.390         46195.000
        19   01 Jun 2027 09:53:47.320   01 Jun 2027 09:55:31.496           104.176         52088.000
        20   01 Jun 2027 09:56:49.520   01 Jun 2027 09:57:15.720            26.200         13100.000
        21   01 Jun 2027 09:58:17.185   01 Jun 2027 09:58:22.354             5.169          2584.500
        22   01 Jun 2027 09:59:11.580   01 Jun 2027 09:59:18.981             7.401          3700.500
        23   01 Jun 2027 09:59:29.741   01 Jun 2027 09:59:48.548            18.807          9403.500
        24   02 Jun 2027 03:39:00.171   02 Jun 2027 03:40:17.969            77.798         38899.000
        25   02 Jun 2027 03:40:50.158   02 Jun 2027 03:45:43.129           292.971        146485.500
        26   02 Jun 2027 05:15:57.865   02 Jun 2027 05:19:06.742           188.877         94438.500
        27   02 Jun 2027 05:20:26.459   02 Jun 2027 05:21:45.737            79.278         39639.000
        28   02 Jun 2027 05:22:28.651   02 Jun 2027 05:22:56.568            27.917         13958.500
        29   02 Jun 2027 06:52:56.194   02 Jun 2027 06:58:48.873           352.679        176339.500
        30   02 Jun 2027 08:30:50.805   02 Jun 2027 08:34:50.188           239.383        119691.500
        31   02 Jun 2027 10:04:09.784   02 Jun 2027 10:10:25.986           376.202        188101.000
        32   02 Jun 2027 10:10:29.572   02 Jun 2027 10:11:57.206            87.634         43817.000
        33   03 Jun 2027 03:50:25.173   03 Jun 2027 03:58:02.607           457.434        228717.000
        34   03 Jun 2027 03:59:00.069   03 Jun 2027 03:59:02.801             2.732          1366.000
        35   03 Jun 2027 05:28:01.400   03 Jun 2027 05:35:25.568           444.168        222084.000
        36   03 Jun 2027 07:04:59.866   03 Jun 2027 07:10:48.941           349.075        174537.500
        37   03 Jun 2027 08:43:22.327   03 Jun 2027 08:46:59.333           217.006        108503.000
        38   03 Jun 2027 10:16:35.559   03 Jun 2027 10:22:28.495           352.936        176468.000
        39   04 Jun 2027 04:01:55.737   04 Jun 2027 04:10:10.398           494.661        247330.500
        40   04 Jun 2027 04:10:44.551   04 Jun 2027 04:11:29.024            44.473         22236.500
        41   04 Jun 2027 05:40:00.187   04 Jun 2027 05:47:27.100           446.913        223456.500
        42   04 Jun 2027 07:16:55.115   04 Jun 2027 07:22:01.781           306.666        153333.000
        43   04 Jun 2027 07:22:12.892   04 Jun 2027 07:23:21.478            68.586         34293.000
        44   04 Jun 2027 08:54:03.328   04 Jun 2027 08:58:57.560           294.232        147116.000
        45   04 Jun 2027 10:28:53.672   04 Jun 2027 10:30:02.445            68.773         34386.500
        46   04 Jun 2027 10:30:45.653   04 Jun 2027 10:34:04.893           199.240         99620.000
        47   05 Jun 2027 04:14:54.780   05 Jun 2027 04:23:28.427           513.647        256823.500
        48   05 Jun 2027 05:52:22.263   05 Jun 2027 05:59:12.088           409.825        204912.500
        49   05 Jun 2027 07:29:22.076   05 Jun 2027 07:33:51.781           269.705        134852.500
        50   05 Jun 2027 07:34:35.258   05 Jun 2027 07:35:13.522            38.264         19132.000
        51   05 Jun 2027 09:06:18.282   05 Jun 2027 09:10:52.543           274.261        137130.500
        52   05 Jun 2027 10:43:25.306   05 Jun 2027 10:45:54.399           149.093         74546.500
        53   06 Jun 2027 04:25:37.373   06 Jun 2027 04:25:46.097             8.724          4362.000
        54   06 Jun 2027 04:27:33.665   06 Jun 2027 04:34:21.506           407.841        203920.500
        55   06 Jun 2027 04:34:24.595   06 Jun 2027 04:35:22.657            58.062         29031.000
        56   06 Jun 2027 06:04:31.648   06 Jun 2027 06:11:16.586           404.938        202469.000
        57   06 Jun 2027 07:41:49.260   06 Jun 2027 07:45:57.289           248.029        124014.500
        58   06 Jun 2027 07:45:59.505   06 Jun 2027 07:46:38.388            38.883         19441.500
        59   06 Jun 2027 09:18:22.556   06 Jun 2027 09:23:23.539           300.983        150491.500
        60   06 Jun 2027 10:56:53.378   06 Jun 2027 10:57:16.298            22.920         11460.000
        61   07 Jun 2027 03:05:35.960   07 Jun 2027 03:09:14.655           218.695        109347.500
        62   07 Jun 2027 04:40:46.600   07 Jun 2027 04:47:24.766           398.166        199083.000
        63   07 Jun 2027 06:18:12.758   07 Jun 2027 06:23:22.577           309.819        154909.500
        64   07 Jun 2027 07:54:29.257   07 Jun 2027 07:59:01.289           272.032        136016.000
        65   07 Jun 2027 09:30:53.373   07 Jun 2027 09:34:54.001           240.628        120314.000
        66   08 Jun 2027 03:17:36.769   08 Jun 2027 03:21:05.924           209.155        104577.500
        67   08 Jun 2027 04:52:49.574   08 Jun 2027 04:59:30.329           400.755        200377.500
        68   08 Jun 2027 06:29:53.784   08 Jun 2027 06:35:03.830           310.046        155023.000
        69   08 Jun 2027 08:06:43.003   08 Jun 2027 08:11:07.970           264.967        132483.500
        70   08 Jun 2027 09:42:40.399   08 Jun 2027 09:46:48.400           248.001        124000.500
        71   08 Jun 2027 09:46:54.159   08 Jun 2027 09:47:45.489            51.330         25665.000
        72   09 Jun 2027 03:29:20.411   09 Jun 2027 03:33:41.580           261.169        130584.500
        73   09 Jun 2027 05:04:04.300   09 Jun 2027 05:11:37.356           453.056        226528.000
        74   09 Jun 2027 06:41:38.409   09 Jun 2027 06:47:13.315           334.906        167453.000
        75   09 Jun 2027 08:19:22.027   09 Jun 2027 08:23:02.286           220.259        110129.500
        76   09 Jun 2027 09:52:24.300   09 Jun 2027 09:53:56.836            92.536         46268.000
        77   09 Jun 2027 09:54:00.665   09 Jun 2027 09:58:45.264           284.599        142299.500
        78   09 Jun 2027 09:59:21.638   09 Jun 2027 10:00:07.917            46.279         23139.500
        79   10 Jun 2027 03:39:14.342   10 Jun 2027 03:40:32.678            78.336         39168.000
        80   10 Jun 2027 03:41:04.581   10 Jun 2027 03:45:57.842           293.261        146630.500
        81   10 Jun 2027 05:16:12.457   10 Jun 2027 05:23:36.506           444.049        222024.500
        82   10 Jun 2027 06:53:21.060   10 Jun 2027 06:59:03.668           342.608        171304.000
        83   10 Jun 2027 08:31:29.975   10 Jun 2027 08:35:04.830           214.855        107427.500
        84   10 Jun 2027 10:04:24.624   10 Jun 2027 10:10:40.957           376.333        188166.500
        85   10 Jun 2027 10:10:43.869   10 Jun 2027 10:12:11.715            87.846         43923.000
        86   11 Jun 2027 03:50:39.324   11 Jun 2027 03:58:17.447           458.123        229061.500
        87   11 Jun 2027 03:59:16.021   11 Jun 2027 03:59:17.472             1.451           725.500
        88   11 Jun 2027 05:28:15.200   11 Jun 2027 05:35:40.203           445.003        222501.500
        89   11 Jun 2027 07:05:15.694   11 Jun 2027 07:11:03.079           347.385        173692.500
        90   11 Jun 2027 08:43:37.655   11 Jun 2027 08:47:13.921           216.266        108133.000
        91   11 Jun 2027 10:17:06.882   11 Jun 2027 10:22:42.927           336.045        168022.500
        92   12 Jun 2027 04:02:09.793   12 Jun 2027 04:10:25.104           495.311        247655.500
        93   12 Jun 2027 04:11:00.581   12 Jun 2027 04:11:43.640            43.059         21529.500
        94   12 Jun 2027 05:40:14.965   12 Jun 2027 05:47:41.650           446.685        223342.500
        95   12 Jun 2027 07:17:09.864   12 Jun 2027 07:22:16.123           306.259        153129.500
        96   12 Jun 2027 07:22:27.391   12 Jun 2027 07:23:35.874            68.483         34241.500
        97   12 Jun 2027 08:54:17.948   12 Jun 2027 08:59:12.172           294.224        147112.000
        98   12 Jun 2027 10:29:08.302   12 Jun 2027 10:30:17.042            68.740         34370.000
        99   12 Jun 2027 10:31:00.110   12 Jun 2027 10:34:19.102           198.992         99496.000
       100   13 Jun 2027 04:15:09.374   13 Jun 2027 04:23:43.030           513.656        256828.000
       101   13 Jun 2027 05:52:37.447   13 Jun 2027 05:59:26.756           409.309        204654.500
       102   13 Jun 2027 07:30:51.195   13 Jun 2027 07:34:06.436           195.241         97620.500
       103   13 Jun 2027 07:34:50.081   13 Jun 2027 07:35:28.167            38.086         19043.000
       104   13 Jun 2027 09:06:33.168   13 Jun 2027 09:11:06.997           273.829        136914.500
       105   13 Jun 2027 10:43:40.088   13 Jun 2027 10:46:08.850           148.762         74381.000
