uniorb/output/strategy_4/Camera/Camera_KinoSat_111104.txt

KinoSat_111104
-------------------------
    Access    *     Start Time (UTCG)     *     Stop Time (UTCG)  *   Duration (s) *   Data (Mbytes)
         1   01 Jun 2027 03:33:33.071   01 Jun 2027 03:34:44.165            71.094         35547.000
         2   01 Jun 2027 03:45:07.447   01 Jun 2027 03:46:22.875            75.428         37714.000
         3   01 Jun 2027 05:07:44.926   01 Jun 2027 05:08:43.256            58.330         29165.000
         4   01 Jun 2027 05:09:30.696   01 Jun 2027 05:09:42.649            11.953          5976.500
         5   01 Jun 2027 05:09:47.412   01 Jun 2027 05:09:47.412             0.000             0.000
         6   01 Jun 2027 05:09:50.519   01 Jun 2027 05:10:00.197             9.678          4839.000
         7   01 Jun 2027 05:12:17.982   01 Jun 2027 05:12:19.017             1.035           517.500
         8   01 Jun 2027 06:42:53.890   01 Jun 2027 06:44:07.564            73.674         36837.000
         9   01 Jun 2027 06:44:36.534   01 Jun 2027 06:45:00.546            24.012         12006.000
        10   01 Jun 2027 06:46:08.845   01 Jun 2027 06:46:19.931            11.086          5543.000
        11   01 Jun 2027 06:46:27.301   01 Jun 2027 06:46:28.817             1.516           758.000
        12   01 Jun 2027 06:47:46.887   01 Jun 2027 06:47:49.283             2.396          1198.000
        13   01 Jun 2027 06:48:26.148   01 Jun 2027 06:48:26.148             0.000             0.000
        14   01 Jun 2027 06:48:35.213   01 Jun 2027 06:48:42.291             7.078          3539.000
        15   01 Jun 2027 06:49:03.621   01 Jun 2027 06:49:12.117             8.496          4248.000
        16   01 Jun 2027 08:19:40.819   01 Jun 2027 08:21:44.866           124.047         62023.500
        17   01 Jun 2027 08:22:45.857   01 Jun 2027 08:22:57.478            11.621          5810.500
        18   01 Jun 2027 08:26:16.189   01 Jun 2027 08:26:40.023            23.834         11917.000
        19   01 Jun 2027 08:27:06.731   01 Jun 2027 08:27:07.285             0.554           277.000
        20   01 Jun 2027 09:56:41.840   01 Jun 2027 09:59:12.263           150.423         75211.500
        21   01 Jun 2027 10:00:32.591   01 Jun 2027 10:00:41.782             9.191          4595.500
        22   01 Jun 2027 11:34:35.593   01 Jun 2027 11:37:12.077           156.484         78242.000
        23   01 Jun 2027 11:37:45.200   01 Jun 2027 11:37:46.231             1.031           515.500
        24   02 Jun 2027 03:44:52.888   02 Jun 2027 03:45:13.638            20.750         10375.000
        25   02 Jun 2027 03:57:06.549   02 Jun 2027 03:58:04.779            58.230         29115.000
        26   02 Jun 2027 05:19:20.808   02 Jun 2027 05:20:28.266            67.458         33729.000
        27   02 Jun 2027 05:21:16.784   02 Jun 2027 05:22:15.893            59.109         29554.500
        28   02 Jun 2027 05:23:30.558   02 Jun 2027 05:23:36.881             6.323          3161.500
        29   02 Jun 2027 06:54:13.947   02 Jun 2027 06:56:21.675           127.728         63864.000
        30   02 Jun 2027 06:56:24.564   02 Jun 2027 06:57:52.166            87.602         43801.000
        31   02 Jun 2027 06:59:33.341   02 Jun 2027 06:59:52.417            19.076          9538.000
        32   02 Jun 2027 07:00:51.294   02 Jun 2027 07:00:59.425             8.131          4065.500
        33   02 Jun 2027 08:31:48.590   02 Jun 2027 08:34:41.354           172.764         86382.000
        34   02 Jun 2027 08:36:35.888   02 Jun 2027 08:36:35.888             0.000             0.000
        35   02 Jun 2027 08:37:21.096   02 Jun 2027 08:37:48.842            27.746         13873.000
        36   02 Jun 2027 08:37:56.695   02 Jun 2027 08:38:13.136            16.441          8220.500
        37   02 Jun 2027 08:38:56.505   02 Jun 2027 08:39:10.904            14.399          7199.500
        38   02 Jun 2027 10:08:31.499   02 Jun 2027 10:08:51.463            19.964          8922.031
        39   02 Jun 2027 10:09:44.260   02 Jun 2027 10:09:45.376             1.116           389.469
        40   02 Jun 2027 10:10:59.813   02 Jun 2027 10:11:00.932             1.119           502.625
        41   02 Jun 2027 10:11:20.381   02 Jun 2027 10:11:22.822             2.441           216.844
        42   02 Jun 2027 10:11:28.723   02 Jun 2027 10:11:40.924            12.201           105.500
        43   02 Jun 2027 10:12:15.757   02 Jun 2027 10:12:20.388             4.631          1088.531
        44   02 Jun 2027 10:12:47.553   02 Jun 2027 10:12:50.766             3.213           844.656
        45   02 Jun 2027 10:13:29.087   02 Jun 2027 10:13:31.176             2.089           276.812
        46   02 Jun 2027 10:14:19.539   02 Jun 2027 10:14:23.281             3.742          1511.344
        47   02 Jun 2027 10:14:52.303   02 Jun 2027 10:14:54.229             1.926           589.531
        48   02 Jun 2027 11:46:35.491   02 Jun 2027 11:46:56.965            21.474          6878.438
        49   02 Jun 2027 11:48:38.995   02 Jun 2027 11:48:44.227             5.232          2138.406
        50   02 Jun 2027 11:48:45.803   02 Jun 2027 11:48:46.380             0.577            19.906
        51   02 Jun 2027 11:49:36.666   02 Jun 2027 11:49:38.127             1.461           646.875
        52   02 Jun 2027 11:50:01.722   02 Jun 2027 11:50:07.234             5.512           737.344
        53   02 Jun 2027 11:50:22.009   02 Jun 2027 11:50:24.790             2.781           131.156
        54   02 Jun 2027 11:50:29.950   02 Jun 2027 11:50:33.458             3.508           155.188
        55   03 Jun 2027 03:56:58.664   03 Jun 2027 03:57:07.827             9.163          4581.500
        56   03 Jun 2027 03:58:20.902   03 Jun 2027 03:58:30.682             9.780          4890.000
        57   03 Jun 2027 04:09:22.083   03 Jun 2027 04:09:39.253            17.170          8585.000
        58   03 Jun 2027 05:30:49.587   03 Jun 2027 05:33:45.996           176.409         88204.500
        59   03 Jun 2027 05:34:43.999   03 Jun 2027 05:34:47.139             3.140          1570.000
        60   03 Jun 2027 05:35:00.535   03 Jun 2027 05:35:00.535             0.000             0.000
        61   03 Jun 2027 05:35:52.431   03 Jun 2027 05:35:57.305             4.874          2437.000
        62   03 Jun 2027 05:36:22.116   03 Jun 2027 05:36:49.572            27.456         13728.000
        63   03 Jun 2027 07:05:43.846   03 Jun 2027 07:07:00.067            76.221         37539.000
        64   03 Jun 2027 07:07:48.850   03 Jun 2027 07:07:59.523            10.673          1524.469
        65   03 Jun 2027 07:08:10.295   03 Jun 2027 07:08:11.826             1.531           206.344
        66   03 Jun 2027 07:08:30.561   03 Jun 2027 07:08:33.106             2.545           379.312
        67   03 Jun 2027 07:09:20.315   03 Jun 2027 07:09:24.515             4.200          1208.250
        68   03 Jun 2027 07:09:34.813   03 Jun 2027 07:09:38.411             3.598           265.812
        69   03 Jun 2027 07:09:46.417   03 Jun 2027 07:09:46.606             0.189            35.031
        70   03 Jun 2027 07:10:19.950   03 Jun 2027 07:10:25.110             5.160           796.875
        71   03 Jun 2027 07:11:23.104   03 Jun 2027 07:11:23.104             0.000             0.000
        72   03 Jun 2027 07:12:18.321   03 Jun 2027 07:12:23.960             5.639          2642.625
        73   03 Jun 2027 07:12:40.716   03 Jun 2027 07:12:43.563             2.847           384.437
        74   03 Jun 2027 07:13:28.053   03 Jun 2027 07:13:31.108             3.055          1378.500
        75   03 Jun 2027 07:13:45.087   03 Jun 2027 07:13:46.893             1.806           216.656
        76   03 Jun 2027 07:14:40.670   03 Jun 2027 07:14:46.764             6.094          1638.906
        77   03 Jun 2027 08:43:43.683   03 Jun 2027 08:43:54.460            10.777          4742.531
        78   03 Jun 2027 08:45:53.439   03 Jun 2027 08:45:55.310             1.871           319.281
        79   03 Jun 2027 08:47:52.857   03 Jun 2027 08:47:58.404             5.547          2380.188
        80   03 Jun 2027 08:49:44.392   03 Jun 2027 08:49:51.352             6.960          2310.313
        81   03 Jun 2027 08:50:55.395   03 Jun 2027 08:50:59.548             4.153          1750.281
        82   03 Jun 2027 10:20:39.420   03 Jun 2027 10:20:52.850            13.430          6373.156
        83   03 Jun 2027 10:24:53.592   03 Jun 2027 10:24:56.380             2.788           621.500
        84   03 Jun 2027 10:25:08.212   03 Jun 2027 10:25:08.739             0.527            61.531
        85   03 Jun 2027 10:26:16.617   03 Jun 2027 10:26:25.135             8.518          1137.625
        86   03 Jun 2027 10:26:46.265   03 Jun 2027 10:26:48.051             1.786           539.750
        87   03 Jun 2027 11:58:13.005   03 Jun 2027 11:58:28.083            15.078          6972.438
        88   03 Jun 2027 11:59:35.088   03 Jun 2027 11:59:37.075             1.987           909.250
        89   04 Jun 2027 04:08:54.918   04 Jun 2027 04:09:27.339            32.421         16210.500
        90   04 Jun 2027 04:09:46.109   04 Jun 2027 04:09:46.109             0.000             0.000
        91   04 Jun 2027 05:45:07.810   04 Jun 2027 05:48:06.561           178.751         89375.500
        92   04 Jun 2027 07:18:39.626   04 Jun 2027 07:20:23.409           103.783         48774.063
        93   04 Jun 2027 07:20:56.293   04 Jun 2027 07:21:00.051             3.758           498.438
        94   04 Jun 2027 07:21:11.046   04 Jun 2027 07:21:11.949             0.903            44.187
        95   04 Jun 2027 07:21:26.723   04 Jun 2027 07:21:28.045             1.322           209.781
        96   04 Jun 2027 07:22:23.686   04 Jun 2027 07:22:28.733             5.047          1094.312
        97   04 Jun 2027 07:23:14.323   04 Jun 2027 07:23:18.567             4.244           554.187
        98   04 Jun 2027 07:23:19.969   04 Jun 2027 07:23:21.033             1.064            43.812
        99   04 Jun 2027 07:24:09.377   04 Jun 2027 07:24:14.006             4.629          1160.156
       100   04 Jun 2027 07:25:05.533   04 Jun 2027 07:25:05.533             0.000             0.000
       101   04 Jun 2027 07:25:30.118   04 Jun 2027 07:25:31.933             1.815           907.500
       102   04 Jun 2027 07:25:45.502   04 Jun 2027 07:25:48.446             2.944          1472.000
       103   04 Jun 2027 07:26:23.665   04 Jun 2027 07:26:26.585             2.920          1351.906
       104   04 Jun 2027 07:26:51.881   04 Jun 2027 07:26:52.843             0.962           251.406
       105   04 Jun 2027 08:56:05.655   04 Jun 2027 08:56:17.890            12.235          4961.000
       106   04 Jun 2027 08:57:56.308   04 Jun 2027 08:57:57.329             1.021           472.156
       107   04 Jun 2027 08:58:35.196   04 Jun 2027 08:58:36.648             1.452           466.562
       108   04 Jun 2027 08:59:24.977   04 Jun 2027 08:59:25.352             0.375           100.406
       109   04 Jun 2027 08:59:44.366   04 Jun 2027 08:59:46.657             2.291           430.625
       110   04 Jun 2027 09:01:09.189   04 Jun 2027 09:01:15.038             5.849          2237.687
       111   04 Jun 2027 09:02:14.596   04 Jun 2027 09:02:21.186             6.590          1539.344
       112   04 Jun 2027 09:02:44.506   04 Jun 2027 09:02:45.569             1.063           512.906
       113   04 Jun 2027 10:33:08.432   04 Jun 2027 10:33:26.543            18.111          6632.000
       114   04 Jun 2027 10:37:04.690   04 Jun 2027 10:37:07.331             2.641           827.188
       115   04 Jun 2027 10:37:44.542   04 Jun 2027 10:37:45.545             1.003           431.969
       116   04 Jun 2027 10:38:48.567   04 Jun 2027 10:38:55.975             7.408          1744.156
       117   05 Jun 2027 03:00:00.000   05 Jun 2027 03:00:42.581            42.581         21290.500
       118   05 Jun 2027 04:20:46.678   05 Jun 2027 04:21:42.586            55.908         27954.000
       119   05 Jun 2027 04:21:53.968   05 Jun 2027 04:22:14.795            20.827         10413.500
       120   05 Jun 2027 05:57:13.338   05 Jun 2027 05:58:45.911            92.573         46286.500
       121   05 Jun 2027 05:59:28.840   05 Jun 2027 06:00:10.366            41.526         20763.000
       122   05 Jun 2027 06:00:44.367   05 Jun 2027 06:00:45.462             1.095           547.500
       123   05 Jun 2027 07:29:22.848   05 Jun 2027 07:29:32.801             9.953          4976.500
       124   05 Jun 2027 07:31:17.987   05 Jun 2027 07:32:27.496            69.509         33587.875
       125   05 Jun 2027 07:33:01.139   05 Jun 2027 07:33:02.090             0.951           377.250
       126   05 Jun 2027 07:33:15.249   05 Jun 2027 07:33:15.850             0.601            53.125
       127   05 Jun 2027 07:33:58.245   05 Jun 2027 07:34:04.330             6.085           192.781
       128   05 Jun 2027 07:35:30.640   05 Jun 2027 07:35:35.819             5.179          1894.187
       129   05 Jun 2027 07:36:32.065   05 Jun 2027 07:36:38.719             6.654          1242.219
       130   05 Jun 2027 07:37:41.726   05 Jun 2027 07:37:45.419             3.693          1204.281
       131   05 Jun 2027 07:38:00.295   05 Jun 2027 07:38:01.483             1.188           266.594
       132   05 Jun 2027 07:38:37.585   05 Jun 2027 07:38:39.094             1.509           735.812
       133   05 Jun 2027 07:39:09.008   05 Jun 2027 07:39:09.649             0.641            93.031
       134   05 Jun 2027 09:08:16.934   05 Jun 2027 09:08:29.875            12.941          4134.906
       135   05 Jun 2027 09:12:41.116   05 Jun 2027 09:12:44.144             3.028           830.313
       136   05 Jun 2027 09:13:43.339   05 Jun 2027 09:13:49.443             6.104          1421.031
       137   05 Jun 2027 09:14:48.772   05 Jun 2027 09:14:51.680             2.908           999.250
       138   05 Jun 2027 10:45:20.782   05 Jun 2027 10:45:33.954            13.172          5265.750
       139   05 Jun 2027 10:46:58.905   05 Jun 2027 10:47:14.720            15.815          2577.875
       140   05 Jun 2027 10:48:24.796   05 Jun 2027 10:48:28.071             3.275           567.250
       141   05 Jun 2027 10:48:48.221   05 Jun 2027 10:48:51.027             2.806           384.969
       142   05 Jun 2027 10:48:54.998   05 Jun 2027 10:48:57.139             2.141           124.094
       143   05 Jun 2027 10:49:13.443   05 Jun 2027 10:49:14.265             0.822           369.719
       144   05 Jun 2027 10:49:23.125   05 Jun 2027 10:49:32.333             9.208           276.875
       145   05 Jun 2027 10:50:08.943   05 Jun 2027 10:50:11.406             2.463          1144.062
       146   06 Jun 2027 03:09:55.643   06 Jun 2027 03:12:09.073           133.430         66715.000
       147   06 Jun 2027 04:32:52.228   06 Jun 2027 04:33:27.103            34.875         17437.500
       148   06 Jun 2027 04:34:15.469   06 Jun 2027 04:34:15.469             0.000             0.000
       149   06 Jun 2027 04:34:15.884   06 Jun 2027 04:34:17.378             1.494           747.000
       150   06 Jun 2027 04:35:22.636   06 Jun 2027 04:35:41.738            19.102          9551.000
       151   06 Jun 2027 06:09:21.005   06 Jun 2027 06:11:24.643           123.638         61819.000
       152   06 Jun 2027 06:11:56.515   06 Jun 2027 06:12:03.893             7.378          2121.500
       153   06 Jun 2027 06:12:20.303   06 Jun 2027 06:12:22.213             1.910           277.531
       154   06 Jun 2027 07:44:28.634   06 Jun 2027 07:44:36.300             7.666          3610.938
       155   06 Jun 2027 07:45:35.303   06 Jun 2027 07:45:45.971            10.668           984.312
       156   06 Jun 2027 07:45:59.677   06 Jun 2027 07:46:04.484             4.807           130.625
       157   06 Jun 2027 07:46:28.691   06 Jun 2027 07:46:30.188             1.497           300.688
       158   06 Jun 2027 07:47:28.124   06 Jun 2027 07:47:31.688             3.564          1533.062
       159   06 Jun 2027 07:48:03.710   06 Jun 2027 07:48:06.402             2.692           825.938
       160   06 Jun 2027 07:48:31.274   06 Jun 2027 07:48:40.062             8.788           651.438
       161   06 Jun 2027 07:49:55.013   06 Jun 2027 07:49:56.370             1.357           402.875
       162   06 Jun 2027 07:50:53.496   06 Jun 2027 07:50:55.347             1.851           689.969
       163   06 Jun 2027 07:51:03.222   06 Jun 2027 07:51:05.024             1.802           218.531
       164   06 Jun 2027 09:20:50.271   06 Jun 2027 09:21:07.582            17.311          7593.469
       165   06 Jun 2027 09:22:40.661   06 Jun 2027 09:22:48.164             7.503          1719.375
       166   06 Jun 2027 09:22:57.643   06 Jun 2027 09:22:58.305             0.662           209.344
       167   06 Jun 2027 09:23:37.585   06 Jun 2027 09:23:40.592             3.007           711.062
       168   06 Jun 2027 09:24:03.551   06 Jun 2027 09:24:04.701             1.150           400.500
       169   06 Jun 2027 09:24:46.586   06 Jun 2027 09:24:50.683             4.097           856.531
       170   06 Jun 2027 09:25:17.818   06 Jun 2027 09:25:17.946             0.128            40.531
       171   06 Jun 2027 09:26:08.574   06 Jun 2027 09:26:18.119             9.545          1469.500
       172   06 Jun 2027 09:27:06.325   06 Jun 2027 09:27:07.780             1.455           727.500
       173   06 Jun 2027 10:58:15.986   06 Jun 2027 10:58:28.527            12.541          6255.781
       174   06 Jun 2027 10:59:43.533   06 Jun 2027 10:59:48.099             4.566          1485.156
       175   06 Jun 2027 11:00:16.196   06 Jun 2027 11:00:18.651             2.455           851.781
       176   06 Jun 2027 11:00:34.364   06 Jun 2027 11:00:35.364             1.000           276.187
       177   06 Jun 2027 11:00:37.040   06 Jun 2027 11:00:39.121             2.081            52.375
       178   06 Jun 2027 11:00:56.365   06 Jun 2027 11:00:58.621             2.256            27.469
       179   06 Jun 2027 11:02:12.575   06 Jun 2027 11:02:16.253             3.678          1561.750
       180   06 Jun 2027 11:02:40.479   06 Jun 2027 11:02:43.951             3.472           581.156
       181   07 Jun 2027 03:21:27.264   07 Jun 2027 03:22:04.976            37.712         18856.000
       182   07 Jun 2027 03:22:17.399   07 Jun 2027 03:23:00.369            42.970         21485.000
       183   07 Jun 2027 03:24:07.471   07 Jun 2027 03:25:01.931            54.460         27230.000
       184   07 Jun 2027 04:44:55.189   07 Jun 2027 04:45:43.970            48.781         24390.500
       185   07 Jun 2027 04:46:23.129   07 Jun 2027 04:46:40.006            16.877          8438.500
       186   07 Jun 2027 04:47:16.543   07 Jun 2027 04:47:44.608            28.065         14032.500
       187   07 Jun 2027 06:21:24.019   07 Jun 2027 06:22:29.853            65.834         32656.312
       188   07 Jun 2027 06:22:44.536   07 Jun 2027 06:22:45.264             0.728           364.000
       189   07 Jun 2027 06:23:38.697   07 Jun 2027 06:23:46.866             8.169          1761.500
       190   07 Jun 2027 06:23:48.440   07 Jun 2027 06:23:55.087             6.647            49.188
       191   07 Jun 2027 06:24:29.223   07 Jun 2027 06:24:32.232             3.009          1066.750
       192   07 Jun 2027 07:56:35.629   07 Jun 2027 07:56:39.608             3.979          1831.875
       193   07 Jun 2027 07:56:50.943   07 Jun 2027 07:56:53.571             2.628             8.969
       194   07 Jun 2027 07:57:37.665   07 Jun 2027 07:57:45.873             8.208           236.500
       195   07 Jun 2027 07:58:25.002   07 Jun 2027 07:58:28.423             3.421           970.344
       196   07 Jun 2027 07:58:50.949   07 Jun 2027 07:58:54.374             3.425           215.719
       197   07 Jun 2027 07:59:31.845   07 Jun 2027 07:59:32.730             0.885           228.969
       198   07 Jun 2027 08:00:32.937   07 Jun 2027 08:00:32.937             0.000             0.000
       199   07 Jun 2027 08:01:41.977   07 Jun 2027 08:01:53.253            11.276          2996.781
       200   07 Jun 2027 08:02:48.643   07 Jun 2027 08:02:52.244             3.601          1577.469
       201   07 Jun 2027 09:32:31.531   07 Jun 2027 09:32:45.428            13.897          5956.281
       202   07 Jun 2027 09:36:11.592   07 Jun 2027 09:36:13.283             1.691           772.187
       203   07 Jun 2027 09:37:38.596   07 Jun 2027 09:37:42.589             3.993          1471.000
       204   07 Jun 2027 09:38:03.432   07 Jun 2027 09:38:07.364             3.932           231.594
       205   07 Jun 2027 11:10:23.408   07 Jun 2027 11:10:37.344            13.936          6187.250
       206   07 Jun 2027 11:12:35.697   07 Jun 2027 11:12:39.000             3.303           594.719
       207   07 Jun 2027 11:13:02.038   07 Jun 2027 11:13:02.749             0.711           154.531
       208   07 Jun 2027 11:13:32.667   07 Jun 2027 11:13:36.297             3.630           872.062
       209   07 Jun 2027 11:13:53.600   07 Jun 2027 11:13:55.907             2.307           194.625
       210   07 Jun 2027 11:14:32.886   07 Jun 2027 11:14:36.164             3.278             4.031
       211   07 Jun 2027 11:14:40.749   07 Jun 2027 11:14:41.436             0.687           143.281
       212   08 Jun 2027 03:22:31.431   08 Jun 2027 03:22:38.135             6.704          3352.000
       213   08 Jun 2027 03:33:24.700   08 Jun 2027 03:36:14.991           170.291         85145.500
       214   08 Jun 2027 03:36:22.887   08 Jun 2027 03:36:59.695            36.808         18404.000
       215   08 Jun 2027 04:57:21.879   08 Jun 2027 04:57:39.857            17.978          8989.000
       216   08 Jun 2027 06:33:08.075   08 Jun 2027 06:34:37.930            89.855         44815.438
       217   08 Jun 2027 06:35:10.943   08 Jun 2027 06:35:12.869             1.926           963.000
       218   08 Jun 2027 06:35:52.831   08 Jun 2027 06:35:56.866             4.035          1267.656
       219   08 Jun 2027 06:36:13.087   08 Jun 2027 06:36:13.771             0.684           299.219
       220   08 Jun 2027 06:37:08.601   08 Jun 2027 06:37:12.096             3.495          1299.062
       221   08 Jun 2027 08:07:51.117   08 Jun 2027 08:07:54.608             3.491          1745.500
       222   08 Jun 2027 08:08:18.665   08 Jun 2027 08:08:21.409             2.744          1019.375
       223   08 Jun 2027 08:08:49.356   08 Jun 2027 08:09:04.616            15.260           529.656
       224   08 Jun 2027 08:09:47.300   08 Jun 2027 08:09:47.747             0.447           183.906
       225   08 Jun 2027 08:10:04.502   08 Jun 2027 08:10:08.137             3.635           448.875
       226   08 Jun 2027 08:11:05.824   08 Jun 2027 08:11:08.203             2.379          1142.781
       227   08 Jun 2027 08:12:08.198   08 Jun 2027 08:12:18.877            10.679          1708.187
       228   08 Jun 2027 08:13:41.193   08 Jun 2027 08:13:50.797             9.604          2001.937
       229   08 Jun 2027 08:14:06.467   08 Jun 2027 08:14:07.745             1.278           256.156
       230   08 Jun 2027 08:14:34.536   08 Jun 2027 08:14:37.117             2.581           592.750
       231   08 Jun 2027 08:15:17.926   08 Jun 2027 08:15:22.058             4.132          1107.906
       232   08 Jun 2027 09:44:37.285   08 Jun 2027 09:44:50.112            12.827          6278.656
       233   08 Jun 2027 09:47:20.887   08 Jun 2027 09:47:23.690             2.803          1024.719
       234   08 Jun 2027 09:48:23.224   08 Jun 2027 09:48:23.673             0.449           134.625
       235   08 Jun 2027 09:48:59.900   08 Jun 2027 09:49:03.642             3.742          1114.000
       236   08 Jun 2027 09:49:34.718   08 Jun 2027 09:49:35.664             0.946           127.594
       237   08 Jun 2027 09:49:49.100   08 Jun 2027 09:49:52.175             3.075            52.656
       238   08 Jun 2027 11:22:53.016   08 Jun 2027 11:23:06.124            13.108          6304.469
       239   08 Jun 2027 11:25:07.972   08 Jun 2027 11:25:13.323             5.351           339.625
       240   08 Jun 2027 11:25:36.752   08 Jun 2027 11:25:37.880             1.128           201.500
       241   08 Jun 2027 11:26:37.739   08 Jun 2027 11:26:42.180             4.441          1591.437
       242   09 Jun 2027 03:33:46.801   09 Jun 2027 03:33:47.520             0.719           359.500
       243   09 Jun 2027 03:34:25.391   09 Jun 2027 03:34:38.156            12.765          6382.500
       244   09 Jun 2027 03:45:23.003   09 Jun 2027 03:46:51.021            88.018         44009.000
       245   09 Jun 2027 05:07:59.183   09 Jun 2027 05:08:58.127            58.944         29472.000
       246   09 Jun 2027 05:09:37.624   09 Jun 2027 05:10:44.784            67.160         33580.000
       247   09 Jun 2027 05:12:11.633   09 Jun 2027 05:12:11.633             0.000             0.000
       248   09 Jun 2027 06:43:08.978   09 Jun 2027 06:44:23.151            74.173         36680.688
       249   09 Jun 2027 06:45:48.316   09 Jun 2027 06:45:56.922             8.606          2224.281
       250   09 Jun 2027 06:46:06.424   09 Jun 2027 06:46:08.066             1.642           291.719
       251   09 Jun 2027 06:46:33.137   09 Jun 2027 06:46:36.085             2.948           240.281
       252   09 Jun 2027 06:46:42.587   09 Jun 2027 06:46:42.587             0.000             0.000
       253   09 Jun 2027 06:47:48.751   09 Jun 2027 06:47:57.502             8.751          2270.813
       254   09 Jun 2027 06:48:41.822   09 Jun 2027 06:48:44.075             2.253          1097.312
       255   09 Jun 2027 06:49:14.532   09 Jun 2027 06:49:18.467             3.935           731.437
       256   09 Jun 2027 08:19:56.853   09 Jun 2027 08:20:05.382             8.529          1490.000
       257   09 Jun 2027 08:20:21.176   09 Jun 2027 08:20:22.677             1.501           493.563
       258   09 Jun 2027 08:22:01.428   09 Jun 2027 08:22:08.837             7.409          2226.031
       259   09 Jun 2027 08:22:35.634   09 Jun 2027 08:22:37.135             1.501           247.687
       260   09 Jun 2027 08:23:01.489   09 Jun 2027 08:23:02.974             1.485           709.031
       261   09 Jun 2027 08:23:12.850   09 Jun 2027 08:23:13.816             0.966           308.625
       262   09 Jun 2027 08:24:04.774   09 Jun 2027 08:24:09.178             4.404          1300.562
       263   09 Jun 2027 08:24:43.954   09 Jun 2027 08:24:50.559             6.605          1060.031
       264   09 Jun 2027 08:25:43.884   09 Jun 2027 08:25:48.030             4.146          1382.844
       265   09 Jun 2027 08:26:31.059   09 Jun 2027 08:26:40.341             9.282           843.281
       266   09 Jun 2027 08:27:22.306   09 Jun 2027 08:27:22.759             0.453           226.500
       267   09 Jun 2027 09:56:57.774   09 Jun 2027 09:57:11.371            13.597          6053.219
       268   09 Jun 2027 09:58:23.142   09 Jun 2027 09:58:24.856             1.714            26.937
       269   09 Jun 2027 09:59:30.150   09 Jun 2027 09:59:31.457             1.307             1.438
       270   09 Jun 2027 10:00:05.138   09 Jun 2027 10:00:07.917             2.779            59.281
       271   09 Jun 2027 10:00:43.916   09 Jun 2027 10:00:46.213             2.297           163.469
       272   09 Jun 2027 10:00:49.316   09 Jun 2027 10:00:49.685             0.369            64.312
       273   09 Jun 2027 10:01:16.633   09 Jun 2027 10:01:18.761             2.128           591.312
       274   09 Jun 2027 10:01:28.700   09 Jun 2027 10:01:30.209             1.509            72.219
       275   09 Jun 2027 10:02:02.577   09 Jun 2027 10:02:05.205             2.628           892.437
       276   09 Jun 2027 11:34:51.176   09 Jun 2027 11:34:59.594             8.418          4209.000
       277   09 Jun 2027 11:35:17.351   09 Jun 2027 11:35:22.301             4.950          1672.625
       278   09 Jun 2027 11:36:11.490   09 Jun 2027 11:36:17.157             5.667           818.469
       279   09 Jun 2027 11:36:40.155   09 Jun 2027 11:36:43.428             3.273           393.625
       280   09 Jun 2027 11:37:13.350   09 Jun 2027 11:37:17.637             4.287           532.406
       281   09 Jun 2027 11:38:01.514   09 Jun 2027 11:38:05.918             4.404          1009.531
       282   09 Jun 2027 11:38:17.823   09 Jun 2027 11:38:21.756             3.933           263.469
       283   10 Jun 2027 03:45:08.327   10 Jun 2027 03:45:10.531             2.204          1102.000
       284   10 Jun 2027 03:46:26.746   10 Jun 2027 03:46:37.754            11.008          5504.000
       285   10 Jun 2027 03:57:22.078   10 Jun 2027 03:58:19.694            57.616         28808.000
       286   10 Jun 2027 05:19:34.868   10 Jun 2027 05:20:43.853            68.985         34492.500
       287   10 Jun 2027 05:21:31.738   10 Jun 2027 05:22:43.058            71.320         35660.000
       288   10 Jun 2027 05:23:52.689   10 Jun 2027 05:24:01.875             9.186          4593.000
       289   10 Jun 2027 05:24:31.158   10 Jun 2027 05:24:37.795             6.637          3318.500
       290   10 Jun 2027 06:54:28.664   10 Jun 2027 06:55:57.534            88.870         42546.625
       291   10 Jun 2027 06:56:03.902   10 Jun 2027 06:56:04.471             0.569           112.000
       292   10 Jun 2027 06:56:46.374   10 Jun 2027 06:56:54.095             7.721          1126.750
       293   10 Jun 2027 06:58:25.927   10 Jun 2027 06:58:34.929             9.002          2862.281
       294   10 Jun 2027 06:59:44.900   10 Jun 2027 06:59:49.036             4.136          2068.000
       295   10 Jun 2027 07:00:09.831   10 Jun 2027 07:00:12.972             3.141           768.437
       296   10 Jun 2027 07:00:29.476   10 Jun 2027 07:00:29.476             0.000             0.000
       297   10 Jun 2027 07:01:31.168   10 Jun 2027 07:01:36.568             5.400          2201.969
       298   10 Jun 2027 07:01:59.728   10 Jun 2027 07:02:00.606             0.878           166.969
       299   10 Jun 2027 08:32:03.636   10 Jun 2027 08:32:09.237             5.601          2395.687
       300   10 Jun 2027 08:32:53.549   10 Jun 2027 08:32:58.033             4.484           940.719
       301   10 Jun 2027 08:33:36.556   10 Jun 2027 08:33:39.734             3.178          1058.500
       302   10 Jun 2027 08:34:25.860   10 Jun 2027 08:34:28.812             2.952          1236.469
       303   10 Jun 2027 08:35:28.766   10 Jun 2027 08:35:32.459             3.693          1673.156
       304   10 Jun 2027 08:36:11.529   10 Jun 2027 08:36:16.387             4.858           817.781
       305   10 Jun 2027 08:36:26.754   10 Jun 2027 08:36:27.886             1.132           223.469
       306   10 Jun 2027 08:37:37.197   10 Jun 2027 08:37:40.302             3.105          1365.375
       307   10 Jun 2027 08:38:31.385   10 Jun 2027 08:38:38.938             7.553          1488.969
       308   10 Jun 2027 08:39:11.671   10 Jun 2027 08:39:13.609             1.938             4.062
       309   10 Jun 2027 08:39:16.883   10 Jun 2027 08:39:18.246             1.363           102.313
       310   10 Jun 2027 10:08:46.844   10 Jun 2027 10:08:58.628            11.784          5631.969
       311   10 Jun 2027 10:09:59.850   10 Jun 2027 10:10:04.252             4.402           350.625
       312   10 Jun 2027 10:11:38.139   10 Jun 2027 10:11:41.661             3.522           283.344
       313   10 Jun 2027 10:11:44.211   10 Jun 2027 10:11:45.209             0.998            79.687
       314   10 Jun 2027 10:12:30.312   10 Jun 2027 10:12:35.731             5.419          1133.562
       315   10 Jun 2027 10:12:38.464   10 Jun 2027 10:12:42.369             3.905            85.406
       316   10 Jun 2027 10:12:59.483   10 Jun 2027 10:13:01.005             1.522            36.469
       317   10 Jun 2027 10:13:06.365   10 Jun 2027 10:13:06.822             0.457            93.125
       318   10 Jun 2027 10:13:21.050   10 Jun 2027 10:13:24.669             3.619           221.500
       319   10 Jun 2027 10:13:45.239   10 Jun 2027 10:13:45.833             0.594           269.250
       320   10 Jun 2027 10:14:36.137   10 Jun 2027 10:14:41.067             4.930          1572.000
       321   10 Jun 2027 10:15:07.561   10 Jun 2027 10:15:09.132             1.571           646.125
       322   10 Jun 2027 11:46:50.527   10 Jun 2027 11:47:01.255            10.728          5085.031
       323   10 Jun 2027 11:48:54.597   10 Jun 2027 11:48:59.930             5.333          2112.156
       324   10 Jun 2027 11:49:03.351   10 Jun 2027 11:49:03.760             0.409           106.906
       325   10 Jun 2027 11:49:34.411   10 Jun 2027 11:49:37.777             3.366           506.406
       326   10 Jun 2027 11:50:08.828   10 Jun 2027 11:50:10.049             1.221           551.594
       327   10 Jun 2027 11:50:52.696   10 Jun 2027 11:50:56.696             4.000          1183.094
       328   11 Jun 2027 03:57:13.702   11 Jun 2027 03:57:22.655             8.953          4476.500
       329   11 Jun 2027 03:57:29.299   11 Jun 2027 03:58:01.127            31.828         15914.000
       330   11 Jun 2027 04:09:42.859   11 Jun 2027 04:09:54.057            11.198          5599.000
       331   11 Jun 2027 05:31:04.267   11 Jun 2027 05:34:03.949           179.682         89841.000
       332   11 Jun 2027 05:35:55.114   11 Jun 2027 05:36:09.106            13.992          6996.000
       333   11 Jun 2027 07:05:59.095   11 Jun 2027 07:07:21.310            82.215         40518.313
       334   11 Jun 2027 07:08:21.420   11 Jun 2027 07:08:24.756             3.336           517.469
       335   11 Jun 2027 07:08:57.865   11 Jun 2027 07:09:06.597             8.732           988.125
       336   11 Jun 2027 07:10:25.991   11 Jun 2027 07:10:30.012             4.021          1650.531
       337   11 Jun 2027 07:11:48.782   11 Jun 2027 07:12:00.638            11.856          2263.094
       338   11 Jun 2027 07:12:44.336   11 Jun 2027 07:12:54.819            10.483           983.719
       339   11 Jun 2027 07:13:01.340   11 Jun 2027 07:13:01.765             0.425           203.781
       340   11 Jun 2027 07:13:26.767   11 Jun 2027 07:13:29.110             2.343           295.250
       341   11 Jun 2027 07:13:53.893   11 Jun 2027 07:13:54.072             0.179            89.500
       342   11 Jun 2027 07:14:03.097   11 Jun 2027 07:14:04.384             1.287           643.500
       343   11 Jun 2027 07:14:55.462   11 Jun 2027 07:15:04.480             9.018          1804.719
       344   11 Jun 2027 08:43:59.398   11 Jun 2027 08:44:09.308             9.910          4951.969
       345   11 Jun 2027 08:44:59.494   11 Jun 2027 08:45:08.576             9.082          1063.813
       346   11 Jun 2027 08:46:11.635   11 Jun 2027 08:46:14.946             3.311           373.406
       347   11 Jun 2027 08:48:01.808   11 Jun 2027 08:48:03.229             1.421           430.031
       348   11 Jun 2027 08:48:28.370   11 Jun 2027 08:48:30.214             1.844           491.781
       349   11 Jun 2027 08:49:59.110   11 Jun 2027 08:50:09.255            10.145          2315.781
       350   11 Jun 2027 08:50:48.441   11 Jun 2027 08:50:51.787             3.346          1099.781
       351   11 Jun 2027 08:51:05.045   11 Jun 2027 08:51:07.261             2.216           228.844
       352   11 Jun 2027 08:51:16.957   11 Jun 2027 08:51:20.320             3.363           212.031
       353   11 Jun 2027 10:21:25.314   11 Jun 2027 10:21:40.680            15.366          6580.625
       354   11 Jun 2027 10:24:06.937   11 Jun 2027 10:24:09.259             2.322           680.937
       355   11 Jun 2027 10:25:39.119   11 Jun 2027 10:25:41.368             2.249           843.375
       356   11 Jun 2027 10:25:51.568   11 Jun 2027 10:25:55.564             3.996            28.594
       357   11 Jun 2027 10:27:01.457   11 Jun 2027 10:27:02.793             1.336           498.688
       358   11 Jun 2027 11:58:28.043   11 Jun 2027 11:58:45.034            16.991          7425.188
       359   11 Jun 2027 11:59:42.941   11 Jun 2027 11:59:45.940             2.999           691.094
       360   12 Jun 2027 04:09:10.536   12 Jun 2027 04:09:42.212            31.676         15838.000
       361   12 Jun 2027 04:10:02.867   12 Jun 2027 04:10:19.569            16.702          8351.000
       362   12 Jun 2027 05:45:22.332   12 Jun 2027 05:48:08.065           165.733         82866.500
       363   12 Jun 2027 07:18:55.663   12 Jun 2027 07:20:43.923           108.260         54067.656
       364   12 Jun 2027 07:21:12.625   12 Jun 2027 07:21:15.407             2.782           506.625
       365   12 Jun 2027 07:21:35.859   12 Jun 2027 07:21:35.859             0.000             0.000
       366   12 Jun 2027 07:22:06.923   12 Jun 2027 07:22:12.257             5.334          1276.406
       367   12 Jun 2027 07:22:40.232   12 Jun 2027 07:22:40.232             0.000             0.000
       368   12 Jun 2027 07:23:13.374   12 Jun 2027 07:23:14.621             1.247           623.500
       369   12 Jun 2027 07:23:29.569   12 Jun 2027 07:23:34.325             4.756          1724.719
       370   12 Jun 2027 07:23:37.369   12 Jun 2027 07:23:42.246             4.877            95.125
       371   12 Jun 2027 07:24:15.753   12 Jun 2027 07:24:15.753             0.000             0.000
       372   12 Jun 2027 07:24:25.469   12 Jun 2027 07:24:28.910             3.441          1174.344
       373   12 Jun 2027 07:25:23.426   12 Jun 2027 07:25:29.629             6.203          1459.219
       374   12 Jun 2027 07:26:00.344   12 Jun 2027 07:26:02.199             1.855           416.000
       375   12 Jun 2027 07:26:32.249   12 Jun 2027 07:26:34.341             2.092           901.500
       376   12 Jun 2027 07:27:28.574   12 Jun 2027 07:27:29.582             1.008           504.000
       377   12 Jun 2027 08:56:21.523   12 Jun 2027 08:56:34.317            12.794          4569.875
       378   12 Jun 2027 08:58:14.482   12 Jun 2027 08:58:15.841             1.359           507.219
       379   12 Jun 2027 08:58:52.833   12 Jun 2027 08:58:55.839             3.006           552.375
       380   12 Jun 2027 08:59:40.181   12 Jun 2027 08:59:40.382             0.201            80.500
       381   12 Jun 2027 08:59:55.466   12 Jun 2027 08:59:56.070             0.604           298.031
       382   12 Jun 2027 09:01:24.645   12 Jun 2027 09:01:31.024             6.379          2238.531
       383   12 Jun 2027 09:02:28.634   12 Jun 2027 09:02:35.863             7.229          1511.563
       384   12 Jun 2027 09:03:02.283   12 Jun 2027 09:03:08.540             6.257           587.375
       385   12 Jun 2027 10:33:23.335   12 Jun 2027 10:33:42.464            19.129          6750.469
       386   12 Jun 2027 10:36:57.963   12 Jun 2027 10:36:58.643             0.680            16.156
       387   12 Jun 2027 10:37:42.060   12 Jun 2027 10:37:48.089             6.029           695.500
       388   12 Jun 2027 10:38:26.348   12 Jun 2027 10:38:34.357             8.009          1073.156
       389   12 Jun 2027 10:39:05.182   12 Jun 2027 10:39:10.209             5.027             3.125
       390   13 Jun 2027 03:00:00.000   13 Jun 2027 03:00:03.266             3.266          1633.000
       391   13 Jun 2027 03:00:03.350   13 Jun 2027 03:00:08.137             4.787          2393.500
       392   13 Jun 2027 03:01:00.527   13 Jun 2027 03:01:02.275             1.748           874.000
       393   13 Jun 2027 03:01:09.843   13 Jun 2027 03:01:22.739            12.896          6448.000
       394   13 Jun 2027 03:02:10.847   13 Jun 2027 03:02:10.847             0.000             0.000
       395   13 Jun 2027 04:21:01.344   13 Jun 2027 04:21:56.921            55.577         27788.500
       396   13 Jun 2027 04:22:09.245   13 Jun 2027 04:22:30.003            20.758         10379.000
       397   13 Jun 2027 05:57:28.880   13 Jun 2027 06:00:12.937           164.057         82028.500
       398   13 Jun 2027 06:00:42.917   13 Jun 2027 06:01:01.675            18.758          9379.000
       399   13 Jun 2027 07:29:39.350   13 Jun 2027 07:29:46.295             6.945          3472.500
       400   13 Jun 2027 07:31:34.268   13 Jun 2027 07:32:04.092            29.824         14569.657
       401   13 Jun 2027 07:32:27.751   13 Jun 2027 07:32:30.915             3.164           698.031
       402   13 Jun 2027 07:33:17.752   13 Jun 2027 07:33:19.860             2.108           398.594
       403   13 Jun 2027 07:33:30.555   13 Jun 2027 07:33:31.462             0.907            64.281
       404   13 Jun 2027 07:34:10.328   13 Jun 2027 07:34:14.918             4.590          1214.563
       405   13 Jun 2027 07:34:46.712   13 Jun 2027 07:34:49.311             2.599           993.562
       406   13 Jun 2027 07:35:17.015   13 Jun 2027 07:35:18.431             1.416           421.344
       407   13 Jun 2027 07:36:37.610   13 Jun 2027 07:36:44.241             6.631          2435.719
       408   13 Jun 2027 07:37:23.846   13 Jun 2027 07:37:28.123             4.277          1099.313
       409   13 Jun 2027 07:38:09.758   13 Jun 2027 07:38:10.561             0.803           366.594
       410   13 Jun 2027 07:38:31.993   13 Jun 2027 07:38:34.352             2.359           566.000
       411   13 Jun 2027 07:39:22.578   13 Jun 2027 07:39:25.459             2.881           885.969
       412   13 Jun 2027 09:08:32.252   13 Jun 2027 09:08:46.033            13.781          6512.906
       413   13 Jun 2027 09:12:57.057   13 Jun 2027 09:13:01.178             4.121           875.781
       414   13 Jun 2027 09:13:32.425   13 Jun 2027 09:13:33.593             1.168           396.094
       415   13 Jun 2027 09:14:32.330   13 Jun 2027 09:14:37.150             4.820          1741.281
       416   13 Jun 2027 10:45:41.752   13 Jun 2027 10:45:55.045            13.293          5420.812
       417   13 Jun 2027 10:47:18.037   13 Jun 2027 10:47:31.490            13.453          1494.281
       418   13 Jun 2027 10:48:27.387   13 Jun 2027 10:48:32.126             4.739           964.281
       419   13 Jun 2027 10:49:32.756   13 Jun 2027 10:49:36.339             3.583          1789.219
       420   13 Jun 2027 10:50:27.648   13 Jun 2027 10:50:31.057             3.409          1508.719
