uniorb/output/strategy_4/Camera/Camera_KinoSat_110809.txt

KinoSat_110809
-------------------------
    Access    *     Start Time (UTCG)     *     Stop Time (UTCG)  *   Duration (s) *   Data (Mbytes)
         1   01 Jun 2027 04:33:07.268   01 Jun 2027 04:35:24.229           136.961         68480.500
         2   01 Jun 2027 04:35:54.977   01 Jun 2027 04:36:01.518             6.541          3270.500
         3   01 Jun 2027 06:05:17.589   01 Jun 2027 06:05:26.601             9.012          4506.000
         4   01 Jun 2027 06:07:14.202   01 Jun 2027 06:08:58.300           104.098         52049.000
         5   01 Jun 2027 06:09:41.910   01 Jun 2027 06:09:45.450             3.540          1770.000
         6   01 Jun 2027 06:11:26.676   01 Jun 2027 06:11:31.649             4.973          2486.500
         7   01 Jun 2027 06:13:20.622   01 Jun 2027 06:13:39.604            18.982          9491.000
         8   01 Jun 2027 07:44:12.299   01 Jun 2027 07:46:40.625           148.326         74163.000
         9   01 Jun 2027 07:47:05.440   01 Jun 2027 07:47:14.586             9.146          4573.000
        10   01 Jun 2027 07:48:07.939   01 Jun 2027 07:48:17.206             9.267          4633.500
        11   01 Jun 2027 07:49:36.503   01 Jun 2027 07:49:36.503             0.000             0.000
        12   01 Jun 2027 07:50:09.253   01 Jun 2027 07:50:28.840            19.587          9793.500
        13   01 Jun 2027 09:21:30.272   01 Jun 2027 09:24:29.892           179.620         89810.000
        14   01 Jun 2027 10:57:57.557   01 Jun 2027 11:00:08.840           131.283         65641.500
        15   01 Jun 2027 11:00:21.675   01 Jun 2027 11:00:54.347            32.672         16336.000
        16   02 Jun 2027 03:08:48.376   02 Jun 2027 03:08:52.326             3.950          1975.000
        17   02 Jun 2027 03:09:18.201   02 Jun 2027 03:09:19.485             1.284           642.000
        18   02 Jun 2027 03:09:39.908   02 Jun 2027 03:09:41.360             1.452           726.000
        19   02 Jun 2027 03:10:08.825   02 Jun 2027 03:10:19.278            10.453          5226.500
        20   02 Jun 2027 04:45:16.573   02 Jun 2027 04:48:00.949           164.376         82188.000
        21   02 Jun 2027 06:20:27.295   02 Jun 2027 06:23:32.087           184.792         92396.000
        22   02 Jun 2027 06:23:49.124   02 Jun 2027 06:25:02.327            73.203         36601.500
        23   02 Jun 2027 06:26:57.183   02 Jun 2027 06:27:03.508             6.325          3162.500
        24   02 Jun 2027 07:56:46.287   02 Jun 2027 08:00:21.042           214.755        107178.468
        25   02 Jun 2027 09:34:09.748   02 Jun 2027 09:34:47.759            38.011         18488.344
        26   02 Jun 2027 09:38:14.392   02 Jun 2027 09:38:14.644             0.252            26.406
        27   02 Jun 2027 11:10:21.305   02 Jun 2027 11:10:36.195            14.890          5459.781
        28   02 Jun 2027 11:14:34.555   02 Jun 2027 11:14:34.602             0.047            23.500
        29   03 Jun 2027 03:20:49.487   03 Jun 2027 03:21:06.723            17.236          8618.000
        30   03 Jun 2027 03:21:17.072   03 Jun 2027 03:21:22.022             4.950          2475.000
        31   03 Jun 2027 03:23:07.510   03 Jun 2027 03:23:07.510             0.000             0.000
        32   03 Jun 2027 04:57:17.212   03 Jun 2027 05:00:39.804           202.592        101296.000
        33   03 Jun 2027 06:32:30.019   03 Jun 2027 06:33:47.742            77.723         38160.625
        34   03 Jun 2027 06:34:55.550   03 Jun 2027 06:35:00.024             4.474          1665.469
        35   03 Jun 2027 06:35:17.640   03 Jun 2027 06:35:17.640             0.000             0.000
        36   03 Jun 2027 06:35:21.920   03 Jun 2027 06:35:23.892             1.972           182.531
        37   03 Jun 2027 06:37:02.435   03 Jun 2027 06:37:13.540            11.105          3079.469
        38   03 Jun 2027 06:38:10.818   03 Jun 2027 06:38:15.836             5.018          1651.406
        39   03 Jun 2027 06:38:22.656   03 Jun 2027 06:38:29.322             6.666            64.844
        40   03 Jun 2027 06:38:49.109   03 Jun 2027 06:38:52.944             3.835           555.187
        41   03 Jun 2027 08:08:25.242   03 Jun 2027 08:08:27.258             2.016           950.937
        42   03 Jun 2027 08:11:01.612   03 Jun 2027 08:11:02.457             0.845           339.687
        43   03 Jun 2027 08:12:07.384   03 Jun 2027 08:12:14.420             7.036          1798.719
        44   03 Jun 2027 08:12:44.845   03 Jun 2027 08:12:46.273             1.428            39.281
        45   03 Jun 2027 09:46:24.246   03 Jun 2027 09:46:43.611            19.365          8434.625
        46   03 Jun 2027 09:50:12.234   03 Jun 2027 09:50:15.162             2.928           702.125
        47   03 Jun 2027 09:50:38.026   03 Jun 2027 09:50:41.117             3.091           635.656
        48   03 Jun 2027 11:22:15.871   03 Jun 2027 11:22:26.652            10.781          5344.125
        49   04 Jun 2027 03:33:15.763   04 Jun 2027 03:33:30.883            15.120          7560.000
        50   04 Jun 2027 03:33:51.682   04 Jun 2027 03:34:02.697            11.015          5507.500
        51   04 Jun 2027 05:09:01.031   04 Jun 2027 05:10:22.116            81.085         40542.500
        52   04 Jun 2027 05:10:58.283   04 Jun 2027 05:13:10.432           132.149         66074.500
        53   04 Jun 2027 06:43:44.927   04 Jun 2027 06:44:53.391            68.464         32143.531
        54   04 Jun 2027 06:45:31.614   04 Jun 2027 06:45:33.697             2.083           512.781
        55   04 Jun 2027 06:46:59.106   04 Jun 2027 06:47:01.294             2.188           500.469
        56   04 Jun 2027 06:47:18.271   04 Jun 2027 06:47:20.910             2.639           530.531
        57   04 Jun 2027 06:48:27.966   04 Jun 2027 06:48:32.272             4.306          2095.500
        58   04 Jun 2027 06:49:20.934   04 Jun 2027 06:49:22.738             1.804           592.281
        59   04 Jun 2027 06:50:03.386   04 Jun 2027 06:50:04.406             1.020           339.719
        60   04 Jun 2027 06:51:09.259   04 Jun 2027 06:51:12.052             2.793            81.938
        61   04 Jun 2027 08:20:33.859   04 Jun 2027 08:20:38.344             4.485          2087.563
        62   04 Jun 2027 08:22:23.300   04 Jun 2027 08:22:24.983             1.683           840.219
        63   04 Jun 2027 08:23:10.794   04 Jun 2027 08:23:16.298             5.504          1320.375
        64   04 Jun 2027 08:24:19.242   04 Jun 2027 08:24:23.026             3.784          1590.219
        65   04 Jun 2027 08:25:07.123   04 Jun 2027 08:25:10.899             3.776           593.125
        66   04 Jun 2027 08:25:59.704   04 Jun 2027 08:26:05.047             5.343           564.000
        67   04 Jun 2027 08:26:30.281   04 Jun 2027 08:26:30.561             0.280            87.781
        68   04 Jun 2027 09:58:47.015   04 Jun 2027 09:59:00.122            13.107          6315.438
        69   04 Jun 2027 10:00:40.484   04 Jun 2027 10:00:42.964             2.480            82.781
        70   04 Jun 2027 10:01:55.193   04 Jun 2027 10:02:03.445             8.252          1736.531
        71   04 Jun 2027 10:02:20.487   04 Jun 2027 10:02:21.608             1.121           459.875
        72   04 Jun 2027 10:02:30.326   04 Jun 2027 10:02:31.036             0.710            46.750
        73   04 Jun 2027 11:32:04.730   04 Jun 2027 11:32:17.801            13.071          6346.813
        74   05 Jun 2027 03:43:51.140   05 Jun 2027 03:44:04.470            13.330          6665.000
        75   05 Jun 2027 03:44:43.395   05 Jun 2027 03:44:51.999             8.604          4302.000
        76   05 Jun 2027 03:45:43.860   05 Jun 2027 03:46:04.142            20.282         10141.000
        77   05 Jun 2027 05:18:54.544   05 Jun 2027 05:20:13.331            78.787         39393.500
        78   05 Jun 2027 05:20:45.108   05 Jun 2027 05:21:28.515            43.407         21703.500
        79   05 Jun 2027 05:21:36.491   05 Jun 2027 05:22:21.233            44.742         22371.000
        80   05 Jun 2027 05:23:21.827   05 Jun 2027 05:23:58.465            36.638         18319.000
        81   05 Jun 2027 05:25:31.575   05 Jun 2027 05:25:38.487             6.912          3456.000
        82   05 Jun 2027 06:55:53.050   05 Jun 2027 06:57:15.602            82.552         39823.406
        83   05 Jun 2027 06:57:34.764   05 Jun 2027 06:57:37.834             3.070           598.813
        84   05 Jun 2027 06:58:34.670   05 Jun 2027 06:58:35.433             0.763            59.375
        85   05 Jun 2027 06:58:36.567   05 Jun 2027 06:58:40.322             3.755            35.438
        86   05 Jun 2027 06:59:20.210   05 Jun 2027 06:59:24.249             4.039           789.719
        87   05 Jun 2027 07:01:00.868   05 Jun 2027 07:01:09.682             8.814          3019.344
        88   05 Jun 2027 07:01:58.217   05 Jun 2027 07:02:01.340             3.123          1076.719
        89   05 Jun 2027 07:02:23.737   05 Jun 2027 07:02:28.184             4.447           495.844
        90   05 Jun 2027 07:03:07.292   05 Jun 2027 07:03:09.699             2.407           938.656
        91   05 Jun 2027 08:32:51.148   05 Jun 2027 08:32:59.247             8.099          3562.469
        92   05 Jun 2027 08:35:10.852   05 Jun 2027 08:35:17.358             6.506          1161.562
        93   05 Jun 2027 08:35:39.127   05 Jun 2027 08:35:40.357             1.230           425.406
        94   05 Jun 2027 08:35:55.339   05 Jun 2027 08:36:01.343             6.004           411.094
        95   05 Jun 2027 08:36:51.937   05 Jun 2027 08:36:53.054             1.117           189.594
        96   05 Jun 2027 08:37:00.794   05 Jun 2027 08:37:03.472             2.678           214.000
        97   05 Jun 2027 08:38:27.663   05 Jun 2027 08:38:29.520             1.857           678.281
        98   05 Jun 2027 10:10:46.291   05 Jun 2027 10:11:01.230            14.939          7253.750
        99   05 Jun 2027 10:11:45.486   05 Jun 2027 10:11:49.146             3.660           654.625
       100   05 Jun 2027 10:14:27.969   05 Jun 2027 10:14:29.996             2.027           964.250
       101   05 Jun 2027 11:44:05.691   05 Jun 2027 11:44:14.370             8.679          4151.250
       102   06 Jun 2027 03:55:15.532   06 Jun 2027 03:55:26.809            11.277          5638.500
       103   06 Jun 2027 03:55:30.287   06 Jun 2027 03:55:39.078             8.791          4395.500
       104   06 Jun 2027 03:55:46.420   06 Jun 2027 03:55:54.614             8.194          4097.000
       105   06 Jun 2027 03:59:21.714   06 Jun 2027 03:59:27.221             5.507          2753.500
       106   06 Jun 2027 04:00:33.670   06 Jun 2027 04:00:34.510             0.840           420.000
       107   06 Jun 2027 05:30:19.462   06 Jun 2027 05:33:06.882           167.420         83710.000
       108   06 Jun 2027 05:33:17.378   06 Jun 2027 05:34:00.725            43.347         21673.500
       109   06 Jun 2027 05:38:41.778   06 Jun 2027 05:38:58.135            16.357          8178.500
       110   06 Jun 2027 07:07:55.208   06 Jun 2027 07:09:14.174            78.966         38692.812
       111   06 Jun 2027 07:09:37.816   06 Jun 2027 07:09:41.042             3.226           698.062
       112   06 Jun 2027 07:10:46.475   06 Jun 2027 07:10:48.901             2.426           682.219
       113   06 Jun 2027 07:11:12.273   06 Jun 2027 07:11:20.111             7.838           729.000
       114   06 Jun 2027 07:11:37.083   06 Jun 2027 07:11:38.338             1.255           530.375
       115   06 Jun 2027 07:12:58.959   06 Jun 2027 07:13:06.852             7.893          1979.031
       116   06 Jun 2027 07:13:26.440   06 Jun 2027 07:13:30.865             4.425           276.437
       117   06 Jun 2027 07:14:03.187   06 Jun 2027 07:14:07.588             4.401           244.375
       118   06 Jun 2027 07:14:54.741   06 Jun 2027 07:14:59.531             4.790          1348.594
       119   06 Jun 2027 08:44:40.779   06 Jun 2027 08:44:50.345             9.566          4706.156
       120   06 Jun 2027 08:47:52.160   06 Jun 2027 08:47:55.543             3.383          1320.000
       121   06 Jun 2027 08:48:27.808   06 Jun 2027 08:48:31.877             4.069           540.031
       122   06 Jun 2027 08:48:54.826   06 Jun 2027 08:48:56.092             1.266           523.281
       123   06 Jun 2027 08:49:45.998   06 Jun 2027 08:49:48.126             2.128           399.875
       124   06 Jun 2027 10:22:45.619   06 Jun 2027 10:23:03.675            18.056          6319.812
       125   06 Jun 2027 10:23:08.930   06 Jun 2027 10:23:13.747             4.817           103.906
       126   06 Jun 2027 10:24:25.653   06 Jun 2027 10:24:29.709             4.056          1878.625
       127   06 Jun 2027 10:25:58.943   06 Jun 2027 10:25:59.688             0.745           144.375
       128   06 Jun 2027 10:26:24.513   06 Jun 2027 10:26:27.341             2.828           310.719
       129   06 Jun 2027 11:56:32.149   06 Jun 2027 11:56:39.418             7.269           584.937
       130   07 Jun 2027 04:06:57.671   07 Jun 2027 04:07:28.430            30.759         15379.500
       131   07 Jun 2027 04:07:50.493   07 Jun 2027 04:07:55.754             5.261          2630.500
       132   07 Jun 2027 04:11:39.374   07 Jun 2027 04:11:49.762            10.388          5194.000
       133   07 Jun 2027 04:12:19.597   07 Jun 2027 04:12:22.854             3.257          1628.500
       134   07 Jun 2027 05:41:50.234   07 Jun 2027 05:44:06.475           136.241         68120.500
       135   07 Jun 2027 05:44:33.596   07 Jun 2027 05:44:50.903            17.307          8653.500
       136   07 Jun 2027 05:45:00.653   07 Jun 2027 05:45:09.681             9.028          4514.000
       137   07 Jun 2027 05:45:44.612   07 Jun 2027 05:46:06.406            21.794         10897.000
       138   07 Jun 2027 05:46:32.058   07 Jun 2027 05:47:03.987            31.929         15964.500
       139   07 Jun 2027 07:19:55.607   07 Jun 2027 07:21:08.636            73.029         36209.531
       140   07 Jun 2027 07:21:40.752   07 Jun 2027 07:21:45.220             4.468           813.031
       141   07 Jun 2027 07:22:18.765   07 Jun 2027 07:22:25.706             6.941           728.531
       142   07 Jun 2027 07:23:23.186   07 Jun 2027 07:23:24.213             1.027           376.469
       143   07 Jun 2027 07:23:56.346   07 Jun 2027 07:23:57.948             1.602           792.812
       144   07 Jun 2027 07:24:56.103   07 Jun 2027 07:25:00.973             4.870          1594.000
       145   07 Jun 2027 07:25:28.925   07 Jun 2027 07:25:31.698             2.773           804.656
       146   07 Jun 2027 08:56:49.222   07 Jun 2027 08:57:00.236            11.014          5204.062
       147   07 Jun 2027 08:57:11.145   07 Jun 2027 08:57:12.642             1.497           176.656
       148   07 Jun 2027 08:58:50.425   07 Jun 2027 08:58:55.414             4.989          2205.000
       149   07 Jun 2027 08:59:07.870   07 Jun 2027 08:59:10.505             2.635           195.688
       150   07 Jun 2027 08:59:26.928   07 Jun 2027 08:59:28.177             1.249           113.813
       151   07 Jun 2027 08:59:51.538   07 Jun 2027 08:59:57.227             5.689           636.437
       152   07 Jun 2027 09:00:46.250   07 Jun 2027 09:00:48.319             2.069           757.969
       153   07 Jun 2027 09:00:59.754   07 Jun 2027 09:01:01.879             2.125            79.406
       154   07 Jun 2027 09:01:19.348   07 Jun 2027 09:01:20.191             0.843           314.750
       155   07 Jun 2027 09:02:46.753   07 Jun 2027 09:02:54.212             7.459          2114.937
       156   07 Jun 2027 10:33:58.688   07 Jun 2027 10:34:12.618            13.930          5633.938
       157   07 Jun 2027 10:35:39.263   07 Jun 2027 10:35:43.966             4.703           598.406
       158   07 Jun 2027 10:37:17.714   07 Jun 2027 10:37:30.103            12.389          1400.375
       159   07 Jun 2027 10:38:21.623   07 Jun 2027 10:38:25.652             4.029          1610.000
       160   08 Jun 2027 04:21:16.845   08 Jun 2027 04:22:05.700            48.855         24427.500
       161   08 Jun 2027 04:22:15.352   08 Jun 2027 04:22:17.579             2.227          1113.500
       162   08 Jun 2027 04:22:51.014   08 Jun 2027 04:22:51.014             0.000             0.000
       163   08 Jun 2027 04:23:37.324   08 Jun 2027 04:23:51.219            13.895          6947.500
       164   08 Jun 2027 05:54:50.149   08 Jun 2027 05:56:35.542           105.393         52696.500
       165   08 Jun 2027 05:57:11.706   08 Jun 2027 05:58:08.178            56.472         28236.000
       166   08 Jun 2027 05:58:33.476   08 Jun 2027 05:58:38.231             4.755          2377.500
       167   08 Jun 2027 05:59:19.693   08 Jun 2027 05:59:24.813             5.120          2560.000
       168   08 Jun 2027 06:01:16.217   08 Jun 2027 06:01:16.217             0.000             0.000
       169   08 Jun 2027 06:01:25.737   08 Jun 2027 06:01:44.645            18.908          9454.000
       170   08 Jun 2027 06:02:18.667   08 Jun 2027 06:02:30.078            11.411          5705.500
       171   08 Jun 2027 06:02:41.106   08 Jun 2027 06:03:07.884            26.778         13389.000
       172   08 Jun 2027 06:03:17.254   08 Jun 2027 06:03:21.131             3.877          1938.500
       173   08 Jun 2027 06:03:22.524   08 Jun 2027 06:03:23.787             1.263           631.500
       174   08 Jun 2027 07:32:18.731   08 Jun 2027 07:32:35.128            16.397          7643.843
       175   08 Jun 2027 07:36:21.604   08 Jun 2027 07:36:27.398             5.794          1664.969
       176   08 Jun 2027 07:38:01.093   08 Jun 2027 07:38:02.261             1.168             4.969
       177   08 Jun 2027 07:38:19.678   08 Jun 2027 07:38:20.673             0.995           435.375
       178   08 Jun 2027 07:38:55.878   08 Jun 2027 07:38:57.846             1.968           943.875
       179   08 Jun 2027 09:09:17.230   08 Jun 2027 09:09:30.860            13.630          6135.281
       180   08 Jun 2027 09:11:07.281   08 Jun 2027 09:11:12.379             5.098            86.281
       181   08 Jun 2027 09:12:36.747   08 Jun 2027 09:12:42.825             6.078          1116.563
       182   08 Jun 2027 09:13:52.684   08 Jun 2027 09:13:53.680             0.996           356.344
       183   08 Jun 2027 10:46:11.274   08 Jun 2027 10:46:24.866            13.592          6281.875
       184   08 Jun 2027 10:50:32.201   08 Jun 2027 10:50:37.716             5.515           138.500
       185   09 Jun 2027 04:33:21.964   09 Jun 2027 04:34:26.595            64.631         32315.500
       186   09 Jun 2027 04:34:57.778   09 Jun 2027 04:36:09.861            72.083         36041.500
       187   09 Jun 2027 04:36:44.930   09 Jun 2027 04:36:57.604            12.674          6337.000
       188   09 Jun 2027 06:05:31.657   09 Jun 2027 06:05:41.372             9.715          4857.500
       189   09 Jun 2027 06:07:29.016   09 Jun 2027 06:09:34.605           125.589         62794.500
       190   09 Jun 2027 06:11:26.830   09 Jun 2027 06:11:28.676             1.846           923.000
       191   09 Jun 2027 06:12:09.841   09 Jun 2027 06:12:20.855            11.014          4940.063
       192   09 Jun 2027 06:13:17.198   09 Jun 2027 06:13:17.198             0.000             0.000
       193   09 Jun 2027 06:14:13.486   09 Jun 2027 06:14:16.948             3.462          1731.000
       194   09 Jun 2027 06:14:19.988   09 Jun 2027 06:14:23.293             3.305          1398.313
       195   09 Jun 2027 06:15:17.981   09 Jun 2027 06:15:18.057             0.076            38.000
       196   09 Jun 2027 07:44:27.510   09 Jun 2027 07:44:27.790             0.280            71.594
       197   09 Jun 2027 07:47:34.955   09 Jun 2027 07:47:37.565             2.610           451.281
       198   09 Jun 2027 07:48:47.708   09 Jun 2027 07:48:53.351             5.643           395.437
       199   09 Jun 2027 07:50:06.780   09 Jun 2027 07:50:07.283             0.503           192.719
       200   09 Jun 2027 07:50:45.783   09 Jun 2027 07:50:47.968             2.185           979.750
       201   09 Jun 2027 09:21:47.546   09 Jun 2027 09:22:02.725            15.179          5519.281
       202   09 Jun 2027 09:26:25.204   09 Jun 2027 09:26:29.185             3.981           742.531
       203   09 Jun 2027 10:58:12.697   09 Jun 2027 10:58:26.351            13.654          6637.594
       204   09 Jun 2027 11:00:23.694   09 Jun 2027 11:00:25.756             2.062           646.219
       205   09 Jun 2027 11:02:28.388   09 Jun 2027 11:02:31.865             3.477           732.812
       206   10 Jun 2027 03:09:03.260   10 Jun 2027 03:09:07.318             4.058          2029.000
       207   10 Jun 2027 03:09:34.059   10 Jun 2027 03:09:34.059             0.000             0.000
       208   10 Jun 2027 03:09:55.663   10 Jun 2027 03:09:56.314             0.651           325.500
       209   10 Jun 2027 03:10:23.578   10 Jun 2027 03:10:26.696             3.118          1559.000
       210   10 Jun 2027 03:12:01.606   10 Jun 2027 03:12:06.415             4.809          2404.500
       211   10 Jun 2027 04:46:21.115   10 Jun 2027 04:49:10.006           168.891         84445.500
       212   10 Jun 2027 06:20:42.530   10 Jun 2027 06:22:34.043           111.513         54637.500
       213   10 Jun 2027 06:23:24.401   10 Jun 2027 06:23:27.940             3.539          1237.437
       214   10 Jun 2027 06:23:32.483   10 Jun 2027 06:23:36.205             3.722            74.469
       215   10 Jun 2027 06:24:05.569   10 Jun 2027 06:24:07.794             2.225           178.625
       216   10 Jun 2027 06:25:17.770   10 Jun 2027 06:25:23.625             5.855          1845.625
       217   10 Jun 2027 06:26:29.690   10 Jun 2027 06:26:34.237             4.547          1802.031
       218   10 Jun 2027 06:26:50.634   10 Jun 2027 06:26:52.979             2.345           445.281
       219   10 Jun 2027 06:27:07.416   10 Jun 2027 06:27:07.676             0.260            92.781
       220   10 Jun 2027 07:57:01.284   10 Jun 2027 07:57:07.548             6.264           813.219
       221   10 Jun 2027 07:59:53.079   10 Jun 2027 07:59:58.592             5.513           937.469
       222   10 Jun 2027 08:00:28.427   10 Jun 2027 08:00:29.324             0.897           448.500
       223   10 Jun 2027 08:01:53.599   10 Jun 2027 08:01:59.503             5.904          1866.344
       224   10 Jun 2027 08:02:25.757   10 Jun 2027 08:02:28.331             2.574           358.687
       225   10 Jun 2027 08:02:57.957   10 Jun 2027 08:03:01.023             3.066           545.562
       226   10 Jun 2027 09:34:24.386   10 Jun 2027 09:34:35.970            11.584          5597.437
       227   10 Jun 2027 09:38:20.071   10 Jun 2027 09:38:24.518             4.447            28.156
       228   10 Jun 2027 09:38:29.952   10 Jun 2027 09:38:30.944             0.992            41.813
       229   10 Jun 2027 11:10:35.144   10 Jun 2027 11:10:46.879            11.735          5446.031
       230   11 Jun 2027 03:21:04.157   11 Jun 2027 03:21:22.556            18.399          9199.500
       231   11 Jun 2027 03:21:31.690   11 Jun 2027 03:21:36.672             4.982          2491.000
       232   11 Jun 2027 04:57:31.532   11 Jun 2027 05:00:54.140           202.608        101304.000
       233   11 Jun 2027 06:32:44.544   11 Jun 2027 06:34:00.163            75.619         37489.250
       234   11 Jun 2027 06:35:11.508   11 Jun 2027 06:35:15.020             3.512          1670.531
       235   11 Jun 2027 06:35:32.483   11 Jun 2027 06:35:35.650             3.167           361.094
       236   11 Jun 2027 06:35:37.501   11 Jun 2027 06:35:39.309             1.808            57.844
       237   11 Jun 2027 06:37:17.858   11 Jun 2027 06:37:28.169            10.311          3079.656
       238   11 Jun 2027 06:38:26.879   11 Jun 2027 06:38:33.769             6.890          1619.062
       239   11 Jun 2027 06:38:54.175   11 Jun 2027 06:38:55.044             0.869           416.469
       240   11 Jun 2027 08:08:39.937   11 Jun 2027 08:08:43.088             3.151           985.469
       241   11 Jun 2027 08:10:23.079   11 Jun 2027 08:10:28.105             5.026           948.187
       242   11 Jun 2027 08:12:22.398   11 Jun 2027 08:12:27.031             4.633          1798.250
       243   11 Jun 2027 08:12:59.931   11 Jun 2027 08:13:00.072             0.141            23.094
       244   11 Jun 2027 09:46:38.876   11 Jun 2027 09:46:50.505            11.629          5455.031
       245   11 Jun 2027 09:47:35.952   11 Jun 2027 09:47:42.260             6.308           156.937
       246   11 Jun 2027 09:50:05.337   11 Jun 2027 09:50:05.412             0.075            15.062
       247   11 Jun 2027 09:50:33.227   11 Jun 2027 09:50:33.733             0.506           183.000
       248   11 Jun 2027 11:22:30.413   11 Jun 2027 11:22:41.555            11.142          5332.406
       249   12 Jun 2027 03:33:30.275   12 Jun 2027 03:33:37.068             6.793          3396.500
       250   12 Jun 2027 03:34:08.265   12 Jun 2027 03:34:08.265             0.000             0.000
       251   12 Jun 2027 03:35:23.614   12 Jun 2027 03:35:42.839            19.225          9612.500
       252   12 Jun 2027 05:09:15.922   12 Jun 2027 05:10:36.725            80.803         40401.500
       253   12 Jun 2027 05:11:13.468   12 Jun 2027 05:13:35.654           142.186         71093.000
       254   12 Jun 2027 06:43:59.747   12 Jun 2027 06:45:06.622            66.875         33081.906
       255   12 Jun 2027 06:45:49.041   12 Jun 2027 06:45:52.286             3.245           566.219
       256   12 Jun 2027 06:46:59.192   12 Jun 2027 06:47:02.886             3.694           892.906
       257   12 Jun 2027 06:48:00.866   12 Jun 2027 06:48:02.587             1.721           685.719
       258   12 Jun 2027 06:49:17.381   12 Jun 2027 06:49:17.381             0.000             0.000
       259   12 Jun 2027 06:49:38.019   12 Jun 2027 06:49:42.002             3.983          1693.594
       260   12 Jun 2027 06:50:19.582   12 Jun 2027 06:50:20.691             1.109           350.781
       261   12 Jun 2027 06:51:21.289   12 Jun 2027 06:51:27.919             6.630           997.063
       262   12 Jun 2027 08:20:49.464   12 Jun 2027 08:20:52.523             3.059          1309.469
       263   12 Jun 2027 08:23:47.229   12 Jun 2027 08:23:53.674             6.445           669.594
       264   12 Jun 2027 08:24:07.769   12 Jun 2027 08:24:11.230             3.461           440.469
       265   12 Jun 2027 08:25:22.053   12 Jun 2027 08:25:25.487             3.434           572.875
       266   12 Jun 2027 08:26:15.385   12 Jun 2027 08:26:20.740             5.355           594.094
       267   12 Jun 2027 09:59:01.421   12 Jun 2027 09:59:15.217            13.796          6833.094
       268   12 Jun 2027 10:00:31.395   12 Jun 2027 10:00:36.675             5.280          2078.875
       269   12 Jun 2027 10:01:15.440   12 Jun 2027 10:01:19.150             3.710           706.937
       270   12 Jun 2027 10:02:15.404   12 Jun 2027 10:02:16.194             0.790           154.750
       271   12 Jun 2027 10:02:36.009   12 Jun 2027 10:02:38.840             2.831           471.406
       272   12 Jun 2027 10:02:55.033   12 Jun 2027 10:02:57.758             2.725           284.500
       273   12 Jun 2027 11:32:19.207   12 Jun 2027 11:32:32.758            13.551          6770.375
       274   13 Jun 2027 03:44:05.395   13 Jun 2027 03:44:08.575             3.180          1590.000
       275   13 Jun 2027 03:44:21.090   13 Jun 2027 03:44:24.841             3.751          1875.500
       276   13 Jun 2027 03:44:58.447   13 Jun 2027 03:45:06.636             8.189          4094.500
       277   13 Jun 2027 03:46:33.580   13 Jun 2027 03:46:40.387             6.807          3403.500
       278   13 Jun 2027 05:19:08.913   13 Jun 2027 05:20:28.072            79.159         39579.500
       279   13 Jun 2027 05:20:59.641   13 Jun 2027 05:21:43.380            43.739         21869.500
       280   13 Jun 2027 05:22:35.881   13 Jun 2027 05:23:37.092            61.211         30605.500
       281   13 Jun 2027 05:24:12.883   13 Jun 2027 05:24:36.854            23.971         11985.500
       282   13 Jun 2027 06:56:07.741   13 Jun 2027 06:57:42.618            94.877         45421.188
       283   13 Jun 2027 06:58:50.431   13 Jun 2027 06:58:51.773             1.342            44.125
       284   13 Jun 2027 06:59:09.758   13 Jun 2027 06:59:10.981             1.223           562.031
       285   13 Jun 2027 06:59:42.263   13 Jun 2027 06:59:43.392             1.129           177.594
       286   13 Jun 2027 07:01:16.241   13 Jun 2027 07:01:21.994             5.753          2222.813
       287   13 Jun 2027 07:02:24.843   13 Jun 2027 07:02:29.863             5.020          1375.313
       288   13 Jun 2027 07:02:49.949   13 Jun 2027 07:02:52.493             2.544           220.531
       289   13 Jun 2027 08:33:05.789   13 Jun 2027 08:33:10.076             4.287          2086.719
       290   13 Jun 2027 08:36:10.765   13 Jun 2027 08:36:18.356             7.591          1403.969
       291   13 Jun 2027 08:37:00.948   13 Jun 2027 08:37:02.063             1.115           339.250
       292   13 Jun 2027 08:37:07.487   13 Jun 2027 08:37:10.996             3.509            53.000
       293   13 Jun 2027 08:37:45.870   13 Jun 2027 08:37:51.052             5.182           959.125
       294   13 Jun 2027 08:38:42.867   13 Jun 2027 08:38:47.073             4.206           620.250
       295   13 Jun 2027 10:11:01.530   13 Jun 2027 10:11:17.332            15.802          7475.094
       296   13 Jun 2027 10:13:56.196   13 Jun 2027 10:14:00.364             4.168          2003.219
       297   13 Jun 2027 10:14:38.275   13 Jun 2027 10:14:39.142             0.867            67.719
       298   13 Jun 2027 10:14:40.808   13 Jun 2027 10:14:41.728             0.920            52.063
       299   13 Jun 2027 10:14:52.559   13 Jun 2027 10:14:54.070             1.511           233.125
       300   13 Jun 2027 11:44:21.340   13 Jun 2027 11:44:30.360             9.020          4314.625
       301   13 Jun 2027 11:51:57.151   13 Jun 2027 11:51:57.386             0.235            30.844
