uniorb/output/strategy_4/Camera/Camera_KinoSat_111908.txt

KinoSat_111908
-------------------------
    Access    *     Start Time (UTCG)     *     Stop Time (UTCG)  *   Duration (s) *   Data (Mbytes)
         1   01 Jun 2027 04:08:54.222   01 Jun 2027 04:10:02.285            68.063         34031.500
         2   01 Jun 2027 04:10:05.237   01 Jun 2027 04:11:03.912            58.675         29337.500
         3   01 Jun 2027 04:11:05.081   01 Jun 2027 04:11:13.908             8.827          4413.500
         4   01 Jun 2027 04:11:49.777   01 Jun 2027 04:11:50.063             0.286           143.000
         5   01 Jun 2027 04:11:53.549   01 Jun 2027 04:12:01.657             8.108          4054.000
         6   01 Jun 2027 04:12:17.293   01 Jun 2027 04:12:37.150            19.857          9928.500
         7   01 Jun 2027 04:14:36.799   01 Jun 2027 04:14:37.540             0.741           370.500
         8   01 Jun 2027 04:14:50.966   01 Jun 2027 04:14:51.979             1.013           506.500
         9   01 Jun 2027 05:47:41.463   01 Jun 2027 05:49:22.554           101.091         50545.500
        10   01 Jun 2027 05:49:56.336   01 Jun 2027 05:50:03.881             7.545          3772.500
        11   01 Jun 2027 05:50:43.853   01 Jun 2027 05:50:53.210             9.357          4678.500
        12   01 Jun 2027 05:51:26.831   01 Jun 2027 05:51:29.643             2.812          1406.000
        13   01 Jun 2027 05:51:46.143   01 Jun 2027 05:52:08.355            22.212         11106.000
        14   01 Jun 2027 05:54:39.370   01 Jun 2027 05:54:45.673             6.303          3151.500
        15   01 Jun 2027 07:12:01.796   01 Jun 2027 07:13:58.880           117.084         58542.000
        16   01 Jun 2027 07:24:16.118   01 Jun 2027 07:24:47.459            31.341         15670.500
        17   01 Jun 2027 08:46:12.137   01 Jun 2027 08:47:32.695            80.558         40279.000
        18   01 Jun 2027 08:48:14.972   01 Jun 2027 08:49:01.574            46.602         23301.000
        19   01 Jun 2027 08:51:39.188   01 Jun 2027 08:51:49.569            10.381          5190.500
        20   01 Jun 2027 10:21:00.162   01 Jun 2027 10:22:56.399           116.237         58118.500
        21   02 Jun 2027 04:21:37.982   02 Jun 2027 04:23:15.992            98.010         49005.000
        22   02 Jun 2027 04:23:42.139   02 Jun 2027 04:24:19.275            37.136         18568.000
        23   02 Jun 2027 06:00:04.187   02 Jun 2027 06:03:10.433           186.246         93123.000
        24   02 Jun 2027 06:03:35.948   02 Jun 2027 06:03:48.501            12.553          6276.500
        25   02 Jun 2027 06:03:56.196   02 Jun 2027 06:04:12.820            16.624          8312.000
        26   02 Jun 2027 06:04:38.319   02 Jun 2027 06:05:13.073            34.754         17377.000
        27   02 Jun 2027 07:24:01.607   02 Jun 2027 07:24:50.868            49.261         24630.500
        28   02 Jun 2027 07:25:36.844   02 Jun 2027 07:26:01.677            24.833         12416.500
        29   02 Jun 2027 08:59:58.570   02 Jun 2027 09:02:39.947           161.377         80688.500
        30   02 Jun 2027 09:02:55.461   02 Jun 2027 09:02:55.461             0.000             0.000
        31   02 Jun 2027 09:03:17.800   02 Jun 2027 09:03:54.347            36.547         18273.500
        32   02 Jun 2027 10:33:49.048   02 Jun 2027 10:34:51.207            62.159         30889.688
        33   02 Jun 2027 10:36:02.049   02 Jun 2027 10:36:06.074             4.025           450.750
        34   02 Jun 2027 10:38:33.573   02 Jun 2027 10:38:33.573             0.000             0.000
        35   03 Jun 2027 03:00:19.113   03 Jun 2027 03:00:46.375            27.262         13631.000
        36   03 Jun 2027 03:00:53.862   03 Jun 2027 03:01:14.419            20.557         10278.500
        37   03 Jun 2027 04:34:23.609   03 Jun 2027 04:34:52.111            28.502         14251.000
        38   03 Jun 2027 04:35:00.886   03 Jun 2027 04:35:50.778            49.892         24946.000
        39   03 Jun 2027 04:35:52.951   03 Jun 2027 04:36:28.898            35.947         17973.500
        40   03 Jun 2027 04:37:57.016   03 Jun 2027 04:38:27.268            30.252         15126.000
        41   03 Jun 2027 04:38:41.212   03 Jun 2027 04:38:47.828             6.616          3308.000
        42   03 Jun 2027 04:39:02.207   03 Jun 2027 04:39:20.396            18.189          9094.500
        43   03 Jun 2027 04:39:27.042   03 Jun 2027 04:39:38.653            11.611          5805.500
        44   03 Jun 2027 04:39:56.153   03 Jun 2027 04:40:07.143            10.990          5495.000
        45   03 Jun 2027 06:12:32.603   03 Jun 2027 06:14:03.395            90.792         44669.156
        46   03 Jun 2027 06:16:25.425   03 Jun 2027 06:16:33.062             7.637           567.344
        47   03 Jun 2027 06:16:48.633   03 Jun 2027 06:16:51.482             2.849           486.594
        48   03 Jun 2027 07:35:56.243   03 Jun 2027 07:36:14.301            18.058          7039.000
        49   03 Jun 2027 07:37:17.033   03 Jun 2027 07:37:20.616             3.583          1692.719
        50   03 Jun 2027 09:12:20.408   03 Jun 2027 09:12:46.312            25.904         10251.625
        51   03 Jun 2027 09:13:24.260   03 Jun 2027 09:13:27.337             3.077          1185.875
        52   03 Jun 2027 09:14:19.704   03 Jun 2027 09:14:21.888             2.184           948.781
        53   03 Jun 2027 09:14:42.546   03 Jun 2027 09:14:44.318             1.772           476.219
        54   03 Jun 2027 09:15:13.328   03 Jun 2027 09:15:17.981             4.653           608.219
        55   03 Jun 2027 10:46:01.909   03 Jun 2027 10:46:10.826             8.917          3539.563
        56   03 Jun 2027 10:48:21.614   03 Jun 2027 10:48:21.614             0.000             0.000
        57   03 Jun 2027 10:49:07.270   03 Jun 2027 10:49:11.791             4.521          2174.531
        58   03 Jun 2027 10:51:41.628   03 Jun 2027 10:51:58.902            17.274          3998.719
        59   03 Jun 2027 10:53:00.447   03 Jun 2027 10:53:01.404             0.957           463.844
        60   03 Jun 2027 10:53:10.323   03 Jun 2027 10:53:15.433             5.110           266.062
        61   03 Jun 2027 10:53:43.214   03 Jun 2027 10:53:45.517             2.303           839.250
        62   03 Jun 2027 10:54:00.179   03 Jun 2027 10:54:06.000             5.821           458.187
        63   04 Jun 2027 03:08:07.767   04 Jun 2027 03:08:18.827            11.060          5530.000
        64   04 Jun 2027 03:09:38.688   04 Jun 2027 03:10:54.605            75.917         37958.500
        65   04 Jun 2027 03:11:16.660   04 Jun 2027 03:11:18.958             2.298          1149.000
        66   04 Jun 2027 03:11:54.052   04 Jun 2027 03:12:02.914             8.862          4431.000
        67   04 Jun 2027 03:12:40.543   04 Jun 2027 03:12:47.451             6.908          3454.000
        68   04 Jun 2027 03:13:34.692   04 Jun 2027 03:13:36.603             1.911           955.500
        69   04 Jun 2027 03:13:39.362   04 Jun 2027 03:13:47.146             7.784          3892.000
        70   04 Jun 2027 03:13:57.750   04 Jun 2027 03:14:09.736            11.986          5993.000
        71   04 Jun 2027 03:15:01.647   04 Jun 2027 03:15:11.683            10.036          5018.000
        72   04 Jun 2027 04:46:09.675   04 Jun 2027 04:46:12.007             2.332          1166.000
        73   04 Jun 2027 04:46:37.480   04 Jun 2027 04:47:24.605            47.125         23562.500
        74   04 Jun 2027 04:47:27.621   04 Jun 2027 04:49:03.321            95.700         47850.000
        75   04 Jun 2027 04:49:20.609   04 Jun 2027 04:49:29.877             9.268          4634.000
        76   04 Jun 2027 04:49:30.820   04 Jun 2027 04:50:06.286            35.466         16482.624
        77   04 Jun 2027 06:24:49.416   04 Jun 2027 06:25:19.528            30.112         12842.031
        78   04 Jun 2027 06:28:12.547   04 Jun 2027 06:28:13.460             0.913           316.500
        79   04 Jun 2027 07:47:43.765   04 Jun 2027 07:47:58.719            14.954          7277.281
        80   04 Jun 2027 07:49:18.270   04 Jun 2027 07:49:26.144             7.874          2001.937
        81   04 Jun 2027 07:49:42.572   04 Jun 2027 07:49:46.744             4.172           206.094
        82   04 Jun 2027 09:24:22.379   04 Jun 2027 09:24:34.693            12.314          3395.469
        83   04 Jun 2027 09:25:25.969   04 Jun 2027 09:25:29.325             3.356           972.188
        84   04 Jun 2027 09:26:04.200   04 Jun 2027 09:26:06.956             2.756           887.125
        85   04 Jun 2027 10:59:22.516   04 Jun 2027 10:59:30.943             8.427          4026.094
        86   04 Jun 2027 11:02:31.269   04 Jun 2027 11:02:40.350             9.081          4297.188
        87   04 Jun 2027 11:03:24.706   04 Jun 2027 11:03:28.600             3.894           956.531
        88   04 Jun 2027 11:04:23.311   04 Jun 2027 11:04:27.311             4.000           695.375
        89   04 Jun 2027 11:04:58.933   04 Jun 2027 11:05:01.332             2.399           969.969
        90   04 Jun 2027 11:05:16.601   04 Jun 2027 11:05:16.774             0.173             3.688
        91   04 Jun 2027 11:05:30.215   04 Jun 2027 11:05:32.733             2.518           370.719
        92   04 Jun 2027 11:06:13.009   04 Jun 2027 11:06:14.236             1.227           613.500
        93   05 Jun 2027 03:20:09.114   05 Jun 2027 03:20:58.405            49.291         24645.500
        94   05 Jun 2027 03:21:07.226   05 Jun 2027 03:23:17.916           130.690         65345.000
        95   05 Jun 2027 03:23:53.714   05 Jun 2027 03:24:16.076            22.362         11181.000
        96   05 Jun 2027 03:24:49.697   05 Jun 2027 03:25:15.609            25.912         12956.000
        97   05 Jun 2027 03:25:25.621   05 Jun 2027 03:25:36.366            10.745          5372.500
        98   05 Jun 2027 04:58:53.317   05 Jun 2027 04:59:18.938            25.621         12810.500
        99   05 Jun 2027 04:59:25.736   05 Jun 2027 05:00:51.527            85.791         41797.812
       100   05 Jun 2027 05:02:38.071   05 Jun 2027 05:02:51.981            13.910          3319.063
       101   05 Jun 2027 05:04:26.350   05 Jun 2027 05:04:29.798             3.448          1724.000
       102   05 Jun 2027 06:36:35.168   05 Jun 2027 06:36:46.655            11.487          3777.750
       103   05 Jun 2027 06:38:24.936   05 Jun 2027 06:38:29.318             4.382          1194.906
       104   05 Jun 2027 06:39:59.806   05 Jun 2027 06:40:01.554             1.748            49.125
       105   05 Jun 2027 07:59:58.399   05 Jun 2027 08:00:11.790            13.391          6651.094
       106   05 Jun 2027 08:00:35.113   05 Jun 2027 08:00:39.410             4.297           153.969
       107   05 Jun 2027 08:00:59.760   05 Jun 2027 08:01:01.140             1.380           393.687
       108   05 Jun 2027 08:02:37.732   05 Jun 2027 08:02:42.757             5.025          2453.031
       109   05 Jun 2027 08:02:44.039   05 Jun 2027 08:02:44.746             0.707            40.062
       110   05 Jun 2027 09:36:30.184   05 Jun 2027 09:36:40.884            10.700          2631.125
       111   05 Jun 2027 09:38:00.143   05 Jun 2027 09:38:06.108             5.965          2032.469
       112   05 Jun 2027 09:38:23.331   05 Jun 2027 09:38:25.131             1.800           472.750
       113   05 Jun 2027 09:38:58.240   05 Jun 2027 09:39:00.071             1.831           402.719
       114   05 Jun 2027 09:39:29.868   05 Jun 2027 09:39:33.385             3.517           476.938
       115   05 Jun 2027 11:11:40.470   05 Jun 2027 11:11:51.842            11.372          4689.281
       116   05 Jun 2027 11:13:19.803   05 Jun 2027 11:13:19.803             0.000             0.000
       117   05 Jun 2027 11:14:28.729   05 Jun 2027 11:14:38.005             9.276          4551.281
       118   05 Jun 2027 11:17:52.515   05 Jun 2027 11:17:52.515             0.000             0.000
       119   05 Jun 2027 11:17:56.357   05 Jun 2027 11:18:13.310            16.953          5517.156
       120   06 Jun 2027 03:32:06.420   06 Jun 2027 03:35:13.639           187.219         93609.500
       121   06 Jun 2027 03:35:42.179   06 Jun 2027 03:35:48.689             6.510          3255.000
       122   06 Jun 2027 03:37:44.871   06 Jun 2027 03:38:01.941            17.070          8535.000
       123   06 Jun 2027 03:38:16.036   06 Jun 2027 03:38:23.513             7.477          3738.500
       124   06 Jun 2027 05:11:24.033   06 Jun 2027 05:13:09.595           105.562         52468.625
       125   06 Jun 2027 05:14:02.339   06 Jun 2027 05:14:05.146             2.807           964.063
       126   06 Jun 2027 05:15:14.180   06 Jun 2027 05:15:19.067             4.887           435.438
       127   06 Jun 2027 05:17:55.663   06 Jun 2027 05:18:02.177             6.514          3257.000
       128   06 Jun 2027 05:18:22.366   06 Jun 2027 05:18:29.469             7.103          1890.281
       129   06 Jun 2027 05:19:20.655   06 Jun 2027 05:19:21.164             0.509           254.500
       130   06 Jun 2027 06:48:32.066   06 Jun 2027 06:48:41.567             9.501          4668.875
       131   06 Jun 2027 06:51:57.079   06 Jun 2027 06:52:00.192             3.113            74.750
       132   06 Jun 2027 08:12:28.520   06 Jun 2027 08:12:52.508            23.988          7494.750
       133   06 Jun 2027 08:13:06.643   06 Jun 2027 08:13:08.348             1.705           132.719
       134   06 Jun 2027 08:14:40.671   06 Jun 2027 08:14:46.069             5.398          2525.156
       135   06 Jun 2027 09:48:23.223   06 Jun 2027 09:48:29.368             6.145          3056.656
       136   06 Jun 2027 09:50:39.202   06 Jun 2027 09:50:45.404             6.202          3101.000
       137   06 Jun 2027 09:51:39.217   06 Jun 2027 09:51:47.240             8.023          2290.094
       138   06 Jun 2027 11:23:18.799   06 Jun 2027 11:23:25.397             6.598          2115.031
       139   06 Jun 2027 11:25:14.045   06 Jun 2027 11:25:22.911             8.866          2676.750
       140   06 Jun 2027 11:28:42.436   06 Jun 2027 11:28:42.436             0.000             0.000
       141   06 Jun 2027 11:29:39.014   06 Jun 2027 11:29:52.910            13.896          6450.156
       142   06 Jun 2027 11:29:57.891   06 Jun 2027 11:30:03.539             5.648           138.906
       143   07 Jun 2027 03:44:47.568   07 Jun 2027 03:46:26.709            99.141         49570.500
       144   07 Jun 2027 03:46:58.113   07 Jun 2027 03:47:03.021             4.908          2454.000
       145   07 Jun 2027 03:48:04.321   07 Jun 2027 03:48:47.599            43.278         21639.000
       146   07 Jun 2027 05:23:28.129   07 Jun 2027 05:26:16.306           168.177         83333.062
       147   07 Jun 2027 05:26:55.046   07 Jun 2027 05:27:00.209             5.163           408.219
       148   07 Jun 2027 05:29:54.012   07 Jun 2027 05:30:06.437            12.425          5156.062
       149   07 Jun 2027 06:49:17.674   07 Jun 2027 06:49:34.002            16.328          7479.750
       150   07 Jun 2027 07:00:28.504   07 Jun 2027 07:00:34.487             5.983          2409.250
       151   07 Jun 2027 07:02:06.303   07 Jun 2027 07:02:08.758             2.455           495.687
       152   07 Jun 2027 08:23:05.815   07 Jun 2027 08:23:17.509            11.694          5417.375
       153   07 Jun 2027 08:24:18.419   07 Jun 2027 08:24:24.202             5.783           761.125
       154   07 Jun 2027 08:24:34.023   07 Jun 2027 08:24:36.179             2.156           306.906
       155   07 Jun 2027 08:25:34.012   07 Jun 2027 08:25:36.362             2.350           912.156
       156   07 Jun 2027 08:27:13.030   07 Jun 2027 08:27:13.030             0.000             0.000
       157   07 Jun 2027 09:58:40.960   07 Jun 2027 09:58:47.379             6.419          2532.313
       158   07 Jun 2027 10:02:28.209   07 Jun 2027 10:02:41.620            13.411          3704.219
       159   07 Jun 2027 10:03:11.276   07 Jun 2027 10:03:14.040             2.764           660.719
       160   07 Jun 2027 10:04:07.541   07 Jun 2027 10:04:11.061             3.520          1594.531
       161   07 Jun 2027 11:35:27.326   07 Jun 2027 11:35:27.326             0.000             0.000
       162   07 Jun 2027 11:41:23.595   07 Jun 2027 11:42:11.986            48.391         19497.187
       163   08 Jun 2027 03:56:53.491   08 Jun 2027 04:00:58.277           244.786        122393.000
       164   08 Jun 2027 04:01:46.189   08 Jun 2027 04:01:55.521             9.332          4666.000
       165   08 Jun 2027 04:02:13.508   08 Jun 2027 04:02:21.861             8.353          4176.500
       166   08 Jun 2027 05:35:57.820   08 Jun 2027 05:37:16.290            78.470         38840.844
       167   08 Jun 2027 05:37:57.733   08 Jun 2027 05:37:59.024             1.291           620.375
       168   08 Jun 2027 05:41:22.705   08 Jun 2027 05:41:30.059             7.354          3677.000
       169   08 Jun 2027 05:41:54.835   08 Jun 2027 05:41:58.001             3.166          1089.687
       170   08 Jun 2027 07:00:49.224   08 Jun 2027 07:01:02.142            12.918          6045.406
       171   08 Jun 2027 07:01:33.605   08 Jun 2027 07:01:36.766             3.161           983.219
       172   08 Jun 2027 07:12:32.164   08 Jun 2027 07:12:43.332            11.168          3201.312
       173   08 Jun 2027 08:34:46.140   08 Jun 2027 08:35:07.674            21.534          9976.156
       174   08 Jun 2027 08:35:36.073   08 Jun 2027 08:35:36.073             0.000             0.000
       175   08 Jun 2027 08:36:45.869   08 Jun 2027 08:36:50.090             4.221          1673.563
       176   08 Jun 2027 08:38:43.572   08 Jun 2027 08:38:51.854             8.282          3017.875
       177   08 Jun 2027 08:39:39.478   08 Jun 2027 08:39:42.426             2.948          1471.687
       178   08 Jun 2027 10:09:47.514   08 Jun 2027 10:09:54.607             7.093          2751.625
       179   08 Jun 2027 10:10:45.550   08 Jun 2027 10:10:51.309             5.759           740.094
       180   08 Jun 2027 10:12:36.651   08 Jun 2027 10:12:42.391             5.740          1684.375
       181   08 Jun 2027 10:13:30.399   08 Jun 2027 10:13:33.458             3.059          1209.719
       182   08 Jun 2027 10:15:41.370   08 Jun 2027 10:15:42.594             1.224           612.000
       183   08 Jun 2027 10:16:06.681   08 Jun 2027 10:16:11.646             4.965          1711.781
       184   08 Jun 2027 11:50:22.155   08 Jun 2027 11:50:49.149            26.994         12537.531
       185   08 Jun 2027 11:51:30.322   08 Jun 2027 11:51:32.096             1.774           512.688
       186   08 Jun 2027 11:53:26.805   08 Jun 2027 11:53:31.764             4.959          2163.187
       187   08 Jun 2027 11:54:02.760   08 Jun 2027 11:54:04.826             2.066           806.719
       188   09 Jun 2027 04:09:13.675   09 Jun 2027 04:09:26.302            12.627          6313.500
       189   09 Jun 2027 04:12:56.510   09 Jun 2027 04:14:20.277            83.767         41883.500
       190   09 Jun 2027 05:48:00.202   09 Jun 2027 05:50:58.771           178.569         89284.500
       191   09 Jun 2027 05:52:48.285   09 Jun 2027 05:53:32.154            43.869         21929.750
       192   09 Jun 2027 07:12:20.771   09 Jun 2027 07:12:33.219            12.448          6107.250
       193   09 Jun 2027 07:12:43.880   09 Jun 2027 07:12:48.330             4.450           333.156
       194   09 Jun 2027 07:13:20.976   09 Jun 2027 07:13:23.018             2.042          1020.188
       195   09 Jun 2027 07:14:20.157   09 Jun 2027 07:14:20.157             0.000             0.000
       196   09 Jun 2027 07:24:37.507   09 Jun 2027 07:24:44.315             6.808          3043.312
       197   09 Jun 2027 08:46:28.128   09 Jun 2027 08:46:45.467            17.339          7987.625
       198   09 Jun 2027 08:48:31.654   09 Jun 2027 08:48:37.312             5.658          2020.156
       199   09 Jun 2027 08:49:36.961   09 Jun 2027 08:49:39.440             2.479           877.094
       200   09 Jun 2027 08:51:15.535   09 Jun 2027 08:51:29.300            13.765          2884.156
       201   09 Jun 2027 08:51:36.304   09 Jun 2027 08:51:37.106             0.802           218.875
       202   09 Jun 2027 10:21:16.352   09 Jun 2027 10:21:21.639             5.287          2584.437
       203   09 Jun 2027 10:23:16.613   09 Jun 2027 10:23:21.594             4.981          2051.125
       204   09 Jun 2027 10:23:53.375   09 Jun 2027 10:23:55.847             2.472           733.156
       205   09 Jun 2027 10:25:05.859   09 Jun 2027 10:25:07.635             1.776           536.594
       206   09 Jun 2027 10:25:39.469   09 Jun 2027 10:25:40.150             0.681           175.125
       207   09 Jun 2027 10:26:18.342   09 Jun 2027 10:26:19.109             0.767           298.656
       208   09 Jun 2027 10:27:30.870   09 Jun 2027 10:27:34.180             3.310          1388.688
       209   09 Jun 2027 10:28:19.263   09 Jun 2027 10:28:19.263             0.000             0.000
       210   09 Jun 2027 10:28:25.139   09 Jun 2027 10:28:28.677             3.538           276.438
       211   10 Jun 2027 04:21:56.523   10 Jun 2027 04:22:12.194            15.671          7835.500
       212   10 Jun 2027 04:22:20.595   10 Jun 2027 04:23:33.027            72.432         36216.000
       213   10 Jun 2027 04:24:00.876   10 Jun 2027 04:24:58.978            58.102         29051.000
       214   10 Jun 2027 04:25:08.381   10 Jun 2027 04:25:21.387            13.006          6503.000
       215   10 Jun 2027 04:26:05.013   10 Jun 2027 04:26:07.327             2.314          1157.000
       216   10 Jun 2027 04:27:01.908   10 Jun 2027 04:27:10.931             9.023          4511.500
       217   10 Jun 2027 06:00:24.808   10 Jun 2027 06:02:54.721           149.913         74956.500
       218   10 Jun 2027 06:03:50.807   10 Jun 2027 06:04:04.248            13.441          6720.500
       219   10 Jun 2027 06:04:10.463   10 Jun 2027 06:04:16.466             6.003          2283.187
       220   10 Jun 2027 06:05:23.604   10 Jun 2027 06:05:26.391             2.787           962.844
       221   10 Jun 2027 07:24:19.163   10 Jun 2027 07:24:30.013            10.850          5422.437
       222   10 Jun 2027 07:25:19.813   10 Jun 2027 07:25:23.859             4.046          1094.000
       223   10 Jun 2027 07:26:32.725   10 Jun 2027 07:26:35.667             2.942          1471.000
       224   10 Jun 2027 09:00:16.278   10 Jun 2027 09:00:38.528            22.250         10787.906
       225   10 Jun 2027 09:00:49.247   10 Jun 2027 09:00:50.653             1.406           247.313
       226   10 Jun 2027 09:01:17.195   10 Jun 2027 09:01:17.195             0.000             0.000
       227   10 Jun 2027 09:01:54.193   10 Jun 2027 09:01:59.199             5.006          1985.625
       228   10 Jun 2027 09:02:58.115   10 Jun 2027 09:03:01.930             3.815           579.250
       229   10 Jun 2027 09:03:35.517   10 Jun 2027 09:03:38.648             3.131           790.219
       230   10 Jun 2027 10:34:04.983   10 Jun 2027 10:34:09.627             4.644          2086.375
       231   10 Jun 2027 10:36:06.938   10 Jun 2027 10:36:09.549             2.611           684.406
       232   10 Jun 2027 10:36:24.693   10 Jun 2027 10:36:28.727             4.034            56.062
       233   10 Jun 2027 10:38:51.432   10 Jun 2027 10:39:00.181             8.749          3970.031
       234   10 Jun 2027 10:39:53.206   10 Jun 2027 10:39:54.018             0.812           406.000
       235   10 Jun 2027 10:40:59.315   10 Jun 2027 10:41:05.383             6.068          2222.750
       236   10 Jun 2027 10:41:25.989   10 Jun 2027 10:41:27.025             1.036           138.094
       237   10 Jun 2027 10:42:07.799   10 Jun 2027 10:42:09.682             1.883           213.719
       238   11 Jun 2027 03:00:33.446   11 Jun 2027 03:01:12.642            39.196         19598.000
       239   11 Jun 2027 03:02:23.793   11 Jun 2027 03:02:29.245             5.452          2726.000
       240   11 Jun 2027 03:03:03.397   11 Jun 2027 03:03:21.929            18.532          9266.000
       241   11 Jun 2027 04:34:40.900   11 Jun 2027 04:35:00.109            19.209          9604.500
       242   11 Jun 2027 04:35:14.263   11 Jun 2027 04:36:08.973            54.710         27355.000
       243   11 Jun 2027 04:36:10.453   11 Jun 2027 04:37:08.403            57.950         28975.000
       244   11 Jun 2027 04:38:53.626   11 Jun 2027 04:39:02.604             8.978          4489.000
       245   11 Jun 2027 04:40:24.899   11 Jun 2027 04:40:42.653            17.754          8877.000
       246   11 Jun 2027 06:12:48.570   11 Jun 2027 06:14:56.860           128.290         63307.375
       247   11 Jun 2027 06:16:40.164   11 Jun 2027 06:16:47.727             7.563           572.500
       248   11 Jun 2027 06:17:25.727   11 Jun 2027 06:17:30.133             4.406          1145.906
       249   11 Jun 2027 07:36:12.284   11 Jun 2027 07:36:29.787            17.503          6965.188
       250   11 Jun 2027 07:37:34.572   11 Jun 2027 07:37:39.405             4.833          1753.312
       251   11 Jun 2027 07:37:58.043   11 Jun 2027 07:37:58.958             0.915           457.500
       252   11 Jun 2027 07:38:00.438   11 Jun 2027 07:38:01.236             0.798           152.688
       253   11 Jun 2027 07:38:21.713   11 Jun 2027 07:38:22.904             1.191           414.969
       254   11 Jun 2027 09:12:34.708   11 Jun 2027 09:13:00.074            25.366          8591.563
       255   11 Jun 2027 09:13:14.525   11 Jun 2027 09:13:21.165             6.640           264.312
       256   11 Jun 2027 09:13:40.231   11 Jun 2027 09:13:41.393             1.162           551.969
       257   11 Jun 2027 09:15:10.548   11 Jun 2027 09:15:16.760             6.212          2786.094
       258   11 Jun 2027 09:15:28.095   11 Jun 2027 09:15:34.179             6.084           354.219
       259   11 Jun 2027 10:46:26.504   11 Jun 2027 10:46:39.906            13.402          4085.844
       260   11 Jun 2027 10:48:38.462   11 Jun 2027 10:48:40.101             1.639           638.656
       261   11 Jun 2027 10:51:57.669   11 Jun 2027 10:52:16.323            18.654          4635.438
       262   11 Jun 2027 10:53:17.144   11 Jun 2027 10:53:19.243             2.099           399.437
       263   11 Jun 2027 10:54:00.350   11 Jun 2027 10:54:03.012             2.662           872.688
       264   12 Jun 2027 03:08:26.245   12 Jun 2027 03:08:46.597            20.352         10176.000
       265   12 Jun 2027 03:09:53.657   12 Jun 2027 03:10:33.628            39.971         19985.500
       266   12 Jun 2027 03:11:37.361   12 Jun 2027 03:11:53.304            15.943          7971.500
       267   12 Jun 2027 03:12:14.563   12 Jun 2027 03:12:29.900            15.337          7668.500
       268   12 Jun 2027 03:12:50.026   12 Jun 2027 03:12:50.026             0.000             0.000
       269   12 Jun 2027 03:13:44.966   12 Jun 2027 03:13:59.129            14.163          7081.500
       270   12 Jun 2027 03:14:05.022   12 Jun 2027 03:14:07.523             2.501          1250.500
       271   12 Jun 2027 03:14:24.602   12 Jun 2027 03:14:29.284             4.682          2341.000
       272   12 Jun 2027 03:14:59.408   12 Jun 2027 03:15:08.748             9.340          4670.000
       273   12 Jun 2027 03:15:18.722   12 Jun 2027 03:15:25.989             7.267          3633.500
       274   12 Jun 2027 04:46:45.804   12 Jun 2027 04:47:40.807            55.003         27501.500
       275   12 Jun 2027 04:47:46.601   12 Jun 2027 04:49:18.149            91.548         45774.000
       276   12 Jun 2027 04:49:34.391   12 Jun 2027 04:49:51.507            17.116          8558.000
       277   12 Jun 2027 04:49:57.742   12 Jun 2027 04:50:29.121            31.379         14948.375
       278   12 Jun 2027 04:51:14.795   12 Jun 2027 04:51:18.506             3.711           233.969
       279   12 Jun 2027 06:25:07.927   12 Jun 2027 06:25:35.389            27.462         12185.750
       280   12 Jun 2027 06:28:27.288   12 Jun 2027 06:28:28.095             0.807           321.438
       281   12 Jun 2027 07:48:01.072   12 Jun 2027 07:48:23.930            22.858          6996.094
       282   12 Jun 2027 07:49:35.786   12 Jun 2027 07:49:45.524             9.738          2066.188
       283   12 Jun 2027 07:49:57.403   12 Jun 2027 07:49:57.808             0.405           143.063
       284   12 Jun 2027 09:24:38.289   12 Jun 2027 09:24:48.956            10.667          4119.250
       285   12 Jun 2027 09:25:44.480   12 Jun 2027 09:25:48.213             3.733          1004.719
       286   12 Jun 2027 09:26:23.025   12 Jun 2027 09:26:23.229             0.204           102.000
       287   12 Jun 2027 09:26:44.319   12 Jun 2027 09:26:49.277             4.958          1644.938
       288   12 Jun 2027 10:59:44.542   12 Jun 2027 10:59:52.355             7.813          3875.750
       289   12 Jun 2027 11:02:48.966   12 Jun 2027 11:02:57.940             8.974          4330.062
       290   12 Jun 2027 11:05:42.643   12 Jun 2027 11:05:53.173            10.530          4754.000
       291   12 Jun 2027 11:06:00.966   12 Jun 2027 11:06:03.476             2.510             7.469
       292   12 Jun 2027 11:06:26.477   12 Jun 2027 11:06:27.312             0.835           178.563
       293   13 Jun 2027 03:20:26.763   13 Jun 2027 03:21:13.022            46.259         23129.500
       294   13 Jun 2027 03:21:22.321   13 Jun 2027 03:24:06.648           164.327         82163.500
       295   13 Jun 2027 03:24:31.608   13 Jun 2027 03:24:54.824            23.216         11608.000
       296   13 Jun 2027 04:58:35.263   13 Jun 2027 04:59:11.124            35.861         17930.500
       297   13 Jun 2027 05:00:04.015   13 Jun 2027 05:01:14.515            70.500         35201.437
       298   13 Jun 2027 05:04:05.931   13 Jun 2027 05:04:09.457             3.526          1754.906
       299   13 Jun 2027 06:36:52.272   13 Jun 2027 06:37:01.411             9.139          3660.938
       300   13 Jun 2027 06:38:39.592   13 Jun 2027 06:38:44.759             5.167          1194.719
       301   13 Jun 2027 06:40:12.861   13 Jun 2027 06:40:12.943             0.082             1.125
       302   13 Jun 2027 06:40:27.091   13 Jun 2027 06:40:28.550             1.459           391.875
       303   13 Jun 2027 08:00:15.216   13 Jun 2027 08:00:28.646            13.430          3662.906
       304   13 Jun 2027 08:00:52.738   13 Jun 2027 08:00:55.077             2.339           208.781
       305   13 Jun 2027 08:01:17.427   13 Jun 2027 08:01:20.834             3.407           434.281
       306   13 Jun 2027 08:02:50.914   13 Jun 2027 08:02:56.485             5.571          2318.500
       307   13 Jun 2027 09:36:48.540   13 Jun 2027 09:36:55.984             7.444          2600.656
       308   13 Jun 2027 09:39:01.098   13 Jun 2027 09:39:01.098             0.000             0.000
       309   13 Jun 2027 09:39:14.937   13 Jun 2027 09:39:16.033             1.096           548.000
       310   13 Jun 2027 11:11:58.640   13 Jun 2027 11:12:11.989            13.349          6667.844
       311   13 Jun 2027 11:14:46.320   13 Jun 2027 11:14:56.806            10.486          4589.625
       312   13 Jun 2027 11:18:17.325   13 Jun 2027 11:18:31.456            14.131          5712.406
