uniorb/output/strategy_4/Camera/Camera_KinoSat_112006.txt

KinoSat_112006
-------------------------
    Access    *     Start Time (UTCG)     *     Stop Time (UTCG)  *   Duration (s) *   Data (Mbytes)
         1   01 Jun 2027 04:23:52.702   01 Jun 2027 04:25:34.185           101.483         50741.500
         2   01 Jun 2027 04:25:34.335   01 Jun 2027 04:26:20.805            46.470         23235.000
         3   01 Jun 2027 06:02:56.996   01 Jun 2027 06:05:14.808           137.812         68906.000
         4   01 Jun 2027 06:07:14.644   01 Jun 2027 06:07:14.644             0.000             0.000
         5   01 Jun 2027 06:08:09.881   01 Jun 2027 06:08:18.050             8.169          4084.500
         6   01 Jun 2027 06:09:43.925   01 Jun 2027 06:09:59.453            15.528          7764.000
         7   01 Jun 2027 07:27:49.257   01 Jun 2027 07:29:19.701            90.444         45222.000
         8   01 Jun 2027 07:39:31.418   01 Jun 2027 07:40:31.953            60.535         30267.500
         9   01 Jun 2027 09:01:44.961   01 Jun 2027 09:02:56.141            71.180         35590.000
        10   01 Jun 2027 09:03:45.859   01 Jun 2027 09:05:34.825           108.966         54483.000
        11   01 Jun 2027 10:36:49.018   01 Jun 2027 10:37:26.674            37.656         18828.000
        12   02 Jun 2027 03:00:01.799   02 Jun 2027 03:00:19.390            17.591          8795.500
        13   02 Jun 2027 03:01:35.754   02 Jun 2027 03:01:45.651             9.897          4948.500
        14   02 Jun 2027 03:02:32.596   02 Jun 2027 03:02:54.910            22.314         11157.000
        15   02 Jun 2027 03:04:31.450   02 Jun 2027 03:04:49.105            17.655          8827.500
        16   02 Jun 2027 03:05:55.777   02 Jun 2027 03:06:16.342            20.565         10282.500
        17   02 Jun 2027 04:36:18.478   02 Jun 2027 04:36:27.735             9.257          4628.500
        18   02 Jun 2027 04:36:44.465   02 Jun 2027 04:37:19.542            35.077         17538.500
        19   02 Jun 2027 04:37:22.892   02 Jun 2027 04:38:50.638            87.746         43873.000
        20   02 Jun 2027 04:39:51.148   02 Jun 2027 04:39:54.417             3.269          1634.500
        21   02 Jun 2027 06:14:59.226   02 Jun 2027 06:18:24.861           205.635        102817.500
        22   02 Jun 2027 06:19:50.196   02 Jun 2027 06:22:02.267           132.071         66035.500
        23   02 Jun 2027 07:39:19.422   02 Jun 2027 07:39:37.986            18.564          9282.000
        24   02 Jun 2027 07:40:52.823   02 Jun 2027 07:41:25.888            33.065         16532.500
        25   02 Jun 2027 07:51:33.763   02 Jun 2027 07:51:36.252             2.489          1244.500
        26   02 Jun 2027 09:14:04.971   02 Jun 2027 09:14:44.655            39.684         19842.000
        27   02 Jun 2027 09:15:32.310   02 Jun 2027 09:17:52.822           140.512         69519.563
        28   02 Jun 2027 09:18:36.183   02 Jun 2027 09:18:36.183             0.000             0.000
        29   02 Jun 2027 09:18:36.405   02 Jun 2027 09:18:39.869             3.464          1361.969
        30   02 Jun 2027 10:48:17.279   02 Jun 2027 10:48:28.056            10.777          5191.625
        31   02 Jun 2027 10:50:21.237   02 Jun 2027 10:50:29.521             8.284          1952.313
        32   02 Jun 2027 10:54:06.560   02 Jun 2027 10:54:28.744            22.184          6676.812
        33   03 Jun 2027 03:11:16.718   03 Jun 2027 03:11:30.454            13.736          6868.000
        34   03 Jun 2027 03:13:32.848   03 Jun 2027 03:13:48.418            15.570          7785.000
        35   03 Jun 2027 03:14:00.086   03 Jun 2027 03:15:42.189           102.103         51051.500
        36   03 Jun 2027 03:17:26.968   03 Jun 2027 03:18:17.299            50.331         25165.500
        37   03 Jun 2027 04:48:55.798   03 Jun 2027 04:49:14.993            19.195          9597.500
        38   03 Jun 2027 04:49:20.480   03 Jun 2027 04:50:33.187            72.707         36353.500
        39   03 Jun 2027 04:50:59.897   03 Jun 2027 04:51:25.402            25.505         12752.500
        40   03 Jun 2027 06:27:22.779   03 Jun 2027 06:28:28.459            65.680         32659.312
        41   03 Jun 2027 06:28:34.113   03 Jun 2027 06:28:36.269             2.156           176.688
        42   03 Jun 2027 06:29:18.191   03 Jun 2027 06:29:18.948             0.757           150.937
        43   03 Jun 2027 06:29:55.953   03 Jun 2027 06:29:58.981             3.028           830.188
        44   03 Jun 2027 06:30:32.408   03 Jun 2027 06:30:34.525             2.117          1044.594
        45   03 Jun 2027 06:30:56.091   03 Jun 2027 06:30:58.227             2.136           673.937
        46   03 Jun 2027 06:31:22.343   03 Jun 2027 06:31:29.164             6.821           695.563
        47   03 Jun 2027 06:32:15.452   03 Jun 2027 06:32:16.925             1.473           588.156
        48   03 Jun 2027 07:51:19.008   03 Jun 2027 07:51:29.607            10.599          3485.219
        49   03 Jun 2027 07:52:37.137   03 Jun 2027 07:52:44.353             7.216          1318.250
        50   03 Jun 2027 09:27:15.809   03 Jun 2027 09:27:29.245            13.436          5979.750
        51   03 Jun 2027 09:28:06.927   03 Jun 2027 09:28:09.463             2.536          1047.562
        52   03 Jun 2027 09:29:03.446   03 Jun 2027 09:29:08.021             4.575          1532.156
        53   03 Jun 2027 09:30:16.363   03 Jun 2027 09:30:18.854             2.491           816.906
        54   03 Jun 2027 11:01:06.311   03 Jun 2027 11:01:12.358             6.047          3008.656
        55   03 Jun 2027 11:03:23.934   03 Jun 2027 11:03:23.934             0.000             0.000
        56   03 Jun 2027 11:07:16.458   03 Jun 2027 11:07:38.668            22.210          8332.000
        57   03 Jun 2027 11:08:36.863   03 Jun 2027 11:08:41.661             4.798          1367.344
        58   03 Jun 2027 11:08:42.550   03 Jun 2027 11:08:42.659             0.109            23.875
        59   03 Jun 2027 11:09:04.746   03 Jun 2027 11:09:08.584             3.838           388.625
        60   04 Jun 2027 03:23:16.805   04 Jun 2027 03:23:32.797            15.992          7996.000
        61   04 Jun 2027 03:25:27.380   04 Jun 2027 03:25:36.324             8.944          4472.000
        62   04 Jun 2027 03:25:55.890   04 Jun 2027 03:28:32.713           156.823         78411.500
        63   04 Jun 2027 03:30:29.823   04 Jun 2027 03:30:50.350            20.527         10263.500
        64   04 Jun 2027 05:03:00.528   04 Jun 2027 05:03:08.583             8.055          4027.500
        65   04 Jun 2027 05:03:10.492   04 Jun 2027 05:04:18.724            68.232         34116.000
        66   04 Jun 2027 05:05:56.967   04 Jun 2027 05:06:57.070            60.103         29887.968
        67   04 Jun 2027 05:07:07.737   04 Jun 2027 05:07:08.146             0.409           186.844
        68   04 Jun 2027 05:07:20.493   04 Jun 2027 05:07:23.827             3.334           377.000
        69   04 Jun 2027 05:07:37.169   04 Jun 2027 05:07:39.136             1.967           115.781
        70   04 Jun 2027 06:39:49.077   04 Jun 2027 06:40:15.049            25.972         12425.344
        71   04 Jun 2027 06:41:04.053   04 Jun 2027 06:41:07.690             3.637           344.187
        72   04 Jun 2027 06:42:29.026   04 Jun 2027 06:42:32.488             3.462          1006.938
        73   04 Jun 2027 06:43:53.946   04 Jun 2027 06:43:59.606             5.660          2338.469
        74   04 Jun 2027 08:03:13.615   04 Jun 2027 08:03:24.854            11.239          4042.125
        75   04 Jun 2027 08:04:38.617   04 Jun 2027 08:04:42.908             4.291          1572.844
        76   04 Jun 2027 08:05:32.797   04 Jun 2027 08:05:34.120             1.323           661.500
        77   04 Jun 2027 09:39:37.897   04 Jun 2027 09:39:48.960            11.063          3841.156
        78   04 Jun 2027 09:41:00.450   04 Jun 2027 09:41:06.235             5.785          1733.969
        79   04 Jun 2027 09:41:45.671   04 Jun 2027 09:41:46.454             0.783           391.500
        80   04 Jun 2027 09:42:36.781   04 Jun 2027 09:42:41.676             4.895          2096.125
        81   04 Jun 2027 11:13:20.297   04 Jun 2027 11:13:30.595            10.298          4442.281
        82   04 Jun 2027 11:16:51.992   04 Jun 2027 11:16:57.549             5.557          2778.500
        83   04 Jun 2027 11:17:41.500   04 Jun 2027 11:17:44.255             2.755          1375.437
        84   04 Jun 2027 11:18:12.878   04 Jun 2027 11:18:16.807             3.929           874.469
        85   04 Jun 2027 11:18:30.542   04 Jun 2027 11:18:32.667             2.125           429.219
        86   04 Jun 2027 11:19:03.926   04 Jun 2027 11:19:07.147             3.221           646.406
        87   04 Jun 2027 11:19:48.857   04 Jun 2027 11:19:55.955             7.098          1303.437
        88   04 Jun 2027 11:20:26.361   04 Jun 2027 11:20:28.128             1.767           740.281
        89   04 Jun 2027 11:20:53.393   04 Jun 2027 11:20:55.158             1.765           301.000
        90   04 Jun 2027 11:21:35.136   04 Jun 2027 11:21:36.800             1.664           832.000
        91   05 Jun 2027 03:35:29.644   05 Jun 2027 03:35:44.313            14.669          7334.500
        92   05 Jun 2027 03:35:51.076   05 Jun 2027 03:36:15.490            24.414         12207.000
        93   05 Jun 2027 03:36:54.965   05 Jun 2027 03:39:37.436           162.471         81235.500
        94   05 Jun 2027 03:40:05.313   05 Jun 2027 03:40:06.475             1.162           581.000
        95   05 Jun 2027 03:41:12.042   05 Jun 2027 03:41:32.897            20.855         10427.500
        96   05 Jun 2027 05:14:38.917   05 Jun 2027 05:14:40.316             1.399           699.500
        97   05 Jun 2027 05:14:46.568   05 Jun 2027 05:15:34.855            48.287         24143.500
        98   05 Jun 2027 05:16:45.678   05 Jun 2027 05:17:24.599            38.921         19460.500
        99   05 Jun 2027 05:19:00.199   05 Jun 2027 05:19:16.957            16.758          8379.000
       100   05 Jun 2027 06:52:07.014   05 Jun 2027 06:52:43.583            36.569         16396.844
       101   05 Jun 2027 06:53:19.078   05 Jun 2027 06:53:22.108             3.030           489.250
       102   05 Jun 2027 06:53:44.628   05 Jun 2027 06:53:45.856             1.228           385.719
       103   05 Jun 2027 06:54:14.252   05 Jun 2027 06:54:17.758             3.506           290.187
       104   05 Jun 2027 06:55:27.822   05 Jun 2027 06:55:33.361             5.539          1346.719
       105   05 Jun 2027 08:15:01.137   05 Jun 2027 08:15:16.415            15.278          7125.313
       106   05 Jun 2027 08:16:39.874   05 Jun 2027 08:16:48.865             8.991          1902.437
       107   05 Jun 2027 08:17:00.649   05 Jun 2027 08:17:02.687             2.038            30.063
       108   05 Jun 2027 09:51:40.418   05 Jun 2027 09:51:48.616             8.198          3314.812
       109   05 Jun 2027 09:52:40.459   05 Jun 2027 09:52:44.254             3.795           805.312
       110   05 Jun 2027 09:53:02.186   05 Jun 2027 09:53:03.737             1.551           560.375
       111   05 Jun 2027 11:27:15.920   05 Jun 2027 11:27:21.415             5.495          2747.500
       112   05 Jun 2027 11:28:01.564   05 Jun 2027 11:28:29.209            27.645          8744.062
       113   05 Jun 2027 11:29:53.202   05 Jun 2027 11:29:57.278             4.076          2019.969
       114   05 Jun 2027 11:30:43.039   05 Jun 2027 11:30:45.633             2.594          1297.000
       115   05 Jun 2027 11:33:30.559   05 Jun 2027 11:33:31.766             1.207           603.500
       116   06 Jun 2027 03:47:26.509   06 Jun 2027 03:48:08.385            41.876         20938.000
       117   06 Jun 2027 03:48:23.462   06 Jun 2027 03:50:39.430           135.968         67984.000
       118   06 Jun 2027 03:52:05.859   06 Jun 2027 03:52:05.859             0.000             0.000
       119   06 Jun 2027 03:53:27.335   06 Jun 2027 03:53:46.221            18.886          9443.000
       120   06 Jun 2027 05:25:34.832   06 Jun 2027 05:26:36.118            61.286         30643.000
       121   06 Jun 2027 05:26:42.812   06 Jun 2027 05:27:53.057            70.245         34943.250
       122   06 Jun 2027 05:29:54.522   06 Jun 2027 05:30:00.467             5.945          2271.719
       123   06 Jun 2027 05:31:22.959   06 Jun 2027 05:31:28.525             5.566          2577.875
       124   06 Jun 2027 05:31:44.935   06 Jun 2027 05:31:46.957             2.022            26.812
       125   06 Jun 2027 07:03:52.277   06 Jun 2027 07:04:04.276            11.999          5349.344
       126   06 Jun 2027 07:04:28.531   06 Jun 2027 07:04:31.512             2.981            43.000
       127   06 Jun 2027 07:05:59.940   06 Jun 2027 07:06:00.603             0.663           188.719
       128   06 Jun 2027 07:06:43.730   06 Jun 2027 07:06:47.978             4.248           786.500
       129   06 Jun 2027 07:07:21.980   06 Jun 2027 07:07:24.738             2.758          1005.906
       130   06 Jun 2027 08:27:15.923   06 Jun 2027 08:27:32.624            16.701          7421.469
       131   06 Jun 2027 08:27:56.779   06 Jun 2027 08:28:01.126             4.347           590.375
       132   06 Jun 2027 08:28:45.724   06 Jun 2027 08:28:48.050             2.326           758.469
       133   06 Jun 2027 08:29:50.972   06 Jun 2027 08:29:54.684             3.712          1713.875
       134   06 Jun 2027 10:03:47.744   06 Jun 2027 10:03:54.094             6.350          2224.656
       135   06 Jun 2027 10:05:34.120   06 Jun 2027 10:05:47.549            13.429          2422.656
       136   06 Jun 2027 10:06:47.556   06 Jun 2027 10:06:53.036             5.480          1745.625
       137   06 Jun 2027 11:38:58.181   06 Jun 2027 11:39:17.294            19.113          9544.563
       138   06 Jun 2027 11:42:18.673   06 Jun 2027 11:42:18.673             0.000             0.000
       139   06 Jun 2027 11:45:14.580   06 Jun 2027 11:45:34.119            19.539          9769.500
       140   07 Jun 2027 03:59:23.814   07 Jun 2027 03:59:53.581            29.767         14883.500
       141   07 Jun 2027 03:59:53.703   07 Jun 2027 04:00:40.816            47.113         23556.500
       142   07 Jun 2027 04:02:07.662   07 Jun 2027 04:03:34.851            87.189         43594.500
       143   07 Jun 2027 04:03:58.804   07 Jun 2027 04:04:15.874            17.070          8535.000
       144   07 Jun 2027 05:38:41.596   07 Jun 2027 05:41:26.882           165.286         82643.000
       145   07 Jun 2027 05:45:20.096   07 Jun 2027 05:45:39.161            19.065          7581.094
       146   07 Jun 2027 07:15:49.305   07 Jun 2027 07:16:00.937            11.632          5420.500
       147   07 Jun 2027 07:16:19.767   07 Jun 2027 07:16:20.731             0.964           404.563
       148   07 Jun 2027 07:16:55.977   07 Jun 2027 07:16:59.899             3.922           844.500
       149   07 Jun 2027 07:17:20.956   07 Jun 2027 07:17:23.868             2.912           576.437
       150   07 Jun 2027 07:18:11.621   07 Jun 2027 07:18:14.925             3.304           578.906
       151   07 Jun 2027 07:19:00.149   07 Jun 2027 07:19:01.666             1.517           678.406
       152   07 Jun 2027 07:19:02.254   07 Jun 2027 07:19:02.527             0.273            16.250
       153   07 Jun 2027 08:39:46.055   07 Jun 2027 08:40:11.944            25.889          9595.844
       154   07 Jun 2027 08:40:56.909   07 Jun 2027 08:40:59.427             2.518          1010.875
       155   07 Jun 2027 10:15:40.622   07 Jun 2027 10:15:50.500             9.878          4157.781
       156   07 Jun 2027 10:17:24.525   07 Jun 2027 10:17:29.349             4.824          2135.188
       157   07 Jun 2027 10:18:19.300   07 Jun 2027 10:18:21.809             2.509           149.781
       158   07 Jun 2027 11:57:15.627   07 Jun 2027 11:57:42.034            26.407         13203.500
       159   08 Jun 2027 04:12:05.204   08 Jun 2027 04:12:42.444            37.240         18620.000
       160   08 Jun 2027 04:13:49.015   08 Jun 2027 04:15:30.040           101.025         50512.500
       161   08 Jun 2027 04:15:51.311   08 Jun 2027 04:15:59.878             8.567          4283.500
       162   08 Jun 2027 05:50:45.822   08 Jun 2027 05:53:27.036           161.214         80607.000
       163   08 Jun 2027 05:56:21.821   08 Jun 2027 05:56:23.702             1.881           940.500
       164   08 Jun 2027 05:56:33.206   08 Jun 2027 05:57:28.824            55.618         27761.031
       165   08 Jun 2027 07:16:34.702   08 Jun 2027 07:16:49.723            15.021          7510.500
       166   08 Jun 2027 07:17:09.761   08 Jun 2027 07:17:15.810             6.049          1406.281
       167   08 Jun 2027 07:27:46.081   08 Jun 2027 07:27:51.704             5.623          2156.563
       168   08 Jun 2027 07:28:53.130   08 Jun 2027 07:28:55.954             2.824           697.594
       169   08 Jun 2027 07:30:27.043   08 Jun 2027 07:30:29.763             2.720          1310.188
       170   08 Jun 2027 08:50:23.234   08 Jun 2027 08:50:43.457            20.223          8742.219
       171   08 Jun 2027 08:52:41.705   08 Jun 2027 08:52:50.014             8.309          3079.281
       172   08 Jun 2027 08:54:12.142   08 Jun 2027 08:54:19.913             7.771          2279.406
       173   08 Jun 2027 10:25:58.020   08 Jun 2027 10:26:07.825             9.805          3696.375
       174   08 Jun 2027 10:28:15.065   08 Jun 2027 10:28:20.978             5.913          2549.281
       175   08 Jun 2027 10:30:41.193   08 Jun 2027 10:30:48.416             7.223          2804.719
       176   08 Jun 2027 10:31:53.605   08 Jun 2027 10:31:53.605             0.000             0.000
       177   08 Jun 2027 10:31:54.874   08 Jun 2027 10:31:58.255             3.381          1453.812
       178   09 Jun 2027 04:24:11.349   09 Jun 2027 04:26:34.768           143.419         71709.500
       179   09 Jun 2027 06:03:15.998   09 Jun 2027 06:06:28.534           192.536         96268.000
       180   09 Jun 2027 06:08:39.316   09 Jun 2027 06:08:56.546            17.230          6433.469
       181   09 Jun 2027 07:28:06.719   09 Jun 2027 07:28:19.214            12.495          5194.781
       182   09 Jun 2027 07:28:44.215   09 Jun 2027 07:28:49.041             4.826           781.281
       183   09 Jun 2027 07:29:36.275   09 Jun 2027 07:29:39.817             3.542          1396.969
       184   09 Jun 2027 07:39:47.004   09 Jun 2027 07:39:57.322            10.318          3583.187
       185   09 Jun 2027 09:02:04.515   09 Jun 2027 09:02:27.585            23.070         11535.000
       186   09 Jun 2027 09:03:00.304   09 Jun 2027 09:03:09.900             9.596          3175.844
       187   09 Jun 2027 09:04:28.759   09 Jun 2027 09:04:37.278             8.519          1214.531
       188   09 Jun 2027 10:37:04.717   09 Jun 2027 10:37:20.414            15.697          6051.844
       189   09 Jun 2027 10:38:22.272   09 Jun 2027 10:38:29.666             7.394           183.250
       190   09 Jun 2027 10:41:16.869   09 Jun 2027 10:41:31.849            14.980          3231.156
       191   09 Jun 2027 10:43:12.200   09 Jun 2027 10:43:18.987             6.787          3022.031
       192   10 Jun 2027 03:00:00.000   10 Jun 2027 03:00:07.901             7.901          3950.500
       193   10 Jun 2027 03:00:38.738   10 Jun 2027 03:00:42.067             3.329          1664.500
       194   10 Jun 2027 03:01:50.367   10 Jun 2027 03:02:00.728            10.361          5180.500
       195   10 Jun 2027 03:02:47.548   10 Jun 2027 03:03:09.744            22.196         11098.000
       196   10 Jun 2027 03:05:21.317   10 Jun 2027 03:05:27.392             6.075          3037.500
       197   10 Jun 2027 03:06:01.300   10 Jun 2027 03:06:31.923            30.623         15311.500
       198   10 Jun 2027 04:36:31.593   10 Jun 2027 04:36:55.670            24.077         12038.500
       199   10 Jun 2027 04:37:20.967   10 Jun 2027 04:37:37.279            16.312          8156.000
       200   10 Jun 2027 04:37:41.195   10 Jun 2027 04:38:36.183            54.988         27494.000
       201   10 Jun 2027 04:38:37.334   10 Jun 2027 04:39:41.768            64.434         32217.000
       202   10 Jun 2027 06:15:18.323   10 Jun 2027 06:17:16.590           118.267         59048.813
       203   10 Jun 2027 06:17:34.796   10 Jun 2027 06:17:35.111             0.315            58.781
       204   10 Jun 2027 06:18:03.188   10 Jun 2027 06:18:05.487             2.299           668.719
       205   10 Jun 2027 06:18:20.826   10 Jun 2027 06:18:23.511             2.685           479.344
       206   10 Jun 2027 06:19:04.897   10 Jun 2027 06:19:07.510             2.613          1032.656
       207   10 Jun 2027 06:19:47.085   10 Jun 2027 06:19:48.972             1.887           798.813
       208   10 Jun 2027 06:20:14.279   10 Jun 2027 06:20:16.007             1.728           480.813
       209   10 Jun 2027 06:20:46.094   10 Jun 2027 06:20:48.406             2.312           803.125
       210   10 Jun 2027 07:39:38.606   10 Jun 2027 07:39:50.124            11.518          5759.000
       211   10 Jun 2027 07:40:19.278   10 Jun 2027 07:40:23.384             4.106          1028.500
       212   10 Jun 2027 07:40:39.998   10 Jun 2027 07:40:41.605             1.607           399.438
       213   10 Jun 2027 07:40:53.326   10 Jun 2027 07:40:55.730             2.404           277.375
       214   10 Jun 2027 07:41:37.845   10 Jun 2027 07:41:39.932             2.087           728.938
       215   10 Jun 2027 07:51:54.975   10 Jun 2027 07:52:01.831             6.856          3126.031
       216   10 Jun 2027 09:13:45.583   10 Jun 2027 09:14:09.927            24.344          8895.500
       217   10 Jun 2027 09:15:49.045   10 Jun 2027 09:15:53.744             4.699          2112.000
       218   10 Jun 2027 09:16:30.664   10 Jun 2027 09:16:34.890             4.226           930.437
       219   10 Jun 2027 09:17:11.559   10 Jun 2027 09:17:14.377             2.818            58.313
       220   10 Jun 2027 09:17:41.991   10 Jun 2027 09:17:44.753             2.762           152.844
       221   10 Jun 2027 09:18:51.573   10 Jun 2027 09:18:55.473             3.900          1313.656
       222   10 Jun 2027 10:49:34.880   10 Jun 2027 10:49:49.904            15.024          5169.219
       223   10 Jun 2027 10:54:20.974   10 Jun 2027 10:54:45.658            24.684          6988.781
       224   11 Jun 2027 03:11:34.630   11 Jun 2027 03:11:46.283            11.653          5826.500
       225   11 Jun 2027 03:13:47.732   11 Jun 2027 03:14:03.492            15.760          7880.000
       226   11 Jun 2027 03:14:15.008   11 Jun 2027 03:15:31.334            76.326         38163.000
       227   11 Jun 2027 03:16:09.457   11 Jun 2027 03:17:07.789            58.332         29166.000
       228   11 Jun 2027 03:17:16.547   11 Jun 2027 03:17:26.154             9.607          4803.500
       229   11 Jun 2027 03:18:33.489   11 Jun 2027 03:18:53.809            20.320         10160.000
       230   11 Jun 2027 04:49:14.548   11 Jun 2027 04:49:28.936            14.388          7194.000
       231   11 Jun 2027 04:49:38.197   11 Jun 2027 04:50:49.904            71.707         35853.500
       232   11 Jun 2027 04:51:19.297   11 Jun 2027 04:51:39.704            20.407         10203.500
       233   11 Jun 2027 06:27:43.967   11 Jun 2027 06:28:51.780            67.813         33716.344
       234   11 Jun 2027 06:29:28.864   11 Jun 2027 06:29:32.918             4.054          1158.875
       235   11 Jun 2027 06:30:08.581   11 Jun 2027 06:30:11.993             3.412          1114.469
       236   11 Jun 2027 06:30:49.101   11 Jun 2027 06:30:49.544             0.443           221.500
       237   11 Jun 2027 06:31:10.911   11 Jun 2027 06:31:14.406             3.495          1554.031
       238   11 Jun 2027 06:31:17.061   11 Jun 2027 06:31:17.354             0.293            76.062
       239   11 Jun 2027 06:31:37.900   11 Jun 2027 06:31:45.920             8.020           436.656
       240   11 Jun 2027 07:51:36.837   11 Jun 2027 07:51:44.815             7.978          3525.594
       241   11 Jun 2027 07:52:56.333   11 Jun 2027 07:52:59.428             3.095          1420.156
       242   11 Jun 2027 09:27:34.133   11 Jun 2027 09:27:46.755            12.622          5910.375
       243   11 Jun 2027 09:28:27.853   11 Jun 2027 09:28:32.224             4.371          1065.906
       244   11 Jun 2027 09:29:21.835   11 Jun 2027 09:29:26.955             5.120          1550.344
       245   11 Jun 2027 09:30:31.171   11 Jun 2027 09:30:33.491             2.320           759.719
       246   11 Jun 2027 11:01:22.763   11 Jun 2027 11:01:29.321             6.558          2744.562
       247   11 Jun 2027 11:03:35.735   11 Jun 2027 11:03:38.269             2.534           796.125
       248   11 Jun 2027 11:08:05.266   11 Jun 2027 11:08:23.689            18.423          7535.031
       249   12 Jun 2027 03:23:35.412   12 Jun 2027 03:23:47.699            12.287          6143.500
       250   12 Jun 2027 03:24:51.551   12 Jun 2027 03:27:23.759           152.208         76104.000
       251   12 Jun 2027 03:27:27.446   12 Jun 2027 03:27:43.968            16.522          8261.000
       252   12 Jun 2027 03:28:08.308   12 Jun 2027 03:28:29.568            21.260         10630.000
       253   12 Jun 2027 03:28:35.947   12 Jun 2027 03:28:48.154            12.207          6103.500
       254   12 Jun 2027 05:03:14.872   12 Jun 2027 05:03:26.615            11.743          5871.500
       255   12 Jun 2027 05:03:26.733   12 Jun 2027 05:04:15.996            49.263         24631.500
       256   12 Jun 2027 05:04:33.472   12 Jun 2027 05:04:43.137             9.665          4832.500
       257   12 Jun 2027 05:06:09.207   12 Jun 2027 05:07:13.433            64.226         31420.187
       258   12 Jun 2027 05:07:51.309   12 Jun 2027 05:07:54.126             2.817           893.781
       259   12 Jun 2027 06:40:06.075   12 Jun 2027 06:40:33.462            27.387         12292.625
       260   12 Jun 2027 06:40:49.058   12 Jun 2027 06:40:49.946             0.888           331.281
       261   12 Jun 2027 06:42:27.360   12 Jun 2027 06:42:28.588             1.228           496.156
       262   12 Jun 2027 06:43:08.469   12 Jun 2027 06:43:08.469             0.000             0.000
       263   12 Jun 2027 06:43:17.488   12 Jun 2027 06:43:20.258             2.770           995.500
       264   12 Jun 2027 06:43:27.890   12 Jun 2027 06:43:30.823             2.933            53.031
       265   12 Jun 2027 06:44:41.862   12 Jun 2027 06:44:45.635             3.773          1472.500
       266   12 Jun 2027 08:03:29.798   12 Jun 2027 08:03:40.982            11.184          4715.188
       267   12 Jun 2027 08:04:56.415   12 Jun 2027 08:05:03.741             7.326          1634.906
       268   12 Jun 2027 08:05:49.549   12 Jun 2027 08:05:51.093             1.544           713.937
       269   12 Jun 2027 09:39:52.096   12 Jun 2027 09:40:01.280             9.184          3915.719
       270   12 Jun 2027 11:13:45.083   12 Jun 2027 11:13:59.461            14.378          6988.594
       271   12 Jun 2027 11:19:19.776   12 Jun 2027 11:19:39.010            19.234          6746.594
       272   12 Jun 2027 11:20:18.407   12 Jun 2027 11:20:19.867             1.460           366.563
       273   12 Jun 2027 11:21:52.658   12 Jun 2027 11:21:54.664             2.006          1003.000
       274   13 Jun 2027 03:35:44.760   13 Jun 2027 03:36:05.738            20.978         10489.000
       275   13 Jun 2027 03:37:09.967   13 Jun 2027 03:39:52.187           162.220         81110.000
       276   13 Jun 2027 03:40:09.063   13 Jun 2027 03:40:20.442            11.379          5689.500
       277   13 Jun 2027 05:14:53.302   13 Jun 2027 05:14:58.526             5.224          2612.000
       278   13 Jun 2027 05:15:04.253   13 Jun 2027 05:16:18.298            74.045         37022.500
       279   13 Jun 2027 05:16:55.321   13 Jun 2027 05:17:39.454            44.133         22066.500
       280   13 Jun 2027 06:52:29.265   13 Jun 2027 06:53:05.949            36.684         17569.125
       281   13 Jun 2027 06:53:33.807   13 Jun 2027 06:53:37.930             4.123           463.594
       282   13 Jun 2027 06:53:57.962   13 Jun 2027 06:54:00.575             2.613           344.594
       283   13 Jun 2027 06:54:28.907   13 Jun 2027 06:54:32.577             3.670           258.719
       284   13 Jun 2027 06:55:20.721   13 Jun 2027 06:55:25.886             5.165           658.875
       285   13 Jun 2027 06:55:40.806   13 Jun 2027 06:55:41.043             0.237           118.500
       286   13 Jun 2027 06:56:02.893   13 Jun 2027 06:56:05.532             2.639           950.719
       287   13 Jun 2027 08:15:18.958   13 Jun 2027 08:15:30.504            11.546          5583.906
       288   13 Jun 2027 08:16:57.647   13 Jun 2027 08:17:03.537             5.890          1969.219
       289   13 Jun 2027 08:17:16.823   13 Jun 2027 08:17:16.823             0.000             0.000
       290   13 Jun 2027 09:51:55.724   13 Jun 2027 09:52:04.193             8.469          4219.500
       291   13 Jun 2027 09:53:01.502   13 Jun 2027 09:53:07.130             5.628           924.437
       292   13 Jun 2027 09:54:28.770   13 Jun 2027 09:54:33.481             4.711          2141.781
       293   13 Jun 2027 11:27:02.936   13 Jun 2027 11:27:24.266            21.330          8161.531
       294   13 Jun 2027 11:33:47.928   13 Jun 2027 11:33:50.531             2.603          1301.500
