uniorb/output/strategy_4/Camera/Camera_KinoSat_111208.txt

KinoSat_111208
-------------------------
    Access    *     Start Time (UTCG)     *     Stop Time (UTCG)  *   Duration (s) *   Data (Mbytes)
         1   01 Jun 2027 03:02:30.718   01 Jun 2027 03:03:09.986            39.268         19634.000
         2   01 Jun 2027 03:04:28.110   01 Jun 2027 03:04:30.947             2.837          1418.500
         3   01 Jun 2027 03:04:44.566   01 Jun 2027 03:05:07.676            23.110         11555.000
         4   01 Jun 2027 03:05:38.131   01 Jun 2027 03:05:50.583            12.452          6226.000
         5   01 Jun 2027 03:06:16.329   01 Jun 2027 03:06:21.741             5.412          2706.000
         6   01 Jun 2027 04:26:37.621   01 Jun 2027 04:27:48.975            71.354         35677.000
         7   01 Jun 2027 06:00:24.156   01 Jun 2027 06:02:36.243           132.087         66043.500
         8   01 Jun 2027 07:36:24.492   01 Jun 2027 07:38:15.024           110.532         55266.000
         9   01 Jun 2027 07:39:00.466   01 Jun 2027 07:39:24.835            24.369         12184.500
        10   01 Jun 2027 07:41:25.005   01 Jun 2027 07:41:37.861            12.856          6428.000
        11   01 Jun 2027 07:41:59.187   01 Jun 2027 07:42:00.297             1.110           555.000
        12   01 Jun 2027 07:44:15.107   01 Jun 2027 07:44:31.976            16.869          8434.500
        13   01 Jun 2027 09:13:26.964   01 Jun 2027 09:15:27.548           120.584         60292.000
        14   01 Jun 2027 09:16:10.896   01 Jun 2027 09:17:22.016            71.120         35560.000
        15   01 Jun 2027 09:20:13.112   01 Jun 2027 09:20:13.393             0.281           140.500
        16   01 Jun 2027 10:50:21.716   01 Jun 2027 10:53:02.204           160.488         80244.000
        17   01 Jun 2027 10:53:18.721   01 Jun 2027 10:53:19.892             1.171           585.500
        18   01 Jun 2027 10:53:21.762   01 Jun 2027 10:53:28.817             7.055          3527.500
        19   01 Jun 2027 10:55:43.335   01 Jun 2027 10:55:45.985             2.650          1325.000
        20   02 Jun 2027 03:15:07.377   02 Jun 2027 03:17:21.885           134.508         67254.000
        21   02 Jun 2027 03:18:57.273   02 Jun 2027 03:18:57.273             0.000             0.000
        22   02 Jun 2027 03:19:10.690   02 Jun 2027 03:19:46.866            36.176         18088.000
        23   02 Jun 2027 04:38:32.416   02 Jun 2027 04:38:49.268            16.852          8426.000
        24   02 Jun 2027 04:39:11.655   02 Jun 2027 04:39:11.655             0.000             0.000
        25   02 Jun 2027 04:39:23.466   02 Jun 2027 04:39:31.543             8.077          4038.500
        26   02 Jun 2027 04:40:21.884   02 Jun 2027 04:40:38.654            16.770          8385.000
        27   02 Jun 2027 06:14:51.581   02 Jun 2027 06:18:20.128           208.547        104273.500
        28   02 Jun 2027 07:48:21.007   02 Jun 2027 07:50:55.622           154.615         77307.500
        29   02 Jun 2027 07:51:42.278   02 Jun 2027 07:51:53.864            11.586          5793.000
        30   02 Jun 2027 07:52:31.660   02 Jun 2027 07:52:53.225            21.565         10782.500
        31   02 Jun 2027 07:55:36.728   02 Jun 2027 07:55:59.780            23.052         11526.000
        32   02 Jun 2027 07:56:52.023   02 Jun 2027 07:56:53.585             1.562           781.000
        33   02 Jun 2027 09:25:53.146   02 Jun 2027 09:27:05.039            71.893         34635.250
        34   02 Jun 2027 09:29:32.556   02 Jun 2027 09:29:37.786             5.230          2596.906
        35   02 Jun 2027 09:30:42.826   02 Jun 2027 09:30:44.159             1.333           268.250
        36   02 Jun 2027 09:31:42.068   02 Jun 2027 09:31:46.754             4.686          1398.969
        37   02 Jun 2027 09:32:11.065   02 Jun 2027 09:32:14.048             2.983           337.000
        38   02 Jun 2027 11:02:49.206   02 Jun 2027 11:03:10.524            21.318          6609.219
        39   02 Jun 2027 11:05:17.033   02 Jun 2027 11:05:20.247             3.214           885.156
        40   02 Jun 2027 11:06:05.718   02 Jun 2027 11:06:07.478             1.760            87.656
        41   02 Jun 2027 11:06:40.713   02 Jun 2027 11:06:43.718             3.005          1036.312
        42   02 Jun 2027 11:08:07.111   02 Jun 2027 11:08:15.006             7.895          2379.594
        43   02 Jun 2027 11:08:35.554   02 Jun 2027 11:08:36.494             0.940           444.156
        44   03 Jun 2027 03:26:46.034   03 Jun 2027 03:30:41.477           235.443        117721.500
        45   03 Jun 2027 04:50:24.030   03 Jun 2027 04:50:42.689            18.659          9329.500
        46   03 Jun 2027 04:51:30.409   03 Jun 2027 04:51:33.960             3.551          1775.500
        47   03 Jun 2027 04:52:16.087   03 Jun 2027 04:52:35.864            19.777          9888.500
        48   03 Jun 2027 06:26:53.073   03 Jun 2027 06:27:54.606            61.533         30000.438
        49   03 Jun 2027 06:28:54.608   03 Jun 2027 06:29:01.015             6.407          1502.062
        50   03 Jun 2027 06:29:21.217   03 Jun 2027 06:29:25.408             4.191           600.625
        51   03 Jun 2027 06:29:36.234   03 Jun 2027 06:29:39.424             3.190           291.969
        52   03 Jun 2027 08:01:00.741   03 Jun 2027 08:01:05.576             4.835          2127.500
        53   03 Jun 2027 08:03:04.197   03 Jun 2027 08:03:04.939             0.742           155.531
        54   03 Jun 2027 08:04:18.937   03 Jun 2027 08:04:21.662             2.725          1093.000
        55   03 Jun 2027 08:05:37.371   03 Jun 2027 08:05:42.106             4.735          1887.188
        56   03 Jun 2027 08:06:15.221   03 Jun 2027 08:06:19.893             4.672           990.062
        57   03 Jun 2027 08:07:25.121   03 Jun 2027 08:07:26.619             1.498           582.000
        58   03 Jun 2027 08:07:27.288   03 Jun 2027 08:07:29.378             2.090            20.906
        59   03 Jun 2027 08:07:36.542   03 Jun 2027 08:07:37.430             0.888            35.781
        60   03 Jun 2027 08:08:28.331   03 Jun 2027 08:08:31.054             2.723          1253.687
        61   03 Jun 2027 08:08:47.384   03 Jun 2027 08:08:47.920             0.536           185.406
        62   03 Jun 2027 09:37:59.239   03 Jun 2027 09:38:11.951            12.712          5557.750
        63   03 Jun 2027 09:41:39.755   03 Jun 2027 09:41:44.569             4.814           339.781
        64   03 Jun 2027 09:42:49.724   03 Jun 2027 09:42:53.252             3.528          1677.656
        65   03 Jun 2027 09:43:57.434   03 Jun 2027 09:44:02.300             4.866          1682.344
        66   03 Jun 2027 09:44:38.674   03 Jun 2027 09:44:40.609             1.935           908.094
        67   03 Jun 2027 11:15:37.995   03 Jun 2027 11:15:48.607            10.612          5257.906
        68   03 Jun 2027 11:18:01.193   03 Jun 2027 11:18:06.830             5.637           605.062
        69   03 Jun 2027 11:18:32.189   03 Jun 2027 11:18:34.176             1.987           234.031
        70   03 Jun 2027 11:19:14.496   03 Jun 2027 11:19:18.904             4.408          1134.125
        71   04 Jun 2027 03:39:13.984   04 Jun 2027 03:39:36.421            22.437         11218.500
        72   04 Jun 2027 03:39:59.175   04 Jun 2027 03:41:44.507           105.332         52666.000
        73   04 Jun 2027 03:42:28.863   04 Jun 2027 03:43:25.038            56.175         28087.500
        74   04 Jun 2027 05:02:32.851   04 Jun 2027 05:02:50.863            18.012          9006.000
        75   04 Jun 2027 05:03:10.624   04 Jun 2027 05:03:15.820             5.196          2598.000
        76   04 Jun 2027 05:04:11.750   04 Jun 2027 05:04:31.963            20.213         10106.500
        77   04 Jun 2027 05:05:25.314   04 Jun 2027 05:05:38.098            12.784          6392.000
        78   04 Jun 2027 06:39:03.307   04 Jun 2027 06:40:06.752            63.445         30603.594
        79   04 Jun 2027 06:40:11.064   04 Jun 2027 06:40:15.049             3.985            96.031
        80   04 Jun 2027 06:41:07.690   04 Jun 2027 06:41:11.512             3.822          1562.344
        81   04 Jun 2027 06:41:39.535   04 Jun 2027 06:41:39.535             0.000             0.000
        82   04 Jun 2027 06:42:02.091   04 Jun 2027 06:42:09.129             7.038          1544.500
        83   04 Jun 2027 08:14:13.433   04 Jun 2027 08:14:23.964            10.531          1951.969
        84   04 Jun 2027 08:14:37.608   04 Jun 2027 08:14:42.150             4.542            88.344
        85   04 Jun 2027 08:15:41.352   04 Jun 2027 08:15:44.944             3.592           454.906
        86   04 Jun 2027 08:16:29.258   04 Jun 2027 08:16:34.237             4.979          1374.156
        87   04 Jun 2027 08:17:39.208   04 Jun 2027 08:17:41.469             2.261           938.531
        88   04 Jun 2027 08:18:15.460   04 Jun 2027 08:18:25.140             9.680           917.375
        89   04 Jun 2027 08:18:43.990   04 Jun 2027 08:18:45.634             1.644           589.062
        90   04 Jun 2027 08:19:10.694   04 Jun 2027 08:19:16.247             5.553            34.688
        91   04 Jun 2027 08:20:21.580   04 Jun 2027 08:20:26.184             4.604          1689.500
        92   04 Jun 2027 08:20:41.116   04 Jun 2027 08:20:44.491             3.375           276.000
        93   04 Jun 2027 09:50:35.461   04 Jun 2027 09:50:51.663            16.202          7343.719
        94   04 Jun 2027 09:52:54.211   04 Jun 2027 09:52:55.557             1.346           329.969
        95   04 Jun 2027 09:53:20.057   04 Jun 2027 09:53:21.653             1.596           283.469
        96   04 Jun 2027 09:53:22.839   04 Jun 2027 09:53:26.116             3.277            32.125
        97   04 Jun 2027 09:54:23.762   04 Jun 2027 09:54:26.168             2.406          1101.000
        98   04 Jun 2027 09:54:47.385   04 Jun 2027 09:54:48.790             1.405           663.031
        99   04 Jun 2027 09:55:42.836   04 Jun 2027 09:55:48.158             5.322          1277.125
       100   04 Jun 2027 09:55:53.993   04 Jun 2027 09:55:56.950             2.957           108.094
       101   04 Jun 2027 09:56:17.831   04 Jun 2027 09:56:19.631             1.800            77.594
       102   04 Jun 2027 09:56:40.497   04 Jun 2027 09:56:43.233             2.736           448.125
       103   04 Jun 2027 11:27:53.225   04 Jun 2027 11:28:06.950            13.725          6561.688
       104   04 Jun 2027 11:28:48.718   04 Jun 2027 11:28:50.421             1.703           424.719
       105   04 Jun 2027 11:29:59.810   04 Jun 2027 11:30:04.559             4.749          1041.594
       106   04 Jun 2027 11:30:28.527   04 Jun 2027 11:30:32.084             3.557           273.563
       107   04 Jun 2027 11:31:09.414   04 Jun 2027 11:31:15.746             6.332           956.687
       108   04 Jun 2027 11:31:28.792   04 Jun 2027 11:31:35.988             7.196           387.031
       109   04 Jun 2027 11:32:11.322   04 Jun 2027 11:32:13.015             1.693           413.219
       110   05 Jun 2027 03:51:07.517   05 Jun 2027 03:51:44.431            36.914         18457.000
       111   05 Jun 2027 03:52:13.430   05 Jun 2027 03:54:40.417           146.987         73493.500
       112   05 Jun 2027 05:15:12.788   05 Jun 2027 05:15:42.595            29.807         14903.500
       113   05 Jun 2027 05:16:13.352   05 Jun 2027 05:16:13.352             0.000             0.000
       114   05 Jun 2027 05:16:38.599   05 Jun 2027 05:17:27.855            49.256         24628.000
       115   05 Jun 2027 06:50:58.435   05 Jun 2027 06:51:32.435            34.000         16818.688
       116   05 Jun 2027 06:52:14.255   05 Jun 2027 06:52:21.560             7.305           844.844
       117   05 Jun 2027 06:53:22.108   05 Jun 2027 06:53:23.208             1.100           550.000
       118   05 Jun 2027 06:54:11.461   05 Jun 2027 06:54:17.758             6.297          2655.281
       119   05 Jun 2027 08:25:55.756   05 Jun 2027 08:25:59.745             3.989          1779.031
       120   05 Jun 2027 08:26:31.698   05 Jun 2027 08:26:32.986             1.288           252.281
       121   05 Jun 2027 08:27:53.252   05 Jun 2027 08:27:53.867             0.615           220.125
       122   05 Jun 2027 08:28:56.635   05 Jun 2027 08:28:58.311             1.676           442.000
       123   05 Jun 2027 08:29:48.439   05 Jun 2027 08:29:53.804             5.365          1566.500
       124   05 Jun 2027 08:31:33.079   05 Jun 2027 08:31:38.767             5.688          2340.187
       125   05 Jun 2027 08:31:59.290   05 Jun 2027 08:32:00.807             1.517            88.656
       126   05 Jun 2027 08:32:32.722   05 Jun 2027 08:32:37.052             4.330           230.313
       127   05 Jun 2027 08:32:57.040   05 Jun 2027 08:32:57.516             0.476           161.656
       128   05 Jun 2027 10:02:08.243   05 Jun 2027 10:02:20.899            12.656          5352.656
       129   05 Jun 2027 10:05:23.418   05 Jun 2027 10:05:29.997             6.579           272.781
       130   05 Jun 2027 10:05:54.584   05 Jun 2027 10:05:56.372             1.788           548.781
       131   05 Jun 2027 10:06:35.821   05 Jun 2027 10:06:39.716             3.895           889.562
       132   05 Jun 2027 10:07:13.695   05 Jun 2027 10:07:16.681             2.986          1049.781
       133   05 Jun 2027 10:07:44.329   05 Jun 2027 10:07:46.735             2.406           424.469
       134   05 Jun 2027 11:40:09.447   05 Jun 2027 11:40:21.366            11.919          5692.187
       135   05 Jun 2027 11:41:33.701   05 Jun 2027 11:41:40.475             6.774           421.000
       136   05 Jun 2027 11:42:28.933   05 Jun 2027 11:42:29.800             0.867           129.625
       137   05 Jun 2027 11:43:22.113   05 Jun 2027 11:43:25.412             3.299          1139.344
       138   05 Jun 2027 11:44:03.549   05 Jun 2027 11:44:05.691             2.142           802.656
       139   06 Jun 2027 03:51:59.425   06 Jun 2027 03:52:23.058            23.633         11816.500
       140   06 Jun 2027 04:03:03.347   06 Jun 2027 04:04:47.004           103.657         51828.500
       141   06 Jun 2027 04:04:56.263   06 Jun 2027 04:06:22.841            86.578         43289.000
       142   06 Jun 2027 05:26:02.181   06 Jun 2027 05:26:28.236            26.055         13027.500
       143   06 Jun 2027 05:28:55.340   06 Jun 2027 05:28:55.340             0.000             0.000
       144   06 Jun 2027 05:29:31.044   06 Jun 2027 05:29:37.884             6.840          3420.000
       145   06 Jun 2027 07:01:34.503   06 Jun 2027 07:01:41.484             6.981          3490.500
       146   06 Jun 2027 07:02:44.278   06 Jun 2027 07:04:02.443            78.165         38401.781
       147   06 Jun 2027 07:04:47.920   06 Jun 2027 07:04:47.920             0.000             0.000
       148   06 Jun 2027 07:05:07.055   06 Jun 2027 07:05:10.814             3.759          1774.250
       149   06 Jun 2027 07:05:31.093   06 Jun 2027 07:05:32.807             1.714           633.719
       150   06 Jun 2027 07:05:41.297   06 Jun 2027 07:05:43.774             2.477           206.406
       151   06 Jun 2027 07:05:47.181   06 Jun 2027 07:05:50.404             3.223            32.687
       152   06 Jun 2027 07:06:13.246   06 Jun 2027 07:06:15.769             2.523           713.812
       153   06 Jun 2027 07:06:34.143   06 Jun 2027 07:06:34.961             0.818           393.219
       154   06 Jun 2027 08:37:29.474   06 Jun 2027 08:37:36.248             6.774          1741.406
       155   06 Jun 2027 08:39:46.658   06 Jun 2027 08:39:51.424             4.766          2364.250
       156   06 Jun 2027 08:40:46.249   06 Jun 2027 08:40:46.249             0.000             0.000
       157   06 Jun 2027 08:40:58.805   06 Jun 2027 08:41:00.193             1.388           694.000
       158   06 Jun 2027 08:41:32.973   06 Jun 2027 08:41:38.358             5.385          1417.625
       159   06 Jun 2027 08:42:23.489   06 Jun 2027 08:42:25.067             1.578           789.000
       160   06 Jun 2027 08:43:15.261   06 Jun 2027 08:43:21.002             5.741          1810.031
       161   06 Jun 2027 08:43:36.125   06 Jun 2027 08:43:40.702             4.577           312.813
       162   06 Jun 2027 08:44:27.185   06 Jun 2027 08:44:29.903             2.718           593.031
       163   06 Jun 2027 10:14:29.874   06 Jun 2027 10:14:47.222            17.348          7420.500
       164   06 Jun 2027 10:17:57.868   06 Jun 2027 10:18:01.887             4.019           933.969
       165   06 Jun 2027 10:18:07.404   06 Jun 2027 10:18:12.147             4.743           156.344
       166   06 Jun 2027 10:18:35.002   06 Jun 2027 10:18:40.134             5.132           266.312
       167   06 Jun 2027 10:18:55.367   06 Jun 2027 10:18:57.868             2.501           476.031
       168   06 Jun 2027 10:19:24.113   06 Jun 2027 10:19:26.166             2.053           689.750
       169   06 Jun 2027 11:52:31.112   06 Jun 2027 11:52:44.654            13.542          6063.469
       170   06 Jun 2027 11:53:30.990   06 Jun 2027 11:53:32.956             1.966           940.187
       171   06 Jun 2027 11:54:39.933   06 Jun 2027 11:54:45.426             5.493           347.500
       172   06 Jun 2027 11:55:01.734   06 Jun 2027 11:55:09.839             8.105           482.781
       173   06 Jun 2027 11:55:54.822   06 Jun 2027 11:55:59.250             4.428            49.812
       174   06 Jun 2027 11:56:08.270   06 Jun 2027 11:56:09.123             0.853           281.875
       175   07 Jun 2027 04:03:22.625   07 Jun 2027 04:03:35.019            12.394          6197.000
       176   07 Jun 2027 04:15:04.646   07 Jun 2027 04:16:25.165            80.519         40259.500
       177   07 Jun 2027 05:37:18.355   07 Jun 2027 05:38:32.071            73.716         36858.000
       178   07 Jun 2027 05:39:19.188   07 Jun 2027 05:40:10.270            51.082         25541.000
       179   07 Jun 2027 07:12:26.117   07 Jun 2027 07:13:59.693            93.576         46788.000
       180   07 Jun 2027 07:14:27.670   07 Jun 2027 07:14:34.761             7.091          3341.688
       181   07 Jun 2027 07:15:00.555   07 Jun 2027 07:15:01.650             1.095           390.188
       182   07 Jun 2027 07:15:40.166   07 Jun 2027 07:15:41.729             1.563           505.094
       183   07 Jun 2027 07:16:20.731   07 Jun 2027 07:16:23.454             2.723           877.250
       184   07 Jun 2027 07:17:31.730   07 Jun 2027 07:17:39.590             7.860          2133.625
       185   07 Jun 2027 07:18:02.094   07 Jun 2027 07:18:06.040             3.946           676.312
       186   07 Jun 2027 07:19:07.472   07 Jun 2027 07:19:14.131             6.659          1642.094
       187   07 Jun 2027 07:20:23.198   07 Jun 2027 07:20:23.515             0.317           158.500
       188   07 Jun 2027 08:49:38.058   07 Jun 2027 08:49:46.229             8.171          2506.250
       189   07 Jun 2027 08:51:46.557   07 Jun 2027 08:51:53.944             7.387          2305.750
       190   07 Jun 2027 08:52:59.738   07 Jun 2027 08:53:01.758             2.020           217.375
       191   07 Jun 2027 08:53:52.289   07 Jun 2027 08:53:59.255             6.966          1059.062
       192   07 Jun 2027 08:54:27.567   07 Jun 2027 08:54:31.424             3.857           715.125
       193   07 Jun 2027 08:55:15.392   07 Jun 2027 08:55:17.150             1.758           810.438
       194   07 Jun 2027 08:55:39.022   07 Jun 2027 08:55:41.910             2.888           461.688
       195   07 Jun 2027 08:56:20.774   07 Jun 2027 08:56:24.901             4.127           569.094
       196   07 Jun 2027 10:26:35.459   07 Jun 2027 10:26:48.819            13.360          5934.688
       197   07 Jun 2027 10:30:17.383   07 Jun 2027 10:30:21.256             3.873          1936.500
       198   07 Jun 2027 10:30:33.503   07 Jun 2027 10:30:35.509             2.006           407.719
       199   07 Jun 2027 10:30:49.961   07 Jun 2027 10:30:51.465             1.504           187.219
       200   07 Jun 2027 10:31:20.676   07 Jun 2027 10:31:26.768             6.092           832.938
       201   07 Jun 2027 10:32:01.790   07 Jun 2027 10:32:02.655             0.865           409.906
       202   07 Jun 2027 10:32:37.731   07 Jun 2027 10:32:42.195             4.464           751.781
       203   08 Jun 2027 04:14:49.656   08 Jun 2027 04:15:37.862            48.206         24103.000
       204   08 Jun 2027 04:27:01.583   08 Jun 2027 04:27:41.114            39.531         19765.500
       205   08 Jun 2027 05:49:03.474   08 Jun 2027 05:50:23.781            80.307         40153.500
       206   08 Jun 2027 05:51:06.845   08 Jun 2027 05:51:48.899            42.054         21027.000
       207   08 Jun 2027 05:53:36.348   08 Jun 2027 05:53:44.470             8.122          4061.000
       208   08 Jun 2027 07:23:55.769   08 Jun 2027 07:25:32.736            96.967         46871.125
       209   08 Jun 2027 07:25:54.149   08 Jun 2027 07:25:54.149             0.000             0.000
       210   08 Jun 2027 07:27:08.583   08 Jun 2027 07:27:18.621            10.038          2801.125
       211   08 Jun 2027 07:27:26.180   08 Jun 2027 07:27:30.577             4.397           164.187
       212   08 Jun 2027 07:27:55.106   08 Jun 2027 07:27:55.970             0.864           208.312
       213   08 Jun 2027 07:29:25.814   08 Jun 2027 07:29:30.645             4.831          2326.156
       214   08 Jun 2027 07:29:52.513   08 Jun 2027 07:29:57.516             5.003           644.969
       215   08 Jun 2027 07:30:25.793   08 Jun 2027 07:30:25.793             0.000             0.000
       216   08 Jun 2027 07:31:20.936   08 Jun 2027 07:31:28.586             7.650          2014.500
       217   08 Jun 2027 07:31:40.593   08 Jun 2027 07:31:41.872             1.279           184.313
       218   08 Jun 2027 07:32:43.585   08 Jun 2027 07:32:43.585             0.000             0.000
       219   08 Jun 2027 09:01:39.827   08 Jun 2027 09:01:48.843             9.016          3988.875
       220   08 Jun 2027 09:03:45.806   08 Jun 2027 09:03:50.395             4.589          2147.750
       221   08 Jun 2027 09:05:41.425   08 Jun 2027 09:05:46.138             4.713          1830.906
       222   08 Jun 2027 09:06:42.231   08 Jun 2027 09:06:50.106             7.875          1516.531
       223   08 Jun 2027 09:07:15.187   08 Jun 2027 09:07:16.259             1.072           508.156
       224   08 Jun 2027 09:08:22.473   08 Jun 2027 09:08:26.644             4.171          2039.813
       225   08 Jun 2027 09:08:37.234   08 Jun 2027 09:08:37.807             0.573           191.312
       226   08 Jun 2027 09:08:51.990   08 Jun 2027 09:08:52.861             0.871            76.719
       227   08 Jun 2027 09:09:04.765   08 Jun 2027 09:09:06.057             1.292           233.937
       228   08 Jun 2027 10:38:27.846   08 Jun 2027 10:38:43.278            15.432          7084.250
       229   08 Jun 2027 10:38:49.972   08 Jun 2027 10:38:50.514             0.542           209.188
       230   08 Jun 2027 10:41:46.457   08 Jun 2027 10:41:50.158             3.701          1722.125
       231   08 Jun 2027 10:42:23.738   08 Jun 2027 10:42:27.867             4.129          1049.375
       232   08 Jun 2027 10:42:40.587   08 Jun 2027 10:42:40.803             0.216            62.531
       233   08 Jun 2027 10:43:22.112   08 Jun 2027 10:43:24.683             2.571          1154.187
       234   08 Jun 2027 10:43:54.592   08 Jun 2027 10:43:56.521             1.929           934.656
       235   08 Jun 2027 10:44:18.555   08 Jun 2027 10:44:21.814             3.259           688.562
       236   08 Jun 2027 10:45:00.459   08 Jun 2027 10:45:08.054             7.595           750.281
       237   09 Jun 2027 03:02:46.807   09 Jun 2027 03:03:27.197            40.390         20195.000
       238   09 Jun 2027 03:04:05.862   09 Jun 2027 03:04:15.143             9.281          4640.500
       239   09 Jun 2027 03:04:35.851   09 Jun 2027 03:04:44.885             9.034          4517.000
       240   09 Jun 2027 03:05:07.658   09 Jun 2027 03:05:22.694            15.036          7518.000
       241   09 Jun 2027 03:06:17.654   09 Jun 2027 03:06:22.300             4.646          2323.000
       242   09 Jun 2027 03:06:31.109   09 Jun 2027 03:06:44.354            13.245          6622.500
       243   09 Jun 2027 04:26:53.200   09 Jun 2027 04:27:36.312            43.112         21556.000
       244   09 Jun 2027 04:28:17.933   09 Jun 2027 04:28:24.784             6.851          3425.500
       245   09 Jun 2027 04:28:52.140   09 Jun 2027 04:28:56.268             4.128          2064.000
       246   09 Jun 2027 06:02:50.451   09 Jun 2027 06:05:38.762           168.311         84155.500
       247   09 Jun 2027 07:36:40.090   09 Jun 2027 07:37:04.451            24.361         10395.811
       248   09 Jun 2027 07:38:00.762   09 Jun 2027 07:38:02.112             1.350           340.125
       249   09 Jun 2027 07:38:19.025   09 Jun 2027 07:38:19.833             0.808           329.375
       250   09 Jun 2027 07:39:14.304   09 Jun 2027 07:39:16.636             2.332           887.437
       251   09 Jun 2027 07:39:26.624   09 Jun 2027 07:39:29.767             3.143           312.125
       252   09 Jun 2027 07:40:23.274   09 Jun 2027 07:40:25.638             2.364           811.000
       253   09 Jun 2027 07:41:18.629   09 Jun 2027 07:41:20.871             2.242          1002.031
       254   09 Jun 2027 07:41:55.558   09 Jun 2027 07:42:05.952            10.394           753.594
       255   09 Jun 2027 07:42:38.657   09 Jun 2027 07:42:44.909             6.252           731.281
       256   09 Jun 2027 07:43:13.403   09 Jun 2027 07:43:15.204             1.801           795.563
       257   09 Jun 2027 07:43:38.115   09 Jun 2027 07:43:38.115             0.000             0.000
       258   09 Jun 2027 07:43:42.082   09 Jun 2027 07:43:45.722             3.640           383.000
       259   09 Jun 2027 07:44:29.941   09 Jun 2027 07:44:33.041             3.100          1271.781
       260   09 Jun 2027 09:13:43.127   09 Jun 2027 09:13:56.880            13.753          5777.656
       261   09 Jun 2027 09:17:54.709   09 Jun 2027 09:18:03.749             9.040          2668.250
       262   09 Jun 2027 09:19:13.954   09 Jun 2027 09:19:14.645             0.691           212.875
       263   09 Jun 2027 09:20:06.795   09 Jun 2027 09:20:15.102             8.307           966.563
       264   09 Jun 2027 09:20:35.987   09 Jun 2027 09:20:38.162             2.175           258.313
       265   09 Jun 2027 09:20:40.452   09 Jun 2027 09:20:40.706             0.254            71.562
       266   09 Jun 2027 10:50:37.729   09 Jun 2027 10:50:49.376            11.647          5823.500
       267   09 Jun 2027 10:51:11.050   09 Jun 2027 10:51:15.528             4.478           984.281
       268   09 Jun 2027 10:53:08.568   09 Jun 2027 10:53:12.982             4.414          1931.906
       269   09 Jun 2027 10:53:50.278   09 Jun 2027 10:53:52.079             1.801           490.625
       270   09 Jun 2027 10:54:27.652   09 Jun 2027 10:54:28.751             1.099            67.281
       271   09 Jun 2027 10:54:48.880   09 Jun 2027 10:54:50.158             1.278           594.125
       272   09 Jun 2027 10:55:19.691   09 Jun 2027 10:55:21.609             1.918           922.906
       273   09 Jun 2027 10:55:29.263   09 Jun 2027 10:55:30.222             0.959           239.188
       274   09 Jun 2027 10:56:20.585   09 Jun 2027 10:56:24.014             3.429           978.031
       275   09 Jun 2027 10:56:39.277   09 Jun 2027 10:56:47.433             8.156           474.375
       276   10 Jun 2027 03:15:23.333   10 Jun 2027 03:18:15.715           172.382         86191.000
       277   10 Jun 2027 04:38:47.865   10 Jun 2027 04:39:03.968            16.103          8051.500
       278   10 Jun 2027 04:39:26.118   10 Jun 2027 04:39:40.509            14.391          7195.500
       279   10 Jun 2027 04:40:36.901   10 Jun 2027 04:40:37.089             0.188            94.000
       280   10 Jun 2027 06:15:07.847   10 Jun 2027 06:16:53.946           106.099         52771.937
       281   10 Jun 2027 06:17:31.242   10 Jun 2027 06:17:31.242             0.000             0.000
       282   10 Jun 2027 06:17:56.159   10 Jun 2027 06:18:03.188             7.029          1722.813
       283   10 Jun 2027 07:48:38.155   10 Jun 2027 07:48:47.312             9.157          2641.656
       284   10 Jun 2027 07:51:04.592   10 Jun 2027 07:51:05.572             0.980            84.500
       285   10 Jun 2027 07:51:59.281   10 Jun 2027 07:52:04.704             5.423          1514.438
       286   10 Jun 2027 07:52:49.977   10 Jun 2027 07:52:52.854             2.877          1228.719
       287   10 Jun 2027 07:55:22.820   10 Jun 2027 07:55:32.842            10.022          4193.875
       288   10 Jun 2027 07:55:41.509   10 Jun 2027 07:55:43.196             1.687           121.781
       289   10 Jun 2027 07:56:16.347   10 Jun 2027 07:56:24.004             7.657          1035.969
       290   10 Jun 2027 07:57:07.548   10 Jun 2027 07:57:09.242             1.694           847.000
       291   10 Jun 2027 09:26:08.955   10 Jun 2027 09:26:25.713            16.758          5455.687
       292   10 Jun 2027 09:29:38.353   10 Jun 2027 09:29:44.893             6.540          1949.000
       293   10 Jun 2027 09:30:50.664   10 Jun 2027 09:30:54.631             3.967          1798.188
       294   10 Jun 2027 09:31:56.198   10 Jun 2027 09:31:59.159             2.961          1309.187
       295   10 Jun 2027 09:32:26.108   10 Jun 2027 09:32:28.998             2.890           268.750
       296   10 Jun 2027 11:03:05.286   10 Jun 2027 11:03:26.755            21.469          6106.156
       297   10 Jun 2027 11:04:59.739   10 Jun 2027 11:05:04.452             4.713          1503.437
       298   10 Jun 2027 11:06:20.280   10 Jun 2027 11:06:22.449             2.169            51.125
       299   10 Jun 2027 11:06:22.891   10 Jun 2027 11:06:24.829             1.938            13.812
       300   10 Jun 2027 11:06:32.137   10 Jun 2027 11:06:33.245             1.108           223.406
       301   10 Jun 2027 11:06:56.735   10 Jun 2027 11:06:58.789             2.054           474.031
       302   10 Jun 2027 11:07:25.062   10 Jun 2027 11:07:27.164             2.102           796.094
       303   10 Jun 2027 11:08:17.109   10 Jun 2027 11:08:19.566             2.457          1088.031
       304   10 Jun 2027 11:08:38.711   10 Jun 2027 11:08:45.487             6.776           503.500
       305   11 Jun 2027 03:27:01.780   11 Jun 2027 03:29:50.660           168.880         84440.000
       306   11 Jun 2027 03:30:11.114   11 Jun 2027 03:31:18.766            67.652         33826.000
       307   11 Jun 2027 04:50:44.287   11 Jun 2027 04:50:57.648            13.361          6680.500
       308   11 Jun 2027 04:51:09.214   11 Jun 2027 04:51:09.214             0.000             0.000
       309   11 Jun 2027 04:51:45.937   11 Jun 2027 04:52:02.711            16.774          8387.000
       310   11 Jun 2027 06:27:09.929   11 Jun 2027 06:28:11.464            61.535         30574.657
       311   11 Jun 2027 06:29:11.913   11 Jun 2027 06:29:17.456             5.543          1512.469
       312   11 Jun 2027 06:29:35.907   11 Jun 2027 06:29:41.637             5.730           576.594
       313   11 Jun 2027 06:29:53.972   11 Jun 2027 06:29:53.972             0.000             0.000
       314   11 Jun 2027 08:01:27.897   11 Jun 2027 08:01:35.374             7.477          3426.719
       315   11 Jun 2027 08:02:07.150   11 Jun 2027 08:02:08.255             1.105           532.937
       316   11 Jun 2027 08:03:03.036   11 Jun 2027 08:03:03.591             0.555           185.563
       317   11 Jun 2027 08:04:00.936   11 Jun 2027 08:04:06.437             5.501          1243.688
       318   11 Jun 2027 08:05:28.421   11 Jun 2027 08:05:34.435             6.014          1636.281
       319   11 Jun 2027 08:06:01.202   11 Jun 2027 08:06:05.442             4.240           654.500
       320   11 Jun 2027 08:07:18.196   11 Jun 2027 08:07:22.846             4.650          2215.313
       321   11 Jun 2027 08:07:25.520   11 Jun 2027 08:07:29.265             3.745            83.562
       322   11 Jun 2027 08:07:48.191   11 Jun 2027 08:07:50.883             2.692           266.063
       323   11 Jun 2027 08:08:05.951   11 Jun 2027 08:08:06.665             0.714           233.469
       324   11 Jun 2027 08:08:57.660   11 Jun 2027 08:09:01.426             3.766          1593.594
       325   11 Jun 2027 09:38:15.712   11 Jun 2027 09:38:28.568            12.856          6162.219
       326   11 Jun 2027 09:41:55.612   11 Jun 2027 09:41:59.327             3.715           343.500
       327   11 Jun 2027 09:43:03.317   11 Jun 2027 09:43:07.783             4.466          1655.531
       328   11 Jun 2027 09:43:20.544   11 Jun 2027 09:43:21.393             0.849           398.781
       329   11 Jun 2027 09:44:26.758   11 Jun 2027 09:44:30.569             3.811           499.688
       330   11 Jun 2027 11:15:56.599   11 Jun 2027 11:16:12.412            15.813          5763.063
       331   11 Jun 2027 11:17:57.499   11 Jun 2027 11:17:59.565             2.066           547.531
       332   11 Jun 2027 11:18:23.118   11 Jun 2027 11:18:25.767             2.649           615.594
       333   11 Jun 2027 11:18:54.252   11 Jun 2027 11:18:56.436             2.184           124.563
       334   11 Jun 2027 11:19:02.796   11 Jun 2027 11:19:03.450             0.654           198.750
       335   11 Jun 2027 11:19:24.677   11 Jun 2027 11:19:25.796             1.119           494.750
       336   11 Jun 2027 11:19:52.495   11 Jun 2027 11:19:58.674             6.179           686.594
       337   11 Jun 2027 11:20:04.758   11 Jun 2027 11:20:06.697             1.939           174.750
       338   12 Jun 2027 03:39:29.194   12 Jun 2027 03:39:52.832            23.638         11819.000
       339   12 Jun 2027 03:40:14.990   12 Jun 2027 03:43:39.577           204.587        102293.500
       340   12 Jun 2027 05:02:48.437   12 Jun 2027 05:02:49.722             1.285           642.500
       341   12 Jun 2027 05:03:29.840   12 Jun 2027 05:03:45.246            15.406          7703.000
       342   12 Jun 2027 05:04:27.712   12 Jun 2027 05:04:27.712             0.000             0.000
       343   12 Jun 2027 05:05:41.447   12 Jun 2027 05:05:52.698            11.251          5625.500
       344   12 Jun 2027 06:39:19.410   12 Jun 2027 06:40:24.950            65.540         32770.000
       345   12 Jun 2027 06:40:28.189   12 Jun 2027 06:40:33.462             5.273           996.906
       346   12 Jun 2027 06:41:15.102   12 Jun 2027 06:41:16.492             1.390           695.000
       347   12 Jun 2027 06:41:27.310   12 Jun 2027 06:41:32.324             5.014           913.187
       348   12 Jun 2027 06:41:57.270   12 Jun 2027 06:42:00.080             2.810           393.563
       349   12 Jun 2027 08:14:29.256   12 Jun 2027 08:14:38.632             9.376          2273.687
       350   12 Jun 2027 08:14:52.622   12 Jun 2027 08:14:57.195             4.573            23.406
       351   12 Jun 2027 08:16:02.231   12 Jun 2027 08:16:03.920             1.689           123.281
       352   12 Jun 2027 08:17:25.528   12 Jun 2027 08:17:25.813             0.285           142.500
       353   12 Jun 2027 08:17:53.543   12 Jun 2027 08:17:58.163             4.620          1942.031
       354   12 Jun 2027 08:18:32.742   12 Jun 2027 08:18:37.898             5.156           906.094
       355   12 Jun 2027 08:18:58.997   12 Jun 2027 08:19:01.797             2.800           659.344
       356   12 Jun 2027 08:19:25.972   12 Jun 2027 08:19:31.398             5.426            67.875
       357   12 Jun 2027 08:20:11.530   12 Jun 2027 08:20:13.921             2.391           861.531
       358   12 Jun 2027 08:20:42.528   12 Jun 2027 08:20:44.141             1.613           679.813
       359   12 Jun 2027 08:20:56.503   12 Jun 2027 08:20:59.035             2.532           226.156
       360   12 Jun 2027 09:50:51.756   12 Jun 2027 09:51:06.522            14.766          5872.031
       361   12 Jun 2027 09:53:19.354   12 Jun 2027 09:53:21.267             1.913           290.281
       362   12 Jun 2027 09:53:34.721   12 Jun 2027 09:53:36.193             1.472           239.656
       363   12 Jun 2027 09:53:38.003   12 Jun 2027 09:53:42.103             4.100            30.813
       364   12 Jun 2027 09:54:42.167   12 Jun 2027 09:54:45.660             3.493          1273.312
       365   12 Jun 2027 09:55:04.719   12 Jun 2027 09:55:12.113             7.394           579.500
       366   12 Jun 2027 09:55:58.089   12 Jun 2027 09:56:02.144             4.055          1291.562
       367   12 Jun 2027 09:56:09.286   12 Jun 2027 09:56:11.692             2.406            86.156
       368   12 Jun 2027 09:56:34.903   12 Jun 2027 09:56:35.766             0.863           147.094
       369   12 Jun 2027 09:56:55.736   12 Jun 2027 09:56:58.907             3.171           482.250
       370   12 Jun 2027 11:28:07.175   12 Jun 2027 11:28:18.261            11.086          5278.781
       371   12 Jun 2027 11:29:06.887   12 Jun 2027 11:29:08.252             1.365           506.875
       372   12 Jun 2027 11:29:44.242   12 Jun 2027 11:29:45.900             1.658           273.188
       373   12 Jun 2027 11:31:16.930   12 Jun 2027 11:31:23.198             6.268          1872.906
       374   12 Jun 2027 11:32:02.190   12 Jun 2027 11:32:08.593             6.403          1218.500
       375   12 Jun 2027 11:32:26.326   12 Jun 2027 11:32:30.242             3.916           287.563
       376   13 Jun 2027 03:51:22.861   13 Jun 2027 03:52:00.264            37.403         18701.500
       377   13 Jun 2027 03:52:30.367   13 Jun 2027 03:54:57.149           146.782         73391.000
       378   13 Jun 2027 05:15:28.442   13 Jun 2027 05:15:50.677            22.235         11117.500
       379   13 Jun 2027 05:16:26.603   13 Jun 2027 05:16:26.603             0.000             0.000
       380   13 Jun 2027 05:17:42.602   13 Jun 2027 05:17:54.452            11.850          5925.000
       381   13 Jun 2027 06:51:13.742   13 Jun 2027 06:52:40.076            86.334         42073.250
       382   13 Jun 2027 06:53:15.809   13 Jun 2027 06:53:17.721             1.912           956.000
       383   13 Jun 2027 06:53:53.097   13 Jun 2027 06:53:55.703             2.606          1143.062
       384   13 Jun 2027 06:54:26.504   13 Jun 2027 06:54:28.907             2.403           810.281
       385   13 Jun 2027 06:54:40.962   13 Jun 2027 06:54:41.137             0.175            87.500
       386   13 Jun 2027 06:55:05.257   13 Jun 2027 06:55:08.734             3.477          1042.969
       387   13 Jun 2027 08:26:11.164   13 Jun 2027 08:26:16.550             5.386          1830.375
       388   13 Jun 2027 08:26:48.986   13 Jun 2027 08:26:50.380             1.394           328.125
       389   13 Jun 2027 08:28:48.592   13 Jun 2027 08:28:53.695             5.103          1188.844
       390   13 Jun 2027 08:29:11.899   13 Jun 2027 08:29:12.821             0.922           372.906
       391   13 Jun 2027 08:29:21.438   13 Jun 2027 08:29:22.519             1.081           248.937
       392   13 Jun 2027 08:30:41.829   13 Jun 2027 08:30:45.662             3.833          1648.938
       393   13 Jun 2027 08:32:11.579   13 Jun 2027 08:32:14.445             2.866          1351.469
       394   13 Jun 2027 08:33:10.076   13 Jun 2027 08:33:13.498             3.422          1711.000
       395   13 Jun 2027 10:02:23.805   13 Jun 2027 10:02:36.299            12.494          5399.781
       396   13 Jun 2027 10:05:03.197   13 Jun 2027 10:05:06.321             3.124           866.656
       397   13 Jun 2027 10:05:18.512   13 Jun 2027 10:05:20.369             1.857           181.344
       398   13 Jun 2027 10:05:37.199   13 Jun 2027 10:05:37.868             0.669           272.250
       399   13 Jun 2027 10:05:58.724   13 Jun 2027 10:06:01.703             2.979           625.750
       400   13 Jun 2027 10:06:40.955   13 Jun 2027 10:06:46.478             5.523          1226.625
       401   13 Jun 2027 10:07:04.301   13 Jun 2027 10:07:10.352             6.051           505.656
       402   13 Jun 2027 10:07:47.146   13 Jun 2027 10:07:50.088             2.942          1034.062
       403   13 Jun 2027 10:08:02.895   13 Jun 2027 10:08:03.267             0.372            62.375
       404   13 Jun 2027 10:08:42.187   13 Jun 2027 10:08:47.675             5.488          1213.250
       405   13 Jun 2027 11:40:24.858   13 Jun 2027 11:40:37.124            12.266          5404.406
       406   13 Jun 2027 11:41:01.461   13 Jun 2027 11:41:06.541             5.080           537.438
       407   13 Jun 2027 11:41:50.031   13 Jun 2027 11:41:54.245             4.214           440.344
       408   13 Jun 2027 11:42:43.909   13 Jun 2027 11:42:45.477             1.568            94.313
       409   13 Jun 2027 11:43:30.525   13 Jun 2027 11:43:32.782             2.257          1049.156
       410   13 Jun 2027 11:43:54.151   13 Jun 2027 11:44:00.843             6.692           497.656
       411   13 Jun 2027 11:44:27.620   13 Jun 2027 11:44:29.817             2.197           285.344
