uniorb/output/strategy_4/Camera/Camera_KinoSat_111703.txt

KinoSat_111703
-------------------------
    Access    *     Start Time (UTCG)     *     Stop Time (UTCG)  *   Duration (s) *   Data (Mbytes)
         1   01 Jun 2027 03:29:17.118   01 Jun 2027 03:30:57.952           100.834         50417.000
         2   01 Jun 2027 03:31:18.342   01 Jun 2027 03:32:06.175            47.833         23916.500
         3   01 Jun 2027 05:07:39.840   01 Jun 2027 05:09:04.734            84.894         42447.000
         4   01 Jun 2027 05:10:43.715   01 Jun 2027 05:11:05.331            21.616         10808.000
         5   01 Jun 2027 05:11:10.040   01 Jun 2027 05:11:18.015             7.975          3987.500
         6   01 Jun 2027 05:11:40.632   01 Jun 2027 05:11:44.526             3.894          1947.000
         7   01 Jun 2027 06:31:42.547   01 Jun 2027 06:32:37.375            54.828         27414.000
         8   01 Jun 2027 06:33:42.349   01 Jun 2027 06:33:46.789             4.440          2220.000
         9   01 Jun 2027 08:07:40.157   01 Jun 2027 08:09:54.802           134.645         67322.500
        10   01 Jun 2027 09:41:29.389   01 Jun 2027 09:43:15.036           105.647         52823.500
        11   01 Jun 2027 09:43:35.876   01 Jun 2027 09:43:55.723            19.847          9923.500
        12   01 Jun 2027 09:49:01.971   01 Jun 2027 09:49:54.681            52.710         26355.000
        13   01 Jun 2027 11:18:34.583   01 Jun 2027 11:19:23.426            48.843         24421.500
        14   01 Jun 2027 11:23:56.460   01 Jun 2027 11:25:02.824            66.364         33182.000
        15   01 Jun 2027 11:25:19.191   01 Jun 2027 11:25:53.745            34.554         17277.000
        16   02 Jun 2027 03:41:54.648   02 Jun 2027 03:42:17.358            22.710         11355.000
        17   02 Jun 2027 03:43:52.169   02 Jun 2027 03:45:33.519           101.350         50675.000
        18   02 Jun 2027 03:46:55.158   02 Jun 2027 03:47:05.075             9.917          4958.500
        19   02 Jun 2027 05:20:14.641   02 Jun 2027 05:24:52.648           278.007        139003.500
        20   02 Jun 2027 06:43:36.738   02 Jun 2027 06:44:11.152            34.414         17207.000
        21   02 Jun 2027 06:45:09.281   02 Jun 2027 06:45:09.281             0.000             0.000
        22   02 Jun 2027 06:45:52.108   02 Jun 2027 06:46:01.933             9.825          4912.500
        23   02 Jun 2027 08:19:59.409   02 Jun 2027 08:23:26.053           206.644        103322.000
        24   02 Jun 2027 09:53:27.755   02 Jun 2027 09:54:33.374            65.619         32809.500
        25   02 Jun 2027 09:54:36.864   02 Jun 2027 09:54:40.971             4.107          1756.531
        26   02 Jun 2027 09:56:15.353   02 Jun 2027 09:56:22.217             6.864           716.656
        27   02 Jun 2027 09:58:19.534   02 Jun 2027 09:58:25.577             6.043          2529.406
        28   02 Jun 2027 10:00:30.262   02 Jun 2027 10:00:40.939            10.677          2306.219
        29   02 Jun 2027 10:01:13.451   02 Jun 2027 10:01:16.063             2.612          1016.000
        30   02 Jun 2027 10:01:54.791   02 Jun 2027 10:01:57.661             2.870           264.094
        31   02 Jun 2027 11:31:01.511   02 Jun 2027 11:31:14.136            12.625          5732.094
        32   02 Jun 2027 11:33:54.692   02 Jun 2027 11:33:58.005             3.313          1251.813
        33   02 Jun 2027 11:34:42.969   02 Jun 2027 11:34:47.575             4.606          1009.375
        34   02 Jun 2027 11:34:56.060   02 Jun 2027 11:34:58.317             2.257            26.875
        35   02 Jun 2027 11:35:21.602   02 Jun 2027 11:35:22.483             0.881           292.313
        36   02 Jun 2027 11:35:45.937   02 Jun 2027 11:35:48.929             2.992           670.125
        37   02 Jun 2027 11:37:06.284   02 Jun 2027 11:37:14.000             7.716          2417.344
        38   02 Jun 2027 11:37:27.127   02 Jun 2027 11:37:30.493             3.366           410.219
        39   03 Jun 2027 03:53:48.208   03 Jun 2027 03:53:53.548             5.340          2670.000
        40   03 Jun 2027 03:54:18.194   03 Jun 2027 03:56:47.320           149.126         74563.000
        41   03 Jun 2027 05:32:29.412   03 Jun 2027 05:34:12.704           103.292         51646.000
        42   03 Jun 2027 05:34:30.569   03 Jun 2027 05:35:39.318            68.749         34036.312
        43   03 Jun 2027 06:55:26.445   03 Jun 2027 06:55:44.871            18.426          8845.375
        44   03 Jun 2027 06:56:52.614   03 Jun 2027 06:56:52.614             0.000             0.000
        45   03 Jun 2027 06:57:31.627   03 Jun 2027 06:57:32.911             1.284           642.000
        46   03 Jun 2027 06:58:02.601   03 Jun 2027 06:58:11.172             8.571          3362.000
        47   03 Jun 2027 08:32:01.241   03 Jun 2027 08:32:09.692             8.451          2519.063
        48   03 Jun 2027 08:32:41.946   03 Jun 2027 08:32:46.476             4.530           412.937
        49   03 Jun 2027 08:33:14.233   03 Jun 2027 08:33:17.653             3.420           826.250
        50   03 Jun 2027 08:33:35.146   03 Jun 2027 08:33:37.037             1.891           117.844
        51   03 Jun 2027 08:33:46.980   03 Jun 2027 08:33:50.852             3.872           310.719
        52   03 Jun 2027 08:35:02.735   03 Jun 2027 08:35:05.646             2.911           959.906
        53   03 Jun 2027 10:06:45.289   03 Jun 2027 10:06:55.428            10.139          3401.000
        54   03 Jun 2027 10:08:01.750   03 Jun 2027 10:08:04.841             3.091           369.656
        55   03 Jun 2027 10:09:05.736   03 Jun 2027 10:09:11.798             6.062          1670.656
        56   03 Jun 2027 10:11:00.991   03 Jun 2027 10:11:08.138             7.147          2625.688
        57   03 Jun 2027 10:11:17.351   03 Jun 2027 10:11:20.052             2.701           287.906
        58   03 Jun 2027 10:11:58.290   03 Jun 2027 10:12:01.491             3.201          1194.938
        59   03 Jun 2027 10:12:29.227   03 Jun 2027 10:12:39.143             9.916           735.750
        60   03 Jun 2027 10:13:02.128   03 Jun 2027 10:13:04.698             2.570           169.500
        61   03 Jun 2027 10:13:38.664   03 Jun 2027 10:13:42.184             3.520           848.687
        62   03 Jun 2027 11:43:08.098   03 Jun 2027 11:43:22.813            14.715          6445.969
        63   03 Jun 2027 11:45:20.128   03 Jun 2027 11:45:24.069             3.941           538.969
        64   03 Jun 2027 11:45:33.054   03 Jun 2027 11:45:34.198             1.144           280.781
        65   03 Jun 2027 11:46:13.928   03 Jun 2027 11:46:23.738             9.810          1158.438
        66   03 Jun 2027 11:47:05.847   03 Jun 2027 11:47:09.912             4.065          1315.906
        67   03 Jun 2027 11:47:55.205   03 Jun 2027 11:47:57.919             2.714           927.000
        68   03 Jun 2027 11:48:56.498   03 Jun 2027 11:49:05.357             8.859          1830.594
        69   03 Jun 2027 11:49:17.428   03 Jun 2027 11:49:29.861            12.433           221.594
        70   04 Jun 2027 04:05:57.037   04 Jun 2027 04:06:59.089            62.052         31026.000
        71   04 Jun 2027 04:07:06.065   04 Jun 2027 04:08:08.354            62.289         31144.500
        72   04 Jun 2027 04:08:50.796   04 Jun 2027 04:08:52.567             1.771           885.500
        73   04 Jun 2027 04:09:45.129   04 Jun 2027 04:10:24.422            39.293         19646.500
        74   04 Jun 2027 04:10:45.552   04 Jun 2027 04:10:45.552             0.000             0.000
        75   04 Jun 2027 05:44:15.722   04 Jun 2027 05:44:46.827            31.105         15552.500
        76   04 Jun 2027 05:45:05.263   04 Jun 2027 05:47:04.651           119.388         59543.156
        77   04 Jun 2027 07:07:38.384   04 Jun 2027 07:07:57.195            18.811          7461.094
        78   04 Jun 2027 07:08:32.722   04 Jun 2027 07:08:34.609             1.887           749.094
        79   04 Jun 2027 07:10:02.688   04 Jun 2027 07:10:07.605             4.917          2161.063
        80   04 Jun 2027 07:10:30.118   04 Jun 2027 07:10:31.934             1.816           484.969
        81   04 Jun 2027 08:44:10.249   04 Jun 2027 08:44:20.826            10.577          2225.094
        82   04 Jun 2027 08:45:53.421   04 Jun 2027 08:45:57.858             4.437          1541.656
        83   04 Jun 2027 08:46:45.386   04 Jun 2027 08:46:46.992             1.606           356.188
        84   04 Jun 2027 10:19:19.730   04 Jun 2027 10:19:25.944             6.214          2469.312
        85   04 Jun 2027 10:20:35.710   04 Jun 2027 10:20:39.774             4.064          1746.844
        86   04 Jun 2027 10:21:15.631   04 Jun 2027 10:21:18.271             2.640           975.562
        87   04 Jun 2027 10:22:51.951   04 Jun 2027 10:22:56.550             4.599          1741.031
        88   04 Jun 2027 10:23:46.937   04 Jun 2027 10:23:49.585             2.648          1180.813
        89   04 Jun 2027 10:25:32.943   04 Jun 2027 10:25:37.845             4.902          2381.031
        90   04 Jun 2027 10:25:46.829   04 Jun 2027 10:25:48.467             1.638            40.312
        91   04 Jun 2027 11:55:44.476   04 Jun 2027 11:55:53.211             8.735          4082.531
        92   04 Jun 2027 11:56:47.111   04 Jun 2027 11:56:50.504             3.393          1198.344
        93   04 Jun 2027 11:57:53.318   04 Jun 2027 11:57:58.001             4.683           860.750
        94   04 Jun 2027 11:59:20.122   04 Jun 2027 11:59:22.599             2.477           862.781
        95   04 Jun 2027 11:59:38.621   04 Jun 2027 11:59:40.032             1.411           489.031
        96   04 Jun 2027 11:59:56.427   04 Jun 2027 11:59:58.551             2.124           481.969
        97   05 Jun 2027 04:18:08.111   05 Jun 2027 04:18:08.841             0.730           365.000
        98   05 Jun 2027 04:19:03.804   05 Jun 2027 04:20:24.308            80.504         40252.000
        99   05 Jun 2027 04:21:11.116   05 Jun 2027 04:21:16.527             5.411          2705.500
       100   05 Jun 2027 04:21:38.288   05 Jun 2027 04:21:43.803             5.515          2757.500
       101   05 Jun 2027 04:21:51.009   05 Jun 2027 04:22:19.198            28.189         14094.500
       102   05 Jun 2027 04:22:50.146   05 Jun 2027 04:22:50.146             0.000             0.000
       103   05 Jun 2027 04:23:37.204   05 Jun 2027 04:24:05.106            27.902         13951.000
       104   05 Jun 2027 04:25:40.802   05 Jun 2027 04:25:48.401             7.599          3799.500
       105   05 Jun 2027 05:56:12.733   05 Jun 2027 05:56:51.573            38.840         19420.000
       106   05 Jun 2027 05:57:14.017   05 Jun 2027 05:59:22.644           128.627         62580.718
       107   05 Jun 2027 07:20:14.740   05 Jun 2027 07:20:30.246            15.506          7442.656
       108   05 Jun 2027 07:22:37.657   05 Jun 2027 07:22:47.603             9.946          3235.062
       109   05 Jun 2027 08:56:03.284   05 Jun 2027 08:56:09.386             6.102          2564.094
       110   05 Jun 2027 08:57:46.938   05 Jun 2027 08:57:53.388             6.450          2832.062
       111   05 Jun 2027 08:58:09.829   05 Jun 2027 08:58:09.829             0.000             0.000
       112   05 Jun 2027 08:58:35.634   05 Jun 2027 08:58:38.651             3.017          1167.750
       113   05 Jun 2027 10:31:00.197   05 Jun 2027 10:31:14.774            14.577          4536.938
       114   05 Jun 2027 10:33:03.085   05 Jun 2027 10:33:10.029             6.944          3034.375
       115   05 Jun 2027 10:33:35.034   05 Jun 2027 10:33:36.015             0.981           206.344
       116   05 Jun 2027 10:34:54.624   05 Jun 2027 10:34:59.405             4.781          1694.531
       117   05 Jun 2027 10:36:30.084   05 Jun 2027 10:36:33.659             3.575           793.906
       118   05 Jun 2027 10:37:32.378   05 Jun 2027 10:37:37.228             4.850          1834.969
       119   06 Jun 2027 04:31:07.573   06 Jun 2027 04:33:25.902           138.329         69164.500
       120   06 Jun 2027 04:34:55.389   06 Jun 2027 04:34:56.453             1.064           532.000
       121   06 Jun 2027 04:37:10.127   06 Jun 2027 04:37:52.497            42.370         21185.000
       122   06 Jun 2027 04:38:08.159   06 Jun 2027 04:38:40.639            32.480         16240.000
       123   06 Jun 2027 05:57:00.759   06 Jun 2027 05:57:31.157            30.398         15199.000
       124   06 Jun 2027 06:08:08.732   06 Jun 2027 06:09:43.858            95.126         46901.563
       125   06 Jun 2027 06:10:44.266   06 Jun 2027 06:10:48.501             4.235          1386.031
       126   06 Jun 2027 07:31:05.976   06 Jun 2027 07:31:16.627            10.651          4238.812
       127   06 Jun 2027 07:32:02.789   06 Jun 2027 07:32:04.773             1.984           852.875
       128   06 Jun 2027 07:33:04.450   06 Jun 2027 07:33:08.453             4.003           798.031
       129   06 Jun 2027 07:34:06.534   06 Jun 2027 07:34:09.344             2.810          1202.188
       130   06 Jun 2027 07:34:36.433   06 Jun 2027 07:34:38.481             2.048           669.969
       131   06 Jun 2027 09:06:22.296   06 Jun 2027 09:06:27.146             4.850          2290.187
       132   06 Jun 2027 09:10:17.433   06 Jun 2027 09:10:26.345             8.912          4103.281
       133   06 Jun 2027 09:10:36.901   06 Jun 2027 09:10:37.712             0.811            77.125
       134   06 Jun 2027 09:11:29.899   06 Jun 2027 09:11:34.552             4.653          1476.594
       135   06 Jun 2027 09:12:15.802   06 Jun 2027 09:12:18.383             2.581           399.031
       136   06 Jun 2027 10:43:06.445   06 Jun 2027 10:43:20.031            13.586          3243.719
       137   06 Jun 2027 10:45:53.576   06 Jun 2027 10:45:56.941             3.365           539.094
       138   06 Jun 2027 10:46:55.136   06 Jun 2027 10:47:02.218             7.082          1545.813
       139   06 Jun 2027 10:47:54.637   06 Jun 2027 10:47:57.833             3.196           523.219
       140   06 Jun 2027 10:48:25.105   06 Jun 2027 10:48:27.864             2.759           720.406
       141   06 Jun 2027 10:48:40.905   06 Jun 2027 10:48:41.742             0.837           407.531
       142   06 Jun 2027 10:49:19.741   06 Jun 2027 10:49:24.090             4.349           531.844
       143   06 Jun 2027 10:49:28.082   06 Jun 2027 10:49:28.341             0.259           124.750
       144   07 Jun 2027 03:04:31.130   07 Jun 2027 03:05:10.616            39.486         19743.000
       145   07 Jun 2027 03:06:38.824   07 Jun 2027 03:06:44.275             5.451          2725.500
       146   07 Jun 2027 03:07:14.488   07 Jun 2027 03:07:18.162             3.674          1837.000
       147   07 Jun 2027 03:08:08.776   07 Jun 2027 03:08:08.776             0.000             0.000
       148   07 Jun 2027 03:08:46.826   07 Jun 2027 03:08:51.048             4.222          2111.000
       149   07 Jun 2027 03:09:14.747   07 Jun 2027 03:09:22.523             7.776          3888.000
       150   07 Jun 2027 03:09:40.311   07 Jun 2027 03:09:40.311             0.000             0.000
       151   07 Jun 2027 03:09:49.089   07 Jun 2027 03:09:52.019             2.930          1465.000
       152   07 Jun 2027 03:10:08.846   07 Jun 2027 03:10:24.274            15.428          7714.000
       153   07 Jun 2027 04:43:37.147   07 Jun 2027 04:46:15.112           157.965         78982.500
       154   07 Jun 2027 04:46:54.614   07 Jun 2027 04:47:17.744            23.130         11565.000
       155   07 Jun 2027 04:48:22.650   07 Jun 2027 04:48:26.798             4.148          2074.000
       156   07 Jun 2027 04:49:06.268   07 Jun 2027 04:49:39.838            33.570         16785.000
       157   07 Jun 2027 04:49:44.486   07 Jun 2027 04:50:12.174            27.688         13057.156
       158   07 Jun 2027 06:08:29.207   07 Jun 2027 06:09:03.854            34.647         17323.500
       159   07 Jun 2027 06:20:11.410   07 Jun 2027 06:20:18.503             7.093          3520.688
       160   07 Jun 2027 07:42:24.922   07 Jun 2027 07:42:37.494            12.572          5510.188
       161   07 Jun 2027 07:43:34.917   07 Jun 2027 07:43:36.204             1.287           643.500
       162   07 Jun 2027 07:45:30.226   07 Jun 2027 07:45:36.344             6.118          2969.812
       163   07 Jun 2027 07:47:01.052   07 Jun 2027 07:47:05.010             3.958          1958.562
       164   07 Jun 2027 07:47:26.970   07 Jun 2027 07:47:28.572             1.602           230.469
       165   07 Jun 2027 09:17:29.341   07 Jun 2027 09:17:37.850             8.509          3835.281
       166   07 Jun 2027 09:18:47.872   07 Jun 2027 09:18:57.168             9.296           814.344
       167   07 Jun 2027 09:19:51.393   07 Jun 2027 09:19:56.235             4.842          1694.531
       168   07 Jun 2027 09:21:06.027   07 Jun 2027 09:21:10.087             4.060          1238.156
       169   07 Jun 2027 09:22:37.740   07 Jun 2027 09:22:43.428             5.688          2727.406
       170   07 Jun 2027 09:23:31.204   07 Jun 2027 09:23:35.727             4.523           878.094
       171   07 Jun 2027 09:23:44.758   07 Jun 2027 09:23:45.493             0.735           282.219
       172   07 Jun 2027 09:24:27.699   07 Jun 2027 09:24:30.943             3.244           915.000
       173   07 Jun 2027 10:54:50.415   07 Jun 2027 10:54:59.035             8.620          3804.375
       174   07 Jun 2027 10:58:11.772   07 Jun 2027 10:58:13.716             1.944           424.063
       175   07 Jun 2027 10:59:09.553   07 Jun 2027 10:59:14.110             4.557          1731.656
       176   07 Jun 2027 10:59:35.673   07 Jun 2027 10:59:38.183             2.510           387.156
       177   07 Jun 2027 10:59:46.119   07 Jun 2027 10:59:52.510             6.391           196.844
       178   07 Jun 2027 11:00:20.236   07 Jun 2027 11:00:21.571             1.335           503.156
       179   07 Jun 2027 11:01:10.872   07 Jun 2027 11:01:18.370             7.498          1500.125
       180   07 Jun 2027 11:01:37.643   07 Jun 2027 11:01:43.502             5.859           570.469
       181   08 Jun 2027 03:16:50.442   08 Jun 2027 03:18:00.158            69.716         34858.000
       182   08 Jun 2027 03:18:01.850   08 Jun 2027 03:19:01.812            59.962         29981.000
       183   08 Jun 2027 03:19:03.669   08 Jun 2027 03:19:25.129            21.460         10730.000
       184   08 Jun 2027 03:19:32.338   08 Jun 2027 03:19:44.298            11.960          5980.000
       185   08 Jun 2027 03:20:56.662   08 Jun 2027 03:21:18.131            21.469         10734.500
       186   08 Jun 2027 03:22:05.192   08 Jun 2027 03:22:34.897            29.705         14852.500
       187   08 Jun 2027 04:55:38.280   08 Jun 2027 04:57:21.879           103.599         50702.093
       188   08 Jun 2027 04:57:50.091   08 Jun 2027 04:57:53.439             3.348           765.563
       189   08 Jun 2027 04:58:10.736   08 Jun 2027 04:58:13.233             2.497           283.281
       190   08 Jun 2027 04:59:30.888   08 Jun 2027 04:59:34.236             3.348          1535.313
       191   08 Jun 2027 05:01:47.133   08 Jun 2027 05:01:48.445             1.312           404.438
       192   08 Jun 2027 05:02:41.394   08 Jun 2027 05:02:43.707             2.313          1156.500
       193   08 Jun 2027 06:19:59.197   08 Jun 2027 06:20:07.353             8.156          3656.156
       194   08 Jun 2027 06:21:47.946   08 Jun 2027 06:22:01.448            13.502          2790.094
       195   08 Jun 2027 06:32:13.285   08 Jun 2027 06:32:17.644             4.359          1782.375
       196   08 Jun 2027 07:54:09.471   08 Jun 2027 07:54:26.262            16.791          6843.500
       197   08 Jun 2027 07:56:19.506   08 Jun 2027 07:56:24.238             4.732          1830.563
       198   08 Jun 2027 07:57:13.994   08 Jun 2027 07:57:18.938             4.944           972.094
       199   08 Jun 2027 07:59:02.065   08 Jun 2027 07:59:09.256             7.191          2739.750
       200   08 Jun 2027 07:59:16.133   08 Jun 2027 07:59:17.372             1.239            99.063
       201   08 Jun 2027 09:28:57.583   08 Jun 2027 09:29:04.816             7.233          2081.344
       202   08 Jun 2027 09:30:44.485   08 Jun 2027 09:30:49.138             4.653          1886.094
       203   08 Jun 2027 09:31:40.860   08 Jun 2027 09:31:49.883             9.023          1609.125
       204   08 Jun 2027 09:32:44.149   08 Jun 2027 09:32:49.305             5.156           643.844
       205   08 Jun 2027 09:34:38.075   08 Jun 2027 09:34:55.189            17.114          2747.563
       206   08 Jun 2027 09:35:52.135   08 Jun 2027 09:35:53.693             1.558           491.719
       207   08 Jun 2027 09:36:29.827   08 Jun 2027 09:36:35.615             5.788           844.656
       208   08 Jun 2027 11:06:46.476   08 Jun 2027 11:06:56.356             9.880          4165.875
       209   08 Jun 2027 11:09:45.634   08 Jun 2027 11:09:48.071             2.437           706.312
       210   08 Jun 2027 11:12:12.371   08 Jun 2027 11:12:23.371            11.000          4509.375
       211   08 Jun 2027 11:13:06.288   08 Jun 2027 11:13:08.485             2.197           839.250
       212   08 Jun 2027 11:13:51.382   08 Jun 2027 11:13:55.640             4.258          1314.188
       213   09 Jun 2027 03:29:34.778   09 Jun 2027 03:31:13.777            98.999         49499.500
       214   09 Jun 2027 03:31:37.000   09 Jun 2027 03:33:31.263           114.263         57131.500
       215   09 Jun 2027 05:08:00.069   09 Jun 2027 05:09:34.528            94.459         46567.687
       216   09 Jun 2027 05:10:01.998   09 Jun 2027 05:10:08.136             6.138           858.437
       217   09 Jun 2027 05:11:54.937   09 Jun 2027 05:12:03.344             8.407          3276.125
       218   09 Jun 2027 06:31:58.811   09 Jun 2027 06:32:16.116            17.305          7748.781
       219   09 Jun 2027 06:32:54.044   09 Jun 2027 06:32:56.112             2.068           966.250
       220   09 Jun 2027 06:33:07.017   09 Jun 2027 06:33:07.017             0.000             0.000
       221   09 Jun 2027 06:33:59.707   09 Jun 2027 06:34:04.741             5.034          1969.000
       222   09 Jun 2027 08:07:55.787   09 Jun 2027 08:08:09.232            13.445          5549.531
       223   09 Jun 2027 08:08:15.027   09 Jun 2027 08:08:17.675             2.648            72.719
       224   09 Jun 2027 08:09:30.224   09 Jun 2027 08:09:35.718             5.494          1712.094
       225   09 Jun 2027 08:11:02.757   09 Jun 2027 08:11:09.586             6.829          2566.375
       226   09 Jun 2027 09:41:46.362   09 Jun 2027 09:41:53.685             7.323          3183.719
       227   09 Jun 2027 09:43:34.222   09 Jun 2027 09:43:38.667             4.445           675.125
       228   09 Jun 2027 09:46:24.924   09 Jun 2027 09:46:35.415            10.491          4859.094
       229   09 Jun 2027 09:47:43.663   09 Jun 2027 09:47:48.186             4.523          2057.875
       230   09 Jun 2027 09:48:05.720   09 Jun 2027 09:48:08.062             2.342           512.250
       231   09 Jun 2027 09:49:17.004   09 Jun 2027 09:49:20.779             3.775          1798.250
       232   09 Jun 2027 09:49:35.612   09 Jun 2027 09:49:36.753             1.141            52.750
       233   09 Jun 2027 09:49:53.330   09 Jun 2027 09:49:55.841             2.511           168.281
       234   09 Jun 2027 11:18:53.197   09 Jun 2027 11:19:06.312            13.115          3955.187
       235   09 Jun 2027 11:21:34.162   09 Jun 2027 11:21:50.416            16.254          3338.094
       236   09 Jun 2027 11:23:00.189   09 Jun 2027 11:23:09.042             8.853           894.687
       237   09 Jun 2027 11:23:35.745   09 Jun 2027 11:23:37.982             2.237            62.500
       238   09 Jun 2027 11:24:08.839   09 Jun 2027 11:24:08.839             0.000             0.000
       239   09 Jun 2027 11:24:09.759   09 Jun 2027 11:24:11.355             1.596           741.594
       240   09 Jun 2027 11:24:52.239   09 Jun 2027 11:24:55.903             3.664          1089.937
       241   09 Jun 2027 11:25:20.275   09 Jun 2027 11:25:23.726             3.451           761.625
       242   09 Jun 2027 11:25:48.241   09 Jun 2027 11:25:51.066             2.825           766.094
       243   10 Jun 2027 03:42:12.703   10 Jun 2027 03:42:32.438            19.735          9867.500
       244   10 Jun 2027 03:44:07.296   10 Jun 2027 03:45:57.042           109.746         54873.000
       245   10 Jun 2027 03:46:40.832   10 Jun 2027 03:47:22.611            41.779         20889.500
       246   10 Jun 2027 05:20:30.794   10 Jun 2027 05:22:43.058           132.264         65483.000
       247   10 Jun 2027 05:23:41.307   10 Jun 2027 05:23:44.916             3.609          1678.438
       248   10 Jun 2027 06:43:53.387   10 Jun 2027 06:44:04.200            10.813          5346.875
       249   10 Jun 2027 06:45:08.388   10 Jun 2027 06:45:14.112             5.724          1609.594
       250   10 Jun 2027 06:45:34.025   10 Jun 2027 06:45:36.344             2.319           399.688
       251   10 Jun 2027 06:46:13.850   10 Jun 2027 06:46:13.850             0.000             0.000
       252   10 Jun 2027 08:20:17.555   10 Jun 2027 08:20:26.423             8.868          3632.000
       253   10 Jun 2027 08:21:00.192   10 Jun 2027 08:21:02.551             2.359           457.219
       254   10 Jun 2027 08:21:49.031   10 Jun 2027 08:21:55.607             6.576          1423.406
       255   10 Jun 2027 08:22:23.654   10 Jun 2027 08:22:26.441             2.787           510.406
       256   10 Jun 2027 08:23:16.398   10 Jun 2027 08:23:19.515             3.117           905.875
       257   10 Jun 2027 09:53:58.622   10 Jun 2027 09:54:06.530             7.908          1989.906
       258   10 Jun 2027 09:56:13.810   10 Jun 2027 09:56:13.810             0.000             0.000
       259   10 Jun 2027 09:56:35.309   10 Jun 2027 09:56:38.442             3.133           748.344
       260   10 Jun 2027 09:59:32.199   10 Jun 2027 09:59:36.418             4.219          1729.688
       261   10 Jun 2027 10:00:49.467   10 Jun 2027 10:00:56.535             7.068           511.594
       262   10 Jun 2027 10:01:32.295   10 Jun 2027 10:01:35.118             2.823           993.250
       263   10 Jun 2027 10:01:57.583   10 Jun 2027 10:02:01.792             4.209            62.406
       264   10 Jun 2027 10:02:16.081   10 Jun 2027 10:02:16.332             0.251           125.500
       265   10 Jun 2027 11:31:19.564   10 Jun 2027 11:31:28.911             9.347          3842.219
       266   10 Jun 2027 11:33:20.503   10 Jun 2027 11:33:25.001             4.498          1217.156
       267   10 Jun 2027 11:34:10.789   10 Jun 2027 11:34:25.064            14.275          1270.719
       268   10 Jun 2027 11:34:28.410   10 Jun 2027 11:34:28.864             0.454            59.594
       269   10 Jun 2027 11:36:02.293   10 Jun 2027 11:36:06.469             4.176          1938.781
       270   10 Jun 2027 11:36:15.040   10 Jun 2027 11:36:18.644             3.604            48.500
       271   10 Jun 2027 11:37:03.831   10 Jun 2027 11:37:06.965             3.134          1095.563
       272   10 Jun 2027 11:37:29.947   10 Jun 2027 11:37:33.200             3.253           718.187
       273   10 Jun 2027 11:37:52.833   10 Jun 2027 11:37:59.942             7.109           523.844
       274   11 Jun 2027 03:54:05.726   11 Jun 2027 03:54:10.207             4.481          2240.500
       275   11 Jun 2027 03:54:35.123   11 Jun 2027 03:57:37.030           181.907         90953.500
       276   11 Jun 2027 03:59:27.883   11 Jun 2027 03:59:28.885             1.002           501.000
       277   11 Jun 2027 03:59:45.393   11 Jun 2027 04:00:01.153            15.760          7880.000
       278   11 Jun 2027 05:32:46.541   11 Jun 2027 05:34:27.204           100.663         50331.500
       279   11 Jun 2027 05:34:59.590   11 Jun 2027 05:35:21.222            21.632          9005.157
       280   11 Jun 2027 06:55:40.881   11 Jun 2027 06:55:57.863            16.982          6191.031
       281   11 Jun 2027 06:57:48.963   11 Jun 2027 06:57:56.462             7.499          3147.062
       282   11 Jun 2027 08:32:19.397   11 Jun 2027 08:32:26.489             7.092          2976.188
       283   11 Jun 2027 08:33:01.303   11 Jun 2027 08:33:02.692             1.389           500.969
       284   11 Jun 2027 08:33:26.904   11 Jun 2027 08:33:29.424             2.520           679.187
       285   11 Jun 2027 08:33:52.060   11 Jun 2027 08:33:54.445             2.385            98.000
       286   11 Jun 2027 08:34:02.691   11 Jun 2027 08:34:02.691             0.000             0.000
       287   11 Jun 2027 08:34:49.630   11 Jun 2027 08:34:53.616             3.986          1724.531
       288   11 Jun 2027 10:07:19.131   11 Jun 2027 10:07:28.072             8.941          3187.219
       289   11 Jun 2027 10:08:21.329   11 Jun 2027 10:08:22.366             1.037           473.813
       290   11 Jun 2027 10:09:24.454   11 Jun 2027 10:09:29.306             4.852          1654.844
       291   11 Jun 2027 10:10:35.048   11 Jun 2027 10:10:38.031             2.983          1131.313
       292   11 Jun 2027 10:12:34.131   11 Jun 2027 10:12:39.644             5.513          2429.000
       293   11 Jun 2027 10:13:38.336   11 Jun 2027 10:13:40.091             1.755           610.437
       294   11 Jun 2027 10:13:55.002   11 Jun 2027 10:14:04.842             9.840           249.125
       295   11 Jun 2027 11:43:27.387   11 Jun 2027 11:43:40.317            12.930          6185.312
       296   11 Jun 2027 11:45:18.211   11 Jun 2027 11:45:22.514             4.303          1600.844
       297   11 Jun 2027 11:45:58.763   11 Jun 2027 11:46:01.578             2.815          1118.219
       298   11 Jun 2027 11:46:39.603   11 Jun 2027 11:46:43.648             4.045          1038.250
       299   11 Jun 2027 11:48:02.070   11 Jun 2027 11:48:09.014             6.944          1827.531
       300   11 Jun 2027 11:48:12.405   11 Jun 2027 11:48:13.565             1.160           105.969
       301   11 Jun 2027 11:49:06.393   11 Jun 2027 11:49:09.653             3.260          1260.563
       302   11 Jun 2027 11:49:27.343   11 Jun 2027 11:49:32.910             5.567           473.469
       303   11 Jun 2027 11:49:58.970   11 Jun 2027 11:50:00.601             1.631           814.375
       304   12 Jun 2027 04:06:14.472   12 Jun 2027 04:07:16.454            61.982         30991.000
       305   12 Jun 2027 04:07:22.907   12 Jun 2027 04:08:08.690            45.783         22891.500
       306   12 Jun 2027 04:08:48.456   12 Jun 2027 04:08:58.774            10.318          5159.000
       307   12 Jun 2027 04:11:28.923   12 Jun 2027 04:12:10.088            41.165         20582.500
       308   12 Jun 2027 05:45:35.439   12 Jun 2027 05:48:06.913           151.474         75602.000
       309   12 Jun 2027 07:07:55.412   12 Jun 2027 07:08:08.317            12.905          5950.187
       310   12 Jun 2027 07:08:48.824   12 Jun 2027 07:08:51.041             2.217           772.312
       311   12 Jun 2027 07:09:21.360   12 Jun 2027 07:09:26.108             4.748           947.469
       312   12 Jun 2027 07:10:30.605   12 Jun 2027 07:10:35.744             5.139          1710.188
       313   12 Jun 2027 07:10:57.520   12 Jun 2027 07:11:02.720             5.200           302.500
       314   12 Jun 2027 08:44:27.201   12 Jun 2027 08:44:36.278             9.077          2764.406
       315   12 Jun 2027 08:45:20.573   12 Jun 2027 08:45:20.573             0.000             0.000
       316   12 Jun 2027 08:45:39.407   12 Jun 2027 08:45:48.696             9.289          1857.406
       317   12 Jun 2027 08:46:06.655   12 Jun 2027 08:46:06.655             0.000             0.000
       318   12 Jun 2027 08:46:51.573   12 Jun 2027 08:46:58.046             6.473          1723.531
       319   12 Jun 2027 08:47:58.096   12 Jun 2027 08:48:00.105             2.009          1004.500
       320   12 Jun 2027 10:19:37.406   12 Jun 2027 10:19:48.900            11.494          3001.281
       321   12 Jun 2027 10:20:55.246   12 Jun 2027 10:20:55.246             0.000             0.000
       322   12 Jun 2027 10:21:04.465   12 Jun 2027 10:21:11.984             7.519          2144.563
       323   12 Jun 2027 10:22:32.240   12 Jun 2027 10:22:36.573             4.333          1800.781
       324   12 Jun 2027 10:24:34.678   12 Jun 2027 10:24:41.350             6.672          3159.250
       325   12 Jun 2027 10:25:24.129   12 Jun 2027 10:25:27.349             3.220          1185.188
       326   12 Jun 2027 10:26:12.206   12 Jun 2027 10:26:13.735             1.529           638.219
       327   12 Jun 2027 11:56:01.385   12 Jun 2027 11:56:09.946             8.561          4087.969
       328   12 Jun 2027 11:57:23.130   12 Jun 2027 11:57:27.029             3.899          1667.625
       329   12 Jun 2027 11:57:59.617   12 Jun 2027 11:58:02.196             2.579           647.719
       330   12 Jun 2027 11:59:24.415   12 Jun 2027 11:59:32.556             8.141          2309.219
       331   12 Jun 2027 11:59:54.826   12 Jun 2027 11:59:55.968             1.142           439.781
       332   13 Jun 2027 04:19:21.040   13 Jun 2027 04:20:08.643            47.603         23801.500
       333   13 Jun 2027 04:20:43.145   13 Jun 2027 04:21:32.245            49.100         24550.000
       334   13 Jun 2027 04:21:36.628   13 Jun 2027 04:21:36.652             0.024            12.000
       335   13 Jun 2027 04:22:42.547   13 Jun 2027 04:23:04.711            22.164         11082.000
       336   13 Jun 2027 04:23:30.154   13 Jun 2027 04:23:32.585             2.431          1215.500
       337   13 Jun 2027 04:23:49.680   13 Jun 2027 04:23:51.672             1.992           996.000
       338   13 Jun 2027 04:26:20.419   13 Jun 2027 04:26:52.102            31.683         15841.500
       339   13 Jun 2027 05:56:29.414   13 Jun 2027 05:57:08.905            39.491         19745.500
       340   13 Jun 2027 05:57:29.312   13 Jun 2027 05:59:18.070           108.758         54379.000
       341   13 Jun 2027 05:59:54.060   13 Jun 2027 06:00:02.635             8.575          4287.500
       342   13 Jun 2027 07:20:25.500   13 Jun 2027 07:20:46.402            20.902          8165.562
       343   13 Jun 2027 07:22:31.036   13 Jun 2027 07:22:36.512             5.476          2545.875
       344   13 Jun 2027 08:56:20.249   13 Jun 2027 08:56:26.306             6.057          2759.781
       345   13 Jun 2027 08:57:35.567   13 Jun 2027 08:57:39.072             3.505          1545.594
       346   13 Jun 2027 08:58:16.138   13 Jun 2027 08:58:18.579             2.441           879.156
       347   13 Jun 2027 08:59:40.719   13 Jun 2027 08:59:40.719             0.000             0.000
       348   13 Jun 2027 10:31:16.211   13 Jun 2027 10:31:30.186            13.975          4912.062
       349   13 Jun 2027 10:33:22.959   13 Jun 2027 10:33:29.415             6.456          3164.500
       350   13 Jun 2027 10:33:55.732   13 Jun 2027 10:33:57.902             2.170           251.313
       351   13 Jun 2027 10:34:28.176   13 Jun 2027 10:34:30.461             2.285           359.094
       352   13 Jun 2027 10:35:29.213   13 Jun 2027 10:35:31.573             2.360           620.750
       353   13 Jun 2027 10:35:47.477   13 Jun 2027 10:35:48.978             1.501           497.000
       354   13 Jun 2027 10:36:21.400   13 Jun 2027 10:36:23.943             2.543           942.906
       355   13 Jun 2027 10:37:54.727   13 Jun 2027 10:37:59.906             5.179          2502.344
