uniorb/output/strategy_4/Camera/Camera_KinoSat_111801.txt

KinoSat_111801
-------------------------
    Access    *     Start Time (UTCG)     *     Stop Time (UTCG)  *   Duration (s) *   Data (Mbytes)
         1   01 Jun 2027 03:44:00.441   01 Jun 2027 03:44:27.026            26.585         13292.500
         2   01 Jun 2027 03:44:32.009   01 Jun 2027 03:45:06.600            34.591         17295.500
         3   01 Jun 2027 03:45:10.324   01 Jun 2027 03:46:26.709            76.385         38192.500
         4   01 Jun 2027 03:48:35.030   01 Jun 2027 03:48:49.736            14.706          7353.000
         5   01 Jun 2027 03:49:09.215   01 Jun 2027 03:49:23.518            14.303          7151.500
         6   01 Jun 2027 05:22:46.934   01 Jun 2027 05:24:11.648            84.714         42357.000
         7   01 Jun 2027 05:24:37.148   01 Jun 2027 05:24:51.436            14.288          7144.000
         8   01 Jun 2027 05:25:04.383   01 Jun 2027 05:25:04.383             0.000             0.000
         9   01 Jun 2027 05:25:22.234   01 Jun 2027 05:25:32.079             9.845          4922.500
        10   01 Jun 2027 05:25:59.526   01 Jun 2027 05:26:05.204             5.678          2839.000
        11   01 Jun 2027 05:28:01.717   01 Jun 2027 05:28:03.373             1.656           828.000
        12   01 Jun 2027 05:29:25.874   01 Jun 2027 05:29:41.158            15.284          7642.000
        13   01 Jun 2027 05:29:44.935   01 Jun 2027 05:29:47.945             3.010          1505.000
        14   01 Jun 2027 06:47:07.707   01 Jun 2027 06:48:15.368            67.661         33830.500
        15   01 Jun 2027 06:59:24.339   01 Jun 2027 06:59:52.013            27.674         13837.000
        16   01 Jun 2027 08:21:14.755   01 Jun 2027 08:22:11.783            57.028         28514.000
        17   01 Jun 2027 08:23:18.200   01 Jun 2027 08:24:02.760            44.560         22280.000
        18   01 Jun 2027 09:56:02.834   01 Jun 2027 09:56:53.419            50.585         25292.500
        19   01 Jun 2027 09:57:49.004   01 Jun 2027 09:58:06.094            17.090          8545.000
        20   01 Jun 2027 10:04:59.165   01 Jun 2027 10:04:59.282             0.117            58.500
        21   01 Jun 2027 11:36:08.816   01 Jun 2027 11:36:51.858            43.042         21521.000
        22   01 Jun 2027 11:37:59.947   01 Jun 2027 11:38:06.104             6.157          3078.500
        23   01 Jun 2027 11:39:52.182   01 Jun 2027 11:41:19.853            87.671         43835.500
        24   02 Jun 2027 03:56:43.208   02 Jun 2027 03:56:59.329            16.121          8060.500
        25   02 Jun 2027 03:57:07.405   02 Jun 2027 03:58:02.146            54.741         27370.500
        26   02 Jun 2027 03:58:07.986   02 Jun 2027 03:58:19.877            11.891          5945.500
        27   02 Jun 2027 03:58:47.567   02 Jun 2027 03:59:39.140            51.573         25786.500
        28   02 Jun 2027 04:01:18.719   02 Jun 2027 04:01:35.043            16.324          8162.000
        29   02 Jun 2027 04:01:37.561   02 Jun 2027 04:01:50.984            13.423          6711.500
        30   02 Jun 2027 05:35:11.369   02 Jun 2027 05:36:37.124            85.755         42877.500
        31   02 Jun 2027 05:37:03.722   02 Jun 2027 05:38:53.865           110.143         55071.500
        32   02 Jun 2027 05:38:57.260   02 Jun 2027 05:40:17.890            80.630         40315.000
        33   02 Jun 2027 06:59:05.891   02 Jun 2027 06:59:33.341            27.450         13725.000
        34   02 Jun 2027 06:59:52.417   02 Jun 2027 07:00:11.934            19.517          9758.500
        35   02 Jun 2027 08:35:03.138   02 Jun 2027 08:38:06.761           183.623         91811.500
        36   02 Jun 2027 10:08:51.731   02 Jun 2027 10:09:50.172            58.441         29220.500
        37   02 Jun 2027 10:10:27.173   02 Jun 2027 10:10:30.770             3.597          1591.500
        38   02 Jun 2027 10:11:11.782   02 Jun 2027 10:11:13.442             1.660           458.531
        39   02 Jun 2027 10:15:34.007   02 Jun 2027 10:15:53.623            19.616          7673.625
        40   02 Jun 2027 10:16:12.489   02 Jun 2027 10:16:13.470             0.981           281.312
        41   02 Jun 2027 10:16:44.994   02 Jun 2027 10:16:47.940             2.946           932.250
        42   02 Jun 2027 10:17:08.611   02 Jun 2027 10:17:14.028             5.417           390.656
        43   02 Jun 2027 11:46:01.317   02 Jun 2027 11:46:14.016            12.699          5530.812
        44   02 Jun 2027 11:47:26.631   02 Jun 2027 11:47:30.566             3.935          1691.219
        45   02 Jun 2027 11:50:51.412   02 Jun 2027 11:51:04.489            13.077          4547.906
        46   02 Jun 2027 11:52:15.460   02 Jun 2027 11:52:20.474             5.014          1875.937
        47   02 Jun 2027 11:52:37.458   02 Jun 2027 11:52:40.879             3.421           120.281
        48   03 Jun 2027 04:09:27.656   03 Jun 2027 04:09:34.064             6.408          3204.000
        49   03 Jun 2027 04:10:08.935   03 Jun 2027 04:10:55.701            46.766         23383.000
        50   03 Jun 2027 04:10:57.231   03 Jun 2027 04:13:10.320           133.089         66544.500
        51   03 Jun 2027 04:13:15.406   03 Jun 2027 04:13:16.809             1.403           701.500
        52   03 Jun 2027 04:13:34.885   03 Jun 2027 04:14:00.314            25.429         12714.500
        53   03 Jun 2027 04:14:31.306   03 Jun 2027 04:14:35.268             3.962          1981.000
        54   03 Jun 2027 05:47:35.368   03 Jun 2027 05:48:04.166            28.798         14399.000
        55   03 Jun 2027 05:48:25.614   03 Jun 2027 05:49:58.323            92.709         45913.031
        56   03 Jun 2027 05:51:14.795   03 Jun 2027 05:51:19.167             4.372          1831.469
        57   03 Jun 2027 07:10:58.830   03 Jun 2027 07:11:13.241            14.411          6843.719
        58   03 Jun 2027 07:12:18.321   03 Jun 2027 07:12:23.076             4.755          1725.531
        59   03 Jun 2027 07:12:40.716   03 Jun 2027 07:12:43.563             2.847           384.437
        60   03 Jun 2027 08:47:21.165   03 Jun 2027 08:47:46.741            25.576         10480.750
        61   03 Jun 2027 08:48:10.705   03 Jun 2027 08:48:11.843             1.138           557.750
        62   03 Jun 2027 08:50:07.094   03 Jun 2027 08:50:15.428             8.334          3476.750
        63   03 Jun 2027 10:21:13.544   03 Jun 2027 10:21:18.975             5.431          2319.094
        64   03 Jun 2027 10:22:59.820   03 Jun 2027 10:22:59.820             0.000             0.000
        65   03 Jun 2027 10:23:15.813   03 Jun 2027 10:23:21.286             5.473          2654.219
        66   03 Jun 2027 10:24:01.414   03 Jun 2027 10:24:08.305             6.891          1213.562
        67   03 Jun 2027 10:26:40.886   03 Jun 2027 10:26:46.265             5.379          1876.938
        68   03 Jun 2027 10:28:22.125   03 Jun 2027 10:28:25.870             3.745           683.969
        69   03 Jun 2027 10:29:21.478   03 Jun 2027 10:29:23.575             2.097          1048.500
        70   03 Jun 2027 11:58:28.083   03 Jun 2027 11:58:42.884            14.801          6668.531
        71   04 Jun 2027 04:21:35.271   04 Jun 2027 04:22:27.486            52.215         26107.500
        72   04 Jun 2027 04:22:33.336   04 Jun 2027 04:23:11.214            37.878         18939.000
        73   04 Jun 2027 04:24:12.665   04 Jun 2027 04:24:52.604            39.939         19969.500
        74   04 Jun 2027 04:26:54.742   04 Jun 2027 04:26:58.313             3.571          1785.500
        75   04 Jun 2027 04:27:10.996   04 Jun 2027 04:27:29.363            18.367          9183.500
        76   04 Jun 2027 06:01:21.504   04 Jun 2027 06:03:56.432           154.928         77464.000
        77   04 Jun 2027 07:22:47.823   04 Jun 2027 07:23:14.323            26.500         13250.000
        78   04 Jun 2027 07:24:19.501   04 Jun 2027 07:24:25.936             6.435          2433.969
        79   04 Jun 2027 07:24:50.576   04 Jun 2027 07:24:51.596             1.020           479.469
        80   04 Jun 2027 07:25:30.118   04 Jun 2027 07:25:31.933             1.815           768.281
        81   04 Jun 2027 08:59:24.767   04 Jun 2027 08:59:30.586             5.819          2847.594
        82   04 Jun 2027 09:00:17.066   04 Jun 2027 09:00:19.814             2.748           705.281
        83   04 Jun 2027 09:02:06.934   04 Jun 2027 09:02:14.596             7.662          3347.500
        84   04 Jun 2027 10:35:14.612   04 Jun 2027 10:35:32.592            17.980          5220.469
        85   04 Jun 2027 10:35:37.743   04 Jun 2027 10:35:42.584             4.841            51.344
        86   04 Jun 2027 10:37:39.053   04 Jun 2027 10:37:39.053             0.000             0.000
        87   04 Jun 2027 10:38:24.051   04 Jun 2027 10:38:28.912             4.861          1567.094
        88   04 Jun 2027 10:39:53.069   04 Jun 2027 10:39:56.889             3.820           816.000
        89   04 Jun 2027 10:41:03.305   04 Jun 2027 10:41:09.728             6.423          2075.500
        90   04 Jun 2027 10:41:14.752   04 Jun 2027 10:41:16.682             1.930           123.656
        91   05 Jun 2027 03:00:00.000   05 Jun 2027 03:00:45.896            45.896         22948.000
        92   05 Jun 2027 03:01:19.707   05 Jun 2027 03:01:22.525             2.818          1409.000
        93   05 Jun 2027 03:02:20.884   05 Jun 2027 03:02:23.359             2.475          1237.500
        94   05 Jun 2027 04:33:21.870   05 Jun 2027 04:34:21.991            60.121         30060.500
        95   05 Jun 2027 04:34:29.400   05 Jun 2027 04:35:17.534            48.134         24067.000
        96   05 Jun 2027 04:35:40.001   05 Jun 2027 04:36:06.790            26.789         13394.500
        97   05 Jun 2027 04:36:57.767   05 Jun 2027 04:37:18.091            20.324         10162.000
        98   05 Jun 2027 06:11:38.987   05 Jun 2027 06:12:13.794            34.807         17403.500
        99   05 Jun 2027 06:12:27.653   05 Jun 2027 06:14:00.128            92.475         46018.219
       100   05 Jun 2027 07:35:01.709   05 Jun 2027 07:35:13.522            11.813          5408.187
       101   05 Jun 2027 07:35:52.314   05 Jun 2027 07:35:54.922             2.608           677.312
       102   05 Jun 2027 07:36:32.065   05 Jun 2027 07:36:34.128             2.063           966.656
       103   05 Jun 2027 07:37:03.189   05 Jun 2027 07:37:05.420             2.231           908.156
       104   05 Jun 2027 07:37:37.532   05 Jun 2027 07:37:37.532             0.000             0.000
       105   05 Jun 2027 07:38:05.121   05 Jun 2027 07:38:08.058             2.937           946.938
       106   05 Jun 2027 09:11:35.513   05 Jun 2027 09:11:48.963            13.450          3261.969
       107   05 Jun 2027 09:12:44.144   05 Jun 2027 09:12:48.989             4.845          1724.406
       108   05 Jun 2027 09:13:06.185   05 Jun 2027 09:13:08.908             2.723           324.031
       109   05 Jun 2027 09:13:55.601   05 Jun 2027 09:14:06.170            10.569          1055.875
       110   05 Jun 2027 10:48:00.012   05 Jun 2027 10:48:13.591            13.579          6548.344
       111   05 Jun 2027 10:49:14.265   05 Jun 2027 10:49:21.164             6.899          1729.781
       112   05 Jun 2027 10:50:10.944   05 Jun 2027 10:50:11.406             0.462           231.000
       113   05 Jun 2027 10:53:03.403   05 Jun 2027 10:53:20.090            16.687          6638.250
       114   06 Jun 2027 03:07:10.691   06 Jun 2027 03:07:26.775            16.084          8042.000
       115   06 Jun 2027 03:07:40.021   06 Jun 2027 03:08:15.235            35.214         17607.000
       116   06 Jun 2027 03:08:23.712   06 Jun 2027 03:08:25.541             1.829           914.500
       117   06 Jun 2027 03:08:36.106   06 Jun 2027 03:08:50.306            14.200          7100.000
       118   06 Jun 2027 03:12:44.761   06 Jun 2027 03:14:03.293            78.532         39266.000
       119   06 Jun 2027 04:46:28.462   06 Jun 2027 04:49:00.527           152.065         76032.500
       120   06 Jun 2027 04:49:42.430   06 Jun 2027 04:49:45.654             3.224          1532.438
       121   06 Jun 2027 04:50:14.823   06 Jun 2027 04:50:17.643             2.820            99.031
       122   06 Jun 2027 04:51:35.069   06 Jun 2027 04:51:36.082             1.013           506.500
       123   06 Jun 2027 04:53:06.956   06 Jun 2027 04:53:17.514            10.558          3836.656
       124   06 Jun 2027 06:23:35.727   06 Jun 2027 06:23:51.908            16.181          7837.000
       125   06 Jun 2027 06:23:55.086   06 Jun 2027 06:23:55.286             0.200            89.406
       126   06 Jun 2027 07:47:31.688   06 Jun 2027 07:47:53.800            22.112          6863.031
       127   06 Jun 2027 07:48:10.428   06 Jun 2027 07:48:16.039             5.611           209.938
       128   06 Jun 2027 07:49:38.426   06 Jun 2027 07:49:44.908             6.482          2420.281
       129   06 Jun 2027 09:23:26.084   06 Jun 2027 09:23:37.585            11.501          2640.813
       130   06 Jun 2027 09:24:57.348   06 Jun 2027 09:25:05.137             7.789          1921.969
       131   06 Jun 2027 09:25:41.528   06 Jun 2027 09:25:43.722             2.194           934.125
       132   06 Jun 2027 09:25:57.254   06 Jun 2027 09:26:00.361             3.107           422.875
       133   06 Jun 2027 09:26:48.022   06 Jun 2027 09:26:50.774             2.752          1355.562
       134   06 Jun 2027 10:58:19.047   06 Jun 2027 10:58:23.558             4.511          2255.500
       135   06 Jun 2027 10:58:55.538   06 Jun 2027 10:59:06.183            10.645          1779.844
       136   06 Jun 2027 11:05:01.194   06 Jun 2027 11:05:19.275            18.081          8540.313
       137   07 Jun 2027 03:19:52.075   07 Jun 2027 03:22:44.870           172.795         86397.500
       138   07 Jun 2027 03:24:11.646   07 Jun 2027 03:24:31.553            19.907          9953.500
       139   07 Jun 2027 03:26:15.940   07 Jun 2027 03:26:16.063             0.123            61.500
       140   07 Jun 2027 04:58:32.902   07 Jun 2027 05:00:22.294           109.392         53633.437
       141   07 Jun 2027 05:01:09.756   07 Jun 2027 05:01:14.530             4.774          1411.437
       142   07 Jun 2027 05:04:42.401   07 Jun 2027 05:04:55.800            13.399          5694.156
       143   07 Jun 2027 05:06:06.710   07 Jun 2027 05:06:09.786             3.076          1538.000
       144   07 Jun 2027 06:24:17.234   07 Jun 2027 06:24:27.782            10.548          4243.125
       145   07 Jun 2027 06:24:57.111   07 Jun 2027 06:24:59.737             2.626           871.500
       146   07 Jun 2027 06:35:32.929   07 Jun 2027 06:35:38.103             5.174          2049.125
       147   07 Jun 2027 07:58:08.798   07 Jun 2027 07:58:15.932             7.134          3567.000
       148   07 Jun 2027 07:58:26.407   07 Jun 2027 07:58:29.126             2.719          1176.531
       149   07 Jun 2027 07:59:24.337   07 Jun 2027 07:59:26.814             2.477          1043.375
       150   07 Jun 2027 08:00:32.937   07 Jun 2027 08:00:35.566             2.629           839.281
       151   07 Jun 2027 08:02:21.460   07 Jun 2027 08:02:25.463             4.003          1541.312
       152   07 Jun 2027 09:33:42.728   07 Jun 2027 09:33:47.458             4.730          2365.000
       153   07 Jun 2027 09:34:18.550   07 Jun 2027 09:34:22.576             4.026          1302.375
       154   07 Jun 2027 09:35:54.686   07 Jun 2027 09:35:59.178             4.492          2196.750
       155   07 Jun 2027 09:37:42.589   07 Jun 2027 09:37:55.061            12.472          2862.469
       156   07 Jun 2027 09:38:09.414   07 Jun 2027 09:38:10.172             0.758           340.375
       157   07 Jun 2027 09:39:35.937   07 Jun 2027 09:39:43.138             7.201          2494.375
       158   07 Jun 2027 11:10:27.618   07 Jun 2027 11:10:37.344             9.726          3982.469
       159   07 Jun 2027 11:13:00.286   07 Jun 2027 11:13:09.001             8.715          4122.875
       160   07 Jun 2027 11:13:26.577   07 Jun 2027 11:13:26.577             0.000             0.000
       161   07 Jun 2027 11:16:49.034   07 Jun 2027 11:17:06.337            17.303          6669.031
       162   07 Jun 2027 11:17:10.998   07 Jun 2027 11:17:12.056             1.058           127.469
       163   08 Jun 2027 03:31:58.192   08 Jun 2027 03:34:20.552           142.360         71180.000
       164   08 Jun 2027 03:34:37.020   08 Jun 2027 03:35:03.994            26.974         13487.000
       165   08 Jun 2027 03:36:30.631   08 Jun 2027 03:36:58.673            28.042         14021.000
       166   08 Jun 2027 03:37:50.352   08 Jun 2027 03:38:03.021            12.669          6334.500
       167   08 Jun 2027 05:11:03.072   08 Jun 2027 05:12:41.418            98.346         48236.219
       168   08 Jun 2027 05:13:49.543   08 Jun 2027 05:13:53.521             3.978          1956.969
       169   08 Jun 2027 05:16:24.252   08 Jun 2027 05:16:30.697             6.445          2507.719
       170   08 Jun 2027 05:16:53.421   08 Jun 2027 05:16:54.663             1.242           611.031
       171   08 Jun 2027 06:35:52.803   08 Jun 2027 06:36:03.512            10.709          5354.500
       172   08 Jun 2027 06:36:13.087   08 Jun 2027 06:36:13.771             0.684           320.969
       173   08 Jun 2027 06:37:08.601   08 Jun 2027 06:37:08.601             0.000             0.000
       174   08 Jun 2027 06:47:32.934   08 Jun 2027 06:47:40.857             7.923          3110.219
       175   08 Jun 2027 08:09:51.840   08 Jun 2027 08:10:01.332             9.492          4746.000
       176   08 Jun 2027 08:10:02.225   08 Jun 2027 08:10:08.137             5.912          1315.313
       177   08 Jun 2027 08:10:28.185   08 Jun 2027 08:10:28.185             0.000             0.000
       178   08 Jun 2027 08:11:48.739   08 Jun 2027 08:11:53.525             4.786          2136.812
       179   08 Jun 2027 08:12:37.131   08 Jun 2027 08:12:41.400             4.269           904.156
       180   08 Jun 2027 09:44:50.112   08 Jun 2027 09:44:59.485             9.373          3724.875
       181   08 Jun 2027 09:45:40.976   08 Jun 2027 09:45:43.261             2.285           656.500
       182   08 Jun 2027 09:46:05.504   08 Jun 2027 09:46:08.654             3.150           365.906
       183   08 Jun 2027 09:47:52.661   08 Jun 2027 09:47:55.195             2.534           668.812
       184   08 Jun 2027 09:49:59.354   08 Jun 2027 09:50:09.525            10.171          2827.219
       185   08 Jun 2027 09:51:23.233   08 Jun 2027 09:51:28.796             5.563          2055.719
       186   08 Jun 2027 11:22:30.923   08 Jun 2027 11:22:42.435            11.512          3738.281
       187   08 Jun 2027 11:24:34.488   08 Jun 2027 11:24:34.488             0.000             0.000
       188   08 Jun 2027 11:25:00.322   08 Jun 2027 11:25:05.517             5.195          2485.469
       189   08 Jun 2027 11:25:24.652   08 Jun 2027 11:25:25.348             0.696           253.938
       190   08 Jun 2027 11:26:32.692   08 Jun 2027 11:26:37.739             5.047          1764.094
       191   08 Jun 2027 11:26:42.594   08 Jun 2027 11:26:44.218             1.624           151.719
       192   08 Jun 2027 11:28:10.553   08 Jun 2027 11:28:16.852             6.299          1742.000
       193   08 Jun 2027 11:28:42.899   08 Jun 2027 11:28:47.819             4.920           615.562
       194   08 Jun 2027 11:29:03.939   08 Jun 2027 11:29:05.743             1.804           503.750
       195   09 Jun 2027 03:44:18.474   09 Jun 2027 03:45:23.805            65.331         32665.500
       196   09 Jun 2027 03:45:27.876   09 Jun 2027 03:46:21.772            53.896         26948.000
       197   09 Jun 2027 03:46:23.713   09 Jun 2027 03:48:10.630           106.917         53458.500
       198   09 Jun 2027 03:49:43.472   09 Jun 2027 03:49:48.461             4.989          2494.500
       199   09 Jun 2027 05:23:05.563   09 Jun 2027 05:24:38.769            93.206         45967.157
       200   09 Jun 2027 05:25:01.484   09 Jun 2027 05:25:03.963             2.479           709.844
       201   09 Jun 2027 05:25:59.659   09 Jun 2027 05:26:03.018             3.359          1102.125
       202   09 Jun 2027 05:27:49.585   09 Jun 2027 05:27:53.695             4.110          1274.469
       203   09 Jun 2027 05:27:57.946   09 Jun 2027 05:27:59.725             1.779           132.844
       204   09 Jun 2027 05:28:39.307   09 Jun 2027 05:28:40.416             1.109           542.562
       205   09 Jun 2027 05:29:24.776   09 Jun 2027 05:29:32.516             7.740          1325.125
       206   09 Jun 2027 05:29:56.957   09 Jun 2027 05:29:58.292             1.335           518.312
       207   09 Jun 2027 06:47:25.763   09 Jun 2027 06:47:38.333            12.570          5520.375
       208   09 Jun 2027 06:48:07.139   09 Jun 2027 06:48:13.216             6.077           699.031
       209   09 Jun 2027 06:49:18.732   09 Jun 2027 06:49:21.629             2.897          1440.156
       210   09 Jun 2027 06:49:33.082   09 Jun 2027 06:49:33.082             0.000             0.000
       211   09 Jun 2027 06:59:41.632   09 Jun 2027 06:59:47.960             6.328          2404.062
       212   09 Jun 2027 08:21:28.827   09 Jun 2027 08:21:43.272            14.445          7080.625
       213   09 Jun 2027 08:22:29.833   09 Jun 2027 08:22:35.125             5.292          1120.750
       214   09 Jun 2027 08:24:19.800   09 Jun 2027 08:24:27.526             7.726          2501.344
       215   09 Jun 2027 08:25:01.944   09 Jun 2027 08:25:10.813             8.869           729.906
       216   09 Jun 2027 08:26:04.074   09 Jun 2027 08:26:09.112             5.038           763.219
       217   09 Jun 2027 09:56:18.010   09 Jun 2027 09:56:24.329             6.319          2554.625
       218   09 Jun 2027 09:58:18.191   09 Jun 2027 09:58:22.263             4.072           348.656
       219   09 Jun 2027 09:59:03.833   09 Jun 2027 09:59:09.503             5.670          1218.031
       220   09 Jun 2027 10:01:59.673   09 Jun 2027 10:02:08.007             8.334          4065.219
       221   09 Jun 2027 10:03:14.177   09 Jun 2027 10:03:17.673             3.496           547.656
       222   09 Jun 2027 10:03:31.211   09 Jun 2027 10:03:32.639             1.428           405.219
       223   09 Jun 2027 10:04:41.644   09 Jun 2027 10:04:46.361             4.717          1458.563
       224   09 Jun 2027 10:05:04.892   09 Jun 2027 10:05:05.788             0.896            62.687
       225   09 Jun 2027 11:36:24.663   09 Jun 2027 11:36:43.428            18.765          9096.625
       226   09 Jun 2027 11:40:07.057   09 Jun 2027 11:40:21.062            14.005          6186.313
       227   09 Jun 2027 11:40:49.266   09 Jun 2027 11:40:51.214             1.948           625.594
       228   09 Jun 2027 11:41:05.818   09 Jun 2027 11:41:07.182             1.364           353.906
       229   10 Jun 2027 03:57:01.376   10 Jun 2027 03:57:15.268            13.892          6946.000
       230   10 Jun 2027 03:57:24.855   10 Jun 2027 03:58:33.655            68.800         34400.000
       231   10 Jun 2027 03:59:11.808   10 Jun 2027 04:00:48.214            96.406         48203.000
       232   10 Jun 2027 05:35:31.504   10 Jun 2027 05:36:52.073            80.569         40284.500
       233   10 Jun 2027 05:37:33.023   10 Jun 2027 05:38:17.929            44.906         21685.656
       234   10 Jun 2027 05:39:11.504   10 Jun 2027 05:39:13.101             1.597            87.563
       235   10 Jun 2027 05:40:22.530   10 Jun 2027 05:40:25.112             2.582           899.562
       236   10 Jun 2027 05:40:25.770   10 Jun 2027 05:40:27.994             2.224            20.562
       237   10 Jun 2027 06:59:22.481   10 Jun 2027 06:59:44.782            22.301          7058.156
       238   10 Jun 2027 07:00:20.705   10 Jun 2027 07:00:24.510             3.805          1118.906
       239   10 Jun 2027 07:01:31.168   10 Jun 2027 07:01:36.568             5.400          1927.875
       240   10 Jun 2027 08:35:22.229   10 Jun 2027 08:35:30.287             8.058          4029.000
       241   10 Jun 2027 08:35:44.287   10 Jun 2027 08:35:57.613            13.326          2090.969
       242   10 Jun 2027 08:36:18.036   10 Jun 2027 08:36:19.603             1.567           594.406
       243   10 Jun 2027 08:38:24.479   10 Jun 2027 08:38:31.385             6.906          2870.281
       244   10 Jun 2027 10:09:10.471   10 Jun 2027 10:09:17.420             6.949          2354.812
       245   10 Jun 2027 10:11:17.185   10 Jun 2027 10:11:21.832             4.647          2156.969
       246   10 Jun 2027 10:11:45.209   10 Jun 2027 10:11:54.038             8.829           627.875
       247   10 Jun 2027 10:14:07.027   10 Jun 2027 10:14:16.221             9.194           324.313
       248   10 Jun 2027 10:15:07.589   10 Jun 2027 10:15:09.860             2.271          1124.594
       249   10 Jun 2027 10:15:54.398   10 Jun 2027 10:15:54.398             0.000             0.000
       250   10 Jun 2027 10:16:41.201   10 Jun 2027 10:16:47.458             6.257          1406.969
       251   10 Jun 2027 10:17:02.132   10 Jun 2027 10:17:03.180             1.048            85.281
       252   10 Jun 2027 10:17:23.329   10 Jun 2027 10:17:27.749             4.420           360.312
       253   10 Jun 2027 11:46:19.254   10 Jun 2027 11:46:34.670            15.416          5244.656
       254   10 Jun 2027 11:47:44.482   10 Jun 2027 11:47:51.459             6.977          1720.438
       255   10 Jun 2027 11:48:34.895   10 Jun 2027 11:48:37.556             2.661          1283.656
       256   10 Jun 2027 11:49:04.368   10 Jun 2027 11:49:08.697             4.329           815.844
       257   10 Jun 2027 11:50:24.589   10 Jun 2027 11:50:32.179             7.590          1191.469
       258   10 Jun 2027 11:50:46.650   10 Jun 2027 11:50:48.321             1.671           201.938
       259   10 Jun 2027 11:50:56.696   10 Jun 2027 11:50:57.958             1.262           225.437
       260   10 Jun 2027 11:51:05.400   10 Jun 2027 11:51:06.728             1.328           232.562
       261   10 Jun 2027 11:51:24.321   10 Jun 2027 11:51:26.563             2.242           317.531
       262   10 Jun 2027 11:52:31.216   10 Jun 2027 11:52:38.513             7.297          1842.344
       263   10 Jun 2027 11:52:52.012   10 Jun 2027 11:52:52.942             0.930            34.594
       264   10 Jun 2027 11:52:54.354   10 Jun 2027 11:52:58.651             4.297            44.125
       265   11 Jun 2027 04:09:41.866   11 Jun 2027 04:10:03.967            22.101         11050.500
       266   11 Jun 2027 04:10:17.373   11 Jun 2027 04:12:09.232           111.859         55929.500
       267   11 Jun 2027 04:13:52.955   11 Jun 2027 04:14:45.325            52.370         26185.000
       268   11 Jun 2027 05:47:52.565   11 Jun 2027 05:48:18.845            26.280         13140.000
       269   11 Jun 2027 05:48:47.265   11 Jun 2027 05:50:43.313           116.048         57963.312
       270   11 Jun 2027 07:11:15.949   11 Jun 2027 07:11:28.865            12.916          6076.781
       271   11 Jun 2027 07:12:54.819   11 Jun 2027 07:13:01.340             6.521          2385.875
       272   11 Jun 2027 07:13:46.016   11 Jun 2027 07:13:46.802             0.786           393.000
       273   11 Jun 2027 08:47:38.079   11 Jun 2027 08:48:01.160            23.081          8653.125
       274   11 Jun 2027 08:48:12.633   11 Jun 2027 08:48:14.750             2.117            64.187
       275   11 Jun 2027 08:48:17.896   11 Jun 2027 08:48:18.136             0.240            81.469
       276   11 Jun 2027 08:50:24.770   11 Jun 2027 08:50:33.986             9.216          3836.750
       277   11 Jun 2027 10:21:34.618   11 Jun 2027 10:21:40.680             6.062          2292.500
       278   11 Jun 2027 10:23:19.651   11 Jun 2027 10:23:26.830             7.179          2213.531
       279   11 Jun 2027 10:23:39.193   11 Jun 2027 10:23:39.964             0.771           126.125
       280   11 Jun 2027 10:25:58.376   11 Jun 2027 10:26:08.508            10.132          2995.125
       281   11 Jun 2027 10:28:19.418   11 Jun 2027 10:28:25.329             5.911          2583.469
       282   11 Jun 2027 10:28:38.342   11 Jun 2027 10:28:38.693             0.351           173.625
       283   11 Jun 2027 10:28:50.270   11 Jun 2027 10:28:52.629             2.359           259.031
       284   11 Jun 2027 11:58:45.051   11 Jun 2027 11:58:59.047            13.996          6145.875
       285   12 Jun 2027 04:21:44.576   12 Jun 2027 04:22:44.924            60.348         30174.000
       286   12 Jun 2027 04:22:50.706   12 Jun 2027 04:24:26.600            95.894         47947.000
       287   12 Jun 2027 04:24:38.125   12 Jun 2027 04:24:47.400             9.275          4637.500
       288   12 Jun 2027 04:26:09.989   12 Jun 2027 04:26:33.016            23.027         11513.500
       289   12 Jun 2027 06:01:42.417   12 Jun 2027 06:04:02.240           139.823         69911.500
       290   12 Jun 2027 07:23:08.516   12 Jun 2027 07:23:27.823            19.307          8757.438
       291   12 Jun 2027 07:24:36.731   12 Jun 2027 07:24:41.145             4.414          2098.812
       292   12 Jun 2027 07:25:05.244   12 Jun 2027 07:25:06.430             1.186           419.719
       293   12 Jun 2027 08:59:42.225   12 Jun 2027 08:59:47.734             5.509          2631.281
       294   12 Jun 2027 09:00:37.052   12 Jun 2027 09:00:39.533             2.481           805.719
       295   12 Jun 2027 09:01:37.907   12 Jun 2027 09:01:47.451             9.544          1824.188
       296   12 Jun 2027 09:02:46.028   12 Jun 2027 09:02:48.337             2.309          1079.281
       297   12 Jun 2027 10:35:31.039   12 Jun 2027 10:35:48.508            17.469          6231.062
       298   12 Jun 2027 10:35:58.011   12 Jun 2027 10:35:59.005             0.994            70.656
       299   12 Jun 2027 10:37:52.007   12 Jun 2027 10:37:52.815             0.808           395.000
       300   12 Jun 2027 10:38:39.495   12 Jun 2027 10:38:43.535             4.040          1343.125
       301   12 Jun 2027 10:39:42.211   12 Jun 2027 10:39:46.393             4.182          1531.969
       302   12 Jun 2027 10:40:13.462   12 Jun 2027 10:40:18.214             4.752            94.406
       303   12 Jun 2027 10:40:49.339   12 Jun 2027 10:40:51.432             2.093           456.531
       304   12 Jun 2027 10:41:24.429   12 Jun 2027 10:41:25.968             1.539           706.750
       305   12 Jun 2027 10:41:30.549   12 Jun 2027 10:41:31.356             0.807           143.156
       306   13 Jun 2027 03:00:00.000   13 Jun 2027 03:00:42.788            42.788         21394.000
       307   13 Jun 2027 03:02:37.855   13 Jun 2027 03:02:38.441             0.586           293.000
       308   13 Jun 2027 04:33:40.091   13 Jun 2027 04:34:36.664            56.573         28286.500
       309   13 Jun 2027 04:34:46.969   13 Jun 2027 04:35:56.905            69.936         34968.000
       310   13 Jun 2027 04:36:21.449   13 Jun 2027 04:36:28.330             6.881          3440.500
       311   13 Jun 2027 04:36:37.031   13 Jun 2027 04:36:58.038            21.007         10503.500
       312   13 Jun 2027 04:37:17.255   13 Jun 2027 04:37:49.188            31.933         15966.500
       313   13 Jun 2027 06:11:56.177   13 Jun 2027 06:13:49.346           113.169         55276.156
       314   13 Jun 2027 07:35:17.851   13 Jun 2027 07:35:28.167            10.316          4706.250
       315   13 Jun 2027 07:36:18.504   13 Jun 2027 07:36:22.190             3.686           310.094
       316   13 Jun 2027 07:37:47.867   13 Jun 2027 07:37:47.867             0.000             0.000
       317   13 Jun 2027 07:37:55.628   13 Jun 2027 07:38:01.908             6.280          2438.062
       318   13 Jun 2027 07:38:16.674   13 Jun 2027 07:38:18.081             1.407           216.125
       319   13 Jun 2027 09:11:53.041   13 Jun 2027 09:12:05.450            12.409          3711.375
       320   13 Jun 2027 09:13:04.133   13 Jun 2027 09:13:10.011             5.878          1829.594
       321   13 Jun 2027 09:13:22.022   13 Jun 2027 09:13:24.492             2.470           249.375
       322   13 Jun 2027 09:14:13.446   13 Jun 2027 09:14:23.727            10.281          1043.094
       323   13 Jun 2027 10:47:03.220   13 Jun 2027 10:47:10.799             7.579          3341.906
       324   13 Jun 2027 10:48:42.951   13 Jun 2027 10:48:48.463             5.512          2593.094
       325   13 Jun 2027 10:50:25.410   13 Jun 2027 10:50:27.648             2.238           993.531
       326   13 Jun 2027 10:50:41.627   13 Jun 2027 10:50:43.809             2.182           436.844
       327   13 Jun 2027 10:52:30.166   13 Jun 2027 10:52:33.929             3.763           961.594
       328   13 Jun 2027 10:53:02.194   13 Jun 2027 10:53:07.173             4.979           795.187
       329   13 Jun 2027 10:53:38.057   13 Jun 2027 10:53:38.917             0.860           430.000
