uniorb/output/strategy_4/Camera/Camera_KinoSat_112008.txt

KinoSat_112008
-------------------------
    Access    *     Start Time (UTCG)     *     Stop Time (UTCG)  *   Duration (s) *   Data (Mbytes)
         1   01 Jun 2027 04:03:58.695   01 Jun 2027 04:04:20.556            21.861         10930.500
         2   01 Jun 2027 04:04:23.784   01 Jun 2027 04:06:36.305           132.521         66260.500
         3   01 Jun 2027 04:10:21.616   01 Jun 2027 04:10:27.471             5.855          2927.500
         4   01 Jun 2027 04:10:57.540   01 Jun 2027 04:10:58.938             1.398           699.000
         5   01 Jun 2027 05:43:16.364   01 Jun 2027 05:45:10.669           114.305         57152.500
         6   01 Jun 2027 05:45:24.412   01 Jun 2027 05:45:30.936             6.524          3262.000
         7   01 Jun 2027 05:46:29.027   01 Jun 2027 05:46:36.279             7.252          3626.000
         8   01 Jun 2027 05:50:10.677   01 Jun 2027 05:50:12.439             1.762           881.000
         9   01 Jun 2027 07:09:36.438   01 Jun 2027 07:09:45.556             9.118          4559.000
        10   01 Jun 2027 07:20:21.473   01 Jun 2027 07:22:07.356           105.883         52941.500
        11   01 Jun 2027 07:23:13.804   01 Jun 2027 07:23:32.117            18.313          9156.500
        12   01 Jun 2027 08:44:21.188   01 Jun 2027 08:46:39.739           138.551         69275.500
        13   01 Jun 2027 11:55:30.886   01 Jun 2027 11:55:35.712             4.826          2413.000
        14   02 Jun 2027 04:16:39.291   02 Jun 2027 04:18:38.738           119.447         59723.500
        15   02 Jun 2027 04:19:43.544   02 Jun 2027 04:20:37.633            54.089         27044.500
        16   02 Jun 2027 04:21:13.210   02 Jun 2027 04:22:12.016            58.806         29403.000
        17   02 Jun 2027 04:22:45.643   02 Jun 2027 04:22:50.918             5.275          2637.500
        18   02 Jun 2027 05:55:37.335   02 Jun 2027 05:58:13.378           156.043         78021.500
        19   02 Jun 2027 06:01:02.274   02 Jun 2027 06:03:01.331           119.057         59528.500
        20   02 Jun 2027 07:20:52.958   02 Jun 2027 07:21:37.403            44.445         22222.500
        21   02 Jun 2027 07:22:04.431   02 Jun 2027 07:22:06.920             2.489          1244.500
        22   02 Jun 2027 07:32:21.929   02 Jun 2027 07:33:48.392            86.463         43231.500
        23   02 Jun 2027 08:54:59.691   02 Jun 2027 08:55:58.750            59.059         29529.500
        24   02 Jun 2027 08:56:35.507   02 Jun 2027 08:58:32.063           116.556         58278.000
        25   02 Jun 2027 10:30:18.946   02 Jun 2027 10:31:18.541            59.595         29797.500
        26   02 Jun 2027 10:31:51.626   02 Jun 2027 10:32:27.423            35.797         17788.843
        27   02 Jun 2027 10:33:13.498   02 Jun 2027 10:33:28.784            15.286          1301.406
        28   02 Jun 2027 10:35:25.097   02 Jun 2027 10:35:33.652             8.555          3272.875
        29   02 Jun 2027 10:36:02.049   02 Jun 2027 10:36:06.074             4.025           450.750
        30   03 Jun 2027 04:28:55.252   03 Jun 2027 04:30:19.095            83.843         41921.500
        31   03 Jun 2027 04:30:22.192   03 Jun 2027 04:31:14.642            52.450         26225.000
        32   03 Jun 2027 04:31:51.183   03 Jun 2027 04:31:51.183             0.000             0.000
        33   03 Jun 2027 04:32:46.981   03 Jun 2027 04:33:02.458            15.477          7738.500
        34   03 Jun 2027 04:33:16.370   03 Jun 2027 04:33:19.886             3.516          1758.000
        35   03 Jun 2027 04:33:49.597   03 Jun 2027 04:33:49.857             0.260           130.000
        36   03 Jun 2027 06:07:53.505   03 Jun 2027 06:11:07.052           193.547         95030.282
        37   03 Jun 2027 06:11:27.046   03 Jun 2027 06:11:29.500             2.454           457.875
        38   03 Jun 2027 06:12:27.658   03 Jun 2027 06:12:29.603             1.945           789.438
        39   03 Jun 2027 06:13:22.458   03 Jun 2027 06:13:24.766             2.308           575.344
        40   03 Jun 2027 06:13:56.103   03 Jun 2027 06:13:58.828             2.725           979.281
        41   03 Jun 2027 07:32:07.633   03 Jun 2027 07:32:22.979            15.346          6340.156
        42   03 Jun 2027 07:32:53.125   03 Jun 2027 07:32:54.723             1.598           639.063
        43   03 Jun 2027 07:32:58.842   03 Jun 2027 07:32:59.246             0.404            31.594
        44   03 Jun 2027 07:33:09.772   03 Jun 2027 07:33:10.493             0.721           143.062
        45   03 Jun 2027 07:34:13.655   03 Jun 2027 07:34:16.369             2.714          1357.000
        46   03 Jun 2027 07:44:19.854   03 Jun 2027 07:44:27.113             7.259          2627.812
        47   03 Jun 2027 09:06:35.786   03 Jun 2027 09:07:02.246            26.460         12717.375
        48   03 Jun 2027 09:08:31.545   03 Jun 2027 09:08:36.613             5.068          1413.000
        49   03 Jun 2027 09:09:03.270   03 Jun 2027 09:09:10.017             6.747           289.406
        50   03 Jun 2027 09:09:15.039   03 Jun 2027 09:09:17.828             2.789           156.937
        51   03 Jun 2027 09:10:45.262   03 Jun 2027 09:10:49.343             4.081          2029.906
        52   03 Jun 2027 09:11:36.533   03 Jun 2027 09:11:38.374             1.841           222.531
        53   03 Jun 2027 10:42:17.276   03 Jun 2027 10:42:28.716            11.440          4876.563
        54   03 Jun 2027 10:43:11.380   03 Jun 2027 10:43:13.250             1.870           417.437
        55   03 Jun 2027 10:45:41.571   03 Jun 2027 10:45:45.260             3.689          1735.812
        56   03 Jun 2027 10:48:03.995   03 Jun 2027 10:48:08.259             4.264           197.187
        57   03 Jun 2027 10:49:34.169   03 Jun 2027 10:49:38.739             4.570          1426.750
        58   04 Jun 2027 03:04:09.423   04 Jun 2027 03:04:20.360            10.937          5468.500
        59   04 Jun 2027 03:05:44.589   04 Jun 2027 03:05:54.874            10.285          5142.500
        60   04 Jun 2027 03:06:37.775   04 Jun 2027 03:06:56.206            18.431          9215.500
        61   04 Jun 2027 03:07:19.963   04 Jun 2027 03:07:57.860            37.897         18948.500
        62   04 Jun 2027 03:08:44.435   04 Jun 2027 03:08:56.979            12.544          6272.000
        63   04 Jun 2027 03:09:50.311   04 Jun 2027 03:09:56.378             6.067          3033.500
        64   04 Jun 2027 03:10:54.605   04 Jun 2027 03:11:06.344            11.739          5869.500
        65   04 Jun 2027 04:41:14.555   04 Jun 2027 04:41:27.825            13.270          6635.000
        66   04 Jun 2027 04:41:41.753   04 Jun 2027 04:44:27.740           165.987         82993.500
        67   04 Jun 2027 04:44:51.251   04 Jun 2027 04:44:55.926             4.675          2337.500
        68   04 Jun 2027 06:20:00.052   04 Jun 2027 06:21:20.287            80.235         37734.031
        69   04 Jun 2027 06:21:42.959   04 Jun 2027 06:21:44.269             1.310           411.031
        70   04 Jun 2027 06:22:17.108   04 Jun 2027 06:22:19.019             1.911           721.125
        71   04 Jun 2027 06:23:19.811   04 Jun 2027 06:23:23.374             3.563          1753.031
        72   04 Jun 2027 06:24:23.059   04 Jun 2027 06:24:26.466             3.407          1597.094
        73   04 Jun 2027 06:25:20.927   04 Jun 2027 06:25:23.541             2.614           922.844
        74   04 Jun 2027 07:44:13.653   04 Jun 2027 07:44:34.227            20.574          6651.875
        75   04 Jun 2027 07:45:06.982   04 Jun 2027 07:45:10.054             3.072           555.375
        76   04 Jun 2027 07:56:43.466   04 Jun 2027 07:56:47.288             3.822          1826.594
        77   04 Jun 2027 09:18:04.774   04 Jun 2027 09:18:22.131            17.357          8604.062
        78   04 Jun 2027 09:20:10.044   04 Jun 2027 09:20:16.280             6.236          2042.844
        79   04 Jun 2027 09:20:42.844   04 Jun 2027 09:20:47.914             5.070           494.719
        80   04 Jun 2027 09:21:48.727   04 Jun 2027 09:21:52.659             3.932          1364.312
        81   04 Jun 2027 09:22:43.246   04 Jun 2027 09:22:45.717             2.471           618.844
        82   04 Jun 2027 09:23:27.084   04 Jun 2027 09:23:28.723             1.639           212.906
        83   04 Jun 2027 10:52:59.069   04 Jun 2027 10:53:05.315             6.246          2186.656
        84   04 Jun 2027 10:53:36.050   04 Jun 2027 10:53:42.566             6.516           259.844
        85   04 Jun 2027 10:55:24.201   04 Jun 2027 10:55:30.605             6.404          2497.188
        86   04 Jun 2027 10:56:42.535   04 Jun 2027 10:56:46.192             3.657          1315.969
        87   04 Jun 2027 11:00:13.759   04 Jun 2027 11:00:27.875            14.116          6464.375
        88   05 Jun 2027 03:16:08.081   05 Jun 2027 03:16:22.525            14.444          7222.000
        89   05 Jun 2027 03:18:24.200   05 Jun 2027 03:19:22.270            58.070         29035.000
        90   05 Jun 2027 03:20:26.820   05 Jun 2027 03:20:39.363            12.543          6271.500
        91   05 Jun 2027 03:21:38.600   05 Jun 2027 03:23:17.916            99.316         49658.000
        92   05 Jun 2027 04:53:52.358   05 Jun 2027 04:54:01.099             8.741          4370.500
        93   05 Jun 2027 04:54:13.925   05 Jun 2027 04:54:22.715             8.790          4395.000
        94   05 Jun 2027 04:54:23.913   05 Jun 2027 04:55:15.554            51.641         25820.500
        95   05 Jun 2027 04:55:20.537   05 Jun 2027 04:55:59.053            38.516         19258.000
        96   05 Jun 2027 04:55:59.551   05 Jun 2027 04:56:05.917             6.366          3183.000
        97   05 Jun 2027 04:59:21.761   05 Jun 2027 04:59:28.805             7.044          3522.000
        98   05 Jun 2027 06:32:21.269   05 Jun 2027 06:33:20.189            58.920         29071.188
        99   05 Jun 2027 06:34:02.267   05 Jun 2027 06:34:07.483             5.216          1175.625
       100   05 Jun 2027 06:35:26.443   05 Jun 2027 06:35:33.017             6.574          1445.563
       101   05 Jun 2027 06:35:46.767   05 Jun 2027 06:35:48.442             1.675           293.250
       102   05 Jun 2027 06:35:51.993   05 Jun 2027 06:35:52.973             0.980           110.969
       103   05 Jun 2027 06:36:09.558   05 Jun 2027 06:36:11.396             1.838           350.937
       104   05 Jun 2027 06:37:14.102   05 Jun 2027 06:37:16.425             2.323           834.656
       105   05 Jun 2027 07:56:09.639   05 Jun 2027 07:56:22.412            12.773          6252.437
       106   05 Jun 2027 07:57:29.317   05 Jun 2027 07:57:29.317             0.000             0.000
       107   05 Jun 2027 07:57:45.683   05 Jun 2027 07:57:49.820             4.137          1936.281
       108   05 Jun 2027 09:32:09.571   05 Jun 2027 09:32:19.976            10.405          4538.563
       109   05 Jun 2027 09:33:19.510   05 Jun 2027 09:33:24.125             4.615          1307.375
       110   05 Jun 2027 11:05:53.458   05 Jun 2027 11:06:06.994            13.536          5864.875
       111   05 Jun 2027 11:07:54.633   05 Jun 2027 11:07:54.633             0.000             0.000
       112   05 Jun 2027 11:08:37.611   05 Jun 2027 11:08:41.560             3.949          1965.313
       113   05 Jun 2027 11:12:03.088   05 Jun 2027 11:12:03.088             0.000             0.000
       114   05 Jun 2027 11:12:46.896   05 Jun 2027 11:13:02.355            15.459          7080.906
       115   06 Jun 2027 03:28:12.496   06 Jun 2027 03:28:24.968            12.472          6236.000
       116   06 Jun 2027 03:28:39.916   06 Jun 2027 03:28:57.992            18.076          9038.000
       117   06 Jun 2027 03:30:05.342   06 Jun 2027 03:32:06.610           121.268         60634.000
       118   06 Jun 2027 03:32:59.011   06 Jun 2027 03:33:13.250            14.239          7119.500
       119   06 Jun 2027 03:35:13.639   06 Jun 2027 03:35:42.616            28.977         14488.500
       120   06 Jun 2027 05:06:19.491   06 Jun 2027 05:06:47.675            28.184         14092.000
       121   06 Jun 2027 05:06:51.674   06 Jun 2027 05:07:42.372            50.698         25349.000
       122   06 Jun 2027 05:08:28.760   06 Jun 2027 05:08:53.279            24.519         12259.500
       123   06 Jun 2027 05:10:21.665   06 Jun 2027 05:11:06.610            44.945         21410.219
       124   06 Jun 2027 05:12:28.654   06 Jun 2027 05:12:31.468             2.814          1407.000
       125   06 Jun 2027 06:44:20.201   06 Jun 2027 06:44:45.897            25.696         12605.188
       126   06 Jun 2027 06:44:52.773   06 Jun 2027 06:44:54.750             1.977           207.000
       127   06 Jun 2027 06:47:18.636   06 Jun 2027 06:47:22.132             3.496           988.281
       128   06 Jun 2027 06:47:43.382   06 Jun 2027 06:47:52.311             8.929           342.781
       129   06 Jun 2027 06:47:59.274   06 Jun 2027 06:48:00.601             1.327           217.594
       130   06 Jun 2027 06:48:24.014   06 Jun 2027 06:48:25.683             1.669           731.656
       131   06 Jun 2027 06:48:30.110   06 Jun 2027 06:48:31.496             1.386           138.344
       132   06 Jun 2027 06:48:43.529   06 Jun 2027 06:48:50.254             6.725            61.313
       133   06 Jun 2027 06:48:55.599   06 Jun 2027 06:49:00.185             4.586            87.875
       134   06 Jun 2027 08:08:01.325   06 Jun 2027 08:08:11.047             9.722          4095.188
       135   06 Jun 2027 08:09:53.774   06 Jun 2027 08:09:58.623             4.849          1417.750
       136   06 Jun 2027 08:10:34.425   06 Jun 2027 08:10:36.956             2.531          1118.813
       137   06 Jun 2027 09:44:24.454   06 Jun 2027 09:44:34.522            10.068          3198.031
       138   06 Jun 2027 09:46:17.161   06 Jun 2027 09:46:24.551             7.390          2791.531
       139   06 Jun 2027 09:47:29.758   06 Jun 2027 09:47:33.987             4.229          1684.375
       140   06 Jun 2027 11:18:30.547   06 Jun 2027 11:18:39.670             9.123          3832.719
       141   06 Jun 2027 11:20:30.860   06 Jun 2027 11:20:32.551             1.691            28.656
       142   06 Jun 2027 11:21:50.504   06 Jun 2027 11:21:52.690             2.186           138.062
       143   06 Jun 2027 11:25:14.045   06 Jun 2027 11:25:22.911             8.866          4433.000
       144   06 Jun 2027 11:25:26.210   06 Jun 2027 11:25:30.644             4.434           988.344
       145   06 Jun 2027 11:25:44.739   06 Jun 2027 11:25:46.372             1.633           277.594
       146   06 Jun 2027 11:25:56.631   06 Jun 2027 11:25:59.267             2.636            25.813
       147   06 Jun 2027 11:26:24.982   06 Jun 2027 11:26:27.769             2.787           386.656
       148   07 Jun 2027 03:40:15.721   07 Jun 2027 03:41:03.586            47.865         23932.500
       149   07 Jun 2027 03:41:33.222   07 Jun 2027 03:44:22.320           169.098         84549.000
       150   07 Jun 2027 03:45:27.423   07 Jun 2027 03:46:02.808            35.385         17692.500
       151   07 Jun 2027 05:18:25.605   07 Jun 2027 05:18:55.789            30.184         15092.000
       152   07 Jun 2027 05:20:23.484   07 Jun 2027 05:21:41.630            78.146         39073.000
       153   07 Jun 2027 05:24:38.444   07 Jun 2027 05:24:42.992             4.548          2274.000
       154   07 Jun 2027 06:57:34.083   07 Jun 2027 06:58:01.242            27.159         12176.000
       155   07 Jun 2027 06:58:22.854   07 Jun 2027 06:58:25.103             2.249           398.625
       156   07 Jun 2027 06:59:48.291   07 Jun 2027 06:59:49.147             0.856           340.031
       157   07 Jun 2027 07:00:02.839   07 Jun 2027 07:00:03.668             0.829           329.562
       158   07 Jun 2027 08:20:06.262   07 Jun 2027 08:20:20.528            14.266          6716.875
       159   07 Jun 2027 08:21:31.856   07 Jun 2027 08:21:36.873             5.017          2077.031
       160   07 Jun 2027 08:21:49.811   07 Jun 2027 08:21:50.883             1.072           111.719
       161   07 Jun 2027 08:23:05.729   07 Jun 2027 08:23:06.305             0.576           288.000
       162   07 Jun 2027 09:56:35.262   07 Jun 2027 09:56:44.133             8.871          4188.781
       163   07 Jun 2027 09:58:07.649   07 Jun 2027 09:58:13.278             5.629          1861.844
       164   07 Jun 2027 09:58:31.517   07 Jun 2027 09:58:35.241             3.724            50.187
       165   07 Jun 2027 09:59:34.912   07 Jun 2027 09:59:37.392             2.480           920.281
       166   07 Jun 2027 11:32:02.243   07 Jun 2027 11:32:18.294            16.051          5415.187
       167   07 Jun 2027 11:35:27.326   07 Jun 2027 11:35:37.286             9.960          4711.187
       168   07 Jun 2027 11:35:45.826   07 Jun 2027 11:35:47.087             1.261           162.500
       169   07 Jun 2027 11:36:10.445   07 Jun 2027 11:36:12.566             2.121           413.656
       170   07 Jun 2027 11:37:04.972   07 Jun 2027 11:37:07.234             2.262           592.219
       171   07 Jun 2027 11:38:20.275   07 Jun 2027 11:38:25.792             5.517          1954.875
       172   08 Jun 2027 03:52:13.896   08 Jun 2027 03:52:57.801            43.905         21952.500
       173   08 Jun 2027 03:53:02.338   08 Jun 2027 03:55:11.236           128.898         64449.000
       174   08 Jun 2027 05:30:29.986   08 Jun 2027 05:31:11.356            41.370         20685.000
       175   08 Jun 2027 05:31:33.866   08 Jun 2027 05:33:34.200           120.334         59929.375
       176   08 Jun 2027 05:34:31.688   08 Jun 2027 05:34:36.301             4.613          1769.063
       177   08 Jun 2027 07:08:43.126   08 Jun 2027 07:08:56.756            13.630          6294.750
       178   08 Jun 2027 07:09:18.793   08 Jun 2027 07:09:19.635             0.842           147.938
       179   08 Jun 2027 07:09:49.076   08 Jun 2027 07:09:51.061             1.985           505.094
       180   08 Jun 2027 07:10:40.205   08 Jun 2027 07:10:44.469             4.264           904.781
       181   08 Jun 2027 07:11:57.352   08 Jun 2027 07:12:00.183             2.831          1181.500
       182   08 Jun 2027 08:32:02.290   08 Jun 2027 08:32:22.066            19.776          9341.094
       183   08 Jun 2027 08:33:23.660   08 Jun 2027 08:33:24.783             1.123           297.813
       184   08 Jun 2027 08:33:48.212   08 Jun 2027 08:33:49.611             1.399           595.812
       185   08 Jun 2027 08:35:01.746   08 Jun 2027 08:35:01.746             0.000             0.000
       186   08 Jun 2027 10:08:39.690   08 Jun 2027 10:08:48.792             9.102          3480.375
       187   08 Jun 2027 10:10:21.867   08 Jun 2027 10:10:30.340             8.473          2306.906
       188   08 Jun 2027 10:10:52.234   08 Jun 2027 10:10:59.422             7.188           208.875
       189   08 Jun 2027 11:43:50.277   08 Jun 2027 11:44:01.987            11.710          5449.406
       190   08 Jun 2027 11:50:12.525   08 Jun 2027 11:50:26.712            14.187          7093.500
       191   09 Jun 2027 04:04:17.294   09 Jun 2027 04:05:32.048            74.754         37377.000
       192   09 Jun 2027 04:06:50.708   09 Jun 2027 04:07:43.100            52.392         26196.000
       193   09 Jun 2027 04:08:54.573   09 Jun 2027 04:09:00.607             6.034          3017.000
       194   09 Jun 2027 04:09:14.008   09 Jun 2027 04:09:22.199             8.191          4095.500
       195   09 Jun 2027 04:10:00.247   09 Jun 2027 04:10:18.949            18.702          9351.000
       196   09 Jun 2027 04:10:46.496   09 Jun 2027 04:10:49.248             2.752          1376.000
       197   09 Jun 2027 05:43:34.694   09 Jun 2027 05:44:47.043            72.349         36174.500
       198   09 Jun 2027 05:45:55.996   09 Jun 2027 05:46:17.996            22.000         11000.000
       199   09 Jun 2027 05:46:34.873   09 Jun 2027 05:46:40.147             5.274          2637.000
       200   09 Jun 2027 05:49:45.346   09 Jun 2027 05:51:22.228            96.882         48441.000
       201   09 Jun 2027 07:09:50.688   09 Jun 2027 07:10:07.436            16.748          8374.000
       202   09 Jun 2027 07:20:39.015   09 Jun 2027 07:20:48.674             9.659          4410.218
       203   09 Jun 2027 07:20:50.053   09 Jun 2027 07:20:53.546             3.493            43.094
       204   09 Jun 2027 07:21:20.613   09 Jun 2027 07:21:26.762             6.149           793.344
       205   09 Jun 2027 07:23:47.797   09 Jun 2027 07:23:51.077             3.280           584.188
       206   09 Jun 2027 07:24:07.113   09 Jun 2027 07:24:08.009             0.896           448.000
       207   09 Jun 2027 08:44:37.767   09 Jun 2027 08:44:50.018            12.251          5818.000
       208   09 Jun 2027 08:45:49.043   09 Jun 2027 08:45:51.824             2.781          1010.438
       209   09 Jun 2027 10:20:24.287   09 Jun 2027 10:20:28.377             4.090          2020.156
       210   09 Jun 2027 10:22:10.977   09 Jun 2027 10:22:17.908             6.931          1988.031
       211   09 Jun 2027 10:23:29.914   09 Jun 2027 10:23:32.896             2.982           415.656
       212   09 Jun 2027 11:55:45.722   09 Jun 2027 11:56:01.836            16.114          7971.719
       213   09 Jun 2027 11:58:58.502   09 Jun 2027 11:59:10.695            12.193          4613.562
       214   10 Jun 2027 04:16:57.572   10 Jun 2027 04:19:06.853           129.281         64640.500
       215   10 Jun 2027 04:20:23.034   10 Jun 2027 04:20:48.637            25.603         12801.500
       216   10 Jun 2027 04:21:10.086   10 Jun 2027 04:21:30.396            20.310         10155.000
       217   10 Jun 2027 04:22:03.960   10 Jun 2027 04:22:09.820             5.860          2930.000
       218   10 Jun 2027 04:22:14.500   10 Jun 2027 04:22:17.085             2.585          1292.500
       219   10 Jun 2027 05:55:56.638   10 Jun 2027 05:57:40.111           103.473         51736.500
       220   10 Jun 2027 05:58:24.557   10 Jun 2027 05:58:28.058             3.501          1750.500
       221   10 Jun 2027 06:00:58.274   10 Jun 2027 06:02:37.508            99.234         48898.813
       222   10 Jun 2027 07:21:06.076   10 Jun 2027 07:21:26.227            20.151          9061.125
       223   10 Jun 2027 07:21:45.559   10 Jun 2027 07:21:45.559             0.000             0.000
       224   10 Jun 2027 07:32:40.207   10 Jun 2027 07:32:47.429             7.222          3496.719
       225   10 Jun 2027 08:55:15.857   10 Jun 2027 08:55:38.005            22.148         10256.594
       226   10 Jun 2027 08:56:53.034   10 Jun 2027 08:56:59.461             6.427          1272.031
       227   10 Jun 2027 08:57:52.392   10 Jun 2027 08:57:54.714             2.322          1041.875
       228   10 Jun 2027 10:30:43.297   10 Jun 2027 10:30:55.190            11.893          5822.687
       229   10 Jun 2027 10:32:20.838   10 Jun 2027 10:32:27.236             6.398          2676.500
       230   10 Jun 2027 10:33:30.016   10 Jun 2027 10:33:44.376            14.360          1304.844
       231   10 Jun 2027 10:35:45.037   10 Jun 2027 10:35:53.658             8.621          3407.188
       232   10 Jun 2027 10:36:22.899   10 Jun 2027 10:36:24.693             1.794           498.781
       233   10 Jun 2027 10:36:44.391   10 Jun 2027 10:36:44.391             0.000             0.000
       234   11 Jun 2027 04:29:13.913   11 Jun 2027 04:30:38.060            84.147         42073.500
       235   11 Jun 2027 04:30:38.442   11 Jun 2027 04:31:05.985            27.543         13771.500
       236   11 Jun 2027 04:31:43.186   11 Jun 2027 04:32:41.302            58.116         29058.000
       237   11 Jun 2027 04:32:59.468   11 Jun 2027 04:33:00.275             0.807           403.500
       238   11 Jun 2027 06:08:14.195   11 Jun 2027 06:11:21.697           187.502         92835.406
       239   11 Jun 2027 06:12:37.189   11 Jun 2027 06:12:43.279             6.090          2182.937
       240   11 Jun 2027 06:13:09.465   11 Jun 2027 06:13:11.352             1.887           818.312
       241   11 Jun 2027 06:13:38.093   11 Jun 2027 06:13:42.655             4.562           598.875
       242   11 Jun 2027 06:14:04.536   11 Jun 2027 06:14:11.978             7.442           400.813
       243   11 Jun 2027 07:32:24.364   11 Jun 2027 07:32:37.748            13.384          6417.312
       244   11 Jun 2027 07:33:09.194   11 Jun 2027 07:33:14.150             4.956           578.375
       245   11 Jun 2027 07:33:16.838   11 Jun 2027 07:33:17.754             0.916            83.875
       246   11 Jun 2027 07:33:27.636   11 Jun 2027 07:33:29.581             1.945           252.281
       247   11 Jun 2027 07:34:31.954   11 Jun 2027 07:34:35.098             3.144          1503.062
       248   11 Jun 2027 07:44:37.646   11 Jun 2027 07:44:43.602             5.956          2287.844
       249   11 Jun 2027 09:06:51.553   11 Jun 2027 09:07:16.759            25.206         12603.000
       250   11 Jun 2027 09:08:48.300   11 Jun 2027 09:08:55.816             7.516          1722.844
       251   11 Jun 2027 09:09:21.130   11 Jun 2027 09:09:31.816            10.686           267.812
       252   11 Jun 2027 09:10:37.170   11 Jun 2027 09:10:41.836             4.666          2016.906
       253   11 Jun 2027 09:11:47.000   11 Jun 2027 09:11:51.672             4.672          1405.844
       254   11 Jun 2027 10:41:44.552   11 Jun 2027 10:41:50.798             6.246          2492.844
       255   11 Jun 2027 10:43:17.865   11 Jun 2027 10:43:22.491             4.626          1384.438
       256   11 Jun 2027 10:45:34.566   11 Jun 2027 10:45:42.459             7.893          3831.469
       257   11 Jun 2027 10:48:33.453   11 Jun 2027 10:48:37.046             3.593           715.281
       258   11 Jun 2027 10:49:50.709   11 Jun 2027 10:49:54.319             3.610          1589.781
       259   11 Jun 2027 10:50:15.141   11 Jun 2027 10:50:15.839             0.698             3.000
       260   12 Jun 2027 03:04:26.508   12 Jun 2027 03:04:36.183             9.675          4837.500
       261   12 Jun 2027 03:06:00.364   12 Jun 2027 03:06:09.391             9.027          4513.500
       262   12 Jun 2027 03:06:52.850   12 Jun 2027 03:07:15.624            22.774         11387.000
       263   12 Jun 2027 03:07:25.563   12 Jun 2027 03:07:33.836             8.273          4136.500
       264   12 Jun 2027 03:08:14.524   12 Jun 2027 03:08:20.923             6.399          3199.500
       265   12 Jun 2027 03:08:29.406   12 Jun 2027 03:08:37.130             7.724          3862.000
       266   12 Jun 2027 03:09:21.473   12 Jun 2027 03:09:28.044             6.571          3285.500
       267   12 Jun 2027 03:09:59.134   12 Jun 2027 03:10:10.707            11.573          5786.500
       268   12 Jun 2027 03:11:10.616   12 Jun 2027 03:11:21.914            11.298          5649.000
       269   12 Jun 2027 03:11:55.889   12 Jun 2027 03:12:08.208            12.319          6159.500
       270   12 Jun 2027 04:41:33.128   12 Jun 2027 04:41:45.796            12.668          6334.000
       271   12 Jun 2027 04:42:00.515   12 Jun 2027 04:44:27.659           147.144         73572.000
       272   12 Jun 2027 04:44:45.188   12 Jun 2027 04:44:47.083             1.895           947.500
       273   12 Jun 2027 06:20:20.986   12 Jun 2027 06:21:52.079            91.093         45481.531
       274   12 Jun 2027 06:22:08.863   12 Jun 2027 06:22:09.832             0.969           289.656
       275   12 Jun 2027 06:23:26.235   12 Jun 2027 06:23:34.743             8.508           627.969
       276   12 Jun 2027 06:23:49.157   12 Jun 2027 06:23:51.618             2.461           450.437
       277   12 Jun 2027 06:24:14.193   12 Jun 2027 06:24:22.791             8.598           144.031
       278   12 Jun 2027 06:25:06.281   12 Jun 2027 06:25:09.048             2.767           989.125
       279   12 Jun 2027 06:26:48.330   12 Jun 2027 06:26:52.298             3.968          1478.469
       280   12 Jun 2027 07:44:30.462   12 Jun 2027 07:44:48.787            18.325          7094.875
       281   12 Jun 2027 07:45:25.213   12 Jun 2027 07:45:30.243             5.030           625.375
       282   12 Jun 2027 07:46:12.139   12 Jun 2027 07:46:16.122             3.983           892.500
       283   12 Jun 2027 09:18:20.568   12 Jun 2027 09:18:39.017            18.449          9058.188
       284   12 Jun 2027 09:20:25.806   12 Jun 2027 09:20:28.370             2.564          1282.000
       285   12 Jun 2027 09:22:20.923   12 Jun 2027 09:22:29.841             8.918          4235.906
       286   12 Jun 2027 09:22:59.929   12 Jun 2027 09:23:10.129            10.200           499.750
       287   12 Jun 2027 09:23:44.896   12 Jun 2027 09:23:47.105             2.209           299.469
       288   12 Jun 2027 10:53:15.032   12 Jun 2027 10:53:16.130             1.098           549.000
       289   12 Jun 2027 10:54:20.251   12 Jun 2027 10:54:28.549             8.298          3687.781
       290   12 Jun 2027 10:56:59.826   12 Jun 2027 10:57:00.727             0.901           450.500
       291   12 Jun 2027 11:00:30.404   12 Jun 2027 11:00:49.666            19.262          8458.938
       292   12 Jun 2027 11:01:46.889   12 Jun 2027 11:01:50.602             3.713          1623.781
       293   12 Jun 2027 11:02:21.260   12 Jun 2027 11:02:21.757             0.497           218.719
       294   13 Jun 2027 03:16:25.886   13 Jun 2027 03:16:38.355            12.469          6234.500
       295   13 Jun 2027 03:18:40.330   13 Jun 2027 03:18:45.400             5.070          2535.000
       296   13 Jun 2027 03:18:52.907   13 Jun 2027 03:20:45.238           112.331         56165.500
       297   13 Jun 2027 03:21:54.214   13 Jun 2027 03:22:33.120            38.906         19453.000
       298   13 Jun 2027 03:24:06.648   13 Jun 2027 03:24:06.755             0.107            53.500
       299   13 Jun 2027 03:24:09.605   13 Jun 2027 03:24:12.257             2.652          1326.000
       300   13 Jun 2027 04:54:11.040   13 Jun 2027 04:54:14.495             3.455          1727.500
       301   13 Jun 2027 04:54:32.515   13 Jun 2027 04:55:32.921            60.406         30203.000
       302   13 Jun 2027 04:55:37.853   13 Jun 2027 04:56:20.235            42.382         21191.000
       303   13 Jun 2027 04:59:34.657   13 Jun 2027 04:59:47.603            12.946          6473.000
       304   13 Jun 2027 06:32:57.643   13 Jun 2027 06:34:18.263            80.620         40078.375
       305   13 Jun 2027 06:35:41.366   13 Jun 2027 06:35:46.812             5.446          1447.063
       306   13 Jun 2027 06:36:01.060   13 Jun 2027 06:36:02.988             1.928           201.250
       307   13 Jun 2027 06:36:08.587   13 Jun 2027 06:36:10.292             1.705           174.969
       308   13 Jun 2027 06:36:25.098   13 Jun 2027 06:36:27.525             2.427           270.063
       309   13 Jun 2027 07:56:26.970   13 Jun 2027 07:56:40.754            13.784          6478.250
       310   13 Jun 2027 07:57:47.126   13 Jun 2027 07:57:47.126             0.000             0.000
       311   13 Jun 2027 07:58:04.171   13 Jun 2027 07:58:09.808             5.637          2017.562
       312   13 Jun 2027 09:32:39.229   13 Jun 2027 09:32:49.837            10.608          4523.187
       313   13 Jun 2027 09:33:29.236   13 Jun 2027 09:33:33.248             4.012           971.625
       314   13 Jun 2027 09:33:54.965   13 Jun 2027 09:33:56.390             1.425           446.063
       315   13 Jun 2027 09:34:56.795   13 Jun 2027 09:35:01.763             4.968          1198.187
       316   13 Jun 2027 09:35:45.212   13 Jun 2027 09:35:48.854             3.642          1058.969
       317   13 Jun 2027 11:06:12.357   13 Jun 2027 11:06:21.226             8.869          3598.781
       318   13 Jun 2027 11:08:15.235   13 Jun 2027 11:08:15.235             0.000             0.000
       319   13 Jun 2027 11:08:46.963   13 Jun 2027 11:08:53.701             6.738          2106.531
       320   13 Jun 2027 11:13:07.181   13 Jun 2027 11:13:23.906            16.725          7888.313
       321   13 Jun 2027 11:13:36.548   13 Jun 2027 11:13:38.426             1.878           395.063
       322   13 Jun 2027 11:14:46.320   13 Jun 2027 11:14:46.815             0.495           247.500
