uniorb/output/strategy_4/Camera/Camera_KinoSat_111910.txt

KinoSat_111910
-------------------------
    Access    *     Start Time (UTCG)     *     Stop Time (UTCG)  *   Duration (s) *   Data (Mbytes)
         1   01 Jun 2027 03:49:21.768   01 Jun 2027 03:51:51.240           149.472         74736.000
         2   01 Jun 2027 03:53:15.320   01 Jun 2027 03:53:21.835             6.515          3257.500
         3   01 Jun 2027 05:28:19.682   01 Jun 2027 05:30:18.874           119.192         59596.000
         4   01 Jun 2027 05:32:45.712   01 Jun 2027 05:32:51.675             5.963          2981.500
         5   01 Jun 2027 05:33:53.174   01 Jun 2027 05:34:02.039             8.865          4432.500
         6   01 Jun 2027 05:35:07.545   01 Jun 2027 05:35:43.927            36.382         18191.000
         7   01 Jun 2027 06:53:35.976   01 Jun 2027 06:54:38.629            62.653         31326.500
         8   01 Jun 2027 07:05:03.514   01 Jun 2027 07:05:42.894            39.380         19690.000
         9   01 Jun 2027 08:27:42.295   01 Jun 2027 08:28:41.332            59.037         29518.500
        10   01 Jun 2027 08:29:18.047   01 Jun 2027 08:29:39.630            21.583         10791.500
        11   01 Jun 2027 08:31:18.894   01 Jun 2027 08:31:47.183            28.289         14144.500
        12   01 Jun 2027 10:03:02.251   01 Jun 2027 10:03:45.249            42.998         21499.000
        13   01 Jun 2027 10:07:12.508   01 Jun 2027 10:07:32.585            20.077         10038.500
        14   01 Jun 2027 10:08:33.945   01 Jun 2027 10:09:03.741            29.796         14898.000
        15   01 Jun 2027 11:44:19.651   01 Jun 2027 11:46:01.903           102.252         51126.000
        16   01 Jun 2027 11:46:15.438   01 Jun 2027 11:47:01.724            46.286         23143.000
        17   02 Jun 2027 04:01:30.652   02 Jun 2027 04:03:02.410            91.758         45879.000
        18   02 Jun 2027 04:03:05.022   02 Jun 2027 04:04:08.779            63.757         31878.500
        19   02 Jun 2027 04:04:13.841   02 Jun 2027 04:04:28.491            14.650          7325.000
        20   02 Jun 2027 04:05:55.020   02 Jun 2027 04:06:11.340            16.320          8160.000
        21   02 Jun 2027 05:40:35.596   02 Jun 2027 05:42:30.257           114.661         57330.500
        22   02 Jun 2027 05:42:53.321   02 Jun 2027 05:43:36.641            43.320         21660.000
        23   02 Jun 2027 05:45:45.530   02 Jun 2027 05:47:39.422           113.892         56946.000
        24   02 Jun 2027 07:04:50.283   02 Jun 2027 07:05:37.270            46.987         23493.500
        25   02 Jun 2027 07:06:13.464   02 Jun 2027 07:06:47.402            33.938         16969.000
        26   02 Jun 2027 07:17:02.653   02 Jun 2027 07:17:07.616             4.963          2481.500
        27   02 Jun 2027 08:39:18.436   02 Jun 2027 08:40:25.208            66.772         33386.000
        28   02 Jun 2027 08:41:14.197   02 Jun 2027 08:42:56.375           102.178         51089.000
        29   02 Jun 2027 10:14:11.728   02 Jun 2027 10:15:10.675            58.947         28961.094
        30   02 Jun 2027 10:15:34.559   02 Jun 2027 10:15:43.462             8.903            17.250
        31   02 Jun 2027 10:17:24.876   02 Jun 2027 10:17:30.651             5.775          2041.125
        32   02 Jun 2027 10:18:10.166   02 Jun 2027 10:18:15.047             4.881           389.813
        33   02 Jun 2027 10:19:02.896   02 Jun 2027 10:19:08.981             6.085          1249.594
        34   02 Jun 2027 10:20:15.369   02 Jun 2027 10:20:18.664             3.295          1617.219
        35   02 Jun 2027 10:20:46.237   02 Jun 2027 10:20:50.014             3.777           603.656
        36   02 Jun 2027 11:57:57.056   02 Jun 2027 11:58:32.475            35.419         17585.250
        37   02 Jun 2027 11:58:51.554   02 Jun 2027 11:58:55.199             3.645           408.344
        38   02 Jun 2027 11:59:05.842   02 Jun 2027 11:59:06.225             0.383           191.500
        39   03 Jun 2027 04:13:56.920   03 Jun 2027 04:14:10.302            13.382          6691.000
        40   03 Jun 2027 04:14:23.806   03 Jun 2027 04:16:28.300           124.494         62247.000
        41   03 Jun 2027 04:18:23.822   03 Jun 2027 04:18:43.410            19.588          9794.000
        42   03 Jun 2027 05:52:41.613   03 Jun 2027 05:55:42.172           180.559         87844.782
        43   03 Jun 2027 05:57:10.021   03 Jun 2027 05:57:15.113             5.092          2233.875
        44   03 Jun 2027 05:57:58.463   03 Jun 2027 05:58:01.749             3.286          1045.031
        45   03 Jun 2027 07:16:56.306   03 Jun 2027 07:17:16.935            20.629          9699.500
        46   03 Jun 2027 07:17:31.642   03 Jun 2027 07:17:31.642             0.000             0.000
        47   03 Jun 2027 07:17:53.129   03 Jun 2027 07:17:56.328             3.199           937.781
        48   03 Jun 2027 07:18:58.427   03 Jun 2027 07:19:01.015             2.588          1294.000
        49   03 Jun 2027 07:29:24.965   03 Jun 2027 07:29:29.957             4.992          2496.000
        50   03 Jun 2027 08:50:47.631   03 Jun 2027 08:51:12.418            24.787         10871.250
        51   03 Jun 2027 08:53:10.357   03 Jun 2027 08:53:15.380             5.023          2434.156
        52   03 Jun 2027 08:54:48.739   03 Jun 2027 08:54:53.120             4.381          2038.594
        53   03 Jun 2027 08:55:29.931   03 Jun 2027 08:55:34.305             4.374           434.187
        54   03 Jun 2027 10:25:42.159   03 Jun 2027 10:25:51.808             9.649          3671.000
        55   03 Jun 2027 10:27:59.689   03 Jun 2027 10:28:08.412             8.723          2462.594
        56   03 Jun 2027 10:28:31.124   03 Jun 2027 10:28:32.296             1.172           298.375
        57   03 Jun 2027 10:31:25.266   03 Jun 2027 10:31:29.586             4.320          2160.000
        58   03 Jun 2027 10:32:02.724   03 Jun 2027 10:32:08.773             6.049          2743.937
        59   03 Jun 2027 10:33:03.668   03 Jun 2027 10:33:05.810             2.142           403.625
        60   03 Jun 2027 10:34:44.546   03 Jun 2027 10:34:52.711             8.165          3085.500
        61   04 Jun 2027 04:26:34.308   04 Jun 2027 04:26:44.247             9.939          4969.500
        62   04 Jun 2027 04:26:56.340   04 Jun 2027 04:27:58.007            61.667         30833.500
        63   04 Jun 2027 04:28:03.231   04 Jun 2027 04:28:40.116            36.885         18442.500
        64   04 Jun 2027 04:28:41.843   04 Jun 2027 04:29:31.908            50.065         25032.500
        65   04 Jun 2027 04:30:25.160   04 Jun 2027 04:30:27.375             2.215          1107.500
        66   04 Jun 2027 04:30:38.671   04 Jun 2027 04:31:07.802            29.131         14565.500
        67   04 Jun 2027 06:05:07.540   04 Jun 2027 06:07:36.906           149.366         74675.626
        68   04 Jun 2027 06:08:03.156   04 Jun 2027 06:08:04.592             1.436           494.844
        69   04 Jun 2027 06:08:30.972   04 Jun 2027 06:08:32.514             1.542            23.219
        70   04 Jun 2027 06:09:51.728   04 Jun 2027 06:09:57.029             5.301           795.156
        71   04 Jun 2027 07:28:52.413   04 Jun 2027 07:29:13.426            21.013          6856.375
        72   04 Jun 2027 07:30:09.189   04 Jun 2027 07:30:14.759             5.570          1600.156
        73   04 Jun 2027 09:04:51.999   04 Jun 2027 09:05:12.808            20.809         10281.031
        74   04 Jun 2027 09:05:46.555   04 Jun 2027 09:05:49.982             3.427          1054.594
        75   04 Jun 2027 09:07:50.209   04 Jun 2027 09:07:50.209             0.000             0.000
        76   04 Jun 2027 10:38:36.149   04 Jun 2027 10:38:50.269            14.120          6689.500
        77   04 Jun 2027 10:40:45.679   04 Jun 2027 10:40:45.679             0.000             0.000
        78   04 Jun 2027 10:41:02.236   04 Jun 2027 10:41:09.728             7.492          1020.875
        79   04 Jun 2027 10:43:24.930   04 Jun 2027 10:43:25.302             0.372           186.000
        80   04 Jun 2027 10:45:13.308   04 Jun 2027 10:45:28.929            15.621          7196.938
        81   05 Jun 2027 03:00:54.960   05 Jun 2027 03:01:13.896            18.936          9468.000
        82   05 Jun 2027 03:01:50.082   05 Jun 2027 03:02:20.884            30.802         15401.000
        83   05 Jun 2027 03:03:03.400   05 Jun 2027 03:03:05.571             2.171          1085.500
        84   05 Jun 2027 03:04:28.540   05 Jun 2027 03:04:35.379             6.839          3419.500
        85   05 Jun 2027 03:05:10.246   05 Jun 2027 03:05:16.008             5.762          2881.000
        86   05 Jun 2027 03:05:49.201   05 Jun 2027 03:06:10.375            21.174         10587.000
        87   05 Jun 2027 03:06:30.868   05 Jun 2027 03:06:35.410             4.542          2271.000
        88   05 Jun 2027 04:39:02.237   05 Jun 2027 04:39:30.695            28.458         14229.000
        89   05 Jun 2027 04:39:36.125   05 Jun 2027 04:40:34.885            58.760         29380.000
        90   05 Jun 2027 04:41:27.829   05 Jun 2027 04:42:03.003            35.174         17587.000
        91   05 Jun 2027 04:42:26.145   05 Jun 2027 04:42:32.310             6.165          3082.500
        92   05 Jun 2027 04:44:28.030   05 Jun 2027 04:44:59.325            31.295         15647.500
        93   05 Jun 2027 06:17:02.897   05 Jun 2027 06:19:01.809           118.912         59103.969
        94   05 Jun 2027 06:21:11.216   05 Jun 2027 06:21:14.775             3.559           470.406
        95   05 Jun 2027 06:21:31.140   05 Jun 2027 06:21:31.698             0.558           262.813
        96   05 Jun 2027 07:40:44.008   05 Jun 2027 07:40:59.105            15.097          6764.469
        97   05 Jun 2027 07:42:09.063   05 Jun 2027 07:42:15.230             6.167          1819.094
        98   05 Jun 2027 07:42:40.499   05 Jun 2027 07:42:42.420             1.921           319.219
        99   05 Jun 2027 07:42:51.750   05 Jun 2027 07:42:54.569             2.819           259.344
       100   05 Jun 2027 09:17:06.716   05 Jun 2027 09:17:29.639            22.923          9615.063
       101   05 Jun 2027 09:19:50.483   05 Jun 2027 09:19:58.882             8.399          3906.687
       102   05 Jun 2027 10:53:03.403   05 Jun 2027 10:53:21.399            17.996          8883.813
       103   05 Jun 2027 10:55:23.861   05 Jun 2027 10:55:23.861             0.000             0.000
       104   05 Jun 2027 10:56:26.734   05 Jun 2027 10:56:39.580            12.846          3582.750
       105   05 Jun 2027 10:57:27.682   05 Jun 2027 10:57:33.283             5.601           335.812
       106   05 Jun 2027 10:58:55.179   05 Jun 2027 10:59:02.096             6.917          2011.500
       107   05 Jun 2027 10:59:07.401   05 Jun 2027 10:59:10.194             2.793           134.094
       108   06 Jun 2027 03:12:58.307   06 Jun 2027 03:13:10.945            12.638          6319.000
       109   06 Jun 2027 03:13:12.523   06 Jun 2027 03:13:39.784            27.261         13630.500
       110   06 Jun 2027 03:14:16.956   06 Jun 2027 03:16:20.728           123.772         61886.000
       111   06 Jun 2027 03:19:46.705   06 Jun 2027 03:20:11.428            24.723         12361.500
       112   06 Jun 2027 04:51:08.418   06 Jun 2027 04:51:34.793            26.375         13187.500
       113   06 Jun 2027 04:52:21.179   06 Jun 2027 04:52:41.332            20.153         10076.500
       114   06 Jun 2027 04:53:40.441   06 Jun 2027 04:55:18.942            98.501         47598.781
       115   06 Jun 2027 06:30:16.696   06 Jun 2027 06:30:38.550            21.854         10287.281
       116   06 Jun 2027 06:32:58.379   06 Jun 2027 06:33:00.203             1.824           212.406
       117   06 Jun 2027 07:52:48.568   06 Jun 2027 07:53:00.923            12.355          6124.781
       118   06 Jun 2027 07:54:10.194   06 Jun 2027 07:54:16.741             6.547          2164.719
       119   06 Jun 2027 07:54:28.145   06 Jun 2027 07:54:29.391             1.246            71.625
       120   06 Jun 2027 09:29:17.567   06 Jun 2027 09:29:25.470             7.903          2834.156
       121   06 Jun 2027 09:29:46.514   06 Jun 2027 09:29:51.274             4.760           333.344
       122   06 Jun 2027 09:30:22.227   06 Jun 2027 09:30:27.060             4.833           432.750
       123   06 Jun 2027 09:31:03.477   06 Jun 2027 09:31:03.646             0.169            84.500
       124   06 Jun 2027 09:31:21.739   06 Jun 2027 09:31:25.711             3.972          1503.438
       125   06 Jun 2027 09:32:17.223   06 Jun 2027 09:32:21.523             4.300          1244.812
       126   06 Jun 2027 11:05:24.524   06 Jun 2027 11:05:44.588            20.064         10032.000
       127   06 Jun 2027 11:07:21.913   06 Jun 2027 11:07:32.480            10.567          4357.125
       128   06 Jun 2027 11:10:27.349   06 Jun 2027 11:10:37.234             9.885          4384.031
       129   06 Jun 2027 11:11:05.958   06 Jun 2027 11:11:09.125             3.167           897.625
       130   07 Jun 2027 03:24:56.675   07 Jun 2027 03:25:33.122            36.447         18223.500
       131   07 Jun 2027 03:25:46.104   07 Jun 2027 03:28:15.326           149.222         74611.000
       132   07 Jun 2027 03:28:54.401   07 Jun 2027 03:29:27.018            32.617         16308.500
       133   07 Jun 2027 03:30:24.390   07 Jun 2027 03:30:27.810             3.420          1710.000
       134   07 Jun 2027 05:03:12.166   07 Jun 2027 05:03:53.176            41.010         20505.000
       135   07 Jun 2027 05:04:16.507   07 Jun 2027 05:05:26.210            69.703         34602.687
       136   07 Jun 2027 05:06:06.444   07 Jun 2027 05:06:06.710             0.266           115.969
       137   07 Jun 2027 05:06:23.404   07 Jun 2027 05:06:25.173             1.769           521.688
       138   07 Jun 2027 05:08:03.636   07 Jun 2027 05:08:09.533             5.897           864.437
       139   07 Jun 2027 06:41:24.408   07 Jun 2027 06:41:33.841             9.433          4025.437
       140   07 Jun 2027 06:43:15.837   07 Jun 2027 06:43:21.956             6.119          1170.938
       141   07 Jun 2027 08:04:53.288   07 Jun 2027 08:05:06.023            12.735          5186.500
       142   07 Jun 2027 08:06:11.031   07 Jun 2027 08:06:14.623             3.592          1778.813
       143   07 Jun 2027 08:07:35.589   07 Jun 2027 08:07:40.802             5.213          2244.375
       144   07 Jun 2027 09:41:22.207   07 Jun 2027 09:41:29.290             7.083          2566.156
       145   07 Jun 2027 09:42:56.151   07 Jun 2027 09:43:03.796             7.645          2176.187
       146   07 Jun 2027 09:43:23.485   07 Jun 2027 09:43:29.235             5.750           511.719
       147   07 Jun 2027 09:44:24.972   07 Jun 2027 09:44:28.178             3.206          1425.813
       148   07 Jun 2027 11:16:32.584   07 Jun 2027 11:16:42.289             9.705          4335.969
       149   07 Jun 2027 11:18:32.069   07 Jun 2027 11:18:39.859             7.790          3219.844
       150   07 Jun 2027 11:19:16.420   07 Jun 2027 11:19:18.506             2.086           529.531
       151   07 Jun 2027 11:21:05.476   07 Jun 2027 11:21:05.476             0.000             0.000
       152   07 Jun 2027 11:22:37.539   07 Jun 2027 11:22:51.739            14.200          6207.469
       153   07 Jun 2027 11:23:05.749   07 Jun 2027 11:23:09.074             3.325           437.812
       154   08 Jun 2027 03:36:59.322   08 Jun 2027 03:40:17.967           198.645         99322.500
       155   08 Jun 2027 03:43:14.633   08 Jun 2027 03:43:34.495            19.862          9931.000
       156   08 Jun 2027 05:16:16.950   08 Jun 2027 05:18:16.011           119.061         58519.156
       157   08 Jun 2027 05:18:38.229   08 Jun 2027 05:18:39.746             1.517           480.281
       158   08 Jun 2027 05:18:48.361   08 Jun 2027 05:18:49.323             0.962           263.344
       159   08 Jun 2027 05:19:35.156   08 Jun 2027 05:19:37.791             2.635           104.531
       160   08 Jun 2027 05:23:02.421   08 Jun 2027 05:23:15.159            12.738          5822.844
       161   08 Jun 2027 06:42:33.528   08 Jun 2027 06:42:43.599            10.071          4849.969
       162   08 Jun 2027 06:53:21.585   08 Jun 2027 06:53:22.196             0.611           305.500
       163   08 Jun 2027 06:53:32.629   08 Jun 2027 06:53:42.581             9.952          1886.625
       164   08 Jun 2027 06:56:46.037   08 Jun 2027 06:56:46.184             0.147            52.562
       165   08 Jun 2027 08:17:20.315   08 Jun 2027 08:17:43.790            23.475          9426.031
       166   08 Jun 2027 08:17:54.927   08 Jun 2027 08:17:55.629             0.702           267.125
       167   08 Jun 2027 08:19:29.621   08 Jun 2027 08:19:35.371             5.750          2441.250
       168   08 Jun 2027 08:19:39.014   08 Jun 2027 08:19:39.014             0.000             0.000
       169   08 Jun 2027 09:53:06.695   08 Jun 2027 09:53:13.564             6.869          2872.500
       170   08 Jun 2027 09:54:46.046   08 Jun 2027 09:54:50.621             4.575          1880.781
       171   08 Jun 2027 09:55:45.728   08 Jun 2027 09:55:48.629             2.901          1374.531
       172   08 Jun 2027 09:56:35.501   08 Jun 2027 09:56:39.863             4.362          1435.906
       173   08 Jun 2027 11:28:32.073   08 Jun 2027 11:28:49.697            17.624          8287.875
       174   08 Jun 2027 11:34:25.605   08 Jun 2027 11:34:25.605             0.000             0.000
       175   08 Jun 2027 11:34:45.141   08 Jun 2027 11:35:03.614            18.473          8339.875
       176   09 Jun 2027 03:49:39.778   09 Jun 2027 03:51:21.091           101.313         50656.500
       177   09 Jun 2027 03:54:39.108   09 Jun 2027 03:55:57.306            78.198         39099.000
       178   09 Jun 2027 05:28:38.346   09 Jun 2027 05:30:33.736           115.390         57695.000
       179   09 Jun 2027 05:30:43.712   09 Jun 2027 05:31:00.767            17.055          8283.906
       180   09 Jun 2027 05:34:32.850   09 Jun 2027 05:34:44.284            11.434          4701.406
       181   09 Jun 2027 06:53:49.155   09 Jun 2027 06:54:02.466            13.311          5310.156
       182   09 Jun 2027 06:54:31.743   09 Jun 2027 06:54:31.743             0.000             0.000
       183   09 Jun 2027 07:05:22.495   09 Jun 2027 07:05:28.347             5.852          2208.187
       184   09 Jun 2027 07:06:25.683   09 Jun 2027 07:06:27.083             1.400           685.250
       185   09 Jun 2027 08:27:58.995   09 Jun 2027 08:28:12.527            13.532          5230.781
       186   09 Jun 2027 08:28:35.168   09 Jun 2027 08:28:38.391             3.223           645.000
       187   09 Jun 2027 08:28:51.228   09 Jun 2027 08:28:52.380             1.152           351.813
       188   09 Jun 2027 08:30:11.518   09 Jun 2027 08:30:11.518             0.000             0.000
       189   09 Jun 2027 08:31:22.357   09 Jun 2027 08:31:31.551             9.194          4343.656
       190   09 Jun 2027 08:31:42.186   09 Jun 2027 08:31:46.028             3.842           211.500
       191   09 Jun 2027 10:03:07.319   09 Jun 2027 10:03:14.003             6.684          3342.000
       192   09 Jun 2027 10:03:18.244   09 Jun 2027 10:03:18.883             0.639           249.781
       193   09 Jun 2027 10:05:15.314   09 Jun 2027 10:05:20.477             5.163          2320.094
       194   09 Jun 2027 10:06:32.257   09 Jun 2027 10:06:40.143             7.886          1494.719
       195   09 Jun 2027 10:08:46.993   09 Jun 2027 10:08:51.777             4.784          2294.219
       196   09 Jun 2027 10:09:20.526   09 Jun 2027 10:09:20.526             0.000             0.000
       197   09 Jun 2027 11:42:51.814   09 Jun 2027 11:43:08.555            16.741          8370.500
       198   09 Jun 2027 11:46:31.710   09 Jun 2027 11:46:54.657            22.947         10910.250
       199   10 Jun 2027 04:01:55.784   10 Jun 2027 04:03:31.978            96.194         48097.000
       200   10 Jun 2027 04:07:17.864   10 Jun 2027 04:07:29.646            11.782          5891.000
       201   10 Jun 2027 05:40:55.020   10 Jun 2027 05:43:58.466           183.446         91723.000
       202   10 Jun 2027 05:46:00.267   10 Jun 2027 05:46:36.049            35.782         16155.969
       203   10 Jun 2027 07:05:06.828   10 Jun 2027 07:05:15.773             8.945          4472.500
       204   10 Jun 2027 07:05:42.597   10 Jun 2027 07:05:50.176             7.579          1954.125
       205   10 Jun 2027 07:05:59.009   10 Jun 2027 07:06:01.246             2.237           276.031
       206   10 Jun 2027 07:06:22.030   10 Jun 2027 07:06:26.730             4.700           632.781
       207   10 Jun 2027 07:07:13.334   10 Jun 2027 07:07:16.778             3.444          1046.813
       208   10 Jun 2027 07:17:19.978   10 Jun 2027 07:17:25.211             5.233          2504.500
       209   10 Jun 2027 08:39:34.612   10 Jun 2027 08:39:59.085            24.473         11535.344
       210   10 Jun 2027 08:40:32.027   10 Jun 2027 08:40:34.225             2.198          1010.000
       211   10 Jun 2027 08:41:42.335   10 Jun 2027 08:41:48.835             6.500          2026.812
       212   10 Jun 2027 08:42:32.323   10 Jun 2027 08:42:36.029             3.706          1031.562
       213   10 Jun 2027 10:14:27.477   10 Jun 2027 10:14:36.137             8.660          3280.750
       214   10 Jun 2027 10:15:53.409   10 Jun 2027 10:15:58.041             4.632          1383.656
       215   10 Jun 2027 10:20:09.393   10 Jun 2027 10:20:21.461            12.068          5689.687
       216   10 Jun 2027 10:21:05.519   10 Jun 2027 10:21:06.742             1.223           589.000
       217   10 Jun 2027 10:21:41.912   10 Jun 2027 10:21:41.912             0.000             0.000
       218   10 Jun 2027 11:55:30.793   10 Jun 2027 11:56:00.658            29.865         12530.625
       219   10 Jun 2027 11:57:28.510   10 Jun 2027 11:57:33.447             4.937          2208.875
       220   10 Jun 2027 11:58:23.742   10 Jun 2027 11:58:26.897             3.155          1228.094
       221   10 Jun 2027 11:58:55.984   10 Jun 2027 11:59:01.066             5.082           908.969
       222   11 Jun 2027 04:14:15.097   11 Jun 2027 04:14:28.175            13.078          6539.000
       223   11 Jun 2027 04:14:42.487   11 Jun 2027 04:17:18.658           156.171         78085.500
       224   11 Jun 2027 04:17:42.420   11 Jun 2027 04:17:54.923            12.503          6251.500
       225   11 Jun 2027 04:18:01.895   11 Jun 2027 04:18:13.381            11.486          5743.000
       226   11 Jun 2027 04:18:56.222   11 Jun 2027 04:18:58.246             2.024          1012.000
       227   11 Jun 2027 05:53:01.856   11 Jun 2027 05:54:46.294           104.438         52219.000
       228   11 Jun 2027 05:55:02.113   11 Jun 2027 05:55:31.798            29.685         13519.656
       229   11 Jun 2027 05:57:24.470   11 Jun 2027 05:57:36.123            11.653          3005.375
       230   11 Jun 2027 05:58:15.860   11 Jun 2027 05:58:20.451             4.591           980.344
       231   11 Jun 2027 05:59:11.591   11 Jun 2027 05:59:21.319             9.728          1449.344
       232   11 Jun 2027 07:17:12.959   11 Jun 2027 07:17:23.468            10.509          5229.813
       233   11 Jun 2027 07:18:11.058   11 Jun 2027 07:18:13.738             2.680          1005.938
       234   11 Jun 2027 07:18:58.392   11 Jun 2027 07:19:00.945             2.553          1083.937
       235   11 Jun 2027 07:19:05.809   11 Jun 2027 07:19:07.109             1.300           107.563
       236   11 Jun 2027 07:29:45.309   11 Jun 2027 07:29:46.557             1.248           624.000
       237   11 Jun 2027 08:51:03.332   11 Jun 2027 08:51:27.963            24.631         10805.438
       238   11 Jun 2027 08:53:07.895   11 Jun 2027 08:53:07.895             0.000             0.000
       239   11 Jun 2027 08:53:29.723   11 Jun 2027 08:53:32.640             2.917          1253.406
       240   11 Jun 2027 08:54:40.403   11 Jun 2027 08:54:44.365             3.962          1229.125
       241   11 Jun 2027 08:56:07.497   11 Jun 2027 08:56:12.031             4.534          2188.156
       242   11 Jun 2027 08:56:27.218   11 Jun 2027 08:56:28.430             1.212           429.781
       243   11 Jun 2027 10:25:57.611   11 Jun 2027 10:26:08.508            10.897          3812.531
       244   11 Jun 2027 10:28:41.981   11 Jun 2027 10:28:43.987             2.006           705.094
       245   11 Jun 2027 10:29:38.556   11 Jun 2027 10:29:43.214             4.658          1508.937
       246   11 Jun 2027 10:31:43.163   11 Jun 2027 10:31:45.810             2.647          1323.500
       247   11 Jun 2027 10:32:17.272   11 Jun 2027 10:32:24.267             6.995          3408.094
       248   11 Jun 2027 10:33:23.840   11 Jun 2027 10:33:25.394             1.554           519.281
       249   11 Jun 2027 10:35:07.754   11 Jun 2027 10:35:15.681             7.927          3198.750
       250   12 Jun 2027 04:26:52.963   12 Jun 2027 04:26:59.970             7.007          3503.500
       251   12 Jun 2027 04:27:14.376   12 Jun 2027 04:28:15.552            61.176         30588.000
       252   12 Jun 2027 04:28:20.407   12 Jun 2027 04:29:15.041            54.634         27317.000
       253   12 Jun 2027 04:32:18.803   12 Jun 2027 04:32:21.465             2.662          1331.000
       254   12 Jun 2027 06:05:39.235   12 Jun 2027 06:09:06.232           206.997        101526.438
       255   12 Jun 2027 06:10:07.154   12 Jun 2027 06:10:12.376             5.222           738.000
       256   12 Jun 2027 07:29:09.259   12 Jun 2027 07:29:20.924            11.665          5145.375
       257   12 Jun 2027 07:30:25.245   12 Jun 2027 07:30:29.445             4.200          1612.562
       258   12 Jun 2027 09:05:22.473   12 Jun 2027 09:05:45.433            22.960         11468.063
       259   12 Jun 2027 09:06:07.699   12 Jun 2027 09:06:07.699             0.000             0.000
       260   12 Jun 2027 09:08:08.151   12 Jun 2027 09:08:17.519             9.368          4422.813
       261   12 Jun 2027 10:38:54.350   12 Jun 2027 10:39:05.082            10.732          2508.781
       262   12 Jun 2027 10:40:45.998   12 Jun 2027 10:40:51.432             5.434          1983.437
       263   12 Jun 2027 10:41:22.084   12 Jun 2027 10:41:22.084             0.000             0.000
       264   12 Jun 2027 10:41:33.626   12 Jun 2027 10:41:37.504             3.878           891.000
       265   12 Jun 2027 10:43:42.759   12 Jun 2027 10:43:52.583             9.824          3847.094
       266   12 Jun 2027 10:44:22.122   12 Jun 2027 10:44:26.299             4.177           599.687
       267   12 Jun 2027 10:44:44.919   12 Jun 2027 10:44:48.837             3.918           581.875
       268   12 Jun 2027 10:45:29.783   12 Jun 2027 10:45:32.325             2.542          1128.406
       269   12 Jun 2027 10:47:28.553   12 Jun 2027 10:47:29.038             0.485           242.500
       270   13 Jun 2027 03:01:12.858   13 Jun 2027 03:01:20.740             7.882          3941.000
       271   13 Jun 2027 03:01:53.560   13 Jun 2027 03:02:05.807            12.247          6123.500
       272   13 Jun 2027 03:03:03.954   13 Jun 2027 03:03:19.467            15.513          7756.500
       273   13 Jun 2027 03:05:13.909   13 Jun 2027 03:05:30.671            16.762          8381.000
       274   13 Jun 2027 03:06:24.934   13 Jun 2027 03:06:39.342            14.408          7204.000
       275   13 Jun 2027 03:06:57.016   13 Jun 2027 03:07:05.146             8.130          4065.000
       276   13 Jun 2027 03:07:08.014   13 Jun 2027 03:07:10.111             2.097          1048.500
       277   13 Jun 2027 03:07:22.137   13 Jun 2027 03:07:53.007            30.870         15435.000
       278   13 Jun 2027 04:39:19.534   13 Jun 2027 04:39:46.989            27.455         13727.500
       279   13 Jun 2027 04:39:50.797   13 Jun 2027 04:40:59.809            69.012         34506.000
       280   13 Jun 2027 04:41:02.664   13 Jun 2027 04:41:09.776             7.112          3556.000
       281   13 Jun 2027 04:41:19.243   13 Jun 2027 04:41:21.297             2.054          1027.000
       282   13 Jun 2027 04:41:31.251   13 Jun 2027 04:41:40.554             9.303          4651.500
       283   13 Jun 2027 04:41:56.573   13 Jun 2027 04:42:05.612             9.039          4519.500
       284   13 Jun 2027 04:42:50.634   13 Jun 2027 04:43:46.114            55.480         27740.000
       285   13 Jun 2027 04:44:15.352   13 Jun 2027 04:44:32.678            17.326          8663.000
       286   13 Jun 2027 04:44:52.901   13 Jun 2027 04:45:03.905            11.004          5502.000
       287   13 Jun 2027 06:17:20.432   13 Jun 2027 06:18:12.060            51.628         25251.438
       288   13 Jun 2027 06:21:25.955   13 Jun 2027 06:21:27.668             1.713           475.437
       289   13 Jun 2027 06:21:46.411   13 Jun 2027 06:21:50.585             4.174           207.937
       290   13 Jun 2027 07:41:01.322   13 Jun 2027 07:41:18.375            17.053          6864.625
       291   13 Jun 2027 07:42:26.591   13 Jun 2027 07:42:33.202             6.611          1880.969
       292   13 Jun 2027 07:42:55.386   13 Jun 2027 07:42:57.147             1.761           261.063
       293   13 Jun 2027 09:17:27.938   13 Jun 2027 09:17:44.889            16.951          7795.219
       294   13 Jun 2027 09:18:17.798   13 Jun 2027 09:18:19.447             1.649           448.250
       295   13 Jun 2027 09:19:05.089   13 Jun 2027 09:19:11.076             5.987           783.219
       296   13 Jun 2027 09:19:25.450   13 Jun 2027 09:19:26.606             1.156           299.844
       297   13 Jun 2027 09:20:30.180   13 Jun 2027 09:20:32.644             2.464          1153.281
       298   13 Jun 2027 10:49:39.159   13 Jun 2027 10:49:45.478             6.319          3159.500
       299   13 Jun 2027 10:51:33.389   13 Jun 2027 10:51:36.170             2.781          1026.687
       300   13 Jun 2027 10:54:55.090   13 Jun 2027 10:55:01.134             6.044          2873.281
       301   13 Jun 2027 10:55:41.613   13 Jun 2027 10:55:44.927             3.314           743.031
       302   13 Jun 2027 10:56:28.328   13 Jun 2027 10:56:31.516             3.188           956.344
       303   13 Jun 2027 10:56:46.964   13 Jun 2027 10:56:54.893             7.929           447.000
       304   13 Jun 2027 10:57:43.440   13 Jun 2027 10:57:48.548             5.108           281.688
       305   13 Jun 2027 10:59:13.013   13 Jun 2027 10:59:16.448             3.435          1717.500
       306   13 Jun 2027 10:59:24.665   13 Jun 2027 10:59:27.576             2.911           584.375
