uniorb/output/strategy_4/Camera/Camera_KinoSat_111308.txt

KinoSat_111308
-------------------------
    Access    *     Start Time (UTCG)     *     Stop Time (UTCG)  *   Duration (s) *   Data (Mbytes)
         1   01 Jun 2027 03:00:00.000   01 Jun 2027 03:00:09.650             9.650          4825.000
         2   01 Jun 2027 03:00:12.057   01 Jun 2027 03:00:39.709            27.652         13826.000
         3   01 Jun 2027 03:01:48.740   01 Jun 2027 03:01:51.327             2.587          1293.500
         4   01 Jun 2027 03:02:16.045   01 Jun 2027 03:02:19.613             3.568          1784.000
         5   01 Jun 2027 03:03:02.562   01 Jun 2027 03:03:02.562             0.000             0.000
         6   01 Jun 2027 03:03:09.986   01 Jun 2027 03:03:26.731            16.745          8372.500
         7   01 Jun 2027 03:04:21.230   01 Jun 2027 03:04:28.110             6.880          3440.000
         8   01 Jun 2027 03:05:07.676   01 Jun 2027 03:05:42.929            35.253         17626.500
         9   01 Jun 2027 04:23:34.973   01 Jun 2027 04:24:22.622            47.649         23824.500
        10   01 Jun 2027 04:35:02.807   01 Jun 2027 04:35:53.877            51.070         25535.000
        11   01 Jun 2027 05:57:42.204   01 Jun 2027 05:58:41.194            58.990         29495.000
        12   01 Jun 2027 05:59:17.909   01 Jun 2027 05:59:49.449            31.540         15770.000
        13   01 Jun 2027 06:00:03.018   01 Jun 2027 06:00:16.963            13.945          6972.500
        14   01 Jun 2027 06:01:56.497   01 Jun 2027 06:02:06.920            10.423          5211.500
        15   01 Jun 2027 07:33:03.192   01 Jun 2027 07:34:00.476            57.284         28642.000
        16   01 Jun 2027 07:34:34.246   01 Jun 2027 07:35:52.443            78.197         39098.500
        17   01 Jun 2027 07:38:57.762   01 Jun 2027 07:39:00.466             2.704          1352.000
        18   01 Jun 2027 09:09:31.637   01 Jun 2027 09:11:47.707           136.070         68035.000
        19   01 Jun 2027 09:15:27.548   01 Jun 2027 09:16:10.896            43.348         21674.000
        20   01 Jun 2027 09:16:14.105   01 Jun 2027 09:16:55.432            41.327         20663.500
        21   01 Jun 2027 09:17:01.773   01 Jun 2027 09:17:01.895             0.122            61.000
        22   01 Jun 2027 10:46:37.213   01 Jun 2027 10:49:05.013           147.800         73900.000
        23   01 Jun 2027 10:50:02.591   01 Jun 2027 10:50:16.478            13.887          6943.500
        24   01 Jun 2027 10:51:21.849   01 Jun 2027 10:51:26.461             4.612          2306.000
        25   01 Jun 2027 10:52:15.006   01 Jun 2027 10:52:26.469            11.463          5731.500
        26   01 Jun 2027 10:52:27.823   01 Jun 2027 10:52:28.338             0.515           257.500
        27   02 Jun 2027 03:10:32.566   02 Jun 2027 03:11:50.327            77.761         38880.500
        28   02 Jun 2027 03:12:10.492   02 Jun 2027 03:12:15.888             5.396          2698.000
        29   02 Jun 2027 03:12:31.938   02 Jun 2027 03:12:31.938             0.000             0.000
        30   02 Jun 2027 03:12:38.920   02 Jun 2027 03:12:40.810             1.890           945.000
        31   02 Jun 2027 03:12:57.765   02 Jun 2027 03:13:03.400             5.635          2817.500
        32   02 Jun 2027 03:13:49.960   02 Jun 2027 03:14:19.308            29.348         14674.000
        33   02 Jun 2027 03:15:41.506   02 Jun 2027 03:15:41.506             0.000             0.000
        34   02 Jun 2027 03:15:56.897   02 Jun 2027 03:16:18.467            21.570         10785.000
        35   02 Jun 2027 03:17:21.885   02 Jun 2027 03:17:22.856             0.971           485.500
        36   02 Jun 2027 04:34:49.928   02 Jun 2027 04:35:15.359            25.431         12715.500
        37   02 Jun 2027 04:47:02.098   02 Jun 2027 04:48:02.006            59.908         29954.000
        38   02 Jun 2027 06:09:18.301   02 Jun 2027 06:10:25.037            66.736         33368.000
        39   02 Jun 2027 06:11:13.874   02 Jun 2027 06:12:54.504           100.630         50315.000
        40   02 Jun 2027 06:14:18.143   02 Jun 2027 06:14:35.407            17.264          8632.000
        41   02 Jun 2027 07:44:12.225   02 Jun 2027 07:46:11.744           119.519         59759.500
        42   02 Jun 2027 07:46:21.258   02 Jun 2027 07:46:30.649             9.391          4695.500
        43   02 Jun 2027 07:47:20.341   02 Jun 2027 07:47:55.029            34.688         17344.000
        44   02 Jun 2027 07:48:03.261   02 Jun 2027 07:48:08.694             5.433          2716.500
        45   02 Jun 2027 07:49:01.315   02 Jun 2027 07:49:30.442            29.127         14563.500
        46   02 Jun 2027 09:21:45.714   02 Jun 2027 09:23:42.588           116.874         57586.406
        47   02 Jun 2027 09:26:35.375   02 Jun 2027 09:26:47.057            11.682          5252.469
        48   02 Jun 2027 09:27:09.334   02 Jun 2027 09:27:14.235             4.901           368.156
        49   02 Jun 2027 09:27:55.510   02 Jun 2027 09:28:01.921             6.411           948.375
        50   02 Jun 2027 09:28:16.251   02 Jun 2027 09:28:17.080             0.829           328.250
        51   02 Jun 2027 09:28:45.646   02 Jun 2027 09:28:48.297             2.651           892.688
        52   02 Jun 2027 10:58:28.191   02 Jun 2027 10:58:41.032            12.841          5432.656
        53   02 Jun 2027 10:59:41.038   02 Jun 2027 10:59:46.889             5.851           195.313
        54   02 Jun 2027 11:00:02.067   02 Jun 2027 11:00:07.375             5.308           317.156
        55   02 Jun 2027 11:01:13.398   02 Jun 2027 11:01:18.545             5.147          2050.000
        56   02 Jun 2027 11:02:35.608   02 Jun 2027 11:02:40.320             4.712           952.125
        57   02 Jun 2027 11:03:24.537   02 Jun 2027 11:03:28.927             4.390          1232.031
        58   02 Jun 2027 11:04:11.031   02 Jun 2027 11:04:13.587             2.556          1147.844
        59   02 Jun 2027 11:04:37.031   02 Jun 2027 11:04:38.712             1.681           683.500
        60   03 Jun 2027 03:22:36.444   03 Jun 2027 03:24:42.385           125.941         62970.500
        61   03 Jun 2027 03:24:48.446   03 Jun 2027 03:25:29.691            41.245         20622.500
        62   03 Jun 2027 03:25:55.785   03 Jun 2027 03:26:08.702            12.917          6458.500
        63   03 Jun 2027 03:26:26.993   03 Jun 2027 03:26:36.681             9.688          4844.000
        64   03 Jun 2027 03:26:47.444   03 Jun 2027 03:27:14.844            27.400         13700.000
        65   03 Jun 2027 03:27:55.955   03 Jun 2027 03:28:01.941             5.986          2993.000
        66   03 Jun 2027 04:46:55.822   03 Jun 2027 04:47:36.694            40.872         20436.000
        67   03 Jun 2027 04:59:16.093   03 Jun 2027 04:59:36.290            20.197         10098.500
        68   03 Jun 2027 06:20:47.822   03 Jun 2027 06:21:42.302            54.480         27240.000
        69   03 Jun 2027 06:21:52.587   03 Jun 2027 06:21:56.997             4.410          1480.250
        70   03 Jun 2027 06:23:07.055   03 Jun 2027 06:23:10.536             3.481          1619.187
        71   03 Jun 2027 06:24:20.573   03 Jun 2027 06:24:24.328             3.755          1825.000
        72   03 Jun 2027 06:25:58.112   03 Jun 2027 06:26:03.441             5.329          2132.281
        73   03 Jun 2027 07:55:42.899   03 Jun 2027 07:55:50.692             7.793          2460.500
        74   03 Jun 2027 07:57:49.763   03 Jun 2027 07:57:55.342             5.579          2077.781
        75   03 Jun 2027 07:58:17.367   03 Jun 2027 07:58:20.931             3.564           292.312
        76   03 Jun 2027 08:00:12.564   03 Jun 2027 08:00:24.405            11.841          2009.562
        77   03 Jun 2027 08:01:49.174   03 Jun 2027 08:01:52.903             3.729           478.719
        78   03 Jun 2027 08:02:44.987   03 Jun 2027 08:02:47.917             2.930          1013.438
        79   03 Jun 2027 08:02:59.220   03 Jun 2027 08:03:00.710             1.490           353.219
        80   03 Jun 2027 08:03:43.961   03 Jun 2027 08:03:47.451             3.490          1242.625
        81   03 Jun 2027 08:04:36.928   03 Jun 2027 08:04:41.068             4.140          1385.156
        82   03 Jun 2027 09:33:39.765   03 Jun 2027 09:33:51.717            11.952          4782.187
        83   03 Jun 2027 09:35:02.356   03 Jun 2027 09:35:04.437             2.081           909.031
        84   03 Jun 2027 09:36:37.649   03 Jun 2027 09:36:42.266             4.617          1608.750
        85   03 Jun 2027 09:37:48.367   03 Jun 2027 09:37:53.483             5.116           942.156
        86   03 Jun 2027 09:39:06.305   03 Jun 2027 09:39:08.593             2.288          1012.813
        87   03 Jun 2027 09:40:01.253   03 Jun 2027 09:40:05.005             3.752          1639.750
        88   03 Jun 2027 09:40:29.436   03 Jun 2027 09:40:32.137             2.701            63.344
        89   03 Jun 2027 09:40:44.469   03 Jun 2027 09:40:45.730             1.261           385.375
        90   03 Jun 2027 11:10:32.031   03 Jun 2027 11:10:33.288             1.257           628.500
        91   03 Jun 2027 11:10:35.423   03 Jun 2027 11:10:40.627             5.204          2602.000
        92   03 Jun 2027 11:11:02.733   03 Jun 2027 11:11:10.684             7.951          2259.000
        93   03 Jun 2027 11:12:26.188   03 Jun 2027 11:12:28.372             2.184           563.469
        94   03 Jun 2027 11:14:33.142   03 Jun 2027 11:14:37.328             4.186          1490.750
        95   03 Jun 2027 11:15:26.413   03 Jun 2027 11:15:30.540             4.127           847.625
        96   03 Jun 2027 11:16:34.617   03 Jun 2027 11:16:40.915             6.298          1849.719
        97   04 Jun 2027 03:35:02.621   04 Jun 2027 03:38:38.979           216.358        108179.000
        98   04 Jun 2027 03:39:17.093   04 Jun 2027 03:39:56.934            39.841         19920.500
        99   04 Jun 2027 04:59:01.195   04 Jun 2027 04:59:17.654            16.459          8229.500
       100   04 Jun 2027 06:34:51.149   04 Jun 2027 06:35:59.266            68.117         32841.281
       101   04 Jun 2027 06:36:30.098   04 Jun 2027 06:36:31.799             1.701           775.062
       102   04 Jun 2027 06:37:58.425   04 Jun 2027 06:38:06.377             7.952          1830.250
       103   04 Jun 2027 08:08:36.816   04 Jun 2027 08:08:40.789             3.973          1986.500
       104   04 Jun 2027 08:09:53.035   04 Jun 2027 08:10:00.445             7.410          2742.281
       105   04 Jun 2027 08:10:57.249   04 Jun 2027 08:11:00.076             2.827          1139.188
       106   04 Jun 2027 08:11:34.194   04 Jun 2027 08:11:40.406             6.212           908.469
       107   04 Jun 2027 08:12:28.507   04 Jun 2027 08:12:30.997             2.490           905.094
       108   04 Jun 2027 08:13:52.211   04 Jun 2027 08:13:54.432             2.221           597.500
       109   04 Jun 2027 08:15:13.095   04 Jun 2027 08:15:13.095             0.000             0.000
       110   04 Jun 2027 08:15:31.332   04 Jun 2027 08:15:36.866             5.534          2421.000
       111   04 Jun 2027 08:16:29.258   04 Jun 2027 08:16:34.237             4.979          1497.063
       112   04 Jun 2027 08:17:09.724   04 Jun 2027 08:17:10.367             0.643            17.156
       113   04 Jun 2027 09:46:00.341   04 Jun 2027 09:46:09.365             9.024          4314.344
       114   04 Jun 2027 09:48:11.038   04 Jun 2027 09:48:14.379             3.341          1521.594
       115   04 Jun 2027 09:48:15.285   04 Jun 2027 09:48:15.789             0.504            28.312
       116   04 Jun 2027 09:50:06.286   04 Jun 2027 09:50:08.795             2.509           771.250
       117   04 Jun 2027 09:51:13.939   04 Jun 2027 09:51:15.924             1.985            93.594
       118   04 Jun 2027 09:52:30.415   04 Jun 2027 09:52:34.129             3.714           779.250
       119   04 Jun 2027 09:52:43.843   04 Jun 2027 09:52:45.381             1.538           303.563
       120   04 Jun 2027 09:52:56.122   04 Jun 2027 09:52:57.657             1.535            59.719
       121   04 Jun 2027 11:23:04.561   04 Jun 2027 11:23:17.755            13.194          6483.156
       122   04 Jun 2027 11:24:11.792   04 Jun 2027 11:24:17.609             5.817           943.156
       123   04 Jun 2027 11:25:21.788   04 Jun 2027 11:25:26.413             4.625           755.313
       124   04 Jun 2027 11:26:24.270   04 Jun 2027 11:26:30.127             5.857          1785.719
       125   04 Jun 2027 11:26:34.252   04 Jun 2027 11:26:34.709             0.457           128.906
       126   04 Jun 2027 11:27:21.871   04 Jun 2027 11:27:27.421             5.550           588.938
       127   04 Jun 2027 11:27:28.110   04 Jun 2027 11:27:28.567             0.457            21.531
       128   04 Jun 2027 11:28:02.852   04 Jun 2027 11:28:06.950             4.098           657.719
       129   04 Jun 2027 11:28:35.127   04 Jun 2027 11:28:39.184             4.057           644.625
       130   05 Jun 2027 03:47:21.527   05 Jun 2027 03:50:10.268           168.741         84370.500
       131   05 Jun 2027 03:50:42.345   05 Jun 2027 03:50:55.708            13.363          6681.500
       132   05 Jun 2027 05:10:43.521   05 Jun 2027 05:11:42.206            58.685         29342.500
       133   05 Jun 2027 06:47:05.569   05 Jun 2027 06:48:21.670            76.101         37988.719
       134   05 Jun 2027 06:48:51.636   05 Jun 2027 06:48:58.332             6.696           863.438
       135   05 Jun 2027 06:49:19.917   05 Jun 2027 06:49:22.684             2.767           420.344
       136   05 Jun 2027 06:49:44.316   05 Jun 2027 06:49:45.973             1.657           583.219
       137   05 Jun 2027 06:50:10.987   05 Jun 2027 06:50:10.987             0.000             0.000
       138   05 Jun 2027 08:21:09.579   05 Jun 2027 08:21:19.343             9.764          2563.156
       139   05 Jun 2027 08:22:54.420   05 Jun 2027 08:22:56.419             1.999           999.500
       140   05 Jun 2027 08:23:05.164   05 Jun 2027 08:23:07.679             2.515          1088.031
       141   05 Jun 2027 08:24:01.388   05 Jun 2027 08:24:05.991             4.603          1442.875
       142   05 Jun 2027 08:24:57.175   05 Jun 2027 08:25:02.491             5.316           904.750
       143   05 Jun 2027 08:25:55.102   05 Jun 2027 08:25:56.690             1.588           735.281
       144   05 Jun 2027 08:27:38.951   05 Jun 2027 08:27:45.626             6.675          2626.437
       145   05 Jun 2027 08:27:53.252   05 Jun 2027 08:27:53.867             0.615           220.125
       146   05 Jun 2027 08:28:42.491   05 Jun 2027 08:28:47.361             4.870           348.156
       147   05 Jun 2027 08:28:58.311   05 Jun 2027 08:28:58.311             0.000             0.000
       148   05 Jun 2027 08:29:05.700   05 Jun 2027 08:29:07.085             1.385           283.281
       149   05 Jun 2027 09:58:14.154   05 Jun 2027 09:58:24.488            10.334          5131.687
       150   05 Jun 2027 10:00:39.924   05 Jun 2027 10:00:41.531             1.607           176.344
       151   05 Jun 2027 10:00:49.747   05 Jun 2027 10:00:51.562             1.815           202.187
       152   05 Jun 2027 10:02:27.543   05 Jun 2027 10:02:31.664             4.121          1031.844
       153   05 Jun 2027 10:02:33.597   05 Jun 2027 10:02:35.640             2.043            40.406
       154   05 Jun 2027 10:02:57.740   05 Jun 2027 10:02:59.270             1.530           503.500
       155   05 Jun 2027 10:03:46.238   05 Jun 2027 10:03:52.414             6.176          1343.125
       156   05 Jun 2027 10:03:57.622   05 Jun 2027 10:04:03.817             6.195           162.750
       157   05 Jun 2027 10:04:21.318   05 Jun 2027 10:04:23.615             2.297           220.031
       158   05 Jun 2027 10:04:34.935   05 Jun 2027 10:04:38.229             3.294           295.844
       159   05 Jun 2027 11:35:10.159   05 Jun 2027 11:35:24.909            14.750          6491.937
       160   05 Jun 2027 11:38:33.626   05 Jun 2027 11:38:36.226             2.600           397.719
       161   05 Jun 2027 11:38:47.856   05 Jun 2027 11:38:52.271             4.415           363.438
       162   05 Jun 2027 11:38:59.463   05 Jun 2027 11:39:04.034             4.571           115.531
       163   05 Jun 2027 11:39:35.985   05 Jun 2027 11:39:42.911             6.926           676.563
       164   06 Jun 2027 03:59:50.265   06 Jun 2027 04:01:30.337           100.072         50036.000
       165   06 Jun 2027 04:02:44.237   06 Jun 2027 04:03:37.361            53.124         26562.000
       166   06 Jun 2027 05:22:47.120   06 Jun 2027 05:23:37.741            50.621         25310.500
       167   06 Jun 2027 06:59:16.249   06 Jun 2027 07:00:58.259           102.010         50826.875
       168   06 Jun 2027 07:01:07.318   06 Jun 2027 07:01:08.177             0.859           250.500
       169   06 Jun 2027 07:01:46.203   06 Jun 2027 07:01:49.582             3.379           852.750
       170   06 Jun 2027 07:02:15.643   06 Jun 2027 07:02:18.230             2.587           778.781
       171   06 Jun 2027 08:34:21.216   06 Jun 2027 08:34:30.831             9.615          4309.094
       172   06 Jun 2027 08:34:56.254   06 Jun 2027 08:34:57.262             1.008           196.656
       173   06 Jun 2027 08:35:36.603   06 Jun 2027 08:35:39.578             2.975            95.500
       174   06 Jun 2027 08:36:44.696   06 Jun 2027 08:36:47.432             2.736          1306.156
       175   06 Jun 2027 08:37:57.806   06 Jun 2027 08:38:00.450             2.644           895.562
       176   06 Jun 2027 08:38:31.002   06 Jun 2027 08:38:35.853             4.851           843.469
       177   06 Jun 2027 08:39:07.516   06 Jun 2027 08:39:08.022             0.506            64.125
       178   06 Jun 2027 08:39:25.086   06 Jun 2027 08:39:26.950             1.864            87.969
       179   06 Jun 2027 08:40:24.013   06 Jun 2027 08:40:26.909             2.896          1167.344
       180   06 Jun 2027 08:40:47.455   06 Jun 2027 08:40:47.800             0.345            59.406
       181   06 Jun 2027 08:41:00.193   06 Jun 2027 08:41:01.806             1.613            43.375
       182   06 Jun 2027 10:10:43.204   06 Jun 2027 10:10:53.184             9.980          4846.500
       183   06 Jun 2027 10:12:49.997   06 Jun 2027 10:12:52.355             2.358           842.500
       184   06 Jun 2027 10:13:37.163   06 Jun 2027 10:13:38.505             1.342           272.938
       185   06 Jun 2027 10:13:58.898   06 Jun 2027 10:14:08.526             9.628           297.125
       186   06 Jun 2027 10:14:47.222   06 Jun 2027 10:14:50.863             3.641           873.406
       187   06 Jun 2027 10:16:11.584   06 Jun 2027 10:16:20.119             8.535          1412.844
       188   06 Jun 2027 11:48:13.451   06 Jun 2027 11:48:25.678            12.227          5842.031
       189   06 Jun 2027 11:50:00.652   06 Jun 2027 11:50:02.453             1.801           522.781
       190   06 Jun 2027 11:50:44.557   06 Jun 2027 11:50:47.733             3.176          1170.437
       191   06 Jun 2027 11:51:23.846   06 Jun 2027 11:51:26.496             2.650          1128.531
       192   06 Jun 2027 11:52:10.560   06 Jun 2027 11:52:13.891             3.331          1377.000
       193   07 Jun 2027 04:11:23.803   07 Jun 2027 04:12:00.710            36.907         18453.500
       194   07 Jun 2027 04:12:13.352   07 Jun 2027 04:13:40.468            87.116         43558.000
       195   07 Jun 2027 05:34:43.268   07 Jun 2027 05:35:56.280            73.012         36506.000
       196   07 Jun 2027 07:11:21.046   07 Jun 2027 07:13:34.777           133.731         66346.844
       197   07 Jun 2027 08:46:31.458   07 Jun 2027 08:46:42.953            11.495          4421.500
       198   07 Jun 2027 08:46:45.806   07 Jun 2027 08:46:47.148             1.342            48.562
       199   07 Jun 2027 08:48:19.537   07 Jun 2027 08:48:23.292             3.755           484.906
       200   07 Jun 2027 08:49:25.627   07 Jun 2027 08:49:27.817             2.190           893.906
       201   07 Jun 2027 08:50:00.304   07 Jun 2027 08:50:05.311             5.007           812.656
       202   07 Jun 2027 08:50:39.462   07 Jun 2027 08:50:42.890             3.428          1024.781
       203   07 Jun 2027 08:50:57.917   07 Jun 2027 08:50:59.267             1.350           244.375
       204   07 Jun 2027 08:51:24.866   07 Jun 2027 08:51:26.249             1.383           119.906
       205   07 Jun 2027 08:52:38.073   07 Jun 2027 08:52:42.736             4.663          1609.875
       206   07 Jun 2027 10:22:45.733   07 Jun 2027 10:22:56.314            10.581          4610.437
       207   07 Jun 2027 10:25:04.481   07 Jun 2027 10:25:06.577             2.096            26.000
       208   07 Jun 2027 10:25:15.647   07 Jun 2027 10:25:17.167             1.520            39.125
       209   07 Jun 2027 10:26:06.686   07 Jun 2027 10:26:09.622             2.936          1138.656
       210   07 Jun 2027 10:27:00.588   07 Jun 2027 10:27:06.538             5.950           259.688
       211   07 Jun 2027 10:27:55.535   07 Jun 2027 10:28:02.129             6.594           756.125
       212   08 Jun 2027 04:12:32.087   08 Jun 2027 04:12:42.549            10.462          5231.000
       213   08 Jun 2027 04:12:46.921   08 Jun 2027 04:12:46.928             0.007             3.500
       214   08 Jun 2027 04:23:20.734   08 Jun 2027 04:25:30.434           129.700         64850.000
       215   08 Jun 2027 04:26:25.825   08 Jun 2027 04:26:25.825             0.000             0.000
       216   08 Jun 2027 04:26:47.830   08 Jun 2027 04:26:57.113             9.283          4641.500
       217   08 Jun 2027 05:47:19.205   08 Jun 2027 05:48:05.355            46.150         23075.000
       218   08 Jun 2027 05:49:44.152   08 Jun 2027 05:49:44.152             0.000             0.000
       219   08 Jun 2027 07:23:04.851   08 Jun 2027 07:25:11.828           126.977         62142.656
       220   08 Jun 2027 07:25:38.947   08 Jun 2027 07:25:40.529             1.582           764.625
       221   08 Jun 2027 07:25:49.034   08 Jun 2027 07:25:50.749             1.715           230.813
       222   08 Jun 2027 07:27:08.583   08 Jun 2027 07:27:18.621            10.038          2326.063
       223   08 Jun 2027 08:57:55.725   08 Jun 2027 08:58:01.403             5.678          2178.813
       224   08 Jun 2027 08:58:44.015   08 Jun 2027 08:58:47.372             3.357          1206.844
       225   08 Jun 2027 09:01:17.525   08 Jun 2027 09:01:23.720             6.195          2257.094
       226   08 Jun 2027 09:02:21.619   08 Jun 2027 09:02:28.525             6.906          1525.531
       227   08 Jun 2027 09:02:53.397   08 Jun 2027 09:02:55.092             1.695           550.219
       228   08 Jun 2027 09:03:27.909   08 Jun 2027 09:03:30.918             3.009           149.781
       229   08 Jun 2027 09:03:50.395   08 Jun 2027 09:03:52.106             1.711           473.437
       230   08 Jun 2027 09:05:13.384   08 Jun 2027 09:05:17.744             4.360          2099.469
       231   08 Jun 2027 10:34:31.619   08 Jun 2027 10:34:47.521            15.902          7287.250
       232   08 Jun 2027 10:36:49.043   08 Jun 2027 10:36:50.212             1.169           364.219
       233   08 Jun 2027 10:37:13.689   08 Jun 2027 10:37:14.002             0.313           124.125
       234   08 Jun 2027 10:37:31.219   08 Jun 2027 10:37:34.272             3.053           538.031
       235   08 Jun 2027 10:37:48.017   08 Jun 2027 10:37:49.266             1.249           429.531
       236   08 Jun 2027 10:38:38.259   08 Jun 2027 10:38:43.278             5.019          1351.062
       237   08 Jun 2027 10:39:06.966   08 Jun 2027 10:39:09.437             2.471           700.563
       238   08 Jun 2027 10:39:44.167   08 Jun 2027 10:39:50.821             6.654           376.938
       239   08 Jun 2027 10:40:22.035   08 Jun 2027 10:40:26.290             4.255           975.437
       240   08 Jun 2027 10:40:30.886   08 Jun 2027 10:40:31.582             0.696           126.219
       241   08 Jun 2027 10:40:53.220   08 Jun 2027 10:40:55.395             2.175           362.250
       242   09 Jun 2027 03:00:00.000   09 Jun 2027 03:00:53.155            53.155         26577.500
       243   09 Jun 2027 03:03:42.635   09 Jun 2027 03:04:05.862            23.227         11613.500
       244   09 Jun 2027 03:05:17.557   09 Jun 2027 03:05:17.557             0.000             0.000
       245   09 Jun 2027 03:05:24.338   09 Jun 2027 03:05:59.637            35.299         17649.500
       246   09 Jun 2027 04:23:48.617   09 Jun 2027 04:24:37.835            49.218         24609.000
       247   09 Jun 2027 04:35:18.879   09 Jun 2027 04:36:20.502            61.623         30811.500
       248   09 Jun 2027 04:36:50.313   09 Jun 2027 04:36:50.313             0.000             0.000
       249   09 Jun 2027 04:36:54.705   09 Jun 2027 04:36:57.026             2.321          1160.500
       250   09 Jun 2027 05:57:58.098   09 Jun 2027 05:58:56.925            58.827         29413.500
       251   09 Jun 2027 05:59:51.485   09 Jun 2027 06:00:05.109            13.624          6812.000
       252   09 Jun 2027 06:00:34.268   09 Jun 2027 06:00:50.585            16.317          8158.500
       253   09 Jun 2027 06:01:51.011   09 Jun 2027 06:01:53.644             2.633          1316.500
       254   09 Jun 2027 07:33:15.663   09 Jun 2027 07:34:17.362            61.699         30849.500
       255   09 Jun 2027 07:34:49.603   09 Jun 2027 07:35:04.374            14.771          6787.938
       256   09 Jun 2027 07:35:10.559   09 Jun 2027 07:35:10.681             0.122            33.438
       257   09 Jun 2027 07:36:09.820   09 Jun 2027 07:36:14.967             5.147           980.563
       258   09 Jun 2027 07:37:41.361   09 Jun 2027 07:37:46.579             5.218          2260.969
       259   09 Jun 2027 07:38:14.286   09 Jun 2027 07:38:17.918             3.632           865.844
       260   09 Jun 2027 07:38:45.906   09 Jun 2027 07:38:49.110             3.204           840.031
       261   09 Jun 2027 07:39:16.636   09 Jun 2027 07:39:17.932             1.296            72.875
       262   09 Jun 2027 09:09:49.087   09 Jun 2027 09:09:58.614             9.527          3694.563
       263   09 Jun 2027 09:10:44.651   09 Jun 2027 09:10:51.736             7.085          1143.594
       264   09 Jun 2027 09:13:14.106   09 Jun 2027 09:13:16.701             2.595           286.812
       265   09 Jun 2027 09:14:24.563   09 Jun 2027 09:14:28.883             4.320          1731.125
       266   09 Jun 2027 09:15:05.088   09 Jun 2027 09:15:08.214             3.126           278.063
       267   09 Jun 2027 09:16:08.479   09 Jun 2027 09:16:12.460             3.981          1377.875
       268   09 Jun 2027 09:16:21.364   09 Jun 2027 09:16:22.013             0.649           159.062
       269   09 Jun 2027 09:16:29.325   09 Jun 2027 09:16:30.367             1.042            23.687
       270   09 Jun 2027 09:17:17.958   09 Jun 2027 09:17:18.274             0.316           158.000
       271   09 Jun 2027 10:46:52.884   09 Jun 2027 10:47:06.481            13.597          5969.187
       272   09 Jun 2027 10:49:49.307   09 Jun 2027 10:49:52.336             3.029           870.250
       273   09 Jun 2027 10:50:40.190   09 Jun 2027 10:50:43.379             3.189          1423.375
       274   09 Jun 2027 10:51:00.888   09 Jun 2027 10:51:02.157             1.269           228.125
       275   09 Jun 2027 10:51:38.938   09 Jun 2027 10:51:41.156             2.218           707.688
       276   09 Jun 2027 10:52:21.716   09 Jun 2027 10:52:26.117             4.401           923.250
       277   09 Jun 2027 10:52:53.589   09 Jun 2027 10:53:00.201             6.612           772.594
       278   10 Jun 2027 03:10:48.879   10 Jun 2027 03:12:26.376            97.497         48748.500
       279   10 Jun 2027 03:12:32.812   10 Jun 2027 03:12:56.772            23.960         11980.000
       280   10 Jun 2027 03:13:55.813   10 Jun 2027 03:13:56.693             0.880           440.000
       281   10 Jun 2027 03:14:42.766   10 Jun 2027 03:15:36.057            53.291         26645.500
       282   10 Jun 2027 03:16:08.806   10 Jun 2027 03:16:12.520             3.714          1857.000
       283   10 Jun 2027 03:16:32.985   10 Jun 2027 03:16:53.691            20.706         10353.000
       284   10 Jun 2027 04:35:05.576   10 Jun 2027 04:35:29.911            24.335         12167.500
       285   10 Jun 2027 04:35:49.652   10 Jun 2027 04:36:02.290            12.638          6319.000
       286   10 Jun 2027 04:47:18.114   10 Jun 2027 04:48:16.832            58.718         29359.000
       287   10 Jun 2027 06:09:33.947   10 Jun 2027 06:10:27.756            53.809         26904.500
       288   10 Jun 2027 06:10:30.593   10 Jun 2027 06:10:30.593             0.000             0.000
       289   10 Jun 2027 06:10:37.660   10 Jun 2027 06:10:40.377             2.717           699.687
       290   10 Jun 2027 06:11:33.180   10 Jun 2027 06:11:35.192             2.012          1006.000
       291   10 Jun 2027 06:11:53.259   10 Jun 2027 06:11:58.041             4.782          1172.719
       292   10 Jun 2027 06:12:18.891   10 Jun 2027 06:12:23.209             4.318           651.563
       293   10 Jun 2027 06:12:34.542   10 Jun 2027 06:12:35.382             0.840           200.656
       294   10 Jun 2027 06:13:22.725   10 Jun 2027 06:13:22.725             0.000             0.000
       295   10 Jun 2027 06:14:13.759   10 Jun 2027 06:14:25.218            11.459          3052.625
       296   10 Jun 2027 07:44:27.038   10 Jun 2027 07:44:32.257             5.219          2349.313
       297   10 Jun 2027 07:45:03.281   10 Jun 2027 07:45:10.516             7.235           820.875
       298   10 Jun 2027 07:46:06.207   10 Jun 2027 07:46:11.411             5.204           948.219
       299   10 Jun 2027 07:46:37.175   10 Jun 2027 07:46:39.631             2.456           597.406
       300   10 Jun 2027 07:47:35.905   10 Jun 2027 07:47:39.074             3.169          1513.219
       301   10 Jun 2027 07:48:12.388   10 Jun 2027 07:48:14.873             2.485           840.063
       302   10 Jun 2027 07:48:39.727   10 Jun 2027 07:48:47.312             7.585           691.781
       303   10 Jun 2027 07:50:04.005   10 Jun 2027 07:50:05.055             1.050           429.594
       304   10 Jun 2027 07:50:28.860   10 Jun 2027 07:50:32.735             3.875           191.750
       305   10 Jun 2027 07:51:31.405   10 Jun 2027 07:51:34.861             3.456          1697.469
       306   10 Jun 2027 07:52:30.017   10 Jun 2027 07:52:34.580             4.563           907.906
       307   10 Jun 2027 09:22:01.300   10 Jun 2027 09:22:10.495             9.195          3654.312
       308   10 Jun 2027 09:22:47.801   10 Jun 2027 09:22:51.738             3.937          1165.812
       309   10 Jun 2027 09:24:11.371   10 Jun 2027 09:24:12.879             1.508           418.406
       310   10 Jun 2027 09:25:44.454   10 Jun 2027 09:25:48.842             4.388          1226.813
       311   10 Jun 2027 09:26:06.161   10 Jun 2027 09:26:07.178             1.017           412.188
       312   10 Jun 2027 09:26:28.193   10 Jun 2027 09:26:30.624             2.431           368.156
       313   10 Jun 2027 09:27:41.817   10 Jun 2027 09:27:47.539             5.722          1503.125
       314   10 Jun 2027 09:28:30.963   10 Jun 2027 09:28:32.828             1.865            28.000
       315   10 Jun 2027 09:28:58.844   10 Jun 2027 09:29:01.136             2.292            26.000
       316   10 Jun 2027 09:29:17.093   10 Jun 2027 09:29:17.702             0.609            91.156
       317   10 Jun 2027 10:58:44.095   10 Jun 2027 10:58:58.997            14.902          6838.156
       318   10 Jun 2027 10:59:52.274   10 Jun 2027 10:59:56.705             4.431          1488.656
       319   10 Jun 2027 11:00:24.597   10 Jun 2027 11:00:26.355             1.758           867.219
       320   10 Jun 2027 11:03:01.450   10 Jun 2027 11:03:04.467             3.017          1295.156
       321   10 Jun 2027 11:03:35.441   10 Jun 2027 11:03:37.690             2.249           833.188
       322   10 Jun 2027 11:04:11.629   10 Jun 2027 11:04:17.664             6.035           939.406
       323   10 Jun 2027 11:04:51.265   10 Jun 2027 11:04:54.270             3.005           807.844
       324   10 Jun 2027 11:05:16.022   10 Jun 2027 11:05:20.066             4.044           679.750
       325   11 Jun 2027 03:22:53.442   11 Jun 2027 03:25:45.296           171.854         85927.000
       326   11 Jun 2027 03:26:15.609   11 Jun 2027 03:26:51.605            35.996         17998.000
       327   11 Jun 2027 03:27:28.722   11 Jun 2027 03:27:38.439             9.717          4858.500
       328   11 Jun 2027 03:28:54.361   11 Jun 2027 03:28:56.982             2.621          1310.500
       329   11 Jun 2027 03:29:36.091   11 Jun 2027 03:29:47.068            10.977          5488.500
       330   11 Jun 2027 04:47:11.243   11 Jun 2027 04:47:23.806            12.563          6281.500
       331   11 Jun 2027 04:47:52.519   11 Jun 2027 04:48:03.699            11.180          5590.000
       332   11 Jun 2027 04:59:33.260   11 Jun 2027 04:59:51.368            18.108          9054.000
       333   11 Jun 2027 06:21:02.742   11 Jun 2027 06:21:59.000            56.258         28098.063
       334   11 Jun 2027 06:22:09.353   11 Jun 2027 06:22:10.802             1.449           323.531
       335   11 Jun 2027 06:23:23.472   11 Jun 2027 06:23:26.289             2.817          1177.000
       336   11 Jun 2027 06:23:39.283   11 Jun 2027 06:23:45.942             6.659           379.906
       337   11 Jun 2027 06:23:54.739   11 Jun 2027 06:23:56.187             1.448           274.906
       338   11 Jun 2027 06:24:08.993   11 Jun 2027 06:24:13.025             4.032           400.188
       339   11 Jun 2027 06:25:20.096   11 Jun 2027 06:25:23.744             3.648          1389.156
       340   11 Jun 2027 06:25:49.287   11 Jun 2027 06:25:49.287             0.000             0.000
       341   11 Jun 2027 06:25:56.234   11 Jun 2027 06:25:58.906             2.672           243.094
       342   11 Jun 2027 06:26:25.109   11 Jun 2027 06:26:26.995             1.886           818.844
       343   11 Jun 2027 07:55:57.464   11 Jun 2027 07:56:04.901             7.437          2190.531
       344   11 Jun 2027 07:56:24.792   11 Jun 2027 07:56:27.612             2.820           183.281
       345   11 Jun 2027 07:58:08.008   11 Jun 2027 07:58:16.692             8.684          2143.469
       346   11 Jun 2027 07:58:35.447   11 Jun 2027 07:58:37.308             1.861           278.500
       347   11 Jun 2027 07:58:59.444   11 Jun 2027 07:59:01.140             1.696           221.500
       348   11 Jun 2027 08:00:29.703   11 Jun 2027 08:00:40.413            10.710          1964.031
       349   11 Jun 2027 08:01:50.096   11 Jun 2027 08:02:00.627            10.531          2144.406
       350   11 Jun 2027 08:02:57.098   11 Jun 2027 08:03:01.278             4.180          1560.875
       351   11 Jun 2027 08:03:03.591   11 Jun 2027 08:03:08.235             4.644            20.750
       352   11 Jun 2027 08:03:21.138   11 Jun 2027 08:03:22.721             1.583           162.750
       353   11 Jun 2027 08:04:26.777   11 Jun 2027 08:04:33.892             7.115           717.000
       354   11 Jun 2027 08:04:53.456   11 Jun 2027 08:04:54.871             1.415           611.375
       355   11 Jun 2027 09:33:55.467   11 Jun 2027 09:34:06.883            11.416          5005.781
       356   11 Jun 2027 09:34:53.537   11 Jun 2027 09:34:59.286             5.749          1319.500
       357   11 Jun 2027 09:38:03.678   11 Jun 2027 09:38:07.409             3.731           904.156
       358   11 Jun 2027 09:38:18.800   11 Jun 2027 09:38:21.967             3.167           355.969
       359   11 Jun 2027 09:39:23.756   11 Jun 2027 09:39:29.964             6.208          1048.375
       360   11 Jun 2027 09:40:41.899   11 Jun 2027 09:40:47.868             5.969           868.406
       361   11 Jun 2027 09:40:48.188   11 Jun 2027 09:40:51.581             3.393            10.000
       362   11 Jun 2027 11:10:50.528   11 Jun 2027 11:11:04.687            14.159          5621.719
       363   11 Jun 2027 11:12:25.175   11 Jun 2027 11:12:31.997             6.822           911.312
       364   11 Jun 2027 11:13:28.077   11 Jun 2027 11:13:34.680             6.603          1338.688
       365   11 Jun 2027 11:14:00.090   11 Jun 2027 11:14:01.545             1.455           658.156
       366   11 Jun 2027 11:14:40.281   11 Jun 2027 11:14:43.777             3.496          1210.500
       367   11 Jun 2027 11:15:16.475   11 Jun 2027 11:15:21.542             5.067           835.656
       368   11 Jun 2027 11:15:50.107   11 Jun 2027 11:15:52.010             1.903           463.094
       369   11 Jun 2027 11:15:56.141   11 Jun 2027 11:15:56.599             0.458           129.094
       370   11 Jun 2027 11:16:33.016   11 Jun 2027 11:16:35.427             2.411           855.156
       371   11 Jun 2027 11:17:05.679   11 Jun 2027 11:17:14.247             8.568           490.344
       372   11 Jun 2027 11:17:19.434   11 Jun 2027 11:17:20.287             0.853           162.094
       373   12 Jun 2027 03:35:19.018   12 Jun 2027 03:36:33.223            74.205         37102.500
       374   12 Jun 2027 03:37:03.859   12 Jun 2027 03:39:20.837           136.978         68489.000
       375   12 Jun 2027 03:40:11.437   12 Jun 2027 03:40:18.668             7.231          3615.500
       376   12 Jun 2027 04:59:07.057   12 Jun 2027 04:59:32.747            25.690         12845.000
       377   12 Jun 2027 06:35:07.271   12 Jun 2027 06:36:34.044            86.773         42680.750
       378   12 Jun 2027 06:36:39.622   12 Jun 2027 06:36:43.622             4.000           174.313
       379   12 Jun 2027 06:37:34.475   12 Jun 2027 06:37:37.982             3.507          1517.594
       380   12 Jun 2027 06:37:58.580   12 Jun 2027 06:37:59.794             1.214           406.406
       381   12 Jun 2027 06:38:24.885   12 Jun 2027 06:38:27.143             2.258           784.094
       382   12 Jun 2027 08:08:51.337   12 Jun 2027 08:08:57.921             6.584          1888.594
       383   12 Jun 2027 08:10:09.625   12 Jun 2027 08:10:15.827             6.202          2240.750
       384   12 Jun 2027 08:11:14.399   12 Jun 2027 08:11:17.250             2.851          1146.375
       385   12 Jun 2027 08:11:51.176   12 Jun 2027 08:11:54.465             3.289           913.313
       386   12 Jun 2027 08:12:45.755   12 Jun 2027 08:12:49.404             3.649           903.156
       387   12 Jun 2027 08:14:10.170   12 Jun 2027 08:14:13.735             3.565           652.469
       388   12 Jun 2027 08:15:32.069   12 Jun 2027 08:15:39.255             7.186          1888.281
       389   12 Jun 2027 08:15:58.286   12 Jun 2027 08:16:02.118             3.832           449.406
       390   12 Jun 2027 08:16:46.553   12 Jun 2027 08:17:02.861            16.308          1385.063
       391   12 Jun 2027 09:46:16.866   12 Jun 2027 09:46:29.007            12.141          4947.844
       392   12 Jun 2027 09:48:36.471   12 Jun 2027 09:48:41.902             5.431          1104.187
       393   12 Jun 2027 09:51:22.503   12 Jun 2027 09:51:27.567             5.064          2284.719
       394   12 Jun 2027 09:52:19.831   12 Jun 2027 09:52:29.443             9.612          1516.156
       395   12 Jun 2027 09:53:02.180   12 Jun 2027 09:53:03.511             1.331           498.188
       396   12 Jun 2027 09:53:19.354   12 Jun 2027 09:53:21.267             1.913           290.281
       397   12 Jun 2027 11:23:20.406   12 Jun 2027 11:23:33.460            13.054          5827.250
       398   12 Jun 2027 11:24:29.035   12 Jun 2027 11:24:33.900             4.865           939.469
       399   12 Jun 2027 11:26:17.394   12 Jun 2027 11:26:21.225             3.831          1894.344
       400   12 Jun 2027 11:27:06.239   12 Jun 2027 11:27:10.109             3.870           478.187
       401   12 Jun 2027 11:27:17.984   12 Jun 2027 11:27:18.741             0.757           246.094
       402   12 Jun 2027 11:27:58.933   12 Jun 2027 11:28:04.413             5.480          1118.688
       403   12 Jun 2027 11:28:35.089   12 Jun 2027 11:28:37.161             2.072           525.875
       404   12 Jun 2027 11:29:10.282   12 Jun 2027 11:29:10.827             0.545           272.500
       405   13 Jun 2027 03:47:37.445   13 Jun 2027 03:50:58.418           200.973        100486.500
       406   13 Jun 2027 05:10:58.646   13 Jun 2027 05:11:58.017            59.371         29685.500
       407   13 Jun 2027 06:47:21.951   13 Jun 2027 06:48:34.854            72.903         35548.500
       408   13 Jun 2027 06:50:14.527   13 Jun 2027 06:50:21.025             6.498          2913.781
       409   13 Jun 2027 08:21:26.485   13 Jun 2027 08:21:32.681             6.196          1819.625
       410   13 Jun 2027 08:22:14.586   13 Jun 2027 08:22:16.370             1.784           152.594
       411   13 Jun 2027 08:23:20.532   13 Jun 2027 08:23:21.191             0.659           281.219
       412   13 Jun 2027 08:24:18.676   13 Jun 2027 08:24:22.401             3.725          1441.625
       413   13 Jun 2027 08:25:18.710   13 Jun 2027 08:25:20.963             2.253           928.594
       414   13 Jun 2027 08:26:13.042   13 Jun 2027 08:26:16.550             3.508           791.250
       415   13 Jun 2027 08:26:48.986   13 Jun 2027 08:26:50.380             1.394           328.125
       416   13 Jun 2027 08:28:10.549   13 Jun 2027 08:28:11.226             0.677           232.125
       417   13 Jun 2027 08:28:46.237   13 Jun 2027 08:28:46.973             0.736           158.938
       418   13 Jun 2027 08:28:59.966   13 Jun 2027 08:29:04.540             4.574           355.438
       419   13 Jun 2027 08:29:13.472   13 Jun 2027 08:29:13.472             0.000             0.000
       420   13 Jun 2027 08:29:21.438   13 Jun 2027 08:29:22.519             1.081           298.094
       421   13 Jun 2027 09:58:29.862   13 Jun 2027 09:58:45.022            15.160          6138.438
       422   13 Jun 2027 10:01:00.299   13 Jun 2027 10:01:02.811             2.512           324.156
       423   13 Jun 2027 10:01:42.237   13 Jun 2027 10:01:49.520             7.283           554.031
       424   13 Jun 2027 10:02:41.647   13 Jun 2027 10:02:46.310             4.663           969.281
       425   13 Jun 2027 10:02:48.860   13 Jun 2027 10:02:50.051             1.191            40.969
       426   13 Jun 2027 10:03:18.237   13 Jun 2027 10:03:19.576             1.339           625.062
       427   13 Jun 2027 10:03:37.904   13 Jun 2027 10:03:40.768             2.864           572.750
       428   13 Jun 2027 10:04:35.464   13 Jun 2027 10:04:38.759             3.295          1488.375
       429   13 Jun 2027 10:04:50.101   13 Jun 2027 10:04:53.927             3.826           221.719
       430   13 Jun 2027 11:35:26.495   13 Jun 2027 11:35:40.465            13.970          6190.937
       431   13 Jun 2027 11:36:48.674   13 Jun 2027 11:36:50.953             2.279           924.500
       432   13 Jun 2027 11:37:50.823   13 Jun 2027 11:37:55.430             4.607           982.312
       433   13 Jun 2027 11:38:48.845   13 Jun 2027 11:38:52.918             4.073           369.031
       434   13 Jun 2027 11:39:05.744   13 Jun 2027 11:39:08.925             3.181           400.813
       435   13 Jun 2027 11:39:15.510   13 Jun 2027 11:39:18.612             3.102           105.625
       436   13 Jun 2027 11:39:53.200   13 Jun 2027 11:39:58.213             5.013           691.406
