uniorb/output/strategy_4/Camera/Camera_KinoSat_110105.txt

KinoSat_110105
-------------------------
    Access    *     Start Time (UTCG)     *     Stop Time (UTCG)  *   Duration (s) *   Data (Mbytes)
         1   01 Jun 2027 04:06:55.883   01 Jun 2027 04:09:21.441           145.558         72779.000
         2   01 Jun 2027 04:10:11.828   01 Jun 2027 04:10:21.616             9.788          4894.000
         3   01 Jun 2027 04:12:41.173   01 Jun 2027 04:12:52.572            11.399          5699.500
         4   01 Jun 2027 04:12:56.020   01 Jun 2027 04:13:03.608             7.588          3794.000
         5   01 Jun 2027 05:44:55.490   01 Jun 2027 05:48:21.745           206.255        103127.500
         6   01 Jun 2027 07:18:06.716   01 Jun 2027 07:21:03.425           176.709         88354.500
         7   01 Jun 2027 07:22:24.522   01 Jun 2027 07:22:41.154            16.632          8316.000
         8   01 Jun 2027 07:23:54.480   01 Jun 2027 07:24:18.915            24.435         12217.500
         9   01 Jun 2027 07:24:23.682   01 Jun 2027 07:24:45.387            21.705         10852.500
        10   02 Jun 2027 04:18:59.056   02 Jun 2027 04:25:09.236           370.180        185090.000
        11   02 Jun 2027 05:56:55.264   02 Jun 2027 06:00:54.274           239.010        119505.000
        12   02 Jun 2027 07:30:38.813   02 Jun 2027 07:35:57.408           318.595        159297.500
        13   02 Jun 2027 07:36:58.273   02 Jun 2027 07:38:00.188            61.915         30957.500
        14   03 Jun 2027 03:00:00.000   03 Jun 2027 03:01:30.956            90.956         45478.000
        15   03 Jun 2027 04:30:50.445   03 Jun 2027 04:36:45.931           355.486        177743.000
        16   03 Jun 2027 04:37:05.419   03 Jun 2027 04:37:35.699            30.280         15140.000
        17   03 Jun 2027 06:08:55.995   03 Jun 2027 06:13:04.802           248.807        124403.500
        18   03 Jun 2027 07:42:58.448   03 Jun 2027 07:49:27.099           388.651        194325.500
        19   04 Jun 2027 03:06:09.631   04 Jun 2027 03:13:28.207           438.576        219288.000
        20   04 Jun 2027 04:43:08.615   04 Jun 2027 04:48:05.118           296.503        148251.500
        21   04 Jun 2027 04:48:19.985   04 Jun 2027 04:49:22.277            62.292         31146.000
        22   04 Jun 2027 06:20:11.843   04 Jun 2027 06:25:02.175           290.332        145166.000
        23   04 Jun 2027 07:55:14.254   04 Jun 2027 07:55:55.137            40.883         20441.500
        24   04 Jun 2027 07:57:30.267   04 Jun 2027 08:00:09.060           158.793         79396.500
        25   05 Jun 2027 03:18:36.491   05 Jun 2027 03:25:19.196           402.705        201352.500
        26   05 Jun 2027 04:55:30.279   05 Jun 2027 04:59:53.534           263.255        131627.500
        27   05 Jun 2027 05:00:01.274   05 Jun 2027 05:01:08.551            67.277         33638.500
        28   05 Jun 2027 06:32:21.473   05 Jun 2027 06:36:53.226           271.753        135876.500
        29   05 Jun 2027 08:09:57.756   05 Jun 2027 08:11:42.192           104.436         52218.000
        30   06 Jun 2027 03:30:42.648   06 Jun 2027 03:37:24.202           401.554        200777.000
        31   06 Jun 2027 05:08:25.240   06 Jun 2027 05:12:51.714           266.474        133237.000
        32   06 Jun 2027 06:44:23.574   06 Jun 2027 06:49:09.612           286.038        143019.000
        33   07 Jun 2027 03:43:18.348   07 Jun 2027 03:49:29.069           370.721        185360.500
        34   07 Jun 2027 05:20:31.547   07 Jun 2027 05:25:10.363           278.816        139408.000
        35   07 Jun 2027 06:56:49.848   07 Jun 2027 07:01:31.225           281.377        140688.500
        36   08 Jun 2027 03:54:49.871   08 Jun 2027 04:01:16.748           386.877        193438.500
        37   08 Jun 2027 05:33:09.025   08 Jun 2027 05:36:59.881           230.856        115428.000
        38   08 Jun 2027 07:08:28.608   08 Jun 2027 07:12:37.948           249.340        124670.000
        39   08 Jun 2027 07:12:46.691   08 Jun 2027 07:13:58.294            71.603         35801.500
        40   09 Jun 2027 04:07:11.002   09 Jun 2027 04:13:32.418           381.416        190708.000
        41   09 Jun 2027 05:45:10.453   09 Jun 2027 05:49:06.981           236.528        118264.000
        42   09 Jun 2027 07:18:22.707   09 Jun 2027 07:24:34.157           371.450        185725.000
        43   09 Jun 2027 07:24:38.667   09 Jun 2027 07:26:16.327            97.660         48830.000
        44   10 Jun 2027 04:19:13.682   10 Jun 2027 04:25:24.263           370.581        185290.500
        45   10 Jun 2027 05:57:10.060   10 Jun 2027 06:01:08.917           238.857        119428.500
        46   10 Jun 2027 07:30:53.592   10 Jun 2027 07:38:15.178           441.586        220793.000
        47   11 Jun 2027 03:00:00.000   11 Jun 2027 03:01:45.863           105.863         52931.500
        48   11 Jun 2027 04:31:05.137   11 Jun 2027 04:37:00.746           355.609        177804.500
        49   11 Jun 2027 04:37:19.658   11 Jun 2027 04:37:50.636            30.978         15489.000
        50   11 Jun 2027 06:09:11.149   11 Jun 2027 06:13:19.795           248.646        124323.000
        51   11 Jun 2027 07:43:13.464   11 Jun 2027 07:49:41.752           388.288        194144.000
        52   12 Jun 2027 03:06:25.555   12 Jun 2027 03:13:44.658           439.103        219551.500
        53   12 Jun 2027 04:43:27.524   12 Jun 2027 04:48:19.859           292.335        146167.500
        54   12 Jun 2027 04:48:35.516   12 Jun 2027 04:49:37.047            61.531         30765.500
        55   12 Jun 2027 06:20:27.984   12 Jun 2027 06:25:17.191           289.207        144603.500
        56   12 Jun 2027 07:57:18.345   12 Jun 2027 08:00:23.738           185.393         92696.500
        57   13 Jun 2027 03:18:51.788   13 Jun 2027 03:25:34.297           402.509        201254.500
        58   13 Jun 2027 04:55:45.462   13 Jun 2027 05:00:09.069           263.607        131803.500
        59   13 Jun 2027 05:00:25.605   13 Jun 2027 05:01:23.124            57.519         28759.500
        60   13 Jun 2027 06:33:03.319   13 Jun 2027 06:37:08.182           244.863        122431.500
        61   13 Jun 2027 08:10:18.357   13 Jun 2027 08:11:57.214            98.857         49428.500
