uniorb/output/strategy_4/Camera/Camera_KinoSat_111107.txt

KinoSat_111107
-------------------------
    Access    *     Start Time (UTCG)     *     Stop Time (UTCG)  *   Duration (s) *   Data (Mbytes)
         1   01 Jun 2027 03:16:31.469   01 Jun 2027 03:17:02.638            31.169         15584.500
         2   01 Jun 2027 03:17:37.927   01 Jun 2027 03:19:04.748            86.821         43410.500
         3   01 Jun 2027 03:19:50.757   01 Jun 2027 03:19:50.757             0.000             0.000
         4   01 Jun 2027 04:39:53.125   01 Jun 2027 04:40:40.623            47.498         23749.000
         5   01 Jun 2027 04:40:52.644   01 Jun 2027 04:41:05.519            12.875          6437.500
         6   01 Jun 2027 06:16:25.909   01 Jun 2027 06:18:19.058           113.149         56574.500
         7   01 Jun 2027 06:19:07.149   01 Jun 2027 06:19:20.342            13.193          6596.500
         8   01 Jun 2027 07:51:36.379   01 Jun 2027 07:53:45.997           129.618         64809.000
         9   01 Jun 2027 07:54:52.210   01 Jun 2027 07:54:58.836             6.626          3313.000
        10   01 Jun 2027 07:56:22.469   01 Jun 2027 07:56:42.065            19.596          9798.000
        11   01 Jun 2027 07:58:11.506   01 Jun 2027 07:58:12.243             0.737           368.500
        12   01 Jun 2027 09:27:58.174   01 Jun 2027 09:31:02.862           184.688         92344.000
        13   01 Jun 2027 09:32:29.118   01 Jun 2027 09:32:41.632            12.514          6257.000
        14   01 Jun 2027 09:33:27.159   01 Jun 2027 09:33:30.008             2.849          1424.500
        15   01 Jun 2027 11:05:16.158   01 Jun 2027 11:06:39.533            83.375         41687.500
        16   01 Jun 2027 11:06:53.671   01 Jun 2027 11:08:00.318            66.647         33323.500
        17   01 Jun 2027 11:09:36.818   01 Jun 2027 11:09:53.113            16.295          8147.500
        18   02 Jun 2027 03:28:28.161   02 Jun 2027 03:29:07.142            38.981         19490.500
        19   02 Jun 2027 03:29:29.590   02 Jun 2027 03:30:11.363            41.773         20886.500
        20   02 Jun 2027 03:30:40.870   02 Jun 2027 03:31:52.452            71.582         35791.000
        21   02 Jun 2027 04:52:22.705   02 Jun 2027 04:52:47.502            24.797         12398.500
        22   02 Jun 2027 04:53:45.871   02 Jun 2027 04:53:45.871             0.000             0.000
        23   02 Jun 2027 06:28:17.569   02 Jun 2027 06:31:24.538           186.969         93484.500
        24   02 Jun 2027 06:32:21.287   02 Jun 2027 06:32:22.053             0.766           383.000
        25   02 Jun 2027 08:03:11.845   02 Jun 2027 08:07:07.253           235.408        117704.000
        26   02 Jun 2027 08:07:35.124   02 Jun 2027 08:07:35.124             0.000             0.000
        27   02 Jun 2027 08:09:45.264   02 Jun 2027 08:10:21.138            35.874         17937.000
        28   02 Jun 2027 09:39:33.566   02 Jun 2027 09:40:10.985            37.419         17488.468
        29   02 Jun 2027 09:43:12.606   02 Jun 2027 09:43:14.535             1.929           194.875
        30   02 Jun 2027 09:44:05.690   02 Jun 2027 09:44:08.936             3.246          1457.719
        31   02 Jun 2027 09:44:44.038   02 Jun 2027 09:44:45.957             1.919           454.000
        32   02 Jun 2027 09:45:00.498   02 Jun 2027 09:45:01.804             1.306           272.687
        33   02 Jun 2027 11:17:50.478   02 Jun 2027 11:18:06.666            16.188          6804.094
        34   02 Jun 2027 11:18:33.436   02 Jun 2027 11:18:34.627             1.191           394.625
        35   02 Jun 2027 11:18:48.480   02 Jun 2027 11:18:56.310             7.830           432.906
        36   02 Jun 2027 11:19:57.815   02 Jun 2027 11:19:59.713             1.898           606.344
        37   02 Jun 2027 11:20:04.350   02 Jun 2027 11:20:05.325             0.975           111.812
        38   02 Jun 2027 11:21:03.460   02 Jun 2027 11:21:09.413             5.953          1761.375
        39   02 Jun 2027 11:21:28.848   02 Jun 2027 11:21:35.809             6.961           607.344
        40   02 Jun 2027 11:21:37.572   02 Jun 2027 11:21:38.472             0.900            55.094
        41   02 Jun 2027 11:21:42.159   02 Jun 2027 11:21:42.352             0.193            96.500
        42   03 Jun 2027 03:29:26.161   03 Jun 2027 03:29:38.480            12.319          6159.500
        43   03 Jun 2027 03:29:52.740   03 Jun 2027 03:29:52.740             0.000             0.000
        44   03 Jun 2027 03:40:24.246   03 Jun 2027 03:42:04.989           100.743         50371.500
        45   03 Jun 2027 03:43:01.855   03 Jun 2027 03:43:31.772            29.917         14958.500
        46   03 Jun 2027 05:03:00.206   03 Jun 2027 05:04:16.556            76.350         38175.000
        47   03 Jun 2027 05:06:04.224   03 Jun 2027 05:06:49.971            45.747         22873.500
        48   03 Jun 2027 06:38:34.879   03 Jun 2027 06:39:18.206            43.327         21663.500
        49   03 Jun 2027 06:40:01.344   03 Jun 2027 06:40:08.169             6.825          2707.750
        50   03 Jun 2027 06:40:23.097   03 Jun 2027 06:40:29.642             6.545           285.031
        51   03 Jun 2027 06:41:05.659   03 Jun 2027 06:41:10.283             4.624           470.563
        52   03 Jun 2027 06:41:55.098   03 Jun 2027 06:42:01.240             6.142          1367.437
        53   03 Jun 2027 06:43:05.238   03 Jun 2027 06:43:08.967             3.729          1694.812
        54   03 Jun 2027 06:43:46.409   03 Jun 2027 06:43:50.118             3.709           485.781
        55   03 Jun 2027 08:14:47.323   03 Jun 2027 08:14:56.727             9.404          3187.500
        56   03 Jun 2027 08:15:49.492   03 Jun 2027 08:16:02.310            12.818           935.375
        57   03 Jun 2027 08:16:22.102   03 Jun 2027 08:16:25.134             3.032           308.188
        58   03 Jun 2027 08:17:19.784   03 Jun 2027 08:17:22.389             2.605          1125.250
        59   03 Jun 2027 08:18:08.247   03 Jun 2027 08:18:10.829             2.582           602.812
        60   03 Jun 2027 08:18:16.979   03 Jun 2027 08:18:16.979             0.000             0.000
        61   03 Jun 2027 08:19:09.226   03 Jun 2027 08:19:16.256             7.030          1657.656
        62   03 Jun 2027 08:19:40.753   03 Jun 2027 08:19:47.644             6.891           466.969
        63   03 Jun 2027 08:20:09.384   03 Jun 2027 08:20:11.756             2.372           439.344
        64   03 Jun 2027 08:20:32.534   03 Jun 2027 08:20:34.658             2.124           101.844
        65   03 Jun 2027 08:21:02.376   03 Jun 2027 08:21:06.690             4.314           666.750
        66   03 Jun 2027 08:21:16.197   03 Jun 2027 08:21:18.130             1.933           297.094
        67   03 Jun 2027 08:22:21.735   03 Jun 2027 08:22:21.926             0.191            95.500
        68   03 Jun 2027 09:51:53.702   03 Jun 2027 09:52:06.519            12.817          5995.281
        69   03 Jun 2027 09:54:31.303   03 Jun 2027 09:54:32.179             0.876           163.812
        70   03 Jun 2027 09:55:01.333   03 Jun 2027 09:55:01.768             0.435           174.469
        71   03 Jun 2027 09:55:59.285   03 Jun 2027 09:56:06.039             6.754          1239.969
        72   03 Jun 2027 09:56:24.523   03 Jun 2027 09:56:26.076             1.553           165.594
        73   03 Jun 2027 09:56:36.593   03 Jun 2027 09:56:37.261             0.668           113.563
        74   03 Jun 2027 09:57:47.902   03 Jun 2027 09:57:53.426             5.524          1963.313
        75   03 Jun 2027 09:58:14.514   03 Jun 2027 09:58:15.907             1.393           659.000
        76   03 Jun 2027 11:29:51.742   03 Jun 2027 11:30:03.261            11.519          5434.062
        77   03 Jun 2027 11:32:01.536   03 Jun 2027 11:32:03.226             1.690           656.156
        78   03 Jun 2027 11:32:20.063   03 Jun 2027 11:32:22.753             2.690           508.469
        79   03 Jun 2027 11:33:21.403   03 Jun 2027 11:33:22.908             1.505           138.969
        80   03 Jun 2027 11:33:46.368   03 Jun 2027 11:33:47.909             1.541           733.125
        81   04 Jun 2027 03:40:43.244   04 Jun 2027 03:41:00.087            16.843          8421.500
        82   04 Jun 2027 03:52:26.787   04 Jun 2027 03:53:33.798            67.011         33505.500
        83   04 Jun 2027 05:14:42.159   04 Jun 2027 05:15:48.887            66.728         33364.000
        84   04 Jun 2027 05:16:39.427   04 Jun 2027 05:18:52.606           133.179         66589.500
        85   04 Jun 2027 06:49:41.681   04 Jun 2027 06:50:12.835            31.154         13630.594
        86   04 Jun 2027 06:51:12.052   04 Jun 2027 06:51:16.414             4.362          1439.469
        87   04 Jun 2027 06:51:45.330   04 Jun 2027 06:51:47.606             2.276           828.844
        88   04 Jun 2027 06:52:48.130   04 Jun 2027 06:52:54.363             6.233          1851.438
        89   04 Jun 2027 06:53:08.219   04 Jun 2027 06:53:09.627             1.408           313.094
        90   04 Jun 2027 06:54:10.345   04 Jun 2027 06:54:15.614             5.269          1380.594
        91   04 Jun 2027 06:55:05.825   04 Jun 2027 06:55:08.400             2.575           553.875
        92   04 Jun 2027 06:56:01.275   04 Jun 2027 06:56:05.546             4.271          1652.344
        93   04 Jun 2027 06:56:14.948   04 Jun 2027 06:56:18.904             3.956           184.656
        94   04 Jun 2027 08:27:07.311   04 Jun 2027 08:27:11.954             4.643          2288.781
        95   04 Jun 2027 08:27:51.701   04 Jun 2027 08:27:56.752             5.051           920.906
        96   04 Jun 2027 08:29:14.427   04 Jun 2027 08:29:16.234             1.807           852.688
        97   04 Jun 2027 08:30:25.710   04 Jun 2027 08:30:27.003             1.293           520.094
        98   04 Jun 2027 08:31:10.882   04 Jun 2027 08:31:17.783             6.901          1085.906
        99   04 Jun 2027 08:32:06.045   04 Jun 2027 08:32:11.230             5.185           834.062
       100   04 Jun 2027 08:33:05.163   04 Jun 2027 08:33:07.508             2.345           817.250
       101   04 Jun 2027 08:33:21.775   04 Jun 2027 08:33:22.395             0.620           254.937
       102   04 Jun 2027 08:34:05.965   04 Jun 2027 08:34:13.569             7.604          1361.562
       103   04 Jun 2027 08:34:25.684   04 Jun 2027 08:34:25.813             0.129            41.437
       104   04 Jun 2027 10:03:54.471   04 Jun 2027 10:04:07.199            12.728          5112.656
       105   04 Jun 2027 10:07:17.940   04 Jun 2027 10:07:23.787             5.847          1354.156
       106   04 Jun 2027 10:07:33.107   04 Jun 2027 10:07:36.943             3.836           277.313
       107   04 Jun 2027 10:07:50.677   04 Jun 2027 10:07:52.275             1.598           349.531
       108   04 Jun 2027 10:08:08.186   04 Jun 2027 10:08:10.321             2.135           497.219
       109   04 Jun 2027 10:08:26.157   04 Jun 2027 10:08:28.447             2.290           336.219
       110   04 Jun 2027 10:09:05.511   04 Jun 2027 10:09:08.348             2.837           916.313
       111   04 Jun 2027 10:10:10.801   04 Jun 2027 10:10:15.196             4.395          1799.531
       112   04 Jun 2027 11:41:52.207   04 Jun 2027 11:42:03.632            11.425          5193.781
       113   04 Jun 2027 11:44:02.423   04 Jun 2027 11:44:05.147             2.724           617.094
       114   04 Jun 2027 11:45:00.970   04 Jun 2027 11:45:09.603             8.633          1403.875
       115   04 Jun 2027 11:45:35.046   04 Jun 2027 11:45:39.556             4.510           726.750
       116   04 Jun 2027 11:45:46.118   04 Jun 2027 11:45:48.365             2.247           155.406
       117   05 Jun 2027 03:52:15.447   05 Jun 2027 03:52:30.312            14.865          7432.500
       118   05 Jun 2027 03:53:20.111   05 Jun 2027 03:53:28.845             8.734          4367.000
       119   05 Jun 2027 03:54:21.226   05 Jun 2027 03:54:21.226             0.000             0.000
       120   05 Jun 2027 04:04:28.094   05 Jun 2027 04:04:59.712            31.618         15809.000
       121   05 Jun 2027 05:26:22.198   05 Jun 2027 05:27:35.515            73.317         36658.500
       122   05 Jun 2027 05:28:25.146   05 Jun 2027 05:29:52.543            87.397         43698.500
       123   05 Jun 2027 05:30:53.060   05 Jun 2027 05:31:03.602            10.542          5271.000
       124   05 Jun 2027 07:01:10.458   05 Jun 2027 07:02:47.604            97.146         45218.031
       125   05 Jun 2027 07:03:16.262   05 Jun 2027 07:03:17.027             0.765           342.187
       126   05 Jun 2027 07:03:53.485   05 Jun 2027 07:03:55.752             2.267          1055.563
       127   05 Jun 2027 07:04:39.780   05 Jun 2027 07:04:42.054             2.274            51.906
       128   05 Jun 2027 07:04:44.595   05 Jun 2027 07:04:44.595             0.000             0.000
       129   05 Jun 2027 07:05:01.445   05 Jun 2027 07:05:02.961             1.516           605.969
       130   05 Jun 2027 07:05:36.071   05 Jun 2027 07:05:36.071             0.000             0.000
       131   05 Jun 2027 07:06:49.981   05 Jun 2027 07:07:02.539            12.558          3106.187
       132   05 Jun 2027 07:07:53.317   05 Jun 2027 07:07:57.333             4.016          1307.656
       133   05 Jun 2027 07:08:19.324   05 Jun 2027 07:08:22.886             3.562           589.656
       134   05 Jun 2027 07:08:38.693   05 Jun 2027 07:08:38.693             0.000             0.000
       135   05 Jun 2027 07:08:55.925   05 Jun 2027 07:08:58.044             2.119          1032.469
       136   05 Jun 2027 08:39:01.365   05 Jun 2027 08:39:09.362             7.997          2897.906
       137   05 Jun 2027 08:41:00.736   05 Jun 2027 08:41:04.764             4.028          2008.750
       138   05 Jun 2027 08:41:55.717   05 Jun 2027 08:41:58.456             2.739          1369.500
       139   05 Jun 2027 08:42:59.674   05 Jun 2027 08:43:05.250             5.576          1981.375
       140   05 Jun 2027 08:43:17.620   05 Jun 2027 08:43:23.395             5.775           147.219
       141   05 Jun 2027 08:44:44.695   05 Jun 2027 08:44:47.494             2.799           919.500
       142   05 Jun 2027 08:45:08.769   05 Jun 2027 08:45:09.155             0.386           184.406
       143   05 Jun 2027 08:46:17.122   05 Jun 2027 08:46:24.328             7.206          2058.688
       144   05 Jun 2027 10:15:46.037   05 Jun 2027 10:15:59.861            13.824          5644.781
       145   05 Jun 2027 10:16:48.946   05 Jun 2027 10:16:51.651             2.705          1309.531
       146   05 Jun 2027 10:18:28.962   05 Jun 2027 10:18:29.460             0.498            39.281
       147   05 Jun 2027 10:19:19.150   05 Jun 2027 10:19:19.354             0.204            35.812
       148   05 Jun 2027 10:20:06.161   05 Jun 2027 10:20:08.395             2.234           251.156
       149   05 Jun 2027 10:20:36.514   05 Jun 2027 10:20:38.345             1.831           605.875
       150   05 Jun 2027 10:22:05.478   05 Jun 2027 10:22:12.045             6.567          2722.906
       151   05 Jun 2027 11:53:54.844   05 Jun 2027 11:54:10.031            15.187          4978.156
       152   05 Jun 2027 11:56:03.875   05 Jun 2027 11:56:05.949             2.074           121.719
       153   05 Jun 2027 11:56:38.794   05 Jun 2027 11:56:43.655             4.861           567.656
       154   05 Jun 2027 11:57:05.219   05 Jun 2027 11:57:11.227             6.008           118.906
       155   05 Jun 2027 11:57:29.504   05 Jun 2027 11:57:31.282             1.778           571.156
       156   05 Jun 2027 11:57:48.248   05 Jun 2027 11:57:50.792             2.544           193.813
       157   06 Jun 2027 04:04:13.114   06 Jun 2027 04:04:32.714            19.600          9800.000
       158   06 Jun 2027 04:04:47.641   06 Jun 2027 04:04:47.641             0.000             0.000
       159   06 Jun 2027 04:05:02.389   06 Jun 2027 04:05:06.917             4.528          2264.000
       160   06 Jun 2027 04:05:28.403   06 Jun 2027 04:05:30.016             1.613           806.500
       161   06 Jun 2027 05:40:10.635   06 Jun 2027 05:43:25.165           194.530         97265.000
       162   06 Jun 2027 07:13:58.982   06 Jun 2027 07:15:37.990            99.008         48901.187
       163   06 Jun 2027 07:16:06.950   06 Jun 2027 07:16:10.973             4.023           698.875
       164   06 Jun 2027 07:16:39.259   06 Jun 2027 07:16:41.897             2.638           883.938
       165   06 Jun 2027 07:17:12.714   06 Jun 2027 07:17:14.074             1.360           247.625
       166   06 Jun 2027 07:18:12.606   06 Jun 2027 07:18:16.662             4.056          1449.344
       167   06 Jun 2027 07:18:50.300   06 Jun 2027 07:18:57.804             7.504           973.906
       168   06 Jun 2027 07:19:33.567   06 Jun 2027 07:19:35.843             2.276           597.875
       169   06 Jun 2027 07:20:28.130   06 Jun 2027 07:20:32.132             4.002          1621.844
       170   06 Jun 2027 07:21:37.332   06 Jun 2027 07:21:40.883             3.551          1767.031
       171   06 Jun 2027 07:22:05.096   06 Jun 2027 07:22:07.687             2.591           649.219
       172   06 Jun 2027 08:51:08.540   06 Jun 2027 08:51:19.803            11.263          4746.719
       173   06 Jun 2027 08:51:47.596   06 Jun 2027 08:51:55.082             7.486            22.938
       174   06 Jun 2027 08:52:59.051   06 Jun 2027 08:53:02.188             3.137          1474.219
       175   06 Jun 2027 08:53:44.007   06 Jun 2027 08:53:44.007             0.000             0.000
       176   06 Jun 2027 08:53:52.934   06 Jun 2027 08:53:58.607             5.673          1259.219
       177   06 Jun 2027 08:55:14.560   06 Jun 2027 08:55:19.520             4.960           772.312
       178   06 Jun 2027 08:55:49.259   06 Jun 2027 08:55:51.663             2.404           197.000
       179   06 Jun 2027 08:57:00.821   06 Jun 2027 08:57:07.695             6.874          2161.187
       180   06 Jun 2027 08:58:00.181   06 Jun 2027 08:58:03.737             3.556          1142.219
       181   06 Jun 2027 08:58:20.189   06 Jun 2027 08:58:22.306             2.117           144.625
       182   06 Jun 2027 10:28:11.927   06 Jun 2027 10:28:17.373             5.446          2723.000
       183   06 Jun 2027 10:28:37.020   06 Jun 2027 10:28:47.053            10.033          4760.500
       184   06 Jun 2027 10:31:46.660   06 Jun 2027 10:31:53.353             6.693          1314.437
       185   06 Jun 2027 10:32:08.853   06 Jun 2027 10:32:09.619             0.766           115.375
       186   06 Jun 2027 10:32:16.449   06 Jun 2027 10:32:16.903             0.454           197.813
       187   06 Jun 2027 10:32:39.676   06 Jun 2027 10:32:41.423             1.747           675.437
       188   06 Jun 2027 10:33:05.925   06 Jun 2027 10:33:16.152            10.227           659.125
       189   06 Jun 2027 10:33:58.188   06 Jun 2027 10:34:02.250             4.062          1138.469
       190   06 Jun 2027 10:34:08.027   06 Jun 2027 10:34:15.367             7.340           133.375
       191   07 Jun 2027 04:16:05.659   07 Jun 2027 04:16:57.201            51.542         25771.000
       192   07 Jun 2027 05:52:27.999   07 Jun 2027 05:55:30.899           182.900         91450.000
       193   07 Jun 2027 07:26:20.195   07 Jun 2027 07:27:23.569            63.374         31199.844
       194   07 Jun 2027 07:28:17.503   07 Jun 2027 07:28:19.012             1.509            97.094
       195   07 Jun 2027 07:28:23.501   07 Jun 2027 07:28:26.469             2.968            70.844
       196   07 Jun 2027 07:29:08.186   07 Jun 2027 07:29:12.349             4.163          1092.781
       197   07 Jun 2027 07:29:44.158   07 Jun 2027 07:29:46.253             2.095           924.125
       198   07 Jun 2027 07:30:23.984   07 Jun 2027 07:30:25.942             1.958           227.562
       199   07 Jun 2027 07:31:13.023   07 Jun 2027 07:31:14.755             1.732           779.875
       200   07 Jun 2027 07:31:17.262   07 Jun 2027 07:31:24.974             7.712            47.094
       201   07 Jun 2027 07:32:41.681   07 Jun 2027 07:32:45.941             4.260          2013.531
       202   07 Jun 2027 07:32:55.424   07 Jun 2027 07:32:57.230             1.806           140.969
       203   07 Jun 2027 07:33:05.993   07 Jun 2027 07:33:06.727             0.734           239.500
       204   07 Jun 2027 07:33:49.063   07 Jun 2027 07:33:53.194             4.131          1288.094
       205   07 Jun 2027 07:34:21.446   07 Jun 2027 07:34:22.803             1.357           293.813
       206   07 Jun 2027 09:03:35.189   07 Jun 2027 09:03:46.205            11.016          5444.500
       207   07 Jun 2027 09:07:14.650   07 Jun 2027 09:07:16.936             2.286             8.719
       208   07 Jun 2027 09:08:30.262   07 Jun 2027 09:08:32.659             2.397           918.750
       209   07 Jun 2027 09:08:57.251   07 Jun 2027 09:08:59.162             1.911           544.938
       210   07 Jun 2027 09:09:34.041   07 Jun 2027 09:09:37.590             3.549          1056.875
       211   07 Jun 2027 09:10:09.102   07 Jun 2027 09:10:13.320             4.218           984.750
       212   07 Jun 2027 10:40:36.777   07 Jun 2027 10:40:49.749            12.972          5195.187
       213   07 Jun 2027 10:43:17.013   07 Jun 2027 10:43:20.940             3.927          1893.937
       214   07 Jun 2027 10:44:28.162   07 Jun 2027 10:44:40.099            11.937          1548.687
       215   07 Jun 2027 10:45:12.948   07 Jun 2027 10:45:15.280             2.332          1026.531
       216   07 Jun 2027 10:45:27.456   07 Jun 2027 10:45:29.271             1.815           211.094
       217   08 Jun 2027 03:04:24.526   08 Jun 2027 03:05:20.632            56.106         28053.000
       218   08 Jun 2027 03:06:08.986   08 Jun 2027 03:06:14.948             5.962          2981.000
       219   08 Jun 2027 03:07:58.425   08 Jun 2027 03:08:21.837            23.412         11706.000
       220   08 Jun 2027 04:27:54.677   08 Jun 2027 04:28:39.813            45.136         22568.000
       221   08 Jun 2027 04:29:06.779   08 Jun 2027 04:29:12.035             5.256          2628.000
       222   08 Jun 2027 04:29:28.913   08 Jun 2027 04:29:38.869             9.956          4978.000
       223   08 Jun 2027 06:04:31.389   08 Jun 2027 06:07:27.252           175.863         87931.500
       224   08 Jun 2027 07:39:37.992   08 Jun 2027 07:39:50.064            12.072          5171.938
       225   08 Jun 2027 07:40:14.131   08 Jun 2027 07:40:18.605             4.474           642.094
       226   08 Jun 2027 07:40:43.356   08 Jun 2027 07:40:44.539             1.183           588.656
       227   08 Jun 2027 07:41:11.607   08 Jun 2027 07:41:16.146             4.539           494.188
       228   08 Jun 2027 07:41:52.151   08 Jun 2027 07:41:55.308             3.157          1125.156
       229   08 Jun 2027 07:42:59.957   08 Jun 2027 07:43:03.454             3.497           438.563
       230   08 Jun 2027 07:43:37.406   08 Jun 2027 07:43:41.175             3.769           546.750
       231   08 Jun 2027 07:44:58.910   08 Jun 2027 07:45:05.604             6.694          2204.844
       232   08 Jun 2027 07:45:35.346   08 Jun 2027 07:45:40.504             5.158           757.031
       233   08 Jun 2027 07:46:18.762   08 Jun 2027 07:46:22.310             3.548          1114.344
       234   08 Jun 2027 09:15:58.635   08 Jun 2027 09:16:13.654            15.019          6792.438
       235   08 Jun 2027 09:18:09.443   08 Jun 2027 09:18:11.351             1.908            68.344
       236   08 Jun 2027 09:18:27.905   08 Jun 2027 09:18:29.594             1.689           453.469
       237   08 Jun 2027 09:19:17.980   08 Jun 2027 09:19:20.328             2.348          1080.031
       238   08 Jun 2027 09:19:50.487   08 Jun 2027 09:19:54.257             3.770           824.969
       239   08 Jun 2027 09:20:58.761   08 Jun 2027 09:21:09.272            10.511          1797.469
       240   08 Jun 2027 09:21:47.965   08 Jun 2027 09:21:50.200             2.235           618.375
       241   08 Jun 2027 10:53:28.716   08 Jun 2027 10:53:42.919            14.203          5358.281
       242   08 Jun 2027 10:54:59.057   08 Jun 2027 10:55:03.533             4.476          1369.281
       243   08 Jun 2027 10:55:40.888   08 Jun 2027 10:55:41.250             0.362           177.906
       244   08 Jun 2027 10:56:12.616   08 Jun 2027 10:56:14.500             1.884            81.937
       245   08 Jun 2027 10:56:35.697   08 Jun 2027 10:56:36.928             1.231           535.094
       246   08 Jun 2027 10:56:39.539   08 Jun 2027 10:56:46.190             6.651            81.594
       247   08 Jun 2027 10:57:34.664   08 Jun 2027 10:57:45.394            10.730          1268.813
       248   09 Jun 2027 03:17:36.415   09 Jun 2027 03:18:36.118            59.703         29851.500
       249   09 Jun 2027 03:19:07.514   09 Jun 2027 03:20:23.798            76.284         38142.000
       250   09 Jun 2027 04:40:08.133   09 Jun 2027 04:40:55.513            47.380         23690.000
       251   09 Jun 2027 04:41:56.784   09 Jun 2027 04:42:05.516             8.732          4366.000
       252   09 Jun 2027 06:16:42.044   09 Jun 2027 06:18:27.144           105.100         51104.407
       253   09 Jun 2027 06:18:41.805   09 Jun 2027 06:18:42.133             0.328           121.500
       254   09 Jun 2027 06:19:00.315   09 Jun 2027 06:19:00.315             0.000             0.000
       255   09 Jun 2027 06:19:03.036   09 Jun 2027 06:19:08.700             5.664           211.406
       256   09 Jun 2027 06:19:16.205   09 Jun 2027 06:19:16.205             0.000             0.000
       257   09 Jun 2027 06:19:41.175   09 Jun 2027 06:19:45.700             4.525           995.875
       258   09 Jun 2027 07:51:51.778   09 Jun 2027 07:52:01.134             9.356          2037.688
       259   09 Jun 2027 07:53:20.013   09 Jun 2027 07:53:25.605             5.592           858.063
       260   09 Jun 2027 07:54:02.921   09 Jun 2027 07:54:07.769             4.848           693.500
       261   09 Jun 2027 07:54:46.229   09 Jun 2027 07:54:46.919             0.690           108.125
       262   09 Jun 2027 07:55:22.367   09 Jun 2027 07:55:31.189             8.822           502.062
       263   09 Jun 2027 07:55:46.056   09 Jun 2027 07:55:49.075             3.019            47.062
       264   09 Jun 2027 07:56:58.983   09 Jun 2027 07:57:02.718             3.735          1867.500
       265   09 Jun 2027 07:57:27.261   09 Jun 2027 07:57:32.421             5.160          1084.094
       266   09 Jun 2027 07:57:47.333   09 Jun 2027 07:57:48.733             1.400           365.281
       267   09 Jun 2027 07:58:27.149   09 Jun 2027 07:58:27.626             0.477           238.500
       268   09 Jun 2027 09:28:13.151   09 Jun 2027 09:28:25.743            12.592          5544.719
       269   09 Jun 2027 09:30:52.357   09 Jun 2027 09:30:55.867             3.510           176.437
       270   09 Jun 2027 09:31:07.364   09 Jun 2027 09:31:08.781             1.417           314.313
       271   09 Jun 2027 09:31:13.980   09 Jun 2027 09:31:15.778             1.798           131.531
       272   09 Jun 2027 09:32:56.303   09 Jun 2027 09:33:00.376             4.073          1560.125
       273   09 Jun 2027 09:33:26.628   09 Jun 2027 09:33:30.095             3.467           323.938
       274   09 Jun 2027 11:05:31.221   09 Jun 2027 11:05:44.037            12.816          6143.562
       275   09 Jun 2027 11:07:52.402   09 Jun 2027 11:07:58.183             5.781          1794.719
       276   09 Jun 2027 11:08:51.177   09 Jun 2027 11:08:53.580             2.403          1074.313
       277   09 Jun 2027 11:09:46.213   09 Jun 2027 11:09:50.533             4.320          1287.000
       278   09 Jun 2027 11:09:57.055   09 Jun 2027 11:09:59.198             2.143           156.250
       279   10 Jun 2027 03:28:43.620   10 Jun 2027 03:29:22.623            39.003         19501.500
       280   10 Jun 2027 03:29:44.519   10 Jun 2027 03:32:07.946           143.427         71713.500
       281   10 Jun 2027 04:52:09.990   10 Jun 2027 04:52:28.531            18.541          9270.500
       282   10 Jun 2027 04:54:26.465   10 Jun 2027 04:54:55.077            28.612         14306.000
       283   10 Jun 2027 06:28:32.445   10 Jun 2027 06:29:41.227            68.782         34391.000
       284   10 Jun 2027 06:30:18.172   10 Jun 2027 06:30:22.698             4.526          1864.781
       285   10 Jun 2027 06:31:10.516   10 Jun 2027 06:31:10.516             0.000             0.000
       286   10 Jun 2027 06:31:47.472   10 Jun 2027 06:31:55.380             7.908          2332.250
       287   10 Jun 2027 06:32:22.403   10 Jun 2027 06:32:25.607             3.204           777.531
       288   10 Jun 2027 08:03:26.029   10 Jun 2027 08:03:30.464             4.435          1667.875
       289   10 Jun 2027 08:04:06.822   10 Jun 2027 08:04:19.431            12.609           310.562
       290   10 Jun 2027 08:04:56.598   10 Jun 2027 08:04:56.932             0.334             5.781
       291   10 Jun 2027 08:05:29.810   10 Jun 2027 08:05:34.174             4.364          1027.438
       292   10 Jun 2027 08:06:16.629   10 Jun 2027 08:06:17.817             1.188           404.187
       293   10 Jun 2027 08:06:38.360   10 Jun 2027 08:06:38.360             0.000             0.000
       294   10 Jun 2027 08:07:24.580   10 Jun 2027 08:07:28.065             3.485          1561.219
       295   10 Jun 2027 08:07:59.715   10 Jun 2027 08:08:04.227             4.512           989.063
       296   10 Jun 2027 08:09:19.086   10 Jun 2027 08:09:21.619             2.533           786.687
       297   10 Jun 2027 08:09:37.357   10 Jun 2027 08:09:39.195             1.838           417.500
       298   10 Jun 2027 08:10:27.632   10 Jun 2027 08:10:32.633             5.001          1021.219
       299   10 Jun 2027 09:39:49.815   10 Jun 2027 09:40:05.047            15.232          5471.656
       300   10 Jun 2027 09:41:49.403   10 Jun 2027 09:41:54.495             5.092          1741.625
       301   10 Jun 2027 09:42:46.978   10 Jun 2027 09:42:47.809             0.831           196.250
       302   10 Jun 2027 09:43:10.427   10 Jun 2027 09:43:11.815             1.388           631.031
       303   10 Jun 2027 09:44:11.007   10 Jun 2027 09:44:14.197             3.190          1559.094
       304   10 Jun 2027 09:44:46.014   10 Jun 2027 09:44:49.709             3.695           798.406
       305   10 Jun 2027 09:45:18.613   10 Jun 2027 09:45:21.217             2.604           597.844
       306   10 Jun 2027 11:18:06.261   10 Jun 2027 11:18:25.104            18.843          5861.063
       307   10 Jun 2027 11:19:04.558   10 Jun 2027 11:19:06.404             1.846           447.188
       308   10 Jun 2027 11:20:18.271   10 Jun 2027 11:20:19.162             0.891           146.281
       309   10 Jun 2027 11:21:19.421   10 Jun 2027 11:21:25.221             5.800          1764.625
       310   10 Jun 2027 11:21:43.608   10 Jun 2027 11:21:51.721             8.113           574.594
       311   10 Jun 2027 11:21:56.122   10 Jun 2027 11:21:56.535             0.413           137.531
       312   11 Jun 2027 03:29:22.286   11 Jun 2027 03:29:41.400            19.114          9557.000
       313   11 Jun 2027 03:40:39.544   11 Jun 2027 03:42:20.226           100.682         50341.000
       314   11 Jun 2027 03:43:19.069   11 Jun 2027 03:43:46.036            26.967         13483.500
       315   11 Jun 2027 05:03:15.209   11 Jun 2027 05:04:29.166            73.957         36978.500
       316   11 Jun 2027 05:06:18.703   11 Jun 2027 05:06:22.766             4.063          2031.500
       317   11 Jun 2027 05:07:05.787   11 Jun 2027 05:07:25.250            19.463          9731.500
       318   11 Jun 2027 06:38:50.120   11 Jun 2027 06:39:36.407            46.287         23143.500
       319   11 Jun 2027 06:40:16.493   11 Jun 2027 06:40:37.872            21.379         10571.343
       320   11 Jun 2027 06:41:42.143   11 Jun 2027 06:41:46.343             4.200          2008.469
       321   11 Jun 2027 06:42:48.645   11 Jun 2027 06:42:59.824            11.179          1836.656
       322   11 Jun 2027 06:43:22.663   11 Jun 2027 06:43:25.116             2.453           545.125
       323   11 Jun 2027 06:44:02.284   11 Jun 2027 06:44:08.845             6.561           493.250
       324   11 Jun 2027 08:15:03.010   11 Jun 2027 08:15:12.150             9.140          1616.156
       325   11 Jun 2027 08:17:18.424   11 Jun 2027 08:17:23.528             5.104          2240.281
       326   11 Jun 2027 08:18:32.385   11 Jun 2027 08:18:33.439             1.054           224.906
       327   11 Jun 2027 08:19:26.528   11 Jun 2027 08:19:36.621            10.093          1659.031
       328   11 Jun 2027 08:19:58.112   11 Jun 2027 08:20:02.322             4.210           467.062
       329   11 Jun 2027 08:20:23.960   11 Jun 2027 08:20:26.276             2.316           365.969
       330   11 Jun 2027 08:21:09.138   11 Jun 2027 08:21:10.853             1.715           589.937
       331   11 Jun 2027 08:22:06.131   11 Jun 2027 08:22:12.408             6.277          1581.719
       332   11 Jun 2027 09:52:09.336   11 Jun 2027 09:52:26.941            17.605          8073.375
       333   11 Jun 2027 09:54:46.992   11 Jun 2027 09:54:47.604             0.612            95.500
       334   11 Jun 2027 09:55:16.498   11 Jun 2027 09:55:19.380             2.882           176.500
       335   11 Jun 2027 09:56:15.146   11 Jun 2027 09:56:20.964             5.818          1162.094
       336   11 Jun 2027 09:56:49.694   11 Jun 2027 09:56:51.668             1.974           297.156
       337   11 Jun 2027 09:57:00.341   11 Jun 2027 09:57:01.117             0.776           271.031
       338   11 Jun 2027 09:57:25.374   11 Jun 2027 09:57:30.882             5.508           758.031
       339   11 Jun 2027 09:58:27.368   11 Jun 2027 09:58:29.096             1.728           713.781
       340   11 Jun 2027 11:30:07.213   11 Jun 2027 11:30:21.495            14.282          7004.750
       341   11 Jun 2027 11:31:02.295   11 Jun 2027 11:31:08.896             6.601           903.750
       342   11 Jun 2027 11:32:28.536   11 Jun 2027 11:32:30.033             1.497           472.094
       343   11 Jun 2027 11:33:37.487   11 Jun 2027 11:33:39.003             1.516           182.812
       344   12 Jun 2027 03:40:58.492   12 Jun 2027 03:41:16.725            18.233          9116.500
       345   12 Jun 2027 03:52:42.049   12 Jun 2027 03:53:44.058            62.009         31004.500
       346   12 Jun 2027 05:14:57.607   12 Jun 2027 05:16:03.922            66.315         33157.500
       347   12 Jun 2027 05:16:54.514   12 Jun 2027 05:18:13.561            79.047         39523.500
       348   12 Jun 2027 05:19:28.878   12 Jun 2027 05:19:43.254            14.376          7188.000
       349   12 Jun 2027 06:49:56.667   12 Jun 2027 06:51:11.589            74.922         36085.031
       350   12 Jun 2027 06:51:27.919   12 Jun 2027 06:51:29.584             1.665           506.313
       351   12 Jun 2027 06:52:00.078   12 Jun 2027 06:52:02.690             2.612           776.563
       352   12 Jun 2027 06:52:20.237   12 Jun 2027 06:52:21.496             1.259           541.062
       353   12 Jun 2027 06:53:42.754   12 Jun 2027 06:53:51.622             8.868          2025.312
       354   12 Jun 2027 06:55:03.580   12 Jun 2027 06:55:05.691             2.111          1055.500
       355   12 Jun 2027 06:55:25.815   12 Jun 2027 06:55:33.545             7.730          1822.062
       356   12 Jun 2027 06:55:50.773   12 Jun 2027 06:55:54.006             3.233           416.813
       357   12 Jun 2027 06:56:17.974   12 Jun 2027 06:56:20.329             2.355            22.594
       358   12 Jun 2027 06:56:30.641   12 Jun 2027 06:56:31.335             0.694           168.250
       359   12 Jun 2027 06:56:57.853   12 Jun 2027 06:56:58.916             1.063           456.937
       360   12 Jun 2027 08:27:23.017   12 Jun 2027 08:27:27.263             4.246          1918.094
       361   12 Jun 2027 08:29:18.153   12 Jun 2027 08:29:24.845             6.692          3071.875
       362   12 Jun 2027 08:30:17.984   12 Jun 2027 08:30:23.653             5.669          1660.594
       363   12 Jun 2027 08:30:42.964   12 Jun 2027 08:30:45.575             2.611           580.844
       364   12 Jun 2027 08:31:28.154   12 Jun 2027 08:31:34.664             6.510          1080.781
       365   12 Jun 2027 08:31:54.129   12 Jun 2027 08:31:56.454             2.325           474.094
       366   12 Jun 2027 08:32:50.617   12 Jun 2027 08:32:53.287             2.670           514.594
       367   12 Jun 2027 08:33:23.094   12 Jun 2027 08:33:26.154             3.060           873.750
       368   12 Jun 2027 08:33:36.510   12 Jun 2027 08:33:37.368             0.858            84.781
       369   12 Jun 2027 08:34:21.101   12 Jun 2027 08:34:28.598             7.497          1259.719
       370   12 Jun 2027 08:34:41.240   12 Jun 2027 08:34:41.476             0.236            57.281
       371   12 Jun 2027 10:04:09.578   12 Jun 2027 10:04:25.485            15.907          6889.375
       372   12 Jun 2027 10:06:46.326   12 Jun 2027 10:06:52.389             6.063          2142.750
       373   12 Jun 2027 10:07:30.730   12 Jun 2027 10:07:38.575             7.845          1198.156
       374   12 Jun 2027 10:07:51.237   12 Jun 2027 10:07:52.736             1.499           369.688
       375   12 Jun 2027 10:08:06.762   12 Jun 2027 10:08:10.765             4.003           395.906
       376   12 Jun 2027 10:08:24.062   12 Jun 2027 10:08:26.147             2.085           397.250
       377   12 Jun 2027 10:08:40.747   12 Jun 2027 10:08:41.814             1.067           316.562
       378   12 Jun 2027 10:08:52.601   12 Jun 2027 10:08:56.470             3.869           337.094
       379   12 Jun 2027 10:09:37.826   12 Jun 2027 10:09:40.217             2.391           652.969
       380   12 Jun 2027 10:10:10.317   12 Jun 2027 10:10:13.654             3.337           395.969
       381   12 Jun 2027 11:42:07.776   12 Jun 2027 11:42:17.899            10.123          5011.344
       382   12 Jun 2027 11:43:52.710   12 Jun 2027 11:43:55.922             3.212          1425.344
       383   12 Jun 2027 11:44:17.197   12 Jun 2027 11:44:19.797             2.600           576.750
       384   12 Jun 2027 11:44:46.338   12 Jun 2027 11:44:50.232             3.894           819.437
       385   12 Jun 2027 11:45:28.982   12 Jun 2027 11:45:33.681             4.699           420.156
       386   12 Jun 2027 11:45:56.350   12 Jun 2027 11:45:58.214             1.864           180.469
       387   12 Jun 2027 11:46:12.579   12 Jun 2027 11:46:14.065             1.486           407.406
       388   13 Jun 2027 03:52:31.114   13 Jun 2027 03:52:32.211             1.097           548.500
       389   13 Jun 2027 03:52:45.045   13 Jun 2027 03:53:15.078            30.033         15016.500
       390   13 Jun 2027 03:54:34.606   13 Jun 2027 03:54:38.124             3.518          1759.000
       391   13 Jun 2027 04:04:43.638   13 Jun 2027 04:05:15.183            31.545         15772.500
       392   13 Jun 2027 05:26:35.897   13 Jun 2027 05:27:50.762            74.865         37432.500
       393   13 Jun 2027 05:28:39.969   13 Jun 2027 05:29:50.594            70.625         35312.500
       394   13 Jun 2027 05:30:18.283   13 Jun 2027 05:30:18.283             0.000             0.000
       395   13 Jun 2027 05:30:45.193   13 Jun 2027 05:31:08.471            23.278         11639.000
       396   13 Jun 2027 07:01:24.741   13 Jun 2027 07:02:52.493            87.752         43264.656
       397   13 Jun 2027 07:03:37.433   13 Jun 2027 07:03:37.433             0.000             0.000
       398   13 Jun 2027 07:04:09.651   13 Jun 2027 07:04:21.901            12.250          1510.063
       399   13 Jun 2027 07:04:55.621   13 Jun 2027 07:04:57.452             1.831           140.000
       400   13 Jun 2027 07:04:59.666   13 Jun 2027 07:04:59.666             0.000             0.000
       401   13 Jun 2027 07:05:16.985   13 Jun 2027 07:05:18.925             1.940           584.750
       402   13 Jun 2027 07:05:27.299   13 Jun 2027 07:05:31.448             4.149           237.594
       403   13 Jun 2027 07:06:28.303   13 Jun 2027 07:06:34.353             6.050          1416.094
       404   13 Jun 2027 07:07:52.222   13 Jun 2027 07:07:55.874             3.652          1697.188
       405   13 Jun 2027 07:08:57.151   13 Jun 2027 07:09:08.496            11.345          1736.000
       406   13 Jun 2027 07:09:14.369   13 Jun 2027 07:09:15.589             1.220           183.531
       407   13 Jun 2027 07:09:46.688   13 Jun 2027 07:09:49.086             2.398           800.406
       408   13 Jun 2027 07:10:18.652   13 Jun 2027 07:10:24.303             5.651           923.938
       409   13 Jun 2027 08:39:17.172   13 Jun 2027 08:39:28.129            10.957          3984.094
       410   13 Jun 2027 08:40:14.083   13 Jun 2027 08:40:16.436             2.353          1003.813
       411   13 Jun 2027 08:41:21.832   13 Jun 2027 08:41:23.651             1.819           553.500
       412   13 Jun 2027 08:43:17.310   13 Jun 2027 08:43:23.673             6.363          1989.844
       413   13 Jun 2027 08:43:32.906   13 Jun 2027 08:43:33.597             0.691           157.438
       414   13 Jun 2027 08:44:59.661   13 Jun 2027 08:45:05.043             5.382           863.656
       415   13 Jun 2027 08:45:28.303   13 Jun 2027 08:45:30.324             2.021           403.844
       416   13 Jun 2027 08:46:20.843   13 Jun 2027 08:46:24.710             3.867           667.094
       417   13 Jun 2027 08:46:40.188   13 Jun 2027 08:46:41.438             1.250           251.375
       418   13 Jun 2027 10:16:01.363   13 Jun 2027 10:16:12.526            11.163          5438.406
       419   13 Jun 2027 10:16:33.768   13 Jun 2027 10:16:34.511             0.743           118.844
       420   13 Jun 2027 10:18:41.268   13 Jun 2027 10:18:45.645             4.377          2020.125
       421   13 Jun 2027 10:19:33.601   13 Jun 2027 10:19:38.222             4.621          1057.281
       422   13 Jun 2027 10:20:11.055   13 Jun 2027 10:20:13.385             2.330           977.031
       423   13 Jun 2027 10:20:21.977   13 Jun 2027 10:20:22.578             0.601           268.500
       424   13 Jun 2027 10:20:29.133   13 Jun 2027 10:20:29.854             0.721           125.375
       425   13 Jun 2027 10:20:55.394   13 Jun 2027 10:20:56.894             1.500           741.188
       426   13 Jun 2027 10:21:21.502   13 Jun 2027 10:21:23.716             2.214           758.500
       427   13 Jun 2027 10:21:36.340   13 Jun 2027 10:21:37.231             0.891           253.406
       428   13 Jun 2027 10:22:25.381   13 Jun 2027 10:22:26.955             1.574           306.875
       429   13 Jun 2027 11:54:11.301   13 Jun 2027 11:54:24.495            13.194          5855.469
       430   13 Jun 2027 11:57:17.029   13 Jun 2027 11:57:20.722             3.693           745.188
