uniorb/output/strategy_3/Camera/Camera_KinoSat_111202.txt

KinoSat_111202
-------------------------
    Access    *     Start Time (UTCG)     *     Stop Time (UTCG)  *   Duration (s) *   Data (Mbytes)
         1   01 Jun 2027 03:49:35.183   01 Jun 2027 03:50:02.193            27.010         13505.000
         2   01 Jun 2027 04:00:30.828   01 Jun 2027 04:04:00.247           209.419        104709.500
         3   01 Jun 2027 05:24:27.806   01 Jun 2027 05:27:23.262           175.456         87728.000
         4   01 Jun 2027 07:00:12.696   01 Jun 2027 07:04:30.173           257.477        128738.500
         5   01 Jun 2027 08:34:56.531   01 Jun 2027 08:40:28.340           331.809        165319.000
