uniorb/output/strategy_3/Camera/Camera_KinoSat_111207.txt

KinoSat_111207
-------------------------
    Access    *     Start Time (UTCG)     *     Stop Time (UTCG)  *   Duration (s) *   Data (Mbytes)
         1   01 Jun 2027 03:12:25.441   01 Jun 2027 03:17:19.817           294.376        147188.000
         2   01 Jun 2027 04:36:09.591   01 Jun 2027 04:38:27.118           137.527         68763.500
         3   01 Jun 2027 06:12:20.867   01 Jun 2027 06:15:51.937           211.070        105535.000
         4   01 Jun 2027 07:45:54.313   01 Jun 2027 07:51:51.359           357.046        178513.500
