uniorb/output/strategy_3/Camera/Camera_KinoSat_110509.txt

KinoSat_110509
-------------------------
    Access    *     Start Time (UTCG)     *     Stop Time (UTCG)  *   Duration (s) *   Data (Mbytes)
         1   01 Jun 2027 03:10:15.087   01 Jun 2027 03:13:46.913           211.826        105913.000
         2   01 Jun 2027 04:45:25.089   01 Jun 2027 04:52:01.702           396.613        198306.500
         3   01 Jun 2027 06:21:50.600   01 Jun 2027 06:27:57.883           367.283        183641.500
         4   01 Jun 2027 07:59:05.030   01 Jun 2027 08:03:41.832           276.802        138401.000
         5   01 Jun 2027 09:35:19.551   01 Jun 2027 09:40:01.535           281.984        140992.000
         6   02 Jun 2027 03:22:08.037   02 Jun 2027 03:26:10.323           242.286        121143.000
         7   02 Jun 2027 04:57:04.235   02 Jun 2027 05:00:51.282           227.047        111603.000
