uniorb/output/strategy_3/Camera/Camera_KinoSat_111502.txt

KinoSat_111502
-------------------------
    Access    *     Start Time (UTCG)     *     Stop Time (UTCG)  *   Duration (s) *   Data (Mbytes)
         1   01 Jun 2027 03:48:22.715   01 Jun 2027 03:55:47.197           444.482        222241.000
         2   01 Jun 2027 05:13:35.046   01 Jun 2027 05:14:52.956            77.910         38955.000
         3   01 Jun 2027 05:25:06.474   01 Jun 2027 05:26:34.335            87.861         43930.500
         4   01 Jun 2027 06:47:45.216   01 Jun 2027 06:48:43.713            58.497         29248.500
         5   01 Jun 2027 06:49:20.841   01 Jun 2027 06:52:25.130           184.289         92144.500
         6   01 Jun 2027 08:22:53.278   01 Jun 2027 08:24:05.481            72.203         36101.500
         7   01 Jun 2027 08:24:36.152   01 Jun 2027 08:25:54.653            78.501         37379.000
