uniorb/output/strategy_3/Camera/Camera_KinoSat_110608.txt

KinoSat_110608
-------------------------
    Access    *     Start Time (UTCG)     *     Stop Time (UTCG)  *   Duration (s) *   Data (Mbytes)
         1   01 Jun 2027 03:15:12.391   01 Jun 2027 03:18:41.415           209.024        104512.000
         2   01 Jun 2027 04:48:44.848   01 Jun 2027 04:56:15.427           450.579        225289.500
         3   01 Jun 2027 04:56:18.718   01 Jun 2027 04:57:19.109            60.391         30195.500
         4   01 Jun 2027 06:26:10.878   01 Jun 2027 06:30:51.988           281.110        140003.000
