uniorb/output/strategy_3/Camera/Camera_KinoSat_111802.txt

KinoSat_111802
-------------------------
    Access    *     Start Time (UTCG)     *     Stop Time (UTCG)  *   Duration (s) *   Data (Mbytes)
         1   01 Jun 2027 03:34:07.685   01 Jun 2027 03:40:14.412           366.727        183363.500
         2   01 Jun 2027 05:13:11.667   01 Jun 2027 05:20:18.143           426.476        213238.000
         3   01 Jun 2027 06:38:00.939   01 Jun 2027 06:39:36.180            95.241         47620.500
         4   01 Jun 2027 06:49:40.894   01 Jun 2027 06:50:39.774            58.880         29440.000
         5   01 Jun 2027 08:11:58.852   01 Jun 2027 08:12:55.662            56.810         26338.000
