uniorb/output/strategy_3/Camera/Camera_KinoSat_110906.txt

KinoSat_110906
-------------------------
    Access    *     Start Time (UTCG)     *     Stop Time (UTCG)  *   Duration (s) *   Data (Mbytes)
         1   01 Jun 2027 03:21:26.235   01 Jun 2027 03:23:59.689           153.454         76727.000
         2   01 Jun 2027 04:57:48.616   01 Jun 2027 05:01:16.649           208.033        104016.500
         3   01 Jun 2027 06:31:43.679   01 Jun 2027 06:38:48.370           424.691        212345.500
         4   01 Jun 2027 06:38:49.683   01 Jun 2027 06:39:50.452            60.769         30384.500
         5   01 Jun 2027 08:08:55.387   01 Jun 2027 08:11:30.379           154.992         76526.500
