uniorb/output/strategy_3/Camera/Camera_KinoSat_110810.txt

KinoSat_110810
-------------------------
    Access    *     Start Time (UTCG)     *     Stop Time (UTCG)  *   Duration (s) *   Data (Mbytes)
         1   01 Jun 2027 04:23:32.640   01 Jun 2027 04:27:01.197           208.557        104278.500
         2   01 Jun 2027 05:57:01.952   01 Jun 2027 06:05:34.245           512.293        256146.500
         3   01 Jun 2027 07:34:33.964   01 Jun 2027 07:39:15.064           281.100        139575.000
