uniorb/output/strategy_3/Camera/Camera_KinoSat_110703.txt

KinoSat_110703
-------------------------
    Access    *     Start Time (UTCG)     *     Stop Time (UTCG)  *   Duration (s) *   Data (Mbytes)
         1   01 Jun 2027 03:58:53.809   01 Jun 2027 04:02:27.943           214.134        107067.000
         2   01 Jun 2027 05:31:10.876   01 Jun 2027 05:31:30.243            19.367          9683.500
         3   01 Jun 2027 05:32:57.859   01 Jun 2027 05:39:52.727           414.868        207434.000
         4   01 Jun 2027 05:39:54.843   01 Jun 2027 05:40:56.015            61.172         30586.000
         5   01 Jun 2027 07:10:02.246   01 Jun 2027 07:14:55.344           293.098        145229.500
