uniorb/output/strategy_3/Camera/Camera_KinoSat_111508.txt

KinoSat_111508
-------------------------
    Access    *     Start Time (UTCG)     *     Stop Time (UTCG)  *   Duration (s) *   Data (Mbytes)
         1   01 Jun 2027 04:27:42.693   01 Jun 2027 04:32:23.810           281.117        140558.500
         2   01 Jun 2027 05:51:10.983   01 Jun 2027 05:53:29.910           138.927         69463.500
         3   01 Jun 2027 07:27:23.663   01 Jun 2027 07:30:54.933           211.270        105635.000
         4   01 Jun 2027 09:00:56.966   01 Jun 2027 09:07:07.156           370.190        184343.000
