uniorb/output/strategy_3/Camera/Camera_KinoSat_111603.txt

KinoSat_111603
-------------------------
    Access    *     Start Time (UTCG)     *     Stop Time (UTCG)  *   Duration (s) *   Data (Mbytes)
         1   01 Jun 2027 03:33:44.241   01 Jun 2027 03:34:45.080            60.839         30419.500
         2   01 Jun 2027 03:34:50.756   01 Jun 2027 03:39:52.199           301.443        150721.500
         3   01 Jun 2027 05:12:45.382   01 Jun 2027 05:16:15.321           209.939        104969.500
         4   01 Jun 2027 06:35:17.069   01 Jun 2027 06:37:55.624           158.555         79277.500
         5   01 Jun 2027 08:11:42.767   01 Jun 2027 08:15:15.511           212.744        106372.000
         6   01 Jun 2027 09:46:51.002   01 Jun 2027 09:47:48.797            57.795         28240.000
