uniorb/output/strategy_3/Camera/Camera_KinoSat_111809.txt

KinoSat_111809
-------------------------
    Access    *     Start Time (UTCG)     *     Stop Time (UTCG)  *   Duration (s) *   Data (Mbytes)
         1   01 Jun 2027 04:04:20.417   01 Jun 2027 04:05:14.251            53.834         26917.000
         2   01 Jun 2027 04:05:23.607   01 Jun 2027 04:06:05.323            41.716         20858.000
         3   01 Jun 2027 04:06:05.879   01 Jun 2027 04:09:36.822           210.943        105471.500
         4   01 Jun 2027 05:42:45.655   01 Jun 2027 05:47:27.200           281.545        140772.500
         5   01 Jun 2027 07:06:12.172   01 Jun 2027 07:08:31.607           139.435         69717.500
         6   01 Jun 2027 08:42:25.380   01 Jun 2027 08:45:56.504           211.124        105562.000
         7   01 Jun 2027 10:15:58.575   01 Jun 2027 10:17:01.466            62.891         30701.500
