uniorb/output/strategy_3/Camera/Camera_KinoSat_111103.txt

KinoSat_111103
-------------------------
    Access    *     Start Time (UTCG)     *     Stop Time (UTCG)  *   Duration (s) *   Data (Mbytes)
         1   01 Jun 2027 03:43:01.034   01 Jun 2027 03:44:37.021            95.987         47993.500
         2   01 Jun 2027 03:54:45.136   01 Jun 2027 03:55:43.299            58.163         29081.500
         3   01 Jun 2027 05:16:58.684   01 Jun 2027 05:18:04.908            66.224         33112.000
         4   01 Jun 2027 05:18:52.441   01 Jun 2027 05:22:13.400           200.959        100479.500
         5   01 Jun 2027 06:51:54.219   01 Jun 2027 06:53:53.430           119.211         59605.500
         6   01 Jun 2027 06:54:00.627   01 Jun 2027 06:59:09.726           309.099        154549.500
         7   01 Jun 2027 06:59:54.667   01 Jun 2027 07:00:19.695            25.028         12514.000
         8   01 Jun 2027 08:29:24.952   01 Jun 2027 08:31:31.497           126.545         62664.501
