uniorb/output/strategy_3/Camera/Camera_KinoSat_110403.txt

KinoSat_110403
-------------------------
    Access    *     Start Time (UTCG)     *     Stop Time (UTCG)  *   Duration (s) *   Data (Mbytes)
         1   01 Jun 2027 04:11:35.238   01 Jun 2027 04:18:10.905           395.667        197833.500
         2   01 Jun 2027 05:47:55.073   01 Jun 2027 05:53:39.037           343.964        171982.000
         3   01 Jun 2027 05:53:46.590   01 Jun 2027 05:53:58.435            11.845          5922.500
         4   01 Jun 2027 07:25:21.588   01 Jun 2027 07:29:54.261           272.673        136336.500
         5   01 Jun 2027 09:01:25.239   01 Jun 2027 09:05:35.723           250.484        125242.000
         6   01 Jun 2027 09:05:40.741   01 Jun 2027 09:06:17.564            36.823         18411.500
         7   02 Jun 2027 04:23:04.517   02 Jun 2027 04:30:20.228           435.711        217855.500
         8   02 Jun 2027 05:59:34.806   02 Jun 2027 06:03:48.367           253.561        126416.500
