uniorb/output/strategy_3/Camera/Camera_KinoSat_110602.txt

KinoSat_110602
-------------------------
    Access    *     Start Time (UTCG)     *     Stop Time (UTCG)  *   Duration (s) *   Data (Mbytes)
         1   01 Jun 2027 04:10:56.361   01 Jun 2027 04:11:51.458            55.097         27548.500
         2   01 Jun 2027 04:12:26.956   01 Jun 2027 04:17:11.045           284.089        142044.500
         3   01 Jun 2027 05:47:21.691   01 Jun 2027 05:54:53.523           451.832        225916.000
         4   01 Jun 2027 07:24:27.800   01 Jun 2027 07:27:57.105           209.305        104491.000
