uniorb/output/strategy_3/Camera/Camera_KinoSat_111501.txt

KinoSat_111501
-------------------------
    Access    *     Start Time (UTCG)     *     Stop Time (UTCG)  *   Duration (s) *   Data (Mbytes)
         1   01 Jun 2027 03:58:10.180   01 Jun 2027 04:05:17.824           427.644        213822.000
         2   01 Jun 2027 05:22:59.479   01 Jun 2027 05:24:34.471            94.992         47496.000
         3   01 Jun 2027 05:34:40.001   01 Jun 2027 05:35:41.179            61.178         30589.000
         4   01 Jun 2027 06:56:58.104   01 Jun 2027 06:58:04.289            66.185         33092.500
         5   01 Jun 2027 06:58:52.290   01 Jun 2027 07:02:10.917           198.627         99313.500
         6   01 Jun 2027 08:31:54.344   01 Jun 2027 08:33:51.896           117.552         58776.000
         7   01 Jun 2027 08:33:59.979   01 Jun 2027 08:34:34.684            34.705         16911.000
