uniorb/output/strategy_3/Camera/Camera_KinoSat_111907.txt

KinoSat_111907
-------------------------
    Access    *     Start Time (UTCG)     *     Stop Time (UTCG)  *   Duration (s) *   Data (Mbytes)
         1   01 Jun 2027 04:19:10.645   01 Jun 2027 04:19:34.828            24.183         12091.500
         2   01 Jun 2027 04:19:37.778   01 Jun 2027 04:20:54.608            76.830         38415.000
         3   01 Jun 2027 04:20:58.772   01 Jun 2027 04:24:44.828           226.056        113028.000
         4   01 Jun 2027 05:57:33.640   01 Jun 2027 06:03:30.368           356.728        178364.000
         5   01 Jun 2027 07:21:37.122   01 Jun 2027 07:23:37.680           120.558         60279.000
         6   01 Jun 2027 08:55:23.499   01 Jun 2027 08:58:41.302           197.803         97822.500
