uniorb/output/strategy_3/Camera/Camera_KinoSat_111405.txt

KinoSat_111405
-------------------------
    Access    *     Start Time (UTCG)     *     Stop Time (UTCG)  *   Duration (s) *   Data (Mbytes)
         1   01 Jun 2027 03:23:20.329   01 Jun 2027 03:30:44.750           444.421        222210.500
         2   01 Jun 2027 04:48:35.156   01 Jun 2027 04:49:50.732            75.576         37788.000
         3   01 Jun 2027 05:00:04.074   01 Jun 2027 05:01:42.134            98.060         49030.000
         4   01 Jun 2027 06:22:43.330   01 Jun 2027 06:23:42.326            58.996         29498.000
         5   01 Jun 2027 06:24:19.086   01 Jun 2027 06:27:22.724           183.638         91819.000
         6   01 Jun 2027 07:58:03.089   01 Jun 2027 07:59:02.105            59.016         29508.000
         7   01 Jun 2027 07:59:35.243   01 Jun 2027 08:00:59.821            84.578         40146.500
