uniorb/output/strategy_3/Camera/Camera_KinoSat_111808.txt

KinoSat_111808
-------------------------
    Access    *     Start Time (UTCG)     *     Stop Time (UTCG)  *   Duration (s) *   Data (Mbytes)
         1   01 Jun 2027 04:13:57.685   01 Jun 2027 04:14:25.867            28.182         14091.000
         2   01 Jun 2027 04:14:29.882   01 Jun 2027 04:20:09.363           339.481        169740.500
         3   01 Jun 2027 05:51:58.351   01 Jun 2027 05:56:51.438           293.087        146543.500
         4   01 Jun 2027 07:15:39.204   01 Jun 2027 07:18:15.518           156.314         78157.000
         5   01 Jun 2027 08:52:03.266   01 Jun 2027 08:55:07.974           184.708         91468.000
