uniorb/output/strategy_3/Camera/Camera_KinoSat_110207.txt

KinoSat_110207
-------------------------
    Access    *     Start Time (UTCG)     *     Stop Time (UTCG)  *   Duration (s) *   Data (Mbytes)
         1   01 Jun 2027 03:41:54.257   01 Jun 2027 03:49:22.553           448.296        224148.000
         2   01 Jun 2027 05:18:48.694   01 Jun 2027 05:24:10.694           322.000        161000.000
         3   01 Jun 2027 05:24:29.741   01 Jun 2027 05:25:20.399            50.658         25329.000
         4   01 Jun 2027 06:56:32.293   01 Jun 2027 07:00:54.054           261.761        130880.500
         5   01 Jun 2027 08:30:46.644   01 Jun 2027 08:31:46.902            60.258         30129.000
         6   01 Jun 2027 08:32:31.830   01 Jun 2027 08:36:06.908           215.078        107539.000
         7   02 Jun 2027 03:54:15.168   02 Jun 2027 04:01:16.031           420.863        210431.500
         8   02 Jun 2027 05:31:18.918   02 Jun 2027 05:35:00.491           221.573        110542.999
