uniorb/output/strategy_3/Camera/Camera_KinoSat_110406.txt

KinoSat_110406
-------------------------
    Access    *     Start Time (UTCG)     *     Stop Time (UTCG)  *   Duration (s) *   Data (Mbytes)
         1   01 Jun 2027 03:40:58.918   01 Jun 2027 03:49:29.823           510.905        255452.500
         2   01 Jun 2027 05:18:29.731   01 Jun 2027 05:25:14.818           405.087        202543.500
         3   01 Jun 2027 06:55:26.057   01 Jun 2027 06:59:49.641           263.584        131792.000
         4   01 Jun 2027 06:59:57.614   01 Jun 2027 07:01:12.954            75.340         37670.000
         5   01 Jun 2027 08:32:16.512   01 Jun 2027 08:36:48.958           272.446        136223.000
         6   01 Jun 2027 10:09:53.525   01 Jun 2027 10:11:36.161           102.636         51318.000
         7   02 Jun 2027 03:53:48.459   02 Jun 2027 03:59:59.701           371.242        185001.000
