uniorb/output/strategy_3/Camera/Camera_KinoSat_110907.txt

KinoSat_110907
-------------------------
    Access    *     Start Time (UTCG)     *     Stop Time (UTCG)  *   Duration (s) *   Data (Mbytes)
         1   01 Jun 2027 03:11:59.260   01 Jun 2027 03:14:14.322           135.062         67531.000
         2   01 Jun 2027 04:47:58.350   01 Jun 2027 04:51:49.888           231.538        115769.000
         3   01 Jun 2027 06:21:44.833   01 Jun 2027 06:30:17.491           512.658        256329.000
         4   01 Jun 2027 07:59:02.572   01 Jun 2027 08:01:10.490           127.918         60371.000
