uniorb/output/strategy_3/Camera/Camera_KinoSat_111807.txt

KinoSat_111807
-------------------------
    Access    *     Start Time (UTCG)     *     Stop Time (UTCG)  *   Duration (s) *   Data (Mbytes)
         1   01 Jun 2027 04:23:42.737   01 Jun 2027 04:24:44.086            61.349         30674.500
         2   01 Jun 2027 04:24:49.706   01 Jun 2027 04:29:52.706           303.000        151500.000
         3   01 Jun 2027 06:02:44.657   01 Jun 2027 06:06:14.444           209.787        104893.500
         4   01 Jun 2027 07:25:16.135   01 Jun 2027 07:27:51.288           155.153         77576.500
         5   01 Jun 2027 09:01:42.040   01 Jun 2027 09:05:15.028           212.988        106494.000
         6   01 Jun 2027 10:36:50.354   01 Jun 2027 10:37:48.771            58.417         28861.500
