uniorb/output/strategy_3/Camera/Camera_KinoSat_111910.txt

KinoSat_111910
-------------------------
    Access    *     Start Time (UTCG)     *     Stop Time (UTCG)  *   Duration (s) *   Data (Mbytes)
         1   01 Jun 2027 03:49:21.768   01 Jun 2027 03:55:48.092           386.324        193162.000
         2   01 Jun 2027 05:28:19.682   01 Jun 2027 05:35:43.927           444.245        222122.500
         3   01 Jun 2027 06:53:35.976   01 Jun 2027 06:54:49.460            73.484         36742.000
         4   01 Jun 2027 07:05:03.514   01 Jun 2027 07:06:31.074            87.560         43780.000
         5   01 Jun 2027 08:27:42.295   01 Jun 2027 08:27:51.355             9.060          4193.500
