uniorb/output/strategy_3/Camera/Camera_KinoSat_111707.txt

KinoSat_111707
-------------------------
    Access    *     Start Time (UTCG)     *     Stop Time (UTCG)  *   Duration (s) *   Data (Mbytes)
         1   01 Jun 2027 04:28:32.452   01 Jun 2027 04:34:11.141           338.689        169344.500
         2   01 Jun 2027 04:34:41.975   01 Jun 2027 04:36:17.526            95.551         47775.500
         3   01 Jun 2027 05:54:36.955   01 Jun 2027 05:55:08.079            31.124         15562.000
         4   01 Jun 2027 06:05:34.822   01 Jun 2027 06:08:54.529           199.707         99853.500
         5   01 Jun 2027 07:28:54.170   01 Jun 2027 07:32:29.735           215.565        107782.500
         6   01 Jun 2027 09:05:16.457   01 Jun 2027 09:07:23.771           127.314         59682.000
