uniorb/output/strategy_3/Camera/Camera_KinoSat_111109.txt

KinoSat_111109
-------------------------
    Access    *     Start Time (UTCG)     *     Stop Time (UTCG)  *   Duration (s) *   Data (Mbytes)
         1   01 Jun 2027 03:00:00.000   01 Jun 2027 03:01:51.331           111.331         55665.500
         2   01 Jun 2027 04:20:39.042   01 Jun 2027 04:23:16.056           157.014         78507.000
         3   01 Jun 2027 05:57:03.374   01 Jun 2027 06:00:37.550           214.176        107088.000
         4   01 Jun 2027 07:31:09.125   01 Jun 2027 07:38:00.596           411.471        205735.500
         5   01 Jun 2027 07:38:02.923   01 Jun 2027 07:39:03.843            60.920         30460.000
         6   01 Jun 2027 09:08:09.282   01 Jun 2027 09:08:55.985            46.703         22544.000
