uniorb/output/strategy_3/Camera/Camera_KinoSat_110601.txt

KinoSat_110601
-------------------------
    Access    *     Start Time (UTCG)     *     Stop Time (UTCG)  *   Duration (s) *   Data (Mbytes)
         1   01 Jun 2027 04:19:46.789   01 Jun 2027 04:21:39.745           112.956         56478.000
         2   01 Jun 2027 04:21:50.308   01 Jun 2027 04:27:04.884           314.576        157288.000
         3   01 Jun 2027 04:27:43.114   01 Jun 2027 04:28:06.330            23.216         11608.000
         4   01 Jun 2027 05:57:12.496   01 Jun 2027 06:04:31.462           438.966        219483.000
         5   01 Jun 2027 07:33:59.559   01 Jun 2027 07:35:51.713           112.154         55143.000
