uniorb/output/strategy_3/Camera/Camera_KinoSat_111609.txt

KinoSat_111609
-------------------------
    Access    *     Start Time (UTCG)     *     Stop Time (UTCG)  *   Duration (s) *   Data (Mbytes)
         1   01 Jun 2027 04:13:25.203   01 Jun 2027 04:20:47.862           442.659        221329.500
         2   01 Jun 2027 05:38:34.825   01 Jun 2027 05:39:54.777            79.952         39976.000
         3   01 Jun 2027 05:50:09.822   01 Jun 2027 05:51:36.099            86.277         43138.500
         4   01 Jun 2027 07:12:45.495   01 Jun 2027 07:13:44.120            58.625         29312.500
         5   01 Jun 2027 07:14:22.776   01 Jun 2027 07:17:27.373           184.597         92298.500
         6   01 Jun 2027 08:47:54.502   01 Jun 2027 08:49:08.474            73.972         36986.000
         7   01 Jun 2027 08:49:37.276   01 Jun 2027 08:50:51.310            74.034         36959.000
