uniorb/output/strategy_3/Camera/Camera_KinoSat_110107.txt

KinoSat_110107
-------------------------
    Access    *     Start Time (UTCG)     *     Stop Time (UTCG)  *   Duration (s) *   Data (Mbytes)
         1   01 Jun 2027 03:47:48.833   01 Jun 2027 03:53:35.854           347.021        173510.500
         2   01 Jun 2027 03:53:44.116   01 Jun 2027 03:53:54.295            10.179          5089.500
         3   01 Jun 2027 05:25:20.519   01 Jun 2027 05:29:51.175           270.656        135328.000
         4   01 Jun 2027 07:01:21.322   01 Jun 2027 07:05:32.616           251.294        125647.000
         5   01 Jun 2027 07:05:36.915   01 Jun 2027 07:06:17.855            40.940         20470.000
         6   02 Jun 2027 03:59:32.258   02 Jun 2027 04:05:55.382           383.124        191562.000
         7   02 Jun 2027 05:37:49.475   02 Jun 2027 05:41:33.065           223.590        111795.000
         8   02 Jun 2027 07:13:10.591   02 Jun 2027 07:17:19.504           248.913        124456.500
         9   02 Jun 2027 07:17:39.376   02 Jun 2027 07:18:38.420            59.044         29522.000
        10   03 Jun 2027 04:11:52.716   03 Jun 2027 04:14:38.041           165.325         82619.500
