uniorb/output/strategy_3/Camera/Camera_KinoSat_110404.txt

KinoSat_110404
-------------------------
    Access    *     Start Time (UTCG)     *     Stop Time (UTCG)  *   Duration (s) *   Data (Mbytes)
         1   01 Jun 2027 04:01:51.229   01 Jun 2027 04:08:37.990           406.761        203380.500
         2   01 Jun 2027 05:38:13.400   01 Jun 2027 05:44:32.773           379.373        189686.500
         3   01 Jun 2027 07:15:41.660   01 Jun 2027 07:20:09.530           267.870        133935.000
         4   01 Jun 2027 08:51:47.968   01 Jun 2027 08:56:02.033           254.065        127032.500
         5   02 Jun 2027 04:14:00.213   02 Jun 2027 04:20:36.635           396.422        198211.000
         6   02 Jun 2027 05:50:13.212   02 Jun 2027 05:55:08.960           295.748        147754.500
