uniorb/output/strategy_3/Camera/Camera_KinoSat_110505.txt

KinoSat_110505
-------------------------
    Access    *     Start Time (UTCG)     *     Stop Time (UTCG)  *   Duration (s) *   Data (Mbytes)
         1   01 Jun 2027 03:45:47.450   01 Jun 2027 03:47:41.826           114.376         57188.000
         2   01 Jun 2027 03:47:50.877   01 Jun 2027 03:53:08.116           317.239        158619.500
         3   01 Jun 2027 03:53:44.295   01 Jun 2027 03:54:08.984            24.689         12344.500
         4   01 Jun 2027 05:23:15.721   01 Jun 2027 05:30:33.813           438.092        219046.000
         5   01 Jun 2027 07:00:00.664   01 Jun 2027 07:06:12.636           371.972        185986.000
         6   01 Jun 2027 07:06:16.754   01 Jun 2027 07:06:32.834            16.080          8040.000
         7   01 Jun 2027 08:37:58.910   01 Jun 2027 08:42:09.497           250.587        125293.500
         8   01 Jun 2027 10:11:36.726   01 Jun 2027 10:19:00.765           444.039        222019.500
         9   02 Jun 2027 03:57:15.330   02 Jun 2027 03:57:40.125            24.795         11463.001
