uniorb/output/strategy_3/Camera/Camera_KinoSat_110104.txt

KinoSat_110104
-------------------------
    Access    *     Start Time (UTCG)     *     Stop Time (UTCG)  *   Duration (s) *   Data (Mbytes)
         1   01 Jun 2027 04:16:35.135   01 Jun 2027 04:22:43.711           368.576        184288.000
         2   01 Jun 2027 05:54:31.435   01 Jun 2027 05:58:30.297           238.862        119431.000
         3   01 Jun 2027 07:27:53.014   01 Jun 2027 07:35:34.920           461.906        230953.000
         4   02 Jun 2027 04:28:25.945   02 Jun 2027 04:34:22.378           356.433        178216.500
         5   02 Jun 2027 04:34:41.426   02 Jun 2027 04:35:09.108            27.682         13841.000
         6   02 Jun 2027 06:06:28.534   02 Jun 2027 06:10:38.822           250.288        125144.000
         7   02 Jun 2027 07:40:19.324   02 Jun 2027 07:45:15.629           296.305        148126.500
