uniorb/output/strategy_3/Camera/Camera_KinoSat_111908.txt

KinoSat_111908
-------------------------
    Access    *     Start Time (UTCG)     *     Stop Time (UTCG)  *   Duration (s) *   Data (Mbytes)
         1   01 Jun 2027 04:08:54.222   01 Jun 2027 04:10:02.285            68.063         34031.500
         2   01 Jun 2027 04:10:05.237   01 Jun 2027 04:11:03.912            58.675         29337.500
         3   01 Jun 2027 04:11:05.081   01 Jun 2027 04:14:53.874           228.793        114396.500
         4   01 Jun 2027 05:47:41.463   01 Jun 2027 05:54:45.673           424.210        212105.000
         5   01 Jun 2027 07:12:01.796   01 Jun 2027 07:14:15.233           133.437         66718.500
         6   01 Jun 2027 07:24:16.118   01 Jun 2027 07:24:47.459            31.341         15670.500
         7   01 Jun 2027 08:46:12.137   01 Jun 2027 08:47:15.662            63.525         27740.500
