uniorb/output/strategy_3/Camera/Camera_KinoSat_110607.txt

KinoSat_110607
-------------------------
    Access    *     Start Time (UTCG)     *     Stop Time (UTCG)  *   Duration (s) *   Data (Mbytes)
         1   01 Jun 2027 03:24:48.572   01 Jun 2027 03:28:21.917           213.345        106672.500
         2   01 Jun 2027 04:58:53.813   01 Jun 2027 05:05:48.035           414.222        207111.000
         3   01 Jun 2027 05:05:50.861   01 Jun 2027 05:06:51.882            61.021         30510.500
         4   01 Jun 2027 06:35:58.031   01 Jun 2027 06:41:09.728           311.697        155706.000
