uniorb/output/strategy_3/Camera/Camera_KinoSat_110405.txt

KinoSat_110405
-------------------------
    Access    *     Start Time (UTCG)     *     Stop Time (UTCG)  *   Duration (s) *   Data (Mbytes)
         1   01 Jun 2027 03:49:11.773   01 Jun 2027 03:49:22.107            10.334          5167.000
         2   01 Jun 2027 03:51:09.795   01 Jun 2027 03:57:57.799           408.004        204002.000
         3   01 Jun 2027 03:58:00.787   01 Jun 2027 03:58:58.834            58.047         29023.500
         4   01 Jun 2027 05:28:08.679   01 Jun 2027 05:34:52.958           404.279        202139.500
         5   01 Jun 2027 07:05:30.582   01 Jun 2027 07:09:33.872           243.290        121645.000
         6   01 Jun 2027 07:09:36.317   01 Jun 2027 07:10:15.237            38.920         19460.000
         7   01 Jun 2027 08:41:54.046   01 Jun 2027 08:46:59.435           305.389        152694.500
         8   01 Jun 2027 10:20:10.510   01 Jun 2027 10:20:51.048            40.538         20269.000
         9   02 Jun 2027 04:04:23.657   02 Jun 2027 04:11:00.991           397.334        198667.000
        10   02 Jun 2027 05:40:42.204   02 Jun 2027 05:42:16.313            94.109         46932.500
