uniorb/output/strategy_3/Camera/Camera_KinoSat_111704.txt

KinoSat_111704
-------------------------
    Access    *     Start Time (UTCG)     *     Stop Time (UTCG)  *   Duration (s) *   Data (Mbytes)
         1   01 Jun 2027 03:19:01.874   01 Jun 2027 03:19:28.450            26.576         13288.000
         2   01 Jun 2027 03:19:33.421   01 Jun 2027 03:20:08.044            34.623         17311.500
         3   01 Jun 2027 03:20:11.772   01 Jun 2027 03:25:01.801           290.029        145014.500
         4   01 Jun 2027 04:57:48.420   01 Jun 2027 05:04:49.093           420.673        210336.500
         5   01 Jun 2027 06:22:09.315   01 Jun 2027 06:24:21.019           131.704         65852.000
         6   01 Jun 2027 06:34:25.760   01 Jun 2027 06:34:53.440            27.680         13840.000
         7   01 Jun 2027 07:56:15.861   01 Jun 2027 07:57:25.660            69.799         34357.500
