uniorb/output/strategy_3/Camera/Camera_KinoSat_110409.txt

KinoSat_110409
-------------------------
    Access    *     Start Time (UTCG)     *     Stop Time (UTCG)  *   Duration (s) *   Data (Mbytes)
         1   01 Jun 2027 03:11:47.973   01 Jun 2027 03:13:53.505           125.532         62766.000
         2   01 Jun 2027 03:13:58.111   01 Jun 2027 03:19:19.024           320.913        160456.500
         3   01 Jun 2027 03:19:50.170   01 Jun 2027 03:20:19.599            29.429         14714.500
         4   01 Jun 2027 04:49:22.328   01 Jun 2027 04:56:43.689           441.361        220680.500
         5   01 Jun 2027 06:26:05.169   01 Jun 2027 06:32:18.316           373.147        186573.500
         6   01 Jun 2027 06:32:22.533   01 Jun 2027 06:32:43.342            20.809         10404.500
         7   01 Jun 2027 08:04:08.339   01 Jun 2027 08:08:17.784           249.445        124722.500
         8   01 Jun 2027 09:37:49.547   01 Jun 2027 09:44:45.603           416.056        208028.000
         9   02 Jun 2027 03:23:18.402   02 Jun 2027 03:23:43.653            25.251         11654.000
