uniorb/output/strategy_3/Camera/Camera_KinoSat_111701.txt

KinoSat_111701
-------------------------
    Access    *     Start Time (UTCG)     *     Stop Time (UTCG)  *   Duration (s) *   Data (Mbytes)
         1   01 Jun 2027 03:48:59.135   01 Jun 2027 03:49:27.282            28.147         14073.500
         2   01 Jun 2027 03:49:31.256   01 Jun 2027 03:55:10.465           339.209        169604.500
         3   01 Jun 2027 05:26:59.781   01 Jun 2027 05:31:52.731           292.950        146475.000
         4   01 Jun 2027 06:50:40.600   01 Jun 2027 06:53:17.482           156.882         78441.000
         5   01 Jun 2027 08:27:07.240   01 Jun 2027 08:30:16.670           189.430         91406.000
