uniorb/output/strategy_3/Camera/Camera_KinoSat_111009.txt

KinoSat_111009
-------------------------
    Access    *     Start Time (UTCG)     *     Stop Time (UTCG)  *   Duration (s) *   Data (Mbytes)
         1   01 Jun 2027 03:01:09.997   01 Jun 2027 03:01:49.007            39.010         19505.000
         2   01 Jun 2027 03:02:12.207   01 Jun 2027 03:04:45.114           152.907         76453.500
         3   01 Jun 2027 04:25:04.788   01 Jun 2027 04:27:48.453           163.665         81832.500
         4   01 Jun 2027 06:00:59.739   01 Jun 2027 06:05:03.916           244.177        122088.500
         5   01 Jun 2027 07:35:54.972   01 Jun 2027 07:42:35.277           400.305        200120.500
