uniorb/output/strategy_3/Camera/Camera_KinoSat_110210.txt

KinoSat_110210
-------------------------
    Access    *     Start Time (UTCG)     *     Stop Time (UTCG)  *   Duration (s) *   Data (Mbytes)
         1   01 Jun 2027 03:12:58.512   01 Jun 2027 03:20:33.265           454.753        227376.500
         2   01 Jun 2027 04:50:03.501   01 Jun 2027 04:56:25.903           382.402        191201.000
         3   01 Jun 2027 06:28:02.449   01 Jun 2027 06:31:57.386           234.937        117468.500
         4   01 Jun 2027 08:01:11.187   01 Jun 2027 08:07:25.634           374.447        187223.500
         5   01 Jun 2027 08:07:30.735   01 Jun 2027 08:09:07.292            96.557         48278.500
         6   02 Jun 2027 03:25:16.626   02 Jun 2027 03:32:36.237           439.611        219805.500
         7   02 Jun 2027 05:02:04.957   02 Jun 2027 05:02:25.350            20.393          8646.500
