uniorb/output/strategy_3/Camera/Camera_KinoSat_111008.txt

KinoSat_111008
-------------------------
    Access    *     Start Time (UTCG)     *     Stop Time (UTCG)  *   Duration (s) *   Data (Mbytes)
         1   01 Jun 2027 03:00:00.000   01 Jun 2027 03:00:18.248            18.248          9124.000
         2   01 Jun 2027 03:10:41.087   01 Jun 2027 03:14:00.376           199.289         99644.500
         3   01 Jun 2027 04:33:38.346   01 Jun 2027 04:37:40.474           242.128        121064.000
         4   01 Jun 2027 06:09:05.522   01 Jun 2027 06:09:22.304            16.782          8391.000
         5   01 Jun 2027 06:10:21.005   01 Jun 2027 06:14:50.369           269.364        134682.000
         6   01 Jun 2027 07:45:06.399   01 Jun 2027 07:49:21.720           255.321        127094.500
