uniorb/output/strategy_3/Camera/Camera_KinoSat_110606.txt

KinoSat_110606
-------------------------
    Access    *     Start Time (UTCG)     *     Stop Time (UTCG)  *   Duration (s) *   Data (Mbytes)
         1   01 Jun 2027 03:34:28.878   01 Jun 2027 03:38:02.447           213.569        106784.500
         2   01 Jun 2027 05:09:35.162   01 Jun 2027 05:15:21.936           346.774        173387.000
         3   01 Jun 2027 05:15:24.676   01 Jun 2027 05:16:24.955            60.279         30139.500
         4   01 Jun 2027 06:45:55.882   01 Jun 2027 06:52:18.121           382.239        189689.000
