uniorb/output/strategy_3/Camera/Camera_KinoSat_111306.txt

KinoSat_111306
-------------------------
    Access    *     Start Time (UTCG)     *     Stop Time (UTCG)  *   Duration (s) *   Data (Mbytes)
         1   01 Jun 2027 03:17:48.996   01 Jun 2027 03:24:47.883           418.887        209443.500
         2   01 Jun 2027 04:42:01.762   01 Jun 2027 04:44:15.334           133.572         66786.000
         3   01 Jun 2027 04:54:15.692   01 Jun 2027 04:54:47.747            32.055         16027.500
         4   01 Jun 2027 06:16:12.296   01 Jun 2027 06:17:32.653            80.357         40178.500
         5   01 Jun 2027 06:18:14.848   01 Jun 2027 06:21:50.002           215.154        107577.000
         6   01 Jun 2027 07:51:00.681   01 Jun 2027 07:53:00.706           120.025         59987.500
