uniorb/output/strategy_3/Camera/Camera_KinoSat_112002.txt

KinoSat_112002
-------------------------
    Access    *     Start Time (UTCG)     *     Stop Time (UTCG)  *   Duration (s) *   Data (Mbytes)
         1   01 Jun 2027 03:25:34.963   01 Jun 2027 03:33:04.107           449.144        224572.000
         2   01 Jun 2027 05:03:52.500   01 Jun 2027 05:04:16.135            23.635         11817.500
         3   01 Jun 2027 05:04:29.332   01 Jun 2027 05:09:57.453           328.121        164060.500
         4   01 Jun 2027 06:42:04.999   01 Jun 2027 06:45:24.125           199.126         99550.000
