uniorb/output/strategy_3/Camera/Camera_KinoSat_111708.txt

KinoSat_111708
-------------------------
    Access    *     Start Time (UTCG)     *     Stop Time (UTCG)  *   Duration (s) *   Data (Mbytes)
         1   01 Jun 2027 04:17:54.068   01 Jun 2027 04:18:01.645             7.577          3788.500
         2   01 Jun 2027 04:18:55.190   01 Jun 2027 04:24:02.724           307.534        153767.000
         3   01 Jun 2027 04:25:28.776   01 Jun 2027 04:25:46.047            17.271          8635.500
         4   01 Jun 2027 05:56:03.849   01 Jun 2027 05:56:42.865            39.016         19508.000
         5   01 Jun 2027 05:57:06.157   01 Jun 2027 05:59:40.010           153.853         76926.500
         6   01 Jun 2027 07:20:07.703   01 Jun 2027 07:22:42.268           154.565         77282.500
         7   01 Jun 2027 08:55:54.942   01 Jun 2027 08:59:50.580           235.638        117819.000
         8   01 Jun 2027 10:30:52.243   01 Jun 2027 10:32:21.443            89.200         42273.000
