uniorb/output/strategy_3/Camera/Camera_KinoSat_110308.txt

KinoSat_110308
-------------------------
    Access    *     Start Time (UTCG)     *     Stop Time (UTCG)  *   Duration (s) *   Data (Mbytes)
         1   01 Jun 2027 03:28:14.469   01 Jun 2027 03:34:51.376           396.907        198453.500
         2   01 Jun 2027 05:04:36.948   01 Jun 2027 05:10:50.042           373.094        186547.000
         3   01 Jun 2027 06:41:52.340   01 Jun 2027 06:46:30.166           277.826        138913.000
         4   01 Jun 2027 08:18:06.897   01 Jun 2027 08:22:50.154           283.257        141628.500
         5   02 Jun 2027 03:39:56.248   02 Jun 2027 03:46:58.675           422.427        211213.500
         6   02 Jun 2027 05:16:08.876   02 Jun 2027 05:20:15.582           246.706        123244.500
