uniorb/output/strategy_3/Camera/Camera_KinoSat_110908.txt

KinoSat_110908
-------------------------
    Access    *     Start Time (UTCG)     *     Stop Time (UTCG)  *   Duration (s) *   Data (Mbytes)
         1   01 Jun 2027 03:02:26.704   01 Jun 2027 03:04:21.189           114.485         57242.500
         2   01 Jun 2027 03:14:56.145   01 Jun 2027 03:15:06.979            10.834          5417.000
         3   01 Jun 2027 04:36:16.670   01 Jun 2027 04:42:15.511           358.841        179420.500
         4   01 Jun 2027 06:11:10.603   01 Jun 2027 06:19:23.901           493.298        246649.000
         5   01 Jun 2027 06:19:42.488   01 Jun 2027 06:20:05.295            22.807         11271.000
