uniorb/output/strategy_3/Camera/Camera_KinoSat_111702.txt

KinoSat_111702
-------------------------
    Access    *     Start Time (UTCG)     *     Stop Time (UTCG)  *   Duration (s) *   Data (Mbytes)
         1   01 Jun 2027 03:39:21.857   01 Jun 2027 03:40:15.541            53.684         26842.000
         2   01 Jun 2027 03:40:25.028   01 Jun 2027 03:41:06.760            41.732         20866.000
         3   01 Jun 2027 03:41:07.357   01 Jun 2027 03:44:38.004           210.647        105323.500
         4   01 Jun 2027 05:17:47.061   01 Jun 2027 05:22:28.514           281.453        140726.500
         5   01 Jun 2027 06:41:13.096   01 Jun 2027 06:43:33.943           140.847         70423.500
         6   01 Jun 2027 08:17:27.701   01 Jun 2027 08:20:59.104           211.403        105701.500
         7   01 Jun 2027 09:51:00.177   01 Jun 2027 09:52:03.430            63.253         30117.000
