uniorb/output/strategy_3/Camera/Camera_KinoSat_110110.txt

KinoSat_110110
-------------------------
    Access    *     Start Time (UTCG)     *     Stop Time (UTCG)  *   Duration (s) *   Data (Mbytes)
         1   01 Jun 2027 03:18:28.183   01 Jun 2027 03:25:11.648           403.465        201732.500
         2   01 Jun 2027 04:55:22.725   01 Jun 2027 04:59:45.966           263.241        131620.500
         3   01 Jun 2027 04:59:50.584   01 Jun 2027 05:01:09.000            78.416         39208.000
         4   01 Jun 2027 06:32:13.680   01 Jun 2027 06:36:45.738           272.058        136029.000
         5   01 Jun 2027 08:09:50.162   01 Jun 2027 08:11:34.621           104.459         52229.500
         6   02 Jun 2027 03:30:35.017   02 Jun 2027 03:37:16.611           401.594        200797.000
         7   02 Jun 2027 05:08:17.370   02 Jun 2027 05:12:44.082           266.712        133356.000
         8   02 Jun 2027 06:44:15.872   02 Jun 2027 06:47:47.619           211.747        105027.500
