uniorb/output/strategy_3/Camera/Camera_KinoSat_110101.txt

KinoSat_110101
-------------------------
    Access    *     Start Time (UTCG)     *     Stop Time (UTCG)  *   Duration (s) *   Data (Mbytes)
         1   01 Jun 2027 03:08:30.346   01 Jun 2027 03:15:49.225           438.879        219439.500
         2   01 Jun 2027 04:45:33.998   01 Jun 2027 04:50:18.020           284.022        142011.000
         3   01 Jun 2027 04:50:27.624   01 Jun 2027 04:51:38.555            70.931         35465.500
         4   01 Jun 2027 06:22:27.659   01 Jun 2027 06:27:22.645           294.986        147493.000
         5   01 Jun 2027 07:57:37.871   01 Jun 2027 07:57:57.480            19.609          9804.500
         6   01 Jun 2027 07:59:12.904   01 Jun 2027 08:02:23.887           190.983         95491.500
         7   02 Jun 2027 03:20:56.823   02 Jun 2027 03:27:36.971           400.148        200074.000
         8   02 Jun 2027 04:57:58.741   02 Jun 2027 05:02:15.064           256.323        128161.500
         9   02 Jun 2027 05:02:16.164   02 Jun 2027 05:03:01.820            45.656         22059.499
