uniorb/output/strategy_3/Camera/Camera_KinoSat_111804.txt

KinoSat_111804
-------------------------
    Access    *     Start Time (UTCG)     *     Stop Time (UTCG)  *   Duration (s) *   Data (Mbytes)
         1   01 Jun 2027 03:14:15.176   01 Jun 2027 03:21:19.770           424.594        212297.000
         2   01 Jun 2027 04:53:30.992   01 Jun 2027 04:59:09.601           338.609        169304.500
         3   01 Jun 2027 04:59:40.378   01 Jun 2027 05:01:16.317            95.939         47969.500
         4   01 Jun 2027 06:19:37.034   01 Jun 2027 06:20:06.522            29.488         14744.000
         5   01 Jun 2027 06:30:33.404   01 Jun 2027 06:32:25.195           111.791         55685.000
