uniorb/output/strategy_3/Camera/Camera_KinoSat_110503.txt

KinoSat_110503
-------------------------
    Access    *     Start Time (UTCG)     *     Stop Time (UTCG)  *   Duration (s) *   Data (Mbytes)
         1   01 Jun 2027 04:04:09.944   01 Jun 2027 04:12:36.990           507.046        253523.000
         2   01 Jun 2027 04:12:46.719   01 Jun 2027 04:13:47.163            60.444         30222.000
         3   01 Jun 2027 05:42:20.050   01 Jun 2027 05:49:41.265           441.215        220607.500
         4   01 Jun 2027 07:19:14.797   01 Jun 2027 07:24:18.414           303.617        151808.500
         5   01 Jun 2027 07:24:29.809   01 Jun 2027 07:25:36.507            66.698         33349.000
         6   01 Jun 2027 08:56:21.210   01 Jun 2027 09:01:14.901           293.691        146845.500
         7   01 Jun 2027 10:31:20.050   01 Jun 2027 10:32:06.857            46.807         23403.500
         8   01 Jun 2027 10:33:03.450   01 Jun 2027 10:36:23.311           199.861         99930.500
         9   02 Jun 2027 04:17:13.873   02 Jun 2027 04:18:35.069            81.196         40310.500
