uniorb/output/strategy_3/Camera/Camera_KinoSat_110904.txt

KinoSat_110904
-------------------------
    Access    *     Start Time (UTCG)     *     Stop Time (UTCG)  *   Duration (s) *   Data (Mbytes)
         1   01 Jun 2027 03:40:39.538   01 Jun 2027 03:43:44.602           185.064         92532.000
         2   01 Jun 2027 05:17:09.634   01 Jun 2027 05:20:45.468           215.834        107917.000
         3   01 Jun 2027 06:52:19.927   01 Jun 2027 06:58:56.844           396.917        198458.500
         4   01 Jun 2027 08:28:40.777   01 Jun 2027 08:32:09.899           209.122        101092.500
