uniorb/output/strategy_3/Camera/Camera_KinoSat_110605.txt

KinoSat_110605
-------------------------
    Access    *     Start Time (UTCG)     *     Stop Time (UTCG)  *   Duration (s) *   Data (Mbytes)
         1   01 Jun 2027 03:44:13.088   01 Jun 2027 03:47:45.952           212.864        106432.000
         2   01 Jun 2027 05:19:22.190   01 Jun 2027 05:25:59.417           397.227        198613.500
         3   01 Jun 2027 06:55:45.802   01 Jun 2027 07:01:57.438           371.636        185818.000
         4   01 Jun 2027 08:32:59.653   01 Jun 2027 08:33:19.161            19.508          9136.500
