uniorb/output/strategy_3/Camera/Camera_KinoSat_111410.txt

KinoSat_111410
-------------------------
    Access    *     Start Time (UTCG)     *     Stop Time (UTCG)  *   Duration (s) *   Data (Mbytes)
         1   01 Jun 2027 04:12:14.647   01 Jun 2027 04:16:47.249           272.602        136301.000
         2   01 Jun 2027 05:35:36.721   01 Jun 2027 05:38:11.556           154.835         77417.500
         3   01 Jun 2027 07:11:58.768   01 Jun 2027 07:15:32.255           213.487        106743.500
         4   01 Jun 2027 08:46:02.805   01 Jun 2027 08:52:02.654           359.849        179538.000
