uniorb/output/strategy_3/Camera/Camera_KinoSat_111102.txt

KinoSat_111102
-------------------------
    Access    *     Start Time (UTCG)     *     Stop Time (UTCG)  *   Duration (s) *   Data (Mbytes)
         1   01 Jun 2027 03:52:07.671   01 Jun 2027 03:54:17.110           129.439         64719.500
         2   01 Jun 2027 04:04:20.320   01 Jun 2027 04:04:51.998            31.678         15839.000
         3   01 Jun 2027 05:26:14.612   01 Jun 2027 05:27:28.185            73.573         36786.500
         4   01 Jun 2027 05:28:17.728   01 Jun 2027 05:31:57.600           219.872        109936.000
         5   01 Jun 2027 07:01:03.107   01 Jun 2027 07:09:02.195           479.088        239544.000
         6   01 Jun 2027 07:09:23.615   01 Jun 2027 07:10:06.720            43.105         21552.500
         7   01 Jun 2027 08:38:53.545   01 Jun 2027 08:39:28.050            34.505         11622.500
