uniorb/output/strategy_3/Camera/Camera_KinoSat_111409.txt

KinoSat_111409
-------------------------
    Access    *     Start Time (UTCG)     *     Stop Time (UTCG)  *   Duration (s) *   Data (Mbytes)
         1   01 Jun 2027 04:22:07.998   01 Jun 2027 04:26:10.550           242.552        121276.000
         2   01 Jun 2027 05:45:04.722   01 Jun 2027 05:47:48.309           163.587         81793.500
         3   01 Jun 2027 07:21:38.404   01 Jun 2027 07:25:11.893           213.489        106744.500
         4   01 Jun 2027 08:56:47.315   01 Jun 2027 09:02:31.589           344.274        172137.000
         5   01 Jun 2027 09:02:34.215   01 Jun 2027 09:03:11.506            37.291         18049.000
