uniorb/output/strategy_3/Camera/Camera_KinoSat_111905.txt

KinoSat_111905
-------------------------
    Access    *     Start Time (UTCG)     *     Stop Time (UTCG)  *   Duration (s) *   Data (Mbytes)
         1   01 Jun 2027 03:00:45.546   01 Jun 2027 03:08:14.634           449.088        224544.000
         2   01 Jun 2027 04:38:53.946   01 Jun 2027 04:39:22.252            28.306         14153.000
         3   01 Jun 2027 04:39:29.081   01 Jun 2027 04:45:05.877           336.796        168398.000
         4   01 Jun 2027 06:16:54.539   01 Jun 2027 06:20:01.910           187.371         92905.000
