uniorb/output/strategy_3/Camera/Camera_KinoSat_111403.txt

KinoSat_111403
-------------------------
    Access    *     Start Time (UTCG)     *     Stop Time (UTCG)  *   Duration (s) *   Data (Mbytes)
         1   01 Jun 2027 03:42:41.616   01 Jun 2027 03:49:48.225           426.609        213304.500
         2   01 Jun 2027 05:07:03.284   01 Jun 2027 05:09:16.588           133.304         66652.000
         3   01 Jun 2027 05:19:16.949   01 Jun 2027 05:19:48.665            31.716         15858.000
         4   01 Jun 2027 06:41:13.105   01 Jun 2027 06:42:27.961            74.856         37428.000
         5   01 Jun 2027 06:43:15.845   01 Jun 2027 06:46:51.354           215.509        107754.500
         6   01 Jun 2027 08:16:01.282   01 Jun 2027 08:18:02.725           121.443         59003.000
