uniorb/output/strategy_3/Camera/Camera_KinoSat_110909.txt

KinoSat_110909
-------------------------
    Access    *     Start Time (UTCG)     *     Stop Time (UTCG)  *   Duration (s) *   Data (Mbytes)
         1   01 Jun 2027 03:05:00.805   01 Jun 2027 03:05:54.974            54.169         27084.500
         2   01 Jun 2027 04:27:02.898   01 Jun 2027 04:28:21.071            78.173         39086.500
         3   01 Jun 2027 04:29:06.108   01 Jun 2027 04:32:38.210           212.102        106051.000
         4   01 Jun 2027 06:01:56.100   01 Jun 2027 06:09:44.355           468.255        234127.500
         5   01 Jun 2027 06:10:09.916   01 Jun 2027 06:10:42.966            33.050         16525.000
         6   01 Jun 2027 07:39:37.971   01 Jun 2027 07:42:15.012           157.041         77125.500
