uniorb/output/strategy_3/Camera/Camera_KinoSat_110310.txt

KinoSat_110310
-------------------------
    Access    *     Start Time (UTCG)     *     Stop Time (UTCG)  *   Duration (s) *   Data (Mbytes)
         1   01 Jun 2027 03:06:01.276   01 Jun 2027 03:06:34.393            33.117         16558.500
         2   01 Jun 2027 03:07:42.252   01 Jun 2027 03:14:39.527           417.275        208637.500
         3   01 Jun 2027 03:14:43.542   01 Jun 2027 03:15:44.576            61.034         30517.000
         4   01 Jun 2027 04:44:50.254   01 Jun 2027 04:51:32.227           401.973        200986.500
         5   01 Jun 2027 06:21:48.170   01 Jun 2027 06:26:58.424           310.254        155127.000
         6   01 Jun 2027 07:58:35.393   01 Jun 2027 08:03:06.245           270.852        135426.000
         7   01 Jun 2027 09:36:45.851   01 Jun 2027 09:37:46.425            60.574         30287.000
         8   02 Jun 2027 03:20:55.270   02 Jun 2027 03:26:40.942           345.672        172836.000
         9   02 Jun 2027 03:26:41.125   02 Jun 2027 03:27:44.484            63.359         31679.500
        10   02 Jun 2027 04:57:15.785   02 Jun 2027 04:57:53.793            38.008         17945.000
