uniorb/output/strategy_3/Camera/Camera_KinoSat_110803.txt

KinoSat_110803
-------------------------
    Access    *     Start Time (UTCG)     *     Stop Time (UTCG)  *   Duration (s) *   Data (Mbytes)
         1   01 Jun 2027 03:52:59.609   01 Jun 2027 03:54:06.109            66.500         33250.000
         2   01 Jun 2027 03:54:54.983   01 Jun 2027 03:58:17.547           202.564        101282.000
         3   01 Jun 2027 05:27:53.293   01 Jun 2027 05:29:56.371           123.078         61539.000
         4   01 Jun 2027 05:30:02.854   01 Jun 2027 05:35:23.141           320.287        160143.500
         5   01 Jun 2027 05:35:54.995   01 Jun 2027 05:36:23.075            28.080         14040.000
         6   01 Jun 2027 07:05:27.075   01 Jun 2027 07:09:47.460           260.385        129745.500
