uniorb/output/strategy_3/Camera/Camera_KinoSat_111709.txt

KinoSat_111709
-------------------------
    Access    *     Start Time (UTCG)     *     Stop Time (UTCG)  *   Duration (s) *   Data (Mbytes)
         1   01 Jun 2027 04:08:14.426   01 Jun 2027 04:09:15.652            61.226         30613.000
         2   01 Jun 2027 04:09:22.339   01 Jun 2027 04:14:26.616           304.277        152138.500
         3   01 Jun 2027 05:46:31.810   01 Jun 2027 05:47:06.283            34.473         17236.500
         4   01 Jun 2027 05:47:20.512   01 Jun 2027 05:50:20.719           180.207         90103.500
         5   01 Jun 2027 07:09:54.516   01 Jun 2027 07:13:03.490           188.974         94487.000
         6   01 Jun 2027 08:46:27.833   01 Jun 2027 08:49:58.849           211.016        105508.000
         7   01 Jun 2027 10:21:37.955   01 Jun 2027 10:21:57.866            19.911          9913.500
