uniorb/output/strategy_3/Camera/Camera_KinoSat_110108.txt

KinoSat_110108
-------------------------
    Access    *     Start Time (UTCG)     *     Stop Time (UTCG)  *   Duration (s) *   Data (Mbytes)
         1   01 Jun 2027 03:38:12.223   01 Jun 2027 03:44:29.611           377.388        188694.000
         2   01 Jun 2027 05:15:37.649   01 Jun 2027 05:20:07.329           269.680        134840.000
         3   01 Jun 2027 06:51:48.553   01 Jun 2027 06:55:59.209           250.656        125328.000
         4   02 Jun 2027 03:49:53.114   02 Jun 2027 03:55:40.643           347.529        173764.500
         5   02 Jun 2027 03:55:42.532   02 Jun 2027 03:56:09.180            26.648         13324.000
         6   02 Jun 2027 05:27:45.291   02 Jun 2027 05:32:15.212           269.921        134960.500
         7   02 Jun 2027 07:03:43.010   02 Jun 2027 07:07:56.637           253.627        126813.500
         8   02 Jun 2027 07:08:01.564   02 Jun 2027 07:08:49.982            48.418         24209.000
         9   03 Jun 2027 04:01:58.978   03 Jun 2027 04:04:36.886           157.908         78066.500
