uniorb/output/strategy_3/Camera/Camera_KinoSat_111010.txt

KinoSat_111010
-------------------------
    Access    *     Start Time (UTCG)     *     Stop Time (UTCG)  *   Duration (s) *   Data (Mbytes)
         1   01 Jun 2027 04:14:57.617   01 Jun 2027 04:18:11.213           193.596         96798.000
         2   01 Jun 2027 05:51:34.048   01 Jun 2027 05:55:00.998           206.950        103475.000
         3   01 Jun 2027 07:26:44.230   01 Jun 2027 07:33:20.027           395.797        197898.500
         4   01 Jun 2027 09:03:01.817   01 Jun 2027 09:06:32.092           210.275        101828.500
