uniorb/output/strategy_3/Camera/Camera_KinoSat_110707.txt

KinoSat_110707
-------------------------
    Access    *     Start Time (UTCG)     *     Stop Time (UTCG)  *   Duration (s) *   Data (Mbytes)
         1   01 Jun 2027 03:18:51.805   01 Jun 2027 03:19:57.682            65.877         32938.500
         2   01 Jun 2027 03:20:48.689   01 Jun 2027 03:24:04.144           195.455         97727.500
         3   01 Jun 2027 04:53:50.113   01 Jun 2027 04:55:44.037           113.924         56962.000
         4   01 Jun 2027 04:55:53.380   01 Jun 2027 05:01:10.296           316.916        158458.000
         5   01 Jun 2027 05:01:46.854   01 Jun 2027 05:02:11.270            24.416         12208.000
         6   01 Jun 2027 06:31:18.129   01 Jun 2027 06:36:01.788           283.659        141706.000
