uniorb/output/strategy_3/Camera/Camera_KinoSat_111606.txt

KinoSat_111606
-------------------------
    Access    *     Start Time (UTCG)     *     Stop Time (UTCG)  *   Duration (s) *   Data (Mbytes)
         1   01 Jun 2027 03:04:16.053   01 Jun 2027 03:04:39.945            23.892         11946.000
         2   01 Jun 2027 03:04:43.060   01 Jun 2027 03:05:38.274            55.214         27607.000
         3   01 Jun 2027 03:05:40.338   01 Jun 2027 03:05:58.373            18.035          9017.500
         4   01 Jun 2027 03:06:05.578   01 Jun 2027 03:09:50.145           224.567        112283.500
         5   01 Jun 2027 04:42:38.855   01 Jun 2027 04:47:53.395           314.540        157270.000
         6   01 Jun 2027 06:06:41.830   01 Jun 2027 06:08:45.714           123.884         61942.000
         7   01 Jun 2027 07:42:39.200   01 Jun 2027 07:46:32.942           233.742        116871.000
         8   01 Jun 2027 09:16:28.778   01 Jun 2027 09:16:36.625             7.847          3063.000
