uniorb/output/strategy_3/Camera/Camera_KinoSat_111209.txt

KinoSat_111209
-------------------------
    Access    *     Start Time (UTCG)     *     Stop Time (UTCG)  *   Duration (s) *   Data (Mbytes)
         1   01 Jun 2027 04:17:02.863   01 Jun 2027 04:19:16.122           133.259         66629.500
         2   01 Jun 2027 04:29:16.485   01 Jun 2027 04:29:48.557            32.072         16036.000
         3   01 Jun 2027 05:51:12.727   01 Jun 2027 05:52:27.695            74.968         37484.000
         4   01 Jun 2027 05:53:15.381   01 Jun 2027 05:56:51.122           215.741        107870.500
         5   01 Jun 2027 07:26:01.017   01 Jun 2027 07:33:57.327           476.310        238155.000
         6   01 Jun 2027 07:34:20.641   01 Jun 2027 07:35:01.464            40.823         20411.500
         7   01 Jun 2027 09:03:49.786   01 Jun 2027 09:04:23.310            33.524         13413.500
