uniorb/output/strategy_3/Camera/Camera_KinoSat_110706.txt

KinoSat_110706
-------------------------
    Access    *     Start Time (UTCG)     *     Stop Time (UTCG)  *   Duration (s) *   Data (Mbytes)
         1   01 Jun 2027 03:28:08.436   01 Jun 2027 03:29:28.720            80.284         40142.000
         2   01 Jun 2027 03:30:10.922   01 Jun 2027 03:33:46.982           216.060        108030.000
         3   01 Jun 2027 05:02:56.949   01 Jun 2027 05:10:53.283           476.334        238167.000
         4   01 Jun 2027 05:11:15.756   01 Jun 2027 05:11:57.985            42.229         21114.500
         5   01 Jun 2027 06:40:45.344   01 Jun 2027 06:43:53.970           188.626         92546.500
