uniorb/output/strategy_3/Camera/Camera_KinoSat_111909.txt

KinoSat_111909
-------------------------
    Access    *     Start Time (UTCG)     *     Stop Time (UTCG)  *   Duration (s) *   Data (Mbytes)
         1   01 Jun 2027 03:59:02.365   01 Jun 2027 04:05:07.707           365.342        182671.000
         2   01 Jun 2027 05:38:06.749   01 Jun 2027 05:45:14.556           427.807        213903.500
         3   01 Jun 2027 07:02:56.562   01 Jun 2027 07:04:30.819            94.257         47128.500
         4   01 Jun 2027 07:14:36.360   01 Jun 2027 07:15:37.360            61.000         30500.000
         5   01 Jun 2027 08:36:55.645   01 Jun 2027 08:37:47.320            51.675         25797.000
