uniorb/output/strategy_3/Camera/Camera_KinoSat_110502.txt

KinoSat_110502
-------------------------
    Access    *     Start Time (UTCG)     *     Stop Time (UTCG)  *   Duration (s) *   Data (Mbytes)
         1   01 Jun 2027 04:14:47.485   01 Jun 2027 04:23:21.128           513.643        256821.500
         2   01 Jun 2027 05:52:14.673   01 Jun 2027 05:59:04.758           410.085        205042.500
         3   01 Jun 2027 07:29:14.704   01 Jun 2027 07:33:44.438           269.734        134867.000
         4   01 Jun 2027 07:33:50.454   01 Jun 2027 07:35:06.188            75.734         37867.000
         5   01 Jun 2027 09:06:08.690   01 Jun 2027 09:10:45.290           276.600        138300.000
         6   01 Jun 2027 10:43:17.957   01 Jun 2027 10:45:47.143           149.186         74593.000
         7   02 Jun 2027 04:25:30.331   02 Jun 2027 04:25:38.790             8.459          4229.500
         8   02 Jun 2027 04:27:26.329   02 Jun 2027 04:32:23.096           296.767        148279.500
