uniorb/output/strategy_3/Camera/Camera_KinoSat_111901.txt

KinoSat_111901
-------------------------
    Access    *     Start Time (UTCG)     *     Stop Time (UTCG)  *   Duration (s) *   Data (Mbytes)
         1   01 Jun 2027 03:39:08.687   01 Jun 2027 03:46:15.236           426.549        213274.500
         2   01 Jun 2027 05:18:25.780   01 Jun 2027 05:23:49.986           324.206        162103.000
         3   01 Jun 2027 05:24:35.048   01 Jun 2027 05:26:12.470            97.422         48711.000
         4   01 Jun 2027 06:44:36.952   01 Jun 2027 06:45:00.559            23.607         11803.500
         5   01 Jun 2027 06:55:29.175   01 Jun 2027 06:57:37.658           128.483         64108.000
