uniorb/output/strategy_3/Camera/Camera_KinoSat_110809.txt

KinoSat_110809
-------------------------
    Access    *     Start Time (UTCG)     *     Stop Time (UTCG)  *   Duration (s) *   Data (Mbytes)
         1   01 Jun 2027 04:33:07.268   01 Jun 2027 04:36:42.615           215.347        107673.500
         2   01 Jun 2027 06:05:17.589   01 Jun 2027 06:05:26.601             9.012          4506.000
         3   01 Jun 2027 06:07:14.202   01 Jun 2027 06:14:02.029           407.827        203913.500
         4   01 Jun 2027 06:14:05.133   01 Jun 2027 06:15:03.192            58.059         29029.500
         5   01 Jun 2027 07:44:12.299   01 Jun 2027 07:49:23.170           310.871        154877.500
