uniorb/output/strategy_3/Camera/Camera_KinoSat_112009.txt

KinoSat_112009
-------------------------
    Access    *     Start Time (UTCG)     *     Stop Time (UTCG)  *   Duration (s) *   Data (Mbytes)
         1   01 Jun 2027 03:54:21.614   01 Jun 2027 04:01:24.073           422.459        211229.500
         2   01 Jun 2027 05:32:38.562   01 Jun 2027 05:32:57.992            19.430          9715.000
         3   01 Jun 2027 05:33:41.429   01 Jun 2027 05:38:45.393           303.964        151982.000
         4   01 Jun 2027 05:40:59.181   01 Jun 2027 05:41:18.197            19.016          9508.000
         5   01 Jun 2027 07:10:50.547   01 Jun 2027 07:11:27.168            36.621         18310.500
         6   01 Jun 2027 07:11:55.758   01 Jun 2027 07:14:22.182           146.424         73212.000
         7   01 Jun 2027 08:34:17.908   01 Jun 2027 08:35:11.306            53.398         26043.001
