uniorb/output/strategy_3/Camera/Camera_KinoSat_110205.txt

KinoSat_110205
-------------------------
    Access    *     Start Time (UTCG)     *     Stop Time (UTCG)  *   Duration (s) *   Data (Mbytes)
         1   01 Jun 2027 04:01:36.465   01 Jun 2027 04:08:18.461           401.996        200998.000
         2   01 Jun 2027 05:38:33.527   01 Jun 2027 05:42:54.625           261.098        130549.000
         3   01 Jun 2027 05:42:57.015   01 Jun 2027 05:44:05.003            67.988         33994.000
         4   01 Jun 2027 07:15:23.935   01 Jun 2027 07:19:52.136           268.201        134100.500
         5   01 Jun 2027 08:53:03.932   01 Jun 2027 08:54:40.589            96.657         48328.500
         6   02 Jun 2027 04:13:43.893   02 Jun 2027 04:20:24.045           400.152        200076.000
         7   02 Jun 2027 05:51:27.585   02 Jun 2027 05:55:51.942           264.357        132178.500
         8   02 Jun 2027 07:27:33.849   02 Jun 2027 07:31:33.494           239.645        119775.500
