uniorb/output/strategy_3/Camera/Camera_KinoSat_111006.txt

KinoSat_111006
-------------------------
    Access    *     Start Time (UTCG)     *     Stop Time (UTCG)  *   Duration (s) *   Data (Mbytes)
         1   01 Jun 2027 03:17:34.896   01 Jun 2027 03:19:46.597           131.701         65850.500
         2   01 Jun 2027 03:29:48.508   01 Jun 2027 03:30:47.351            58.843         29421.500
         3   01 Jun 2027 04:52:03.419   01 Jun 2027 04:53:10.213            66.794         33397.000
         4   01 Jun 2027 04:53:58.912   01 Jun 2027 04:57:23.262           204.350        102175.000
         5   01 Jun 2027 06:26:56.244   01 Jun 2027 06:29:03.283           127.039         63519.500
         6   01 Jun 2027 06:29:06.743   01 Jun 2027 06:34:28.182           321.439        160719.500
         7   01 Jun 2027 06:34:59.329   01 Jun 2027 06:35:28.635            29.306         14653.000
         8   01 Jun 2027 08:04:30.741   01 Jun 2027 08:05:32.192            61.451         30264.000
