uniorb/output/strategy_3/Camera/Camera_KinoSat_111705.txt

KinoSat_111705
-------------------------
    Access    *     Start Time (UTCG)     *     Stop Time (UTCG)  *   Duration (s) *   Data (Mbytes)
         1   01 Jun 2027 03:09:08.997   01 Jun 2027 03:15:15.775           366.778        183389.000
         2   01 Jun 2027 04:48:13.158   01 Jun 2027 04:55:19.440           426.282        213141.000
         3   01 Jun 2027 06:13:02.703   01 Jun 2027 06:14:38.406            95.703         47851.500
         4   01 Jun 2027 06:24:42.328   01 Jun 2027 06:25:41.119            58.791         29395.500
         5   01 Jun 2027 07:46:59.732   01 Jun 2027 07:47:54.282            54.550         26223.000
