uniorb/output/strategy_3/Camera/Camera_KinoSat_111504.txt

KinoSat_111504
-------------------------
    Access    *     Start Time (UTCG)     *     Stop Time (UTCG)  *   Duration (s) *   Data (Mbytes)
         1   01 Jun 2027 03:27:50.362   01 Jun 2027 03:28:04.085            13.723          6861.500
         2   01 Jun 2027 03:28:52.698   01 Jun 2027 03:33:58.932           306.234        153117.000
         3   01 Jun 2027 03:35:59.479   01 Jun 2027 03:36:43.305            43.826         21913.000
         4   01 Jun 2027 05:06:01.420   01 Jun 2027 05:06:39.491            38.071         19035.500
         5   01 Jun 2027 05:07:08.816   01 Jun 2027 05:09:37.984           149.168         74584.000
         6   01 Jun 2027 06:30:07.416   01 Jun 2027 06:32:39.341           151.925         75962.500
         7   01 Jun 2027 08:05:52.859   01 Jun 2027 08:09:29.513           216.654        108327.000
         8   01 Jun 2027 09:40:50.165   01 Jun 2027 09:42:13.370            83.205         40199.500
