uniorb/output/strategy_3/Camera/Camera_KinoSat_110808.txt

KinoSat_110808
-------------------------
    Access    *     Start Time (UTCG)     *     Stop Time (UTCG)  *   Duration (s) *   Data (Mbytes)
         1   01 Jun 2027 03:06:20.817   01 Jun 2027 03:09:00.313           159.496         79748.000
         2   01 Jun 2027 04:42:49.844   01 Jun 2027 04:46:19.592           209.748        104874.000
         3   01 Jun 2027 06:17:54.840   01 Jun 2027 06:24:42.542           407.702        203851.000
         4   01 Jun 2027 07:54:16.838   01 Jun 2027 07:58:00.017           223.179        111527.000
