uniorb/output/strategy_3/Camera/Camera_KinoSat_111605.txt

KinoSat_111605
-------------------------
    Access    *     Start Time (UTCG)     *     Stop Time (UTCG)  *   Duration (s) *   Data (Mbytes)
         1   01 Jun 2027 03:13:58.604   01 Jun 2027 03:14:00.134             1.530           765.000
         2   01 Jun 2027 03:14:20.222   01 Jun 2027 03:15:18.621            58.399         29199.500
         3   01 Jun 2027 03:15:24.468   01 Jun 2027 03:16:06.028            41.560         20780.000
         4   01 Jun 2027 03:16:06.165   01 Jun 2027 03:19:54.205           228.040        114020.000
         5   01 Jun 2027 04:52:46.086   01 Jun 2027 04:57:27.842           281.756        140878.000
         6   01 Jun 2027 06:16:12.830   01 Jun 2027 06:18:32.871           140.041         70020.500
         7   01 Jun 2027 07:52:26.242   01 Jun 2027 07:55:58.008           211.766        105883.000
         8   01 Jun 2027 09:25:59.217   01 Jun 2027 09:26:37.245            38.028         18454.000
