uniorb/output/strategy_3/Camera/Camera_KinoSat_110204.txt

KinoSat_110204
-------------------------
    Access    *     Start Time (UTCG)     *     Stop Time (UTCG)  *   Duration (s) *   Data (Mbytes)
         1   01 Jun 2027 04:11:13.327   01 Jun 2027 04:17:56.722           403.395        201697.500
         2   01 Jun 2027 05:48:52.731   01 Jun 2027 05:53:21.633           268.902        134451.000
         3   01 Jun 2027 07:24:57.207   01 Jun 2027 07:29:45.264           288.057        144028.500
         4   01 Jun 2027 09:03:41.016   01 Jun 2027 09:03:43.749             2.733          1366.500
         5   02 Jun 2027 04:23:49.390   02 Jun 2027 04:30:03.052           373.662        186831.000
         6   02 Jun 2027 06:01:06.906   02 Jun 2027 06:05:42.860           275.954        137977.000
         7   02 Jun 2027 07:37:19.433   02 Jun 2027 07:41:59.512           280.079        140039.500
         8   03 Jun 2027 03:00:00.000   03 Jun 2027 03:01:49.769           109.769         53608.999
