uniorb/output/strategy_3/Camera/Camera_KinoSat_111304.txt

KinoSat_111304
-------------------------
    Access    *     Start Time (UTCG)     *     Stop Time (UTCG)  *   Duration (s) *   Data (Mbytes)
         1   01 Jun 2027 03:37:24.677   01 Jun 2027 03:42:18.909           294.232        147116.000
         2   01 Jun 2027 05:01:08.928   01 Jun 2027 05:03:26.154           137.226         68613.000
         3   01 Jun 2027 06:37:20.133   01 Jun 2027 06:40:49.806           209.673        104836.500
         4   01 Jun 2027 08:10:53.627   01 Jun 2027 08:16:53.116           359.489        179434.500
