uniorb/output/strategy_3/Camera/Camera_KinoSat_111301.txt

KinoSat_111301
-------------------------
    Access    *     Start Time (UTCG)     *     Stop Time (UTCG)  *   Duration (s) *   Data (Mbytes)
         1   01 Jun 2027 04:06:26.890   01 Jun 2027 04:06:57.256            30.366         15183.000
         2   01 Jun 2027 04:07:15.819   01 Jun 2027 04:10:19.042           183.223         91611.500
         3   01 Jun 2027 05:29:49.379   01 Jun 2027 05:32:56.586           187.207         93603.500
         4   01 Jun 2027 07:06:21.317   01 Jun 2027 07:09:54.130           212.813        106406.500
         5   01 Jun 2027 08:41:31.077   01 Jun 2027 08:47:59.115           388.038        193195.500
