uniorb/output/strategy_3/Camera/Camera_KinoSat_111208.txt

KinoSat_111208
-------------------------
    Access    *     Start Time (UTCG)     *     Stop Time (UTCG)  *   Duration (s) *   Data (Mbytes)
         1   01 Jun 2027 03:02:30.718   01 Jun 2027 03:07:49.186           318.468        159234.000
         2   01 Jun 2027 04:26:37.621   01 Jun 2027 04:28:39.425           121.804         60902.000
         3   01 Jun 2027 06:00:24.156   01 Jun 2027 06:06:27.636           363.480        181740.000
         4   01 Jun 2027 07:36:24.492   01 Jun 2027 07:39:43.186           198.694         98124.000
