uniorb/output/strategy_3/Camera/Camera_KinoSat_111906.txt

KinoSat_111906
-------------------------
    Access    *     Start Time (UTCG)     *     Stop Time (UTCG)  *   Duration (s) *   Data (Mbytes)
         1   01 Jun 2027 04:28:53.006   01 Jun 2027 04:28:55.270             2.264          1132.000
         2   01 Jun 2027 04:29:14.628   01 Jun 2027 04:30:14.047            59.419         29709.500
         3   01 Jun 2027 04:30:19.239   01 Jun 2027 04:34:32.895           253.656        126828.000
         4   01 Jun 2027 06:07:40.115   01 Jun 2027 06:12:20.635           280.520        140260.000
         5   01 Jun 2027 07:31:09.025   01 Jun 2027 07:33:26.140           137.115         68557.500
         6   01 Jun 2027 09:07:09.826   01 Jun 2027 09:10:50.377           220.551        110275.500
         7   01 Jun 2027 10:40:53.667   01 Jun 2027 10:41:40.155            46.488         23237.500
