uniorb/output/strategy_3/Camera/Camera_KinoSat_111110.txt

KinoSat_111110
-------------------------
    Access    *     Start Time (UTCG)     *     Stop Time (UTCG)  *   Duration (s) *   Data (Mbytes)
         1   01 Jun 2027 04:11:11.822   01 Jun 2027 04:13:32.692           140.870         70435.000
         2   01 Jun 2027 05:47:25.413   01 Jun 2027 05:50:57.933           212.520        106260.000
         3   01 Jun 2027 07:20:58.192   01 Jun 2027 07:29:31.711           513.519        256759.500
         4   01 Jun 2027 08:58:30.649   01 Jun 2027 09:00:44.165           133.516         66545.500
