uniorb/output/strategy_3/Camera/Camera_KinoSat_110702.txt

KinoSat_110702
-------------------------
    Access    *     Start Time (UTCG)     *     Stop Time (UTCG)  *   Duration (s) *   Data (Mbytes)
         1   01 Jun 2027 04:08:33.420   01 Jun 2027 04:12:06.531           213.111        106555.500
         2   01 Jun 2027 05:43:41.984   01 Jun 2027 05:49:27.079           345.095        172547.500
         3   01 Jun 2027 05:49:28.472   01 Jun 2027 05:50:30.714            62.242         31121.000
         4   01 Jun 2027 07:20:01.992   01 Jun 2027 07:26:23.113           381.121        189776.000
