uniorb/output/strategy_3/Camera/Camera_KinoSat_110807.txt

KinoSat_110807
-------------------------
    Access    *     Start Time (UTCG)     *     Stop Time (UTCG)  *   Duration (s) *   Data (Mbytes)
         1   01 Jun 2027 03:15:54.016   01 Jun 2027 03:19:06.020           192.004         96002.000
         2   01 Jun 2027 04:52:29.373   01 Jun 2027 04:55:56.995           207.622        103811.000
         3   01 Jun 2027 06:27:39.527   01 Jun 2027 06:34:15.088           395.561        197780.500
         4   01 Jun 2027 08:04:00.358   01 Jun 2027 08:07:25.634           205.276        102406.500
