uniorb/output/strategy_3/Camera/Camera_KinoSat_110705.txt

KinoSat_110705
-------------------------
    Access    *     Start Time (UTCG)     *     Stop Time (UTCG)  *   Duration (s) *   Data (Mbytes)
         1   01 Jun 2027 03:37:20.091   01 Jun 2027 03:43:23.594           363.503        181751.500
         2   01 Jun 2027 05:12:12.488   01 Jun 2027 05:20:39.210           506.722        253361.000
         3   01 Jun 2027 05:20:48.933   01 Jun 2027 05:21:49.543            60.610         30305.000
         4   01 Jun 2027 06:50:22.239   01 Jun 2027 06:51:31.710            69.471         34582.500
