uniorb/output/strategy_3/Camera/Camera_KinoSat_110709.txt

KinoSat_110709
-------------------------
    Access    *     Start Time (UTCG)     *     Stop Time (UTCG)  *   Duration (s) *   Data (Mbytes)
         1   01 Jun 2027 03:01:23.349   01 Jun 2027 03:04:19.364           176.015         88007.500
         2   01 Jun 2027 04:37:08.283   01 Jun 2027 04:41:27.345           259.062        129531.000
         3   01 Jun 2027 06:11:52.090   01 Jun 2027 06:19:25.003           452.913        226456.500
         4   01 Jun 2027 07:48:39.733   01 Jun 2027 07:50:37.897           118.164         56005.000
