uniorb/output/strategy_3/Camera/Camera_KinoSat_110410.txt

KinoSat_110410
-------------------------
    Access    *     Start Time (UTCG)     *     Stop Time (UTCG)  *   Duration (s) *   Data (Mbytes)
         1   01 Jun 2027 03:02:42.110   01 Jun 2027 03:04:01.364            79.254         39627.000
         2   01 Jun 2027 03:04:32.880   01 Jun 2027 03:09:26.905           294.025        147012.500
         3   01 Jun 2027 04:39:41.056   01 Jun 2027 04:47:05.640           444.584        222292.000
         4   01 Jun 2027 06:16:39.082   01 Jun 2027 06:22:33.013           353.931        176965.500
         5   01 Jun 2027 07:54:35.063   01 Jun 2027 07:58:33.752           238.689        119344.500
         6   01 Jun 2027 09:27:54.903   01 Jun 2027 09:35:40.019           465.116        232558.000
         7   02 Jun 2027 03:14:05.620   02 Jun 2027 03:16:11.104           125.484         62200.500
