uniorb/output/strategy_3/Camera/Camera_KinoSat_110604.txt

KinoSat_110604
-------------------------
    Access    *     Start Time (UTCG)     *     Stop Time (UTCG)  *   Duration (s) *   Data (Mbytes)
         1   01 Jun 2027 03:53:42.974   01 Jun 2027 03:57:14.995           212.021        106010.500
         2   01 Jun 2027 05:28:47.635   01 Jun 2027 05:35:40.218           412.583        206291.500
         3   01 Jun 2027 07:04:52.981   01 Jun 2027 07:11:10.920           377.939        187698.000
