uniorb/output/strategy_3/Camera/Camera_KinoSat_110102.txt

KinoSat_110102
-------------------------
    Access    *     Start Time (UTCG)     *     Stop Time (UTCG)  *   Duration (s) *   Data (Mbytes)
         1   01 Jun 2027 03:00:00.000   01 Jun 2027 03:06:15.097           375.097        187548.500
         2   01 Jun 2027 04:35:36.601   01 Jun 2027 04:41:16.140           339.539        169769.500
         3   01 Jun 2027 04:41:25.231   01 Jun 2027 04:42:15.604            50.373         25186.500
         4   01 Jun 2027 06:13:26.937   01 Jun 2027 06:17:48.264           261.327        130663.500
         5   01 Jun 2027 07:49:25.614   01 Jun 2027 07:53:43.446           257.832        128916.000
         6   02 Jun 2027 03:11:01.003   02 Jun 2027 03:18:13.744           432.741        216370.500
         7   02 Jun 2027 04:48:13.297   02 Jun 2027 04:52:41.787           268.490        134245.000
         8   02 Jun 2027 04:52:51.514   02 Jun 2027 04:53:09.618            18.104          7300.500
