uniorb/output/strategy_3/Camera/Camera_KinoSat_110806.txt

KinoSat_110806
-------------------------
    Access    *     Start Time (UTCG)     *     Stop Time (UTCG)  *   Duration (s) *   Data (Mbytes)
         1   01 Jun 2027 03:26:00.902   01 Jun 2027 03:28:43.689           162.787         81393.500
         2   01 Jun 2027 05:01:55.788   01 Jun 2027 05:05:58.204           242.416        121208.000
         3   01 Jun 2027 06:36:51.888   01 Jun 2027 06:43:58.009           426.121        213060.500
         4   01 Jun 2027 08:13:10.823   01 Jun 2027 08:15:59.673           168.850         84338.000
