uniorb/output/strategy_3/Camera/Camera_KinoSat_111507.txt

KinoSat_111507
-------------------------
    Access    *     Start Time (UTCG)     *     Stop Time (UTCG)  *   Duration (s) *   Data (Mbytes)
         1   01 Jun 2027 03:00:00.000   01 Jun 2027 03:05:09.233           309.233        154616.500
         2   01 Jun 2027 04:36:58.929   01 Jun 2027 04:41:50.424           291.495        145747.500
         3   01 Jun 2027 06:00:37.951   01 Jun 2027 06:03:13.864           155.913         77956.500
         4   01 Jun 2027 07:37:01.288   01 Jun 2027 07:40:35.003           213.715        106857.500
         5   01 Jun 2027 09:11:06.453   01 Jun 2027 09:11:40.644            34.191         14822.000
