uniorb/output/strategy_3/Camera/Camera_KinoSat_111805.txt

KinoSat_111805
-------------------------
    Access    *     Start Time (UTCG)     *     Stop Time (UTCG)  *   Duration (s) *   Data (Mbytes)
         1   01 Jun 2027 03:04:36.342   01 Jun 2027 03:11:33.817           417.475        208737.500
         2   01 Jun 2027 04:42:52.642   01 Jun 2027 04:43:00.187             7.545          3772.500
         3   01 Jun 2027 04:43:53.749   01 Jun 2027 04:49:01.213           307.464        153732.000
         4   01 Jun 2027 04:50:55.729   01 Jun 2027 04:51:49.936            54.207         27103.500
         5   01 Jun 2027 06:21:02.404   01 Jun 2027 06:21:41.399            38.995         19497.500
         6   01 Jun 2027 06:22:05.053   01 Jun 2027 06:24:38.782           153.729         76864.500
         7   01 Jun 2027 07:45:08.670   01 Jun 2027 07:45:31.224            22.554         10292.500
