uniorb/output/strategy_3/Camera/Camera_KinoSat_111205.txt

KinoSat_111205
-------------------------
    Access    *     Start Time (UTCG)     *     Stop Time (UTCG)  *   Duration (s) *   Data (Mbytes)
         1   01 Jun 2027 03:32:07.300   01 Jun 2027 03:36:08.634           241.334        120667.000
         2   01 Jun 2027 04:55:04.276   01 Jun 2027 04:57:47.740           163.464         81732.000
         3   01 Jun 2027 06:31:37.943   01 Jun 2027 06:35:11.274           213.331        106665.500
         4   01 Jun 2027 08:06:46.825   01 Jun 2027 08:12:31.245           344.420        172210.000
         5   01 Jun 2027 08:12:33.497   01 Jun 2027 08:13:11.024            37.527         18725.500
