uniorb/output/strategy_3/Camera/Camera_KinoSat_111505.txt

KinoSat_111505
-------------------------
    Access    *     Start Time (UTCG)     *     Stop Time (UTCG)  *   Duration (s) *   Data (Mbytes)
         1   01 Jun 2027 03:18:11.691   01 Jun 2027 03:19:13.865            62.174         31087.000
         2   01 Jun 2027 03:19:20.371   01 Jun 2027 03:24:26.065           305.694        152847.000
         3   01 Jun 2027 04:56:30.129   01 Jun 2027 04:57:02.076            31.947         15973.500
         4   01 Jun 2027 04:57:19.582   01 Jun 2027 05:00:21.259           181.677         90838.500
         5   01 Jun 2027 06:19:52.640   01 Jun 2027 06:23:00.404           187.764         93882.000
         6   01 Jun 2027 07:56:24.500   01 Jun 2027 07:59:56.756           212.256        106128.000
         7   01 Jun 2027 09:31:34.894   01 Jun 2027 09:31:57.541            22.647          9244.000
