uniorb/output/strategy_3/Camera/Camera_KinoSat_110402.txt

KinoSat_110402
-------------------------
    Access    *     Start Time (UTCG)     *     Stop Time (UTCG)  *   Duration (s) *   Data (Mbytes)
         1   01 Jun 2027 04:20:47.205   01 Jun 2027 04:27:53.961           426.756        213378.000
         2   01 Jun 2027 05:57:06.403   01 Jun 2027 06:03:31.450           385.047        192523.500
         3   01 Jun 2027 07:35:21.950   01 Jun 2027 07:39:15.064           233.114        116557.000
         4   01 Jun 2027 09:10:42.542   01 Jun 2027 09:14:53.554           251.012        125506.000
         5   01 Jun 2027 09:15:14.442   01 Jun 2027 09:16:13.032            58.590         29295.000
         6   02 Jun 2027 03:00:00.000   02 Jun 2027 03:02:09.186           129.186         64593.000
         7   02 Jun 2027 04:32:20.446   02 Jun 2027 04:39:54.565           454.119        227059.500
         8   02 Jun 2027 06:09:26.207   02 Jun 2027 06:10:30.254            64.047         31088.000
