uniorb/output/strategy_3/Camera/Camera_KinoSat_110507.txt

KinoSat_110507
-------------------------
    Access    *     Start Time (UTCG)     *     Stop Time (UTCG)  *   Duration (s) *   Data (Mbytes)
         1   01 Jun 2027 03:29:05.811   01 Jun 2027 03:33:25.335           259.524        129762.000
         2   01 Jun 2027 05:03:49.681   01 Jun 2027 05:11:22.707           453.026        226513.000
         3   01 Jun 2027 06:40:37.641   01 Jun 2027 06:46:58.639           380.998        190499.000
         4   01 Jun 2027 08:18:52.707   01 Jun 2027 08:22:47.665           234.958        117479.000
         5   01 Jun 2027 09:52:09.924   01 Jun 2027 09:53:42.314            92.390         46195.000
         6   01 Jun 2027 09:53:47.320   01 Jun 2027 09:58:30.275           282.955        141477.500
         7   01 Jun 2027 09:58:48.269   01 Jun 2027 09:59:52.867            64.598         32299.000
         8   02 Jun 2027 03:39:00.171   02 Jun 2027 03:40:17.969            77.798         38899.000
         9   02 Jun 2027 03:40:50.158   02 Jun 2027 03:43:24.374           154.216         76876.500
