uniorb/output/strategy_3/Camera/Camera_KinoSat_111007.txt

KinoSat_111007
-------------------------
    Access    *     Start Time (UTCG)     *     Stop Time (UTCG)  *   Duration (s) *   Data (Mbytes)
         1   01 Jun 2027 03:08:36.485   01 Jun 2027 03:10:03.288            86.803         43401.500
         2   01 Jun 2027 03:20:16.843   01 Jun 2027 03:21:42.338            85.495         42747.500
         3   01 Jun 2027 04:42:33.129   01 Jun 2027 04:43:48.689            75.560         37780.000
         4   01 Jun 2027 04:44:29.698   01 Jun 2027 04:47:37.261           187.563         93781.500
         5   01 Jun 2027 06:17:46.141   01 Jun 2027 06:19:10.131            83.990         41995.000
         6   01 Jun 2027 06:19:41.445   01 Jun 2027 06:24:36.077           294.632        147316.000
         7   01 Jun 2027 07:54:49.864   01 Jun 2027 07:57:56.141           186.277         92978.500
