uniorb/output/strategy_3/Camera/Camera_KinoSat_111308.txt

KinoSat_111308
-------------------------
    Access    *     Start Time (UTCG)     *     Stop Time (UTCG)  *   Duration (s) *   Data (Mbytes)
         1   01 Jun 2027 03:00:00.000   01 Jun 2027 03:05:42.929           342.929        171464.500
         2   01 Jun 2027 04:23:34.973   01 Jun 2027 04:24:49.456            74.483         37241.500
         3   01 Jun 2027 04:35:02.807   01 Jun 2027 04:36:41.599            98.792         49396.000
         4   01 Jun 2027 05:57:42.204   01 Jun 2027 05:58:41.194            58.990         29495.000
         5   01 Jun 2027 05:59:17.909   01 Jun 2027 06:02:21.409           183.500         91750.000
         6   01 Jun 2027 07:33:03.192   01 Jun 2027 07:34:00.476            57.284         28642.000
         7   01 Jun 2027 07:34:34.246   01 Jun 2027 07:37:39.747           185.501         92011.000
