uniorb/output/strategy_3/Camera/Camera_KinoSat_111408.txt

KinoSat_111408
-------------------------
    Access    *     Start Time (UTCG)     *     Stop Time (UTCG)  *   Duration (s) *   Data (Mbytes)
         1   01 Jun 2027 04:31:28.045   01 Jun 2027 04:31:59.067            31.022         15511.000
         2   01 Jun 2027 04:32:17.613   01 Jun 2027 04:35:19.975           182.362         91181.000
         3   01 Jun 2027 05:54:50.532   01 Jun 2027 05:57:57.944           187.412         93706.000
         4   01 Jun 2027 07:31:22.415   01 Jun 2027 07:34:55.163           212.748        106374.000
         5   01 Jun 2027 09:06:32.423   01 Jun 2027 09:12:59.979           387.556        193228.000
