uniorb/output/strategy_3/Camera/Camera_KinoSat_111302.txt

KinoSat_111302
-------------------------
    Access    *     Start Time (UTCG)     *     Stop Time (UTCG)  *   Duration (s) *   Data (Mbytes)
         1   01 Jun 2027 03:57:06.523   01 Jun 2027 04:01:07.667           241.144        120572.000
         2   01 Jun 2027 05:20:02.070   01 Jun 2027 05:22:47.226           165.156         82578.000
         3   01 Jun 2027 06:56:37.080   01 Jun 2027 07:00:10.752           213.672        106836.000
         4   01 Jun 2027 08:31:45.488   01 Jun 2027 08:37:30.297           344.809        172404.500
         5   01 Jun 2027 08:37:33.056   01 Jun 2027 08:38:12.098            39.042         17609.500
