uniorb/output/strategy_3/Camera/Camera_KinoSat_110206.txt

KinoSat_110206
-------------------------
    Access    *     Start Time (UTCG)     *     Stop Time (UTCG)  *   Duration (s) *   Data (Mbytes)
         1   01 Jun 2027 03:51:37.468   01 Jun 2027 03:58:55.295           437.827        218913.500
         2   01 Jun 2027 05:28:52.045   01 Jun 2027 05:33:23.565           271.520        135760.000
         3   01 Jun 2027 05:33:33.335   01 Jun 2027 05:34:44.389            71.054         35527.000
         4   01 Jun 2027 07:05:33.894   01 Jun 2027 07:10:25.708           291.814        145907.000
         5   01 Jun 2027 08:40:45.760   01 Jun 2027 08:40:59.749            13.989          6994.500
         6   01 Jun 2027 08:42:20.653   01 Jun 2027 08:45:28.969           188.316         94158.000
         7   02 Jun 2027 04:04:02.808   02 Jun 2027 04:10:44.890           402.082        201041.000
         8   02 Jun 2027 05:41:02.042   02 Jun 2027 05:46:25.748           323.706        161699.000
