uniorb/output/strategy_3/Camera/Camera_KinoSat_110305.txt

KinoSat_110305
-------------------------
    Access    *     Start Time (UTCG)     *     Stop Time (UTCG)  *   Duration (s) *   Data (Mbytes)
         1   01 Jun 2027 03:56:13.158   01 Jun 2027 04:03:45.578           452.420        226210.000
         2   01 Jun 2027 05:33:19.237   01 Jun 2027 05:39:23.058           363.821        181910.500
         3   01 Jun 2027 07:11:14.738   01 Jun 2027 07:15:12.908           238.170        119085.000
         4   01 Jun 2027 08:44:20.334   01 Jun 2027 08:50:41.117           380.783        190391.500
         5   01 Jun 2027 08:51:22.344   01 Jun 2027 08:52:21.881            59.537         29768.500
         6   02 Jun 2027 04:08:30.577   02 Jun 2027 04:15:49.246           438.669        219334.500
         7   02 Jun 2027 05:45:15.291   02 Jun 2027 05:46:24.845            69.554         33300.000
