uniorb/output/strategy_3/Camera/Camera_KinoSat_110209.txt

KinoSat_110209
-------------------------
    Access    *     Start Time (UTCG)     *     Stop Time (UTCG)  *   Duration (s) *   Data (Mbytes)
         1   01 Jun 2027 03:22:44.171   01 Jun 2027 03:30:10.154           445.983        222991.500
         2   01 Jun 2027 04:59:41.496   01 Jun 2027 05:05:50.137           368.641        184320.500
         3   01 Jun 2027 06:37:34.514   01 Jun 2027 06:41:36.247           241.733        120866.500
         4   01 Jun 2027 08:11:02.381   01 Jun 2027 08:18:41.114           458.733        229366.500
         5   02 Jun 2027 03:34:45.506   02 Jun 2027 03:42:12.012           446.506        223253.000
         6   02 Jun 2027 05:11:33.700   02 Jun 2027 05:12:13.283            39.583         19202.000
