uniorb/output/strategy_3/Camera/Camera_KinoSat_110905.txt

KinoSat_110905
-------------------------
    Access    *     Start Time (UTCG)     *     Stop Time (UTCG)  *   Duration (s) *   Data (Mbytes)
         1   01 Jun 2027 03:30:50.628   01 Jun 2027 03:33:37.192           166.564         83282.000
         2   01 Jun 2027 05:07:28.336   01 Jun 2027 05:11:00.453           212.117        106058.500
         3   01 Jun 2027 06:42:23.469   01 Jun 2027 06:48:19.593           356.124        178062.000
         4   01 Jun 2027 06:48:23.345   01 Jun 2027 06:49:21.618            58.273         29136.500
         5   01 Jun 2027 08:18:35.549   01 Jun 2027 08:22:02.831           207.282        103461.000
