uniorb/output/strategy_3/Camera/Camera_KinoSat_110106.txt

KinoSat_110106
-------------------------
    Access    *     Start Time (UTCG)     *     Stop Time (UTCG)  *   Duration (s) *   Data (Mbytes)
         1   01 Jun 2027 03:57:03.768   01 Jun 2027 04:03:29.029           385.261        192630.500
         2   01 Jun 2027 05:35:20.218   01 Jun 2027 05:39:11.740           231.522        115761.000
         3   01 Jun 2027 07:10:43.462   01 Jun 2027 07:14:49.618           246.156        123078.000
         4   01 Jun 2027 07:15:11.561   01 Jun 2027 07:16:09.685            58.124         29062.000
         5   02 Jun 2027 04:09:23.281   02 Jun 2027 04:15:45.365           382.084        191042.000
         6   02 Jun 2027 05:47:21.192   02 Jun 2027 05:51:18.426           237.234        118617.000
         7   02 Jun 2027 07:20:28.411   02 Jun 2027 07:26:45.639           377.228        188614.000
         8   02 Jun 2027 07:27:27.348   02 Jun 2027 07:28:27.110            59.762         29881.000
         9   03 Jun 2027 04:21:23.610   03 Jun 2027 04:21:46.623            23.013         11314.499
