uniorb/output/strategy_3/Camera/Camera_KinoSat_110105.txt

KinoSat_110105
-------------------------
    Access    *     Start Time (UTCG)     *     Stop Time (UTCG)  *   Duration (s) *   Data (Mbytes)
         1   01 Jun 2027 04:06:55.883   01 Jun 2027 04:13:03.608           367.725        183862.500
         2   01 Jun 2027 05:44:55.490   01 Jun 2027 05:48:52.206           236.716        118358.000
         3   01 Jun 2027 07:18:06.716   01 Jun 2027 07:24:18.915           372.199        186099.500
         4   01 Jun 2027 07:24:23.682   01 Jun 2027 07:26:01.534            97.852         48926.000
         5   02 Jun 2027 04:18:59.056   02 Jun 2027 04:25:09.236           370.180        185090.000
         6   02 Jun 2027 05:56:55.264   02 Jun 2027 06:00:54.274           239.010        119505.000
         7   02 Jun 2027 07:30:29.779   02 Jun 2027 07:35:46.378           316.599        158159.000
