uniorb/output/strategy_3/Camera/Camera_KinoSat_111106.txt

KinoSat_111106
-------------------------
    Access    *     Start Time (UTCG)     *     Stop Time (UTCG)  *   Duration (s) *   Data (Mbytes)
         1   01 Jun 2027 03:26:02.879   01 Jun 2027 03:26:40.486            37.607         18803.500
         2   01 Jun 2027 03:27:10.411   01 Jun 2027 03:29:38.215           147.804         73902.000
         3   01 Jun 2027 04:50:07.544   01 Jun 2027 04:52:40.723           153.179         76589.500
         4   01 Jun 2027 06:25:53.505   01 Jun 2027 06:29:50.741           237.236        118618.000
         5   01 Jun 2027 08:00:51.213   01 Jun 2027 08:07:53.757           422.544        211272.000
         6   01 Jun 2027 09:37:04.238   01 Jun 2027 09:37:07.766             3.528           815.000
