uniorb/output/strategy_3/Camera/Camera_KinoSat_111706.txt

KinoSat_111706
-------------------------
    Access    *     Start Time (UTCG)     *     Stop Time (UTCG)  *   Duration (s) *   Data (Mbytes)
         1   01 Jun 2027 03:00:00.000   01 Jun 2027 03:05:51.891           351.891        175945.500
         2   01 Jun 2027 04:38:26.544   01 Jun 2027 04:45:46.806           440.262        220131.000
         3   01 Jun 2027 06:03:34.736   01 Jun 2027 06:04:55.525            80.789         40394.500
         4   01 Jun 2027 06:15:10.725   01 Jun 2027 06:16:36.276            85.551         42775.500
         5   01 Jun 2027 07:37:45.514   01 Jun 2027 07:38:28.861            43.347         20753.500
