uniorb/output/strategy_3/Camera/Camera_KinoSat_112001.txt

KinoSat_112001
-------------------------
    Access    *     Start Time (UTCG)     *     Stop Time (UTCG)  *   Duration (s) *   Data (Mbytes)
         1   01 Jun 2027 03:35:20.440   01 Jun 2027 03:42:44.690           444.250        222125.000
         2   01 Jun 2027 05:13:17.896   01 Jun 2027 05:13:20.708             2.812          1406.000
         3   01 Jun 2027 05:13:46.065   01 Jun 2027 05:19:31.205           345.140        172570.000
         4   01 Jun 2027 06:51:57.916   01 Jun 2027 06:55:25.861           207.945        103899.000
