uniorb/output/strategy_3/Camera/Camera_KinoSat_111801.txt

KinoSat_111801
-------------------------
    Access    *     Start Time (UTCG)     *     Stop Time (UTCG)  *   Duration (s) *   Data (Mbytes)
         1   01 Jun 2027 03:44:00.441   01 Jun 2027 03:44:27.026            26.585         13292.500
         2   01 Jun 2027 03:44:32.009   01 Jun 2027 03:45:06.600            34.591         17295.500
         3   01 Jun 2027 03:45:10.324   01 Jun 2027 03:50:00.275           289.951        144975.500
         4   01 Jun 2027 05:22:46.934   01 Jun 2027 05:29:47.945           421.011        210505.500
         5   01 Jun 2027 06:47:07.707   01 Jun 2027 06:49:19.989           132.282         66141.000
         6   01 Jun 2027 06:59:24.339   01 Jun 2027 06:59:52.013            27.674         13837.000
         7   01 Jun 2027 08:21:14.755   01 Jun 2027 08:22:24.085            69.330         33953.000
