uniorb/output/strategy_1/Drop/Drop_KinoSat_110110.txt

KinoSat_110110
-------------------------
    Access    *     Start Time (UTCG)     *     Stop Time (UTCG)  *   Duration (s)        *       Station  *  Data (Mbytes)
         1   01 Jun 2027 03:20:25.642   01 Jun 2027 03:20:31.916             6.274                Irkutsk           784.250
         2   01 Jun 2027 03:20:42.606   01 Jun 2027 03:21:43.014            60.408                Novosib          7551.000
         3   01 Jun 2027 03:22:10.616   01 Jun 2027 03:23:25.049            74.433                Irkutsk          9304.125
         4   01 Jun 2027 03:23:37.882   01 Jun 2027 03:24:32.517            54.635                Irkutsk          6829.375
         5   01 Jun 2027 03:24:42.369   01 Jun 2027 03:25:31.094            48.725                Novosib          6090.625
         6   01 Jun 2027 04:00:47.598   01 Jun 2027 04:03:08.146           140.548            RioGallegos         17568.500
         7   01 Jun 2027 04:03:35.308   01 Jun 2027 04:04:54.228            78.920            RioGallegos          9865.000
         8   01 Jun 2027 04:35:09.596   01 Jun 2027 04:36:12.610            63.014                Sumatra          7876.750
         9   01 Jun 2027 04:57:58.093   01 Jun 2027 04:59:41.370           103.277                Novosib         12909.625
        10   01 Jun 2027 05:00:02.049   01 Jun 2027 05:00:20.519            18.470                Irkutsk          2308.750
        11   01 Jun 2027 05:00:28.213   01 Jun 2027 05:00:53.947            25.734              Murmansk2          3216.750
        12   01 Jun 2027 05:01:04.088   01 Jun 2027 05:01:08.715             4.627              Murmansk1           578.375
        13   01 Jun 2027 05:01:08.715   01 Jun 2027 05:01:31.169            22.454              Murmansk2          2806.750
        14   01 Jun 2027 05:01:43.948   01 Jun 2027 05:02:05.187            21.239                Norilsk          2654.875
        15   01 Jun 2027 06:19:49.393   01 Jun 2027 06:22:08.206           138.813                  Delhi         17351.625
        16   01 Jun 2027 06:23:55.999   01 Jun 2027 06:24:51.140            55.141                  Delhi          6892.625
        17   01 Jun 2027 06:34:32.207   01 Jun 2027 06:34:58.022            25.815                Norilsk          3226.875
        18   01 Jun 2027 06:35:18.984   01 Jun 2027 06:36:38.652            79.668                 Moscow          9958.500
        19   01 Jun 2027 06:39:24.387   01 Jun 2027 06:39:51.439            27.052                 Moscow          3381.500
        20   01 Jun 2027 09:17:32.358   01 Jun 2027 09:23:27.749           355.391               CapeTown         44423.875
        21   01 Jun 2027 13:11:51.385   01 Jun 2027 13:17:50.381           358.996               Magadan2         44874.500
        22   01 Jun 2027 15:06:53.760   01 Jun 2027 15:10:45.271           231.511                Sumatra         28938.875
        23   01 Jun 2027 15:15:07.499   01 Jun 2027 15:15:48.055            40.556                Sumatra          5069.500
        24   01 Jun 2027 16:42:04.809   01 Jun 2027 16:44:38.512           153.703                  Delhi         19212.875
        25   01 Jun 2027 18:03:05.322   01 Jun 2027 18:04:53.253           107.931                Novosib         13491.375
        26   01 Jun 2027 18:10:25.355   01 Jun 2027 18:11:57.347            91.992                  Delhi         11499.000
        27   01 Jun 2027 18:13:37.639   01 Jun 2027 18:15:24.428           106.789                  Delhi         13348.625
        28   01 Jun 2027 19:44:31.877   01 Jun 2027 19:46:32.114           120.237                 Moscow          7352.500
        29   02 Jun 2027 04:13:09.830   02 Jun 2027 04:13:53.354            43.524            RioGallegos          5440.500
        30   02 Jun 2027 04:16:13.791   02 Jun 2027 04:17:03.605            49.814            RioGallegos          6226.750
        31   02 Jun 2027 04:47:25.590   02 Jun 2027 04:51:44.727           259.137                Sumatra         32392.125
        32   02 Jun 2027 05:10:15.823   02 Jun 2027 05:11:34.950            79.127                Irkutsk          9890.875
        33   02 Jun 2027 05:13:58.216   02 Jun 2027 05:14:40.194            41.978                Novosib          5247.250
        34   02 Jun 2027 06:32:17.316   02 Jun 2027 06:35:22.847           185.531                  Delhi         23191.375
        35   02 Jun 2027 06:46:45.936   02 Jun 2027 06:47:29.495            43.559                Novosib          5444.875
        36   02 Jun 2027 06:47:34.740   02 Jun 2027 06:48:34.913            60.173                 Moscow          7521.625
        37   02 Jun 2027 06:48:45.102   02 Jun 2027 06:49:22.297            37.195                 Moscow          4649.375
        38   02 Jun 2027 13:23:51.664   02 Jun 2027 13:24:12.502            20.838               Magadan1          2604.750
        39   02 Jun 2027 13:25:15.566   02 Jun 2027 13:27:04.912           109.346               Magadan2         13668.250
        40   02 Jun 2027 13:28:33.609   02 Jun 2027 13:28:41.097             7.488               Magadan2           936.000
        41   02 Jun 2027 13:31:00.597   02 Jun 2027 13:33:26.710           146.113               Magadan1         18264.125
        42   02 Jun 2027 15:06:47.934   02 Jun 2027 15:07:56.471            68.537                Irkutsk          8567.125
        43   02 Jun 2027 15:19:16.157   02 Jun 2027 15:25:35.861           379.704                Sumatra         47463.000
        44   02 Jun 2027 16:44:12.752   02 Jun 2027 16:44:57.834            45.082                Novosib          5635.250
        45   02 Jun 2027 16:48:07.914   02 Jun 2027 16:48:57.559            49.645                  Delhi          6205.625
        46   02 Jun 2027 16:52:31.007   02 Jun 2027 16:57:17.661           286.654                  Delhi         35831.750
        47   02 Jun 2027 19:55:59.082   02 Jun 2027 19:57:54.595           115.513                 Moscow         14439.125
        48   02 Jun 2027 21:38:08.897   02 Jun 2027 21:38:14.869             5.972                 Moscow           746.500
        49   02 Jun 2027 21:38:22.191   02 Jun 2027 21:39:34.298            72.107                 Moscow          9013.375
        50   02 Jun 2027 21:55:14.707   02 Jun 2027 21:55:37.682            22.975               CapeTown          2871.875
        51   02 Jun 2027 21:57:18.329   02 Jun 2027 21:59:09.730           111.401               CapeTown         13925.125
        52   03 Jun 2027 03:23:54.400   03 Jun 2027 03:25:30.962            96.562                Sumatra         12070.250
        53   03 Jun 2027 03:27:34.600   03 Jun 2027 03:30:54.877           200.277                Sumatra         25034.625
        54   03 Jun 2027 05:24:29.323   03 Jun 2027 05:25:16.523            47.200                Novosib          5900.000
        55   03 Jun 2027 05:25:22.760   03 Jun 2027 05:26:20.064            57.304                Norilsk          7163.000
        56   03 Jun 2027 05:27:40.578   03 Jun 2027 05:27:54.269            13.691                Norilsk          1711.375
        57   03 Jun 2027 06:44:55.107   03 Jun 2027 06:48:15.991           200.884                  Delhi         25110.500
        58   03 Jun 2027 06:59:28.628   03 Jun 2027 07:00:14.351            45.723                Norilsk          5715.375
        59   03 Jun 2027 07:00:21.157   03 Jun 2027 07:00:28.385             7.228                 Moscow           903.500
        60   03 Jun 2027 07:00:48.400   03 Jun 2027 07:02:34.137           105.737                Norilsk         13217.125
        61   03 Jun 2027 09:44:11.505   03 Jun 2027 09:44:16.976             5.471               CapeTown           683.875
        62   03 Jun 2027 10:21:51.941   03 Jun 2027 10:22:21.677            29.736                Anadyr1          3717.000
        63   03 Jun 2027 10:31:29.586   03 Jun 2027 10:32:02.724            33.138                Anadyr2          4142.250
        64   03 Jun 2027 12:00:19.531   03 Jun 2027 12:01:18.689            59.158               Magadan2          7394.750
        65   03 Jun 2027 12:09:29.314   03 Jun 2027 12:11:15.706           106.392               Magadan2         13299.000
        66   03 Jun 2027 13:35:52.389   03 Jun 2027 13:36:07.888            15.499               Magadan2          1937.375
        67   03 Jun 2027 13:37:42.828   03 Jun 2027 13:39:10.384            87.556               Magadan1         10944.500
        68   03 Jun 2027 15:17:04.425   03 Jun 2027 15:21:15.999           251.574                Irkutsk         31446.750
        69   03 Jun 2027 15:31:43.376   03 Jun 2027 15:36:22.623           279.247                Sumatra         34905.875
        70   03 Jun 2027 16:59:37.855   03 Jun 2027 17:06:58.800           440.945                  Delhi         55118.125
        71   03 Jun 2027 20:06:56.938   03 Jun 2027 20:07:10.866            13.928                 Moscow          1741.000
        72   03 Jun 2027 20:10:33.671   03 Jun 2027 20:13:05.881           152.210                 Moscow         19026.250
        73   03 Jun 2027 21:50:17.496   03 Jun 2027 21:50:58.122            40.626                 Moscow          5078.250
        74   03 Jun 2027 22:09:17.063   03 Jun 2027 22:10:19.973            62.910               CapeTown          7863.750
        75   04 Jun 2027 03:35:34.025   04 Jun 2027 03:41:56.143           382.118                Sumatra         47764.750
        76   04 Jun 2027 05:12:50.406   04 Jun 2027 05:14:03.729            73.323                Sumatra          9165.375
        77   04 Jun 2027 05:26:45.652   04 Jun 2027 05:28:55.462           129.810                  Delhi         16226.250
        78   04 Jun 2027 05:36:55.196   04 Jun 2027 05:37:32.299            37.103              Murmansk2          4637.875
        79   04 Jun 2027 05:37:32.299   04 Jun 2027 05:37:37.463             5.164              Murmansk1           645.500
        80   04 Jun 2027 05:37:58.068   04 Jun 2027 05:38:38.183            40.115                Novosib          5014.375
        81   04 Jun 2027 06:57:46.955   04 Jun 2027 07:00:28.143           161.188                  Delhi         20148.500
        82   04 Jun 2027 07:10:58.986   04 Jun 2027 07:11:25.647            26.661              Murmansk2          3332.625
        83   04 Jun 2027 07:11:28.986   04 Jun 2027 07:11:52.738            23.752              Murmansk1          2969.000
        84   04 Jun 2027 07:12:03.661   04 Jun 2027 07:12:42.289            38.628                Novosib          4828.500
        85   04 Jun 2027 07:13:00.492   04 Jun 2027 07:13:54.461            53.969              Murmansk1          6746.125
        86   04 Jun 2027 07:14:22.458   04 Jun 2027 07:14:39.556            17.098                 Moscow          2137.250
        87   04 Jun 2027 09:53:11.527   04 Jun 2027 09:55:17.782           126.255               CapeTown         15781.875
        88   04 Jun 2027 10:34:18.100   04 Jun 2027 10:35:52.647            94.547                Anadyr2         11818.375
        89   04 Jun 2027 10:37:03.772   04 Jun 2027 10:38:44.573           100.801                Anadyr1         12600.125
        90   04 Jun 2027 10:39:23.665   04 Jun 2027 10:42:31.616           187.951                Anadyr2         23493.875
        91   04 Jun 2027 12:12:14.804   04 Jun 2027 12:13:46.487            91.683               Magadan2         11460.375
        92   04 Jun 2027 12:20:38.271   04 Jun 2027 12:20:47.700             9.429               Magadan1          1178.625
        93   04 Jun 2027 13:47:53.494   04 Jun 2027 13:48:04.527            11.033               Magadan1          1379.125
        94   04 Jun 2027 13:50:06.152   04 Jun 2027 13:51:13.294            67.142               Magadan1          8392.750
        95   04 Jun 2027 13:55:44.186   04 Jun 2027 13:56:15.945            31.759               Magadan2          3969.875
        96   04 Jun 2027 13:57:10.132   04 Jun 2027 13:57:29.109            18.977               Magadan1          2372.125
        97   04 Jun 2027 14:41:06.738   04 Jun 2027 14:43:38.280           151.542            RioGallegos         18942.750
        98   04 Jun 2027 15:37:10.003   04 Jun 2027 15:39:18.236           128.233                Irkutsk         16029.125
        99   04 Jun 2027 15:41:26.476   04 Jun 2027 15:44:02.182           155.706                Sumatra         19463.250
       100   04 Jun 2027 15:47:20.963   04 Jun 2027 15:47:33.928            12.965                Sumatra          1620.625
       101   04 Jun 2027 17:04:59.387   04 Jun 2027 17:08:32.943           213.556                Novosib         26694.500
       102   04 Jun 2027 17:11:16.151   04 Jun 2027 17:17:45.035           388.884                  Delhi         48610.500
       103   04 Jun 2027 20:16:53.954   04 Jun 2027 20:18:07.207            73.253                 Moscow          9156.625
       104   04 Jun 2027 21:52:43.586   04 Jun 2027 21:52:45.120             1.534                 Moscow           191.750
       105   04 Jun 2027 21:53:32.371   04 Jun 2027 21:53:56.291            23.920                 Moscow          2990.000
       106   04 Jun 2027 21:54:02.767   04 Jun 2027 21:54:12.784            10.017              Murmansk1          1252.125
       107   04 Jun 2027 22:17:19.490   04 Jun 2027 22:19:19.913           120.423               CapeTown         15052.875
       108   05 Jun 2027 03:47:20.523   05 Jun 2027 03:53:15.084           354.561                Sumatra         44320.125
       109   05 Jun 2027 04:50:50.991   05 Jun 2027 04:52:02.826            71.835            RioGallegos          8979.375
       110   05 Jun 2027 05:25:11.803   05 Jun 2027 05:26:35.282            83.479                Sumatra         10434.875
       111   05 Jun 2027 05:31:20.778   05 Jun 2027 05:32:52.180            91.402                  Delhi         11425.250
       112   05 Jun 2027 05:39:00.372   05 Jun 2027 05:40:56.678           116.306                  Delhi         14538.250
       113   05 Jun 2027 05:48:46.944   05 Jun 2027 05:49:24.763            37.819                 Moscow          4727.375
       114   05 Jun 2027 07:11:04.108   05 Jun 2027 07:12:23.097            78.989                  Delhi          9873.625
       115   05 Jun 2027 07:13:02.399   05 Jun 2027 07:13:50.177            47.778                  Delhi          5972.250
       116   05 Jun 2027 07:14:31.045   05 Jun 2027 07:15:20.109            49.064                  Delhi          6133.000
       117   05 Jun 2027 07:20:41.395   05 Jun 2027 07:21:13.320            31.925                 Moscow          3990.625
       118   05 Jun 2027 07:21:22.213   05 Jun 2027 07:22:15.933            53.720                Novosib          6715.000
       119   05 Jun 2027 07:22:36.473   05 Jun 2027 07:22:51.646            15.173              Murmansk1          1896.625
       120   05 Jun 2027 07:22:56.478   05 Jun 2027 07:23:48.677            52.199                Novosib          6524.875
       121   05 Jun 2027 07:24:02.496   05 Jun 2027 07:24:14.361            11.865                Norilsk          1483.125
       122   05 Jun 2027 07:24:35.982   05 Jun 2027 07:25:46.871            70.889                Norilsk          8861.125
       123   05 Jun 2027 07:26:01.942   05 Jun 2027 07:27:30.230            88.288                Norilsk         11036.000
       124   05 Jun 2027 08:31:29.744   05 Jun 2027 08:32:44.494            74.750               CapeTown          9343.750
       125   05 Jun 2027 10:05:10.809   05 Jun 2027 10:06:39.716            88.907               CapeTown         11113.375
       126   05 Jun 2027 10:12:43.219   05 Jun 2027 10:14:46.725           123.506               CapeTown         15438.250
       127   05 Jun 2027 10:48:40.399   05 Jun 2027 10:50:42.137           121.738                Anadyr1         15217.250
       128   05 Jun 2027 12:21:43.146   05 Jun 2027 12:21:44.343             1.197                Anadyr2           149.625
       129   05 Jun 2027 12:24:11.361   05 Jun 2027 12:25:28.139            76.778               Magadan2          9597.250
       130   05 Jun 2027 12:29:55.852   05 Jun 2027 12:34:45.389           289.537               Magadan1         36192.125
       131   05 Jun 2027 14:52:32.061   05 Jun 2027 14:53:10.159            38.098            RioGallegos          4762.250
       132   05 Jun 2027 14:55:45.691   05 Jun 2027 14:57:04.128            78.437            RioGallegos          9804.625
       133   05 Jun 2027 15:39:34.522   05 Jun 2027 15:41:34.165           119.643                Irkutsk         14955.375
       134   05 Jun 2027 15:47:33.604   05 Jun 2027 15:49:05.792            92.188                Irkutsk         11523.500
       135   05 Jun 2027 15:53:16.081   05 Jun 2027 15:58:40.436           324.355                Sumatra         40544.375
       136   05 Jun 2027 17:23:00.554   05 Jun 2027 17:29:00.185           359.631                  Delhi         44953.875
       137   05 Jun 2027 19:01:25.757   05 Jun 2027 19:02:40.191            74.434                  Delhi          9304.250
       138   05 Jun 2027 20:28:51.877   05 Jun 2027 20:29:47.986            56.109                 Moscow          7013.625
       139   05 Jun 2027 20:31:44.216   05 Jun 2027 20:33:50.733           126.517                 Moscow         15814.625
       140   05 Jun 2027 22:29:48.670   05 Jun 2027 22:31:04.727            76.057               CapeTown          9507.125
       141   06 Jun 2027 03:59:13.090   06 Jun 2027 04:03:22.465           249.375                Sumatra         31171.875
       142   06 Jun 2027 05:38:31.771   06 Jun 2027 05:40:23.287           111.516                Sumatra         13939.500
       143   06 Jun 2027 05:43:23.077   06 Jun 2027 05:44:46.340            83.263                  Delhi         10407.875
       144   06 Jun 2027 05:47:46.830   06 Jun 2027 05:48:21.683            34.853                  Delhi          4356.625
       145   06 Jun 2027 06:00:43.127   06 Jun 2027 06:02:02.870            79.743              Murmansk2          9967.875
       146   06 Jun 2027 06:02:10.673   06 Jun 2027 06:02:47.274            36.601                Novosib          4575.125
       147   06 Jun 2027 07:32:21.772   06 Jun 2027 07:33:00.463            38.691                 Moscow          4836.375
       148   06 Jun 2027 07:33:01.535   06 Jun 2027 07:33:16.420            14.885              Murmansk2          1860.625
       149   06 Jun 2027 07:33:38.279   06 Jun 2027 07:35:04.517            86.238              Murmansk2         10779.750
       150   06 Jun 2027 07:35:09.494   06 Jun 2027 07:35:27.131            17.637                Norilsk          2204.625
       151   06 Jun 2027 07:35:29.063   06 Jun 2027 07:35:43.441            14.378                 Moscow          1797.250
       152   06 Jun 2027 07:35:52.427   06 Jun 2027 07:37:05.317            72.890                 Moscow          9111.250
       153   06 Jun 2027 07:37:18.163   06 Jun 2027 07:37:55.545            37.382              Murmansk1          4672.750
       154   06 Jun 2027 07:38:10.120   06 Jun 2027 07:38:24.863            14.743                Norilsk          1842.875
       155   06 Jun 2027 07:38:40.480   06 Jun 2027 07:39:17.596            37.116                 Moscow          4639.500
       156   06 Jun 2027 08:42:49.977   06 Jun 2027 08:46:30.766           220.789               CapeTown         27598.625
       157   06 Jun 2027 08:50:09.362   06 Jun 2027 08:52:01.495           112.133               CapeTown         14016.625
       158   06 Jun 2027 10:57:50.878   06 Jun 2027 10:58:11.503            20.625                Anadyr2          2578.125
       159   06 Jun 2027 10:59:54.097   06 Jun 2027 11:02:40.532           166.435                Anadyr1         20804.375
       160   06 Jun 2027 12:36:08.958   06 Jun 2027 12:38:30.492           141.534               Magadan2         17691.750
       161   06 Jun 2027 12:41:21.258   06 Jun 2027 12:43:48.662           147.404               Magadan1         18425.500
       162   06 Jun 2027 15:03:48.479   06 Jun 2027 15:05:38.009           109.530            RioGallegos         13691.250
       163   06 Jun 2027 15:08:38.319   06 Jun 2027 15:09:12.035            33.716            RioGallegos          4214.500
       164   06 Jun 2027 15:51:30.618   06 Jun 2027 15:52:58.670            88.052                Irkutsk         11006.500
       165   06 Jun 2027 15:56:37.003   06 Jun 2027 15:57:47.777            70.774                Irkutsk          8846.750
       166   06 Jun 2027 16:00:38.470   06 Jun 2027 16:01:02.994            24.524                Irkutsk          3065.500
       167   06 Jun 2027 16:05:11.517   06 Jun 2027 16:08:20.102           188.585                Sumatra         23573.125
       168   06 Jun 2027 17:28:58.559   06 Jun 2027 17:30:16.099            77.540                Novosib          9692.500
       169   06 Jun 2027 17:34:49.802   06 Jun 2027 17:37:30.584           160.782                  Delhi         20097.750
       170   06 Jun 2027 19:12:23.975   06 Jun 2027 19:13:25.246            61.271                  Delhi          7658.875
       171   06 Jun 2027 19:17:47.363   06 Jun 2027 19:18:14.969            27.606                  Delhi          3450.750
       172   06 Jun 2027 20:37:34.437   06 Jun 2027 20:37:38.112             3.675              Murmansk2           459.375
       173   06 Jun 2027 20:39:55.523   06 Jun 2027 20:40:15.889            20.366              Murmansk1          2545.750
       174   06 Jun 2027 20:40:50.756   06 Jun 2027 20:43:48.293           177.537                 Moscow         22192.125
       175   06 Jun 2027 22:18:26.124   06 Jun 2027 22:19:10.068            43.944              Murmansk2          5493.000
       176   06 Jun 2027 22:42:27.398   06 Jun 2027 22:42:33.621             6.223               CapeTown           777.875
       177   06 Jun 2027 22:48:19.869   06 Jun 2027 22:48:31.177            11.308               CapeTown          1413.500
       178   06 Jun 2027 22:50:11.448   06 Jun 2027 22:50:46.140            34.692               CapeTown          4336.500
       179   07 Jun 2027 04:11:11.330   07 Jun 2027 04:13:58.311           166.981                Sumatra         20872.625
       180   07 Jun 2027 04:35:11.104   07 Jun 2027 04:35:12.531             1.427              Murmansk1           178.375
       181   07 Jun 2027 04:35:25.670   07 Jun 2027 04:36:14.449            48.779                Novosib          6097.375
       182   07 Jun 2027 04:36:27.485   07 Jun 2027 04:37:19.169            51.684              Murmansk1          6460.500
       183   07 Jun 2027 04:37:42.500   07 Jun 2027 04:38:19.540            37.040                Norilsk          4630.000
       184   07 Jun 2027 04:38:43.131   07 Jun 2027 04:39:14.941            31.810                 Moscow          3976.250
       185   07 Jun 2027 05:16:46.302   07 Jun 2027 05:17:11.139            24.837            RioGallegos          3104.625
       186   07 Jun 2027 05:18:14.048   07 Jun 2027 05:18:23.026             8.978            RioGallegos          1122.250
       187   07 Jun 2027 05:55:30.880   07 Jun 2027 05:58:29.802           178.922                  Delhi         22365.250
       188   07 Jun 2027 06:03:17.847   07 Jun 2027 06:03:35.071            17.224                  Delhi          2153.000
       189   07 Jun 2027 06:11:34.830   07 Jun 2027 06:11:58.792            23.962              Murmansk1          2995.250
       190   07 Jun 2027 06:12:09.003   07 Jun 2027 06:12:37.365            28.362                Norilsk          3545.250
       191   07 Jun 2027 06:12:55.527   07 Jun 2027 06:13:56.591            61.064                 Moscow          7633.000
       192   07 Jun 2027 06:14:49.571   07 Jun 2027 06:15:18.778            29.207                 Moscow          3650.875
       193   07 Jun 2027 07:44:50.259   07 Jun 2027 07:47:06.052           135.793                 Moscow         16974.125
       194   07 Jun 2027 07:47:15.944   07 Jun 2027 07:47:16.789             0.845              Murmansk2           105.625
       195   07 Jun 2027 07:47:21.327   07 Jun 2027 07:47:23.336             2.009                 Moscow           251.125
       196   07 Jun 2027 07:47:28.622   07 Jun 2027 07:47:44.326            15.704                Norilsk          1963.000
       197   07 Jun 2027 07:47:46.849   07 Jun 2027 07:49:22.687            95.838                 Moscow         11979.750
       198   07 Jun 2027 07:52:29.765   07 Jun 2027 07:52:32.086             2.321                 Moscow           290.125
       199   07 Jun 2027 08:54:22.059   07 Jun 2027 09:01:30.895           428.836               CapeTown         53604.500
       200   07 Jun 2027 11:09:51.334   07 Jun 2027 11:10:19.640            28.306                Anadyr2          3538.250
       201   07 Jun 2027 12:48:07.413   07 Jun 2027 12:48:52.413            45.000               Magadan1          5625.000
       202   07 Jun 2027 12:49:34.897   07 Jun 2027 12:54:32.050           297.153               Magadan1         37144.125
       203   07 Jun 2027 15:15:42.522   07 Jun 2027 15:17:52.021           129.499            RioGallegos         16187.375
       204   07 Jun 2027 15:23:33.698   07 Jun 2027 15:25:13.549            99.851            RioGallegos         12481.375
       205   07 Jun 2027 16:03:28.080   07 Jun 2027 16:04:34.729            66.649                Irkutsk          8331.125
       206   07 Jun 2027 16:06:24.713   07 Jun 2027 16:08:29.190           124.477                Irkutsk         15559.625
       207   07 Jun 2027 16:17:12.547   07 Jun 2027 16:19:29.092           136.545                Sumatra         17068.125
       208   07 Jun 2027 17:40:00.662   07 Jun 2027 17:42:26.796           146.134                Novosib         18266.750
       209   07 Jun 2027 17:46:43.123   07 Jun 2027 17:49:56.281           193.158                  Delhi         24144.750
       210   07 Jun 2027 19:23:47.304   07 Jun 2027 19:24:39.942            52.638                  Delhi          6579.750
       211   07 Jun 2027 20:52:50.463   07 Jun 2027 20:53:23.286            32.823                 Moscow          4102.875
       212   07 Jun 2027 20:54:01.844   07 Jun 2027 20:56:03.731           121.887                 Moscow         15235.875
       213   08 Jun 2027 02:50:33.613   08 Jun 2027 02:51:08.755            35.142                Sumatra          4392.750
       214   08 Jun 2027 03:10:39.697   08 Jun 2027 03:11:35.693            55.996               Magadan1          6999.500
       215   08 Jun 2027 03:11:59.827   08 Jun 2027 03:12:48.646            48.819                Norilsk          6102.375
       216   08 Jun 2027 03:13:02.028   08 Jun 2027 03:13:25.956            23.928              Murmansk2          2991.000
       217   08 Jun 2027 03:14:17.167   08 Jun 2027 03:15:01.207            44.040                Novosib          5505.000
       218   08 Jun 2027 03:48:45.204   08 Jun 2027 03:50:17.462            92.258            RioGallegos         11532.250
       219   08 Jun 2027 04:23:15.172   08 Jun 2027 04:25:04.808           109.636                Sumatra         13704.500
       220   08 Jun 2027 04:26:18.471   08 Jun 2027 04:28:10.012           111.541                Sumatra         13942.625
       221   08 Jun 2027 04:45:54.210   08 Jun 2027 04:46:04.860            10.650                Novosib          1331.250
       222   08 Jun 2027 04:46:06.653   08 Jun 2027 04:46:16.726            10.073                Novosib          1259.125
       223   08 Jun 2027 04:46:24.014   08 Jun 2027 04:47:18.035            54.021                Norilsk          6752.625
       224   08 Jun 2027 04:47:39.441   08 Jun 2027 04:48:36.638            57.197                Norilsk          7149.625
       225   08 Jun 2027 04:48:48.279   08 Jun 2027 04:49:52.654            64.375                Novosib          8046.875
       226   08 Jun 2027 06:07:44.574   08 Jun 2027 06:10:09.454           144.880                  Delhi         18110.000
       227   08 Jun 2027 06:10:22.736   08 Jun 2027 06:12:09.187           106.451                  Delhi         13306.375
       228   08 Jun 2027 06:22:58.806   08 Jun 2027 06:23:18.702            19.896              Murmansk1          2487.000
       229   08 Jun 2027 06:23:27.430   08 Jun 2027 06:23:50.381            22.951                Novosib          2868.875
       230   08 Jun 2027 06:23:51.983   08 Jun 2027 06:23:57.451             5.468                Norilsk           683.500
       231   08 Jun 2027 06:23:59.678   08 Jun 2027 06:24:26.841            27.163              Murmansk1          3395.375
       232   08 Jun 2027 06:24:33.695   08 Jun 2027 06:24:43.115             9.420                Novosib          1177.500
       233   08 Jun 2027 06:24:52.767   08 Jun 2027 06:25:52.828            60.061                 Moscow          7507.625
       234   08 Jun 2027 06:26:31.236   08 Jun 2027 06:26:41.293            10.057                 Moscow          1257.125
       235   08 Jun 2027 07:57:33.072   08 Jun 2027 07:58:23.985            50.913              Murmansk1          6364.125
       236   08 Jun 2027 07:58:36.544   08 Jun 2027 07:59:59.275            82.731              Murmansk1         10341.375
       237   08 Jun 2027 08:00:33.778   08 Jun 2027 08:00:47.660            13.882              Murmansk1          1735.250
       238   08 Jun 2027 08:01:06.764   08 Jun 2027 08:01:38.955            32.191              Murmansk1          4023.875
       239   08 Jun 2027 09:06:01.783   08 Jun 2027 09:12:23.474           381.691               CapeTown         47711.375
       240   08 Jun 2027 11:21:52.066   08 Jun 2027 11:22:03.783            11.717                Anadyr2          1464.625
       241   08 Jun 2027 11:22:50.494   08 Jun 2027 11:23:34.418            43.924                Anadyr1          5490.500
       242   08 Jun 2027 11:24:53.239   08 Jun 2027 11:26:14.283            81.044                Anadyr2         10130.500
       243   08 Jun 2027 13:00:06.585   08 Jun 2027 13:00:41.490            34.905               Magadan2          4363.125
       244   08 Jun 2027 13:02:58.508   08 Jun 2027 13:05:00.092           121.584               Magadan1         15198.000
       245   08 Jun 2027 14:36:00.749   08 Jun 2027 14:36:47.622            46.873               Magadan1          5859.125
       246   08 Jun 2027 14:56:09.506   08 Jun 2027 14:57:39.125            89.619                Sumatra         11202.375
       247   08 Jun 2027 15:27:38.320   08 Jun 2027 15:29:12.666            94.346            RioGallegos         11793.250
       248   08 Jun 2027 15:36:42.192   08 Jun 2027 15:38:25.698           103.506            RioGallegos         12938.250
       249   08 Jun 2027 16:18:07.531   08 Jun 2027 16:18:35.019            27.488                Irkutsk          3436.000
       250   08 Jun 2027 16:20:23.425   08 Jun 2027 16:22:26.800           123.375                Irkutsk         15421.875
       251   08 Jun 2027 16:29:19.251   08 Jun 2027 16:30:44.298            85.047                Sumatra         10630.875
       252   08 Jun 2027 16:31:09.542   08 Jun 2027 16:31:33.728            24.186                  Delhi          3023.250
       253   08 Jun 2027 17:51:19.744   08 Jun 2027 17:52:38.024            78.280                Novosib          9785.000
       254   08 Jun 2027 17:54:34.275   08 Jun 2027 17:56:11.330            97.055                Novosib         12131.875
       255   08 Jun 2027 17:58:40.071   08 Jun 2027 18:00:52.412           132.341                  Delhi         16542.625
       256   08 Jun 2027 21:03:44.211   08 Jun 2027 21:03:46.525             2.314              Murmansk2           289.250
       257   08 Jun 2027 21:04:50.899   08 Jun 2027 21:06:33.284           102.385                 Moscow         12798.125
       258   08 Jun 2027 21:08:08.781   08 Jun 2027 21:08:10.939             2.158                 Moscow           269.750
       259   08 Jun 2027 21:09:40.424   08 Jun 2027 21:09:49.562             9.138                 Moscow          1142.250
       260   08 Jun 2027 21:14:26.224   08 Jun 2027 21:16:29.267           123.043                 Moscow         15380.375
       261   08 Jun 2027 21:30:38.376   08 Jun 2027 21:30:43.221             4.845               CapeTown           605.625
       262   08 Jun 2027 21:33:25.931   08 Jun 2027 21:33:50.370            24.439               CapeTown          3054.875
       263   08 Jun 2027 21:36:31.184   08 Jun 2027 21:36:54.458            23.274               CapeTown          2909.250
       264   08 Jun 2027 21:38:09.894   08 Jun 2027 21:38:18.787             8.893               CapeTown          1111.625
       265   09 Jun 2027 03:01:40.405   09 Jun 2027 03:04:18.563           158.158                Sumatra         19769.750
       266   09 Jun 2027 03:10:12.450   09 Jun 2027 03:10:18.832             6.382                Sumatra           797.750
       267   09 Jun 2027 03:24:41.801   09 Jun 2027 03:26:19.191            97.390                Norilsk         12173.750
       268   09 Jun 2027 03:27:22.451   09 Jun 2027 03:27:52.359            29.908              Murmansk1          3738.500
       269   09 Jun 2027 03:28:03.431   09 Jun 2027 03:28:32.762            29.331                Norilsk          3666.375
       270   09 Jun 2027 04:09:55.948   09 Jun 2027 04:10:24.911            28.963            RioGallegos          3620.375
       271   09 Jun 2027 04:35:24.846   09 Jun 2027 04:40:01.938           277.092                Sumatra         34636.500
       272   09 Jun 2027 04:58:22.015   09 Jun 2027 05:00:06.920           104.905                Irkutsk         13113.125
       273   09 Jun 2027 05:00:29.082   09 Jun 2027 05:00:33.428             4.346                Novosib           543.250
       274   09 Jun 2027 05:00:34.477   09 Jun 2027 05:01:01.382            26.905                Irkutsk          3363.125
       275   09 Jun 2027 05:01:14.282   09 Jun 2027 05:01:23.196             8.914              Murmansk2          1114.250
       276   09 Jun 2027 05:01:46.892   09 Jun 2027 05:02:09.772            22.880              Murmansk2          2860.000
       277   09 Jun 2027 05:02:47.553   09 Jun 2027 05:02:51.981             4.428                Norilsk           553.500
       278   09 Jun 2027 05:03:02.414   09 Jun 2027 05:03:11.662             9.248                Novosib          1156.000
       279   09 Jun 2027 06:20:04.876   09 Jun 2027 06:24:10.898           246.022                  Delhi         30752.750
       280   09 Jun 2027 06:35:30.873   09 Jun 2027 06:37:41.576           130.703              Murmansk1         16337.875
       281   09 Jun 2027 08:10:26.182   09 Jun 2027 08:11:12.203            46.021              Murmansk2          5752.625
       282   09 Jun 2027 08:11:34.668   09 Jun 2027 08:13:26.884           112.216              Murmansk2         14027.000
       283   09 Jun 2027 09:17:47.071   09 Jun 2027 09:23:41.977           354.906               CapeTown         44363.250
       284   09 Jun 2027 11:33:53.024   09 Jun 2027 11:35:15.405            82.381                Anadyr1         10297.625
       285   09 Jun 2027 11:37:02.475   09 Jun 2027 11:38:52.613           110.138                Anadyr2         13767.250
       286   09 Jun 2027 11:40:07.057   09 Jun 2027 11:42:51.814           164.757               Magadan2         20594.625
       287   09 Jun 2027 13:12:59.073   09 Jun 2027 13:15:11.974           132.901               Magadan1         16612.625
       288   09 Jun 2027 15:07:04.201   09 Jun 2027 15:11:16.432           252.231                Sumatra         31528.875
       289   09 Jun 2027 15:15:11.542   09 Jun 2027 15:16:02.397            50.855                Sumatra          6356.875
       290   09 Jun 2027 16:42:12.009   09 Jun 2027 16:43:28.659            76.650                Sumatra          9581.250
       291   09 Jun 2027 16:49:08.056   09 Jun 2027 16:49:20.229            12.173                Sumatra          1521.625
       292   09 Jun 2027 18:03:20.323   09 Jun 2027 18:06:25.546           185.223                Novosib         23152.875
       293   09 Jun 2027 18:10:40.378   09 Jun 2027 18:12:11.568            91.190                  Delhi         11398.750
       294   09 Jun 2027 18:18:17.137   09 Jun 2027 18:20:17.476           120.339                  Delhi         15042.375
       295   09 Jun 2027 19:44:47.248   09 Jun 2027 19:46:46.625           119.377                 Moscow         14922.125
       296   09 Jun 2027 21:18:59.679   09 Jun 2027 21:20:10.860            71.181                 Moscow          8897.625
       297   09 Jun 2027 21:43:11.928   09 Jun 2027 21:43:56.459            44.531               CapeTown          5566.375
       298   09 Jun 2027 21:45:39.220   09 Jun 2027 21:46:42.283            63.063               CapeTown          7882.875
       299   09 Jun 2027 21:48:38.824   09 Jun 2027 21:49:09.177            30.353               CapeTown          3794.125
       300   10 Jun 2027 03:12:37.366   10 Jun 2027 03:20:45.975           488.609                Sumatra         61076.125
       301   10 Jun 2027 04:47:40.988   10 Jun 2027 04:47:59.396            18.408                Sumatra          2301.000
       302   10 Jun 2027 04:49:42.741   10 Jun 2027 04:51:59.557           136.816                Sumatra         17102.000
       303   10 Jun 2027 05:11:14.829   10 Jun 2027 05:12:48.953            94.124                Irkutsk         11765.500
       304   10 Jun 2027 06:32:32.976   10 Jun 2027 06:35:36.625           183.649                  Delhi         22956.125
       305   10 Jun 2027 06:46:54.351   10 Jun 2027 06:47:08.603            14.252              Murmansk2          1781.500
       306   10 Jun 2027 06:47:26.923   10 Jun 2027 06:47:49.843            22.920              Murmansk2          2865.000
       307   10 Jun 2027 06:47:49.843   10 Jun 2027 06:48:00.598            10.755              Murmansk1          1344.375
       308   10 Jun 2027 06:48:07.028   10 Jun 2027 06:48:33.123            26.095              Murmansk2          3261.875
       309   10 Jun 2027 06:48:37.460   10 Jun 2027 06:49:32.899            55.439              Murmansk2          6929.875
       310   10 Jun 2027 09:29:36.721   10 Jun 2027 09:35:13.025           336.304               CapeTown         42038.000
       311   10 Jun 2027 10:19:41.056   10 Jun 2027 10:19:41.632             0.576                Anadyr1            72.000
       312   10 Jun 2027 11:45:54.159   10 Jun 2027 11:46:00.084             5.925                Anadyr1           740.625
       313   10 Jun 2027 11:47:42.077   10 Jun 2027 11:49:09.542            87.465                Anadyr2         10933.125
       314   10 Jun 2027 11:54:54.248   10 Jun 2027 11:55:29.653            35.405                Anadyr1          4425.625
       315   10 Jun 2027 11:58:12.706   10 Jun 2027 11:59:02.681            49.975               Magadan2          6246.875
       316   10 Jun 2027 13:24:06.654   10 Jun 2027 13:24:27.128            20.474               Magadan1          2559.250
       317   10 Jun 2027 13:25:30.697   10 Jun 2027 13:27:20.038           109.341               Magadan2         13667.625
       318   10 Jun 2027 13:28:48.818   10 Jun 2027 13:28:55.894             7.076               Magadan2           884.500
       319   10 Jun 2027 13:31:16.251   10 Jun 2027 13:31:33.972            17.721               Magadan2          2215.125
       320   10 Jun 2027 15:05:51.334   10 Jun 2027 15:08:20.706           149.372                Irkutsk         18671.500
       321   10 Jun 2027 15:19:31.809   10 Jun 2027 15:25:49.083           377.274                Sumatra         47159.250
       322   10 Jun 2027 16:44:02.962   10 Jun 2027 16:45:12.361            69.399                Novosib          8674.875
       323   10 Jun 2027 16:48:22.139   10 Jun 2027 16:49:32.715            70.576                  Delhi          8822.000
       324   10 Jun 2027 16:52:33.148   10 Jun 2027 16:57:48.466           315.318                  Delhi         39414.750
       325   10 Jun 2027 18:30:30.827   10 Jun 2027 18:30:41.767            10.940                  Delhi          1367.500
       326   10 Jun 2027 19:56:10.409   10 Jun 2027 19:58:01.871           111.462              Murmansk1         13932.750
       327   10 Jun 2027 21:29:04.892   10 Jun 2027 21:31:21.646           136.754                 Moscow         17094.250
       328   10 Jun 2027 21:55:29.632   10 Jun 2027 21:55:52.560            22.928               CapeTown          2866.000
       329   10 Jun 2027 22:02:44.130   10 Jun 2027 22:03:00.294            16.164               CapeTown          2020.500
       330   10 Jun 2027 22:05:15.201   10 Jun 2027 22:05:21.661             6.460               CapeTown           807.500
       331   11 Jun 2027 03:24:08.874   11 Jun 2027 03:25:46.503            97.629                Sumatra         12203.625
       332   11 Jun 2027 03:27:51.292   11 Jun 2027 03:31:08.480           197.188                Sumatra         24648.500
       333   11 Jun 2027 03:49:18.129   11 Jun 2027 03:49:44.615            26.486                Irkutsk          3310.750
       334   11 Jun 2027 04:27:09.323   11 Jun 2027 04:27:38.905            29.582            RioGallegos          3697.750
       335   11 Jun 2027 05:00:04.843   11 Jun 2027 05:02:04.310           119.467                Sumatra         14933.375
       336   11 Jun 2027 05:13:34.993   11 Jun 2027 05:14:41.025            66.032                  Delhi          8254.000
       337   11 Jun 2027 05:17:37.526   11 Jun 2027 05:20:18.544           161.018                  Delhi         20127.250
       338   11 Jun 2027 05:23:43.801   11 Jun 2027 05:24:11.659            27.858                Novosib          3482.250
       339   11 Jun 2027 05:24:47.567   11 Jun 2027 05:25:30.457            42.890                Novosib          5361.250
       340   11 Jun 2027 06:45:11.006   11 Jun 2027 06:46:37.148            86.142                  Delhi         10767.750
       341   11 Jun 2027 06:59:16.434   11 Jun 2027 06:59:45.250            28.816                 Moscow          3602.000
       342   11 Jun 2027 06:59:51.556   11 Jun 2027 07:00:20.387            28.831                Novosib          3603.875
       343   11 Jun 2027 07:00:36.338   11 Jun 2027 07:01:28.329            51.991                 Moscow          6498.875
       344   11 Jun 2027 07:02:10.726   11 Jun 2027 07:02:46.189            35.463              Murmansk2          4432.875
       345   11 Jun 2027 09:41:30.010   11 Jun 2027 09:44:30.569           180.559               CapeTown         22569.875
       346   11 Jun 2027 09:50:17.817   11 Jun 2027 09:51:01.443            43.626               CapeTown          5453.250
       347   11 Jun 2027 10:22:06.887   11 Jun 2027 10:22:52.413            45.526                Anadyr2          5690.750
       348   11 Jun 2027 11:57:55.414   11 Jun 2027 11:57:59.260             3.846                Anadyr1           480.750
       349   11 Jun 2027 11:58:53.309   11 Jun 2027 12:00:03.353            70.044                Anadyr1          8755.500
       350   11 Jun 2027 12:00:34.385   11 Jun 2027 12:03:20.954           166.569               Magadan1         20821.125
       351   11 Jun 2027 13:36:07.390   11 Jun 2027 13:38:08.624           121.234               Magadan2         15154.250
       352   11 Jun 2027 13:39:25.455   11 Jun 2027 13:40:54.965            89.510               Magadan1         11188.750
       353   11 Jun 2027 13:44:29.187   11 Jun 2027 13:45:42.752            73.565               Magadan2          9195.625
       354   11 Jun 2027 15:19:57.798   11 Jun 2027 15:21:34.273            96.475                Irkutsk         12059.375
       355   11 Jun 2027 15:29:57.839   11 Jun 2027 15:36:36.458           398.619                Sumatra         49827.375
       356   11 Jun 2027 16:59:52.296   11 Jun 2027 17:07:11.855           439.559                  Delhi         54944.875
       357   11 Jun 2027 20:07:04.399   11 Jun 2027 20:10:20.324           195.925                 Moscow         24490.625
       358   11 Jun 2027 22:05:13.227   11 Jun 2027 22:07:43.082           149.855               CapeTown         18731.875
       359   12 Jun 2027 03:35:48.656   12 Jun 2027 03:38:09.081           140.425                Sumatra         17553.125
       360   12 Jun 2027 03:41:10.030   12 Jun 2027 03:42:10.143            60.113                Sumatra          7514.125
       361   12 Jun 2027 04:01:18.867   12 Jun 2027 04:01:23.282             4.415                Norilsk           551.875
       362   12 Jun 2027 04:05:20.177   12 Jun 2027 04:05:52.627            32.450                Norilsk          4056.250
       363   12 Jun 2027 04:38:26.175   12 Jun 2027 04:39:39.463            73.288            RioGallegos          9161.000
       364   12 Jun 2027 04:46:03.735   12 Jun 2027 04:46:54.087            50.352            RioGallegos          6294.000
       365   12 Jun 2027 05:12:38.792   12 Jun 2027 05:13:04.664            25.872                Sumatra          3234.000
       366   12 Jun 2027 05:14:18.596   12 Jun 2027 05:16:11.758           113.162                Sumatra         14145.250
       367   12 Jun 2027 05:27:00.761   12 Jun 2027 05:29:10.416           129.655                  Delhi         16206.875
       368   12 Jun 2027 05:37:10.960   12 Jun 2027 05:38:02.137            51.177              Murmansk1          6397.125
       369   12 Jun 2027 05:38:16.134   12 Jun 2027 05:38:21.852             5.718              Murmansk1           714.750
       370   12 Jun 2027 05:38:53.743   12 Jun 2027 05:39:09.039            15.296                Novosib          1912.000
       371   12 Jun 2027 05:41:56.173   12 Jun 2027 05:42:02.534             6.361              Murmansk2           795.125
       372   12 Jun 2027 05:42:02.725   12 Jun 2027 05:42:40.083            37.358                Norilsk          4669.750
       373   12 Jun 2027 06:58:03.224   12 Jun 2027 07:00:44.475           161.251                  Delhi         20156.375
       374   12 Jun 2027 07:11:08.044   12 Jun 2027 07:12:24.075            76.031                Norilsk          9503.875
       375   12 Jun 2027 07:12:35.868   12 Jun 2027 07:12:51.811            15.943                 Moscow          1992.875
       376   12 Jun 2027 07:12:56.963   12 Jun 2027 07:13:36.734            39.771                Norilsk          4971.375
       377   12 Jun 2027 07:13:49.741   12 Jun 2027 07:14:36.958            47.217                 Moscow          5902.125
       378   12 Jun 2027 08:20:46.113   12 Jun 2027 08:21:01.361            15.248               CapeTown          1906.000
       379   12 Jun 2027 09:53:26.464   12 Jun 2027 09:55:31.833           125.369               CapeTown         15671.125
       380   12 Jun 2027 10:34:34.042   12 Jun 2027 10:36:08.062            94.020                Anadyr1         11752.500
       381   12 Jun 2027 10:38:59.337   12 Jun 2027 10:39:39.007            39.670                Anadyr1          4958.750
       382   12 Jun 2027 12:09:56.764   12 Jun 2027 12:10:46.608            49.844                Anadyr2          6230.500
       383   12 Jun 2027 12:12:29.691   12 Jun 2027 12:17:08.410           278.719               Magadan2         34839.875
       384   12 Jun 2027 12:20:48.387   12 Jun 2027 12:21:11.264            22.877               Magadan1          2859.625
       385   12 Jun 2027 13:48:08.504   12 Jun 2027 13:49:45.561            97.057               Magadan1         12132.125
       386   12 Jun 2027 13:57:44.125   12 Jun 2027 13:57:51.782             7.657               Magadan2           957.125
       387   12 Jun 2027 14:41:21.951   12 Jun 2027 14:44:02.858           160.907            RioGallegos         20113.375
       388   12 Jun 2027 15:29:45.632   12 Jun 2027 15:30:52.838            67.206                Irkutsk          8400.750
       389   12 Jun 2027 15:37:24.873   12 Jun 2027 15:39:32.219           127.346                Irkutsk         15918.250
       390   12 Jun 2027 15:44:17.479   12 Jun 2027 15:47:48.053           210.574                Sumatra         26321.750
       391   12 Jun 2027 17:04:57.876   12 Jun 2027 17:05:59.674            61.798                Novosib          7724.750
       392   12 Jun 2027 17:09:25.588   12 Jun 2027 17:12:03.897           158.309                Novosib         19788.625
       393   12 Jun 2027 17:12:59.443   12 Jun 2027 17:17:58.914           299.471                  Delhi         37433.875
       394   12 Jun 2027 20:17:08.876   12 Jun 2027 20:18:21.587            72.711                 Moscow          9088.875
       395   12 Jun 2027 21:53:47.496   12 Jun 2027 21:54:10.757            23.261                 Moscow          2907.625
       396   12 Jun 2027 21:54:17.869   12 Jun 2027 21:54:38.432            20.563              Murmansk1          2570.375
       397   12 Jun 2027 22:00:04.918   12 Jun 2027 22:00:59.027            54.109                 Moscow          6763.625
       398   12 Jun 2027 22:17:48.590   12 Jun 2027 22:19:34.636           106.046               CapeTown         13255.750
       399   13 Jun 2027 03:47:35.289   13 Jun 2027 03:50:24.190           168.901                Sumatra         21112.625
       400   13 Jun 2027 04:13:30.781   13 Jun 2027 04:13:54.635            23.854                Norilsk          2981.750
       401   13 Jun 2027 04:14:58.984   13 Jun 2027 04:15:20.490            21.506                Novosib          2688.250
       402   13 Jun 2027 04:15:35.113   13 Jun 2027 04:15:42.509             7.396                Norilsk           924.500
       403   13 Jun 2027 04:51:06.903   13 Jun 2027 04:53:21.426           134.523            RioGallegos         16815.375
       404   13 Jun 2027 05:25:28.051   13 Jun 2027 05:26:49.031            80.980                Sumatra         10122.500
       405   13 Jun 2027 05:31:35.753   13 Jun 2027 05:34:05.223           149.470                  Delhi         18683.750
       406   13 Jun 2027 05:39:15.406   13 Jun 2027 05:41:11.745           116.339                  Delhi         14542.375
       407   13 Jun 2027 05:48:44.812   13 Jun 2027 05:49:12.924            28.112                Novosib          3514.000
       408   13 Jun 2027 07:11:21.175   13 Jun 2027 07:12:37.619            76.444                  Delhi          9555.500
       409   13 Jun 2027 07:20:58.702   13 Jun 2027 07:21:27.907            29.205                 Moscow          3650.625
       410   13 Jun 2027 07:21:36.851   13 Jun 2027 07:21:39.953             3.102                Novosib           387.750
       411   13 Jun 2027 07:21:43.106   13 Jun 2027 07:21:56.513            13.407              Murmansk2          1675.875
       412   13 Jun 2027 07:22:00.229   13 Jun 2027 07:22:46.087            45.858                 Moscow          5732.250
       413   13 Jun 2027 07:23:03.830   13 Jun 2027 07:23:26.659            22.829                Norilsk          2853.625
       414   13 Jun 2027 07:23:32.372   13 Jun 2027 07:24:16.161            43.789              Murmansk1          5473.625
       415   13 Jun 2027 07:24:29.147   13 Jun 2027 07:25:23.966            54.819                Norilsk          6852.375
       416   13 Jun 2027 07:25:30.287   13 Jun 2027 07:25:39.223             8.936              Murmansk1          1117.000
       417   13 Jun 2027 07:25:39.365   13 Jun 2027 07:25:55.357            15.992                 Moscow          1999.000
       418   13 Jun 2027 07:26:00.014   13 Jun 2027 07:27:15.545            75.531                 Moscow          9441.375
       419   13 Jun 2027 08:31:43.702   13 Jun 2027 08:33:09.815            86.113               CapeTown         10764.125
       420   13 Jun 2027 10:05:25.807   13 Jun 2027 10:06:10.028            44.221               CapeTown          5527.625
       421   13 Jun 2027 10:15:01.771   13 Jun 2027 10:15:09.913             8.142               CapeTown          1017.750
       422   13 Jun 2027 10:47:55.265   13 Jun 2027 10:48:12.126            16.861                Anadyr1          2107.625
       423   13 Jun 2027 10:48:55.248   13 Jun 2027 10:50:56.919           121.671                Anadyr2         15208.875
       424   13 Jun 2027 12:21:58.160   13 Jun 2027 12:22:41.719            43.559                Anadyr2          5444.875
       425   13 Jun 2027 12:24:26.275   13 Jun 2027 12:25:42.480            76.205               Magadan1          9525.625
       426   13 Jun 2027 12:29:46.466   13 Jun 2027 12:33:58.803           252.337               Magadan1         31542.125
       427   13 Jun 2027 14:04:54.862   13 Jun 2027 14:05:26.878            32.016               Magadan2          4002.000
       428   13 Jun 2027 14:52:45.723   13 Jun 2027 14:57:32.754           287.031            RioGallegos         35878.875
       429   13 Jun 2027 15:39:49.400   13 Jun 2027 15:41:48.231           118.831                Irkutsk         14853.875
       430   13 Jun 2027 15:53:30.909   13 Jun 2027 15:56:29.321           178.412                Sumatra         22301.500
       431   13 Jun 2027 17:15:37.613   13 Jun 2027 17:18:17.325           159.712                Novosib         19964.000
       432   13 Jun 2027 17:23:15.260   13 Jun 2027 17:29:14.376           359.116                  Delhi         44889.500
       433   13 Jun 2027 20:29:06.827   13 Jun 2027 20:30:02.458            55.631                 Moscow          6953.875
       434   13 Jun 2027 20:31:59.476   13 Jun 2027 20:34:05.458           125.982                 Moscow         15747.750
       435   13 Jun 2027 22:05:01.867   13 Jun 2027 22:05:59.364            57.497                 Moscow          7187.125
       436   13 Jun 2027 22:30:04.352   13 Jun 2027 22:30:40.998            36.646               CapeTown          4580.750
       437   13 Jun 2027 22:31:19.348   13 Jun 2027 22:31:59.954            40.606               CapeTown          5075.750
