uniorb/output/strategy_1/Drop/Drop_KinoSat_111104.txt

KinoSat_111104
-------------------------
    Access    *     Start Time (UTCG)     *     Stop Time (UTCG)  *   Duration (s)        *       Station  *  Data (Mbytes)
         1   01 Jun 2027 03:34:44.165   01 Jun 2027 03:36:00.449            76.284                Anadyr1          2383.875
         2   01 Jun 2027 03:37:32.108   01 Jun 2027 03:37:46.269            14.161               Magadan2           442.531
         3   01 Jun 2027 03:46:22.875   01 Jun 2027 03:47:30.116            67.241                 Moscow          2101.281
         4   01 Jun 2027 03:48:04.921   01 Jun 2027 03:49:35.721            90.800              Murmansk2          2837.500
         5   01 Jun 2027 03:50:34.305   01 Jun 2027 03:50:57.056            22.751              Murmansk1           710.969
         6   01 Jun 2027 05:08:55.270   01 Jun 2027 05:09:30.696            35.426               Magadan1          1107.063
         7   01 Jun 2027 05:09:42.649   01 Jun 2027 05:09:47.412             4.763               Magadan1           148.844
         8   01 Jun 2027 05:09:47.412   01 Jun 2027 05:09:50.519             3.107               Magadan2            97.094
         9   01 Jun 2027 05:10:00.197   01 Jun 2027 05:12:17.982           137.785                Anadyr2          4305.781
        10   01 Jun 2027 05:12:19.017   01 Jun 2027 05:12:55.352            36.335                Anadyr1          1135.469
        11   01 Jun 2027 05:13:31.014   01 Jun 2027 05:13:37.384             6.370               Magadan2           199.063
        12   01 Jun 2027 05:13:43.477   01 Jun 2027 05:14:52.724            69.247               Magadan2          2163.969
        13   01 Jun 2027 05:15:34.321   01 Jun 2027 05:15:44.298             9.977                Anadyr1           311.781
        14   01 Jun 2027 06:45:00.546   01 Jun 2027 06:46:08.845            68.299                Anadyr1          2134.344
        15   01 Jun 2027 06:46:19.931   01 Jun 2027 06:46:27.301             7.370               Magadan1           230.313
        16   01 Jun 2027 06:46:28.817   01 Jun 2027 06:47:46.887            78.070                Norilsk          2439.688
        17   01 Jun 2027 06:47:49.283   01 Jun 2027 06:48:26.148            36.865               Magadan1          1152.031
        18   01 Jun 2027 06:48:26.148   01 Jun 2027 06:48:35.213             9.065               Magadan2           283.281
        19   01 Jun 2027 06:48:42.291   01 Jun 2027 06:49:03.621            21.330                Norilsk           666.563
        20   01 Jun 2027 06:49:12.117   01 Jun 2027 06:49:38.368            26.251               Magadan1           820.344
        21   01 Jun 2027 06:49:50.178   01 Jun 2027 06:50:42.000            51.822                Anadyr2          1619.438
        22   01 Jun 2027 06:50:42.703   01 Jun 2027 06:52:42.413           119.710              Murmansk2          3740.937
        23   01 Jun 2027 07:26:58.401   01 Jun 2027 07:28:15.144            76.743            RioGallegos          2398.219
        24   01 Jun 2027 08:21:28.571   01 Jun 2027 08:22:10.137            41.566                Novosib          1298.937
        25   01 Jun 2027 08:22:24.085   01 Jun 2027 08:22:46.120            22.035                Novosib           688.594
        26   01 Jun 2027 08:22:47.912   01 Jun 2027 08:23:52.741            64.829               Magadan1          2025.906
        27   01 Jun 2027 08:24:12.397   01 Jun 2027 08:26:40.023           147.626                Irkutsk          4613.312
        28   01 Jun 2027 08:26:51.315   01 Jun 2027 08:26:54.683             3.368                Novosib           105.250
        29   01 Jun 2027 08:27:00.153   01 Jun 2027 08:30:26.266           206.113                Norilsk          6441.031
        30   01 Jun 2027 08:30:57.359   01 Jun 2027 08:31:16.875            19.516              Murmansk1           609.875
        31   01 Jun 2027 08:31:37.554   01 Jun 2027 08:32:14.467            36.913              Murmansk1          1153.531
        32   01 Jun 2027 08:34:03.808   01 Jun 2027 08:34:18.168            14.360              Murmansk1           448.750
        33   01 Jun 2027 09:01:50.491   01 Jun 2027 09:04:11.379           140.888            RioGallegos          4402.750
        34   01 Jun 2027 09:04:47.878   01 Jun 2027 09:05:52.851            64.973            RioGallegos          2030.406
        35   01 Jun 2027 09:36:47.480   01 Jun 2027 09:39:08.215           140.735                Sumatra          4397.969
        36   01 Jun 2027 09:58:42.604   01 Jun 2027 10:00:25.863           103.259                Norilsk          3226.844
        37   01 Jun 2027 10:00:32.591   01 Jun 2027 10:02:56.612           144.021                Irkutsk          4500.656
        38   01 Jun 2027 10:03:01.546   01 Jun 2027 10:03:15.138            13.592                Norilsk           424.750
        39   01 Jun 2027 10:08:20.235   01 Jun 2027 10:08:36.658            16.423              Murmansk1           513.219
        40   01 Jun 2027 10:40:49.916   01 Jun 2027 10:41:18.571            28.655            RioGallegos           895.469
        41   01 Jun 2027 10:41:49.253   01 Jun 2027 10:42:20.372            31.119            RioGallegos           972.469
        42   01 Jun 2027 10:42:41.088   01 Jun 2027 10:43:10.156            29.068            RioGallegos           908.375
        43   01 Jun 2027 11:15:23.518   01 Jun 2027 11:16:46.278            82.760                Sumatra          2586.250
        44   01 Jun 2027 11:23:30.479   01 Jun 2027 11:24:05.607            35.128                  Delhi          1097.750
        45   01 Jun 2027 11:36:48.138   01 Jun 2027 11:37:20.496            32.358              Murmansk1          1011.188
        46   01 Jun 2027 11:37:38.308   01 Jun 2027 11:41:52.061           253.753              Murmansk1          7929.781
        47   01 Jun 2027 11:42:03.970   01 Jun 2027 11:42:28.776            24.806              Murmansk2           775.188
        48   01 Jun 2027 13:01:49.103   01 Jun 2027 13:04:55.152           186.049                  Delhi          5814.031
        49   01 Jun 2027 13:07:33.893   01 Jun 2027 13:08:23.500            49.607                 Moscow          1550.219
        50   01 Jun 2027 13:08:43.260   01 Jun 2027 13:11:14.681           151.421              Murmansk1          4731.906
        51   01 Jun 2027 13:11:14.681   01 Jun 2027 13:11:47.258            32.577              Murmansk2          1018.031
        52   01 Jun 2027 13:11:53.121   01 Jun 2027 13:13:47.686           114.565                Norilsk          3580.156
        53   01 Jun 2027 14:20:36.746   01 Jun 2027 14:23:22.209           165.463               CapeTown          5170.719
        54   01 Jun 2027 14:25:31.090   01 Jun 2027 14:26:34.233            63.143               CapeTown          1973.219
        55   01 Jun 2027 14:42:43.842   01 Jun 2027 14:43:15.570            31.728                 Moscow           991.500
        56   01 Jun 2027 14:45:28.635   01 Jun 2027 14:46:47.076            78.441              Murmansk2          2451.281
        57   01 Jun 2027 14:47:28.390   01 Jun 2027 14:48:19.022            50.632              Murmansk1          1582.250
        58   01 Jun 2027 14:52:20.803   01 Jun 2027 14:52:55.772            34.969              Murmansk2          1092.781
        59   01 Jun 2027 14:59:59.667   01 Jun 2027 15:01:51.102           111.435                Anadyr2          3482.344
        60   01 Jun 2027 15:02:43.142   01 Jun 2027 15:03:36.200            53.058                Anadyr1          1658.062
        61   01 Jun 2027 15:54:43.620   01 Jun 2027 15:57:01.529           137.909               CapeTown          4309.656
        62   01 Jun 2027 16:24:22.275   01 Jun 2027 16:25:56.525            94.250              Murmansk1          2945.312
        63   01 Jun 2027 16:28:38.963   01 Jun 2027 16:29:16.550            37.587              Murmansk2          1174.594
        64   01 Jun 2027 16:35:22.572   01 Jun 2027 16:35:32.865            10.293                Anadyr2           321.656
        65   01 Jun 2027 16:35:32.865   01 Jun 2027 16:36:53.916            81.051                Anadyr1          2532.844
        66   01 Jun 2027 16:37:25.213   01 Jun 2027 16:37:28.829             3.616                Anadyr1           113.000
        67   01 Jun 2027 16:37:53.291   01 Jun 2027 16:38:21.337            28.046                Anadyr1           876.437
        68   01 Jun 2027 16:39:20.887   01 Jun 2027 16:41:10.787           109.900               Magadan1          3434.375
        69   01 Jun 2027 16:41:10.787   01 Jun 2027 16:42:21.232            70.445               Magadan2          2201.406
        70   01 Jun 2027 18:11:15.938   01 Jun 2027 18:15:20.989           245.051                Anadyr1          7657.844
        71   01 Jun 2027 18:15:54.356   01 Jun 2027 18:18:51.357           177.001               Magadan1          5531.281
        72   01 Jun 2027 18:23:57.172   01 Jun 2027 18:24:06.667             9.495               Magadan2           296.719
        73   01 Jun 2027 18:24:28.674   01 Jun 2027 18:24:43.394            14.720               Magadan2           460.000
        74   01 Jun 2027 18:25:16.678   01 Jun 2027 18:25:32.666            15.988               Magadan2           499.625
        75   01 Jun 2027 19:47:08.989   01 Jun 2027 19:51:25.945           256.956                Anadyr2          8029.875
        76   01 Jun 2027 19:51:28.762   01 Jun 2027 19:53:09.801           101.039                Norilsk          3157.469
        77   01 Jun 2027 19:53:44.323   01 Jun 2027 19:54:36.137            51.814               Magadan2          1619.187
        78   01 Jun 2027 19:55:40.094   01 Jun 2027 19:55:57.744            17.650                Irkutsk           551.562
        79   01 Jun 2027 19:56:46.691   01 Jun 2027 19:58:03.359            76.668                Irkutsk          2395.875
        80   01 Jun 2027 19:58:41.779   01 Jun 2027 20:00:27.155           105.376                Irkutsk          3293.000
        81   01 Jun 2027 20:42:27.364   01 Jun 2027 20:42:46.986            19.622            RioGallegos           613.187
        82   01 Jun 2027 20:48:52.446   01 Jun 2027 20:49:51.879            59.433            RioGallegos          1857.281
        83   01 Jun 2027 21:23:47.605   01 Jun 2027 21:24:54.997            67.392                Anadyr2          2106.000
        84   01 Jun 2027 21:25:00.581   01 Jun 2027 21:26:21.963            81.382                Norilsk          2543.187
        85   01 Jun 2027 21:27:03.000   01 Jun 2027 21:27:16.258            13.258               Magadan2           414.313
        86   01 Jun 2027 21:28:35.319   01 Jun 2027 21:29:00.682            25.363               Magadan2           792.594
        87   01 Jun 2027 21:29:03.920   01 Jun 2027 21:30:29.465            85.545                Irkutsk          2673.281
        88   01 Jun 2027 21:30:45.203   01 Jun 2027 21:31:23.287            38.084                Novosib          1190.125
        89   01 Jun 2027 21:31:48.802   01 Jun 2027 21:33:26.442            97.640                Novosib          3051.250
        90   01 Jun 2027 21:45:50.058   01 Jun 2027 21:45:58.495             8.437                Sumatra           263.656
        91   01 Jun 2027 21:47:36.519   01 Jun 2027 21:48:47.220            70.701                Sumatra          2209.406
        92   01 Jun 2027 21:52:17.718   01 Jun 2027 21:52:59.508            41.790                Sumatra          1305.937
        93   01 Jun 2027 22:57:58.294   01 Jun 2027 22:59:06.270            67.976                Anadyr1          2124.250
        94   01 Jun 2027 23:00:59.128   01 Jun 2027 23:02:40.277           101.149                Norilsk          3160.906
        95   01 Jun 2027 23:04:52.961   01 Jun 2027 23:06:03.922            70.961                Irkutsk          2217.531
        96   01 Jun 2027 23:06:21.839   01 Jun 2027 23:07:31.201            69.362                Novosib          2167.562
        97   01 Jun 2027 23:12:25.716   01 Jun 2027 23:14:17.894           112.178                  Delhi          3505.562
        98   01 Jun 2027 23:14:55.056   01 Jun 2027 23:14:59.021             3.965                  Delhi           123.906
        99   01 Jun 2027 23:19:14.431   01 Jun 2027 23:19:59.669            45.238                  Delhi          1413.687
       100   01 Jun 2027 23:23:00.681   01 Jun 2027 23:23:32.677            31.996                  Delhi           999.875
       101   02 Jun 2027 00:30:35.594   02 Jun 2027 00:30:53.989            18.395                Anadyr2           574.844
       102   02 Jun 2027 00:31:02.257   02 Jun 2027 00:31:41.763            39.506                Anadyr1          1234.562
       103   02 Jun 2027 00:32:46.369   02 Jun 2027 00:33:05.999            19.630                Anadyr1           613.438
       104   02 Jun 2027 00:33:08.295   02 Jun 2027 00:33:38.606            30.311                Anadyr2           947.219
       105   02 Jun 2027 00:35:39.435   02 Jun 2027 00:36:06.273            26.838                Anadyr1           838.687
       106   02 Jun 2027 00:36:26.007   02 Jun 2027 00:36:41.273            15.266                Anadyr2           477.062
       107   02 Jun 2027 00:36:44.961   02 Jun 2027 00:37:52.948            67.987               Magadan2          2124.594
       108   02 Jun 2027 00:38:05.648   02 Jun 2027 00:39:20.984            75.336               Magadan2          2354.250
       109   02 Jun 2027 00:39:27.944   02 Jun 2027 00:41:32.969           125.025              Murmansk1          3907.031
       110   02 Jun 2027 00:43:35.482   02 Jun 2027 00:44:52.364            76.882                 Moscow          2402.562
       111   02 Jun 2027 00:47:32.824   02 Jun 2027 00:48:08.681            35.857                 Moscow          1120.531
       112   02 Jun 2027 00:55:52.425   02 Jun 2027 00:55:59.693             7.268                  Delhi           227.125
       113   02 Jun 2027 00:58:36.374   02 Jun 2027 00:59:02.728            26.354                  Delhi           823.562
       114   02 Jun 2027 01:12:15.721   02 Jun 2027 01:12:54.263            38.542               CapeTown          1204.438
       115   02 Jun 2027 01:13:26.379   02 Jun 2027 01:14:17.251            50.872               CapeTown          1589.750
       116   02 Jun 2027 02:04:07.592   02 Jun 2027 02:04:23.628            16.036                Anadyr2           501.125
       117   02 Jun 2027 02:04:30.583   02 Jun 2027 02:04:51.140            20.557                Anadyr1           642.406
       118   02 Jun 2027 02:04:51.140   02 Jun 2027 02:05:18.662            27.522                Anadyr2           860.063
       119   02 Jun 2027 02:06:23.495   02 Jun 2027 02:06:47.629            24.134                Anadyr2           754.188
       120   02 Jun 2027 02:06:47.629   02 Jun 2027 02:06:49.766             2.137                Anadyr1            66.781
       121   02 Jun 2027 02:07:20.492   02 Jun 2027 02:07:29.802             9.310                Anadyr1           290.937
       122   02 Jun 2027 02:08:44.259   02 Jun 2027 02:09:00.903            16.644                Anadyr1           520.125
       123   02 Jun 2027 02:09:40.729   02 Jun 2027 02:10:48.783            68.054               Magadan2          2126.687
       124   02 Jun 2027 02:12:29.687   02 Jun 2027 02:12:55.766            26.079               Magadan2           814.969
       125   02 Jun 2027 02:12:55.766   02 Jun 2027 02:13:01.430             5.664               Magadan1           177.000
       126   02 Jun 2027 02:13:20.997   02 Jun 2027 02:13:56.278            35.281                Norilsk          1102.531
       127   02 Jun 2027 02:15:05.569   02 Jun 2027 02:16:10.841            65.272              Murmansk2          2039.750
       128   02 Jun 2027 02:17:51.737   02 Jun 2027 02:18:52.701            60.964                Novosib          1905.125
       129   02 Jun 2027 02:22:10.351   02 Jun 2027 02:22:58.425            48.074                Novosib          1502.312
       130   02 Jun 2027 02:27:56.965   02 Jun 2027 02:29:25.932            88.967                 Moscow          2780.219
       131   02 Jun 2027 02:51:26.147   02 Jun 2027 02:51:53.884            27.737               CapeTown           866.781
       132   02 Jun 2027 03:45:13.638   02 Jun 2027 03:45:43.298            29.660               Magadan1           926.875
       133   02 Jun 2027 03:46:11.512   02 Jun 2027 03:50:21.382           249.870                Anadyr1          7808.437
       134   02 Jun 2027 03:50:28.018   02 Jun 2027 03:50:28.934             0.916               Magadan2            28.625
       135   02 Jun 2027 03:50:47.185   02 Jun 2027 03:50:56.964             9.779               Magadan2           305.594
       136   02 Jun 2027 03:51:16.415   02 Jun 2027 03:51:24.382             7.967               Magadan1           248.969
       137   02 Jun 2027 03:51:49.571   02 Jun 2027 03:51:52.612             3.041                Anadyr1            95.031
       138   02 Jun 2027 04:00:09.167   02 Jun 2027 04:00:39.424            30.257              Murmansk2           945.531
       139   02 Jun 2027 04:01:50.984   02 Jun 2027 04:01:57.323             6.339              Murmansk2           198.094
       140   02 Jun 2027 04:03:26.571   02 Jun 2027 04:03:50.069            23.498              Murmansk2           734.312
       141   02 Jun 2027 04:03:50.069   02 Jun 2027 04:03:59.948             9.879              Murmansk1           308.719
       142   02 Jun 2027 05:21:24.801   02 Jun 2027 05:21:59.178            34.377                Anadyr2          1074.281
       143   02 Jun 2027 05:22:15.893   02 Jun 2027 05:26:18.295           242.402                Anadyr1          7575.063
       144   02 Jun 2027 05:26:18.295   02 Jun 2027 05:26:39.730            21.435                Anadyr2           669.844
       145   02 Jun 2027 06:55:58.635   02 Jun 2027 06:56:39.265            40.630                Irkutsk          1269.687
       146   02 Jun 2027 06:56:39.895   02 Jun 2027 06:57:05.985            26.090                Anadyr1           815.313
       147   02 Jun 2027 06:57:24.698   02 Jun 2027 06:58:07.774            43.076                Irkutsk          1346.125
       148   02 Jun 2027 06:58:09.345   02 Jun 2027 07:01:13.372           184.027                Anadyr1          5750.844
       149   02 Jun 2027 07:01:13.372   02 Jun 2027 07:01:49.531            36.159                Anadyr2          1129.969
       150   02 Jun 2027 07:02:34.356   02 Jun 2027 07:02:39.844             5.488              Murmansk2           171.500
       151   02 Jun 2027 07:02:39.844   02 Jun 2027 07:03:10.005            30.161              Murmansk1           942.531
       152   02 Jun 2027 07:03:10.005   02 Jun 2027 07:05:39.336           149.331              Murmansk2          4666.594
       153   02 Jun 2027 07:38:40.588   02 Jun 2027 07:40:00.572            79.984            RioGallegos          2499.500
       154   02 Jun 2027 08:18:30.829   02 Jun 2027 08:18:33.117             2.288                Sumatra            71.500
       155   02 Jun 2027 08:33:44.398   02 Jun 2027 08:37:21.096           216.698               Magadan1          6771.812
       156   02 Jun 2027 08:37:51.982   02 Jun 2027 08:38:25.253            33.271                Norilsk          1039.719
       157   02 Jun 2027 08:38:28.522   02 Jun 2027 08:38:33.756             5.234                Norilsk           163.562
       158   02 Jun 2027 08:38:40.386   02 Jun 2027 08:41:25.707           165.321              Murmansk1          5166.281
       159   02 Jun 2027 08:42:58.219   02 Jun 2027 08:43:47.118            48.899              Murmansk1          1528.094
       160   02 Jun 2027 08:43:47.118   02 Jun 2027 08:44:03.130            16.012              Murmansk2           500.375
       161   02 Jun 2027 09:13:58.834   02 Jun 2027 09:15:45.511           106.677            RioGallegos          3333.656
       162   02 Jun 2027 09:48:43.396   02 Jun 2027 09:49:43.139            59.743                Sumatra          1866.969
       163   02 Jun 2027 09:51:19.387   02 Jun 2027 09:51:42.940            23.553                Sumatra           736.031
       164   02 Jun 2027 09:59:09.533   02 Jun 2027 09:59:22.718            13.185                  Delhi           412.031
       165   02 Jun 2027 10:10:38.401   02 Jun 2027 10:12:54.985           136.584                Norilsk          4268.250
       166   02 Jun 2027 10:12:57.593   02 Jun 2027 10:13:03.320             5.727                Norilsk           178.969
       167   02 Jun 2027 10:13:06.471   02 Jun 2027 10:16:40.964           214.493                Novosib          6702.906
       168   02 Jun 2027 10:55:15.633   02 Jun 2027 10:55:39.209            23.576            RioGallegos           736.750
       169   02 Jun 2027 10:56:41.008   02 Jun 2027 10:57:01.815            20.807            RioGallegos           650.219
       170   02 Jun 2027 10:57:51.730   02 Jun 2027 10:58:05.165            13.435            RioGallegos           419.844
       171   02 Jun 2027 11:29:49.729   02 Jun 2027 11:31:14.470            84.741                Sumatra          2648.156
       172   02 Jun 2027 11:42:26.400   02 Jun 2027 11:42:41.744            15.344                  Delhi           479.500
       173   02 Jun 2027 11:48:14.788   02 Jun 2027 11:48:22.776             7.988              Murmansk1           249.625
       174   02 Jun 2027 11:48:26.436   02 Jun 2027 11:48:49.108            22.672              Murmansk1           708.500
       175   02 Jun 2027 11:48:58.270   02 Jun 2027 11:51:50.290           172.020              Murmansk1          5375.625
       176   02 Jun 2027 11:51:50.290   02 Jun 2027 11:53:23.379            93.089              Murmansk2          2909.031
       177   02 Jun 2027 13:17:19.957   02 Jun 2027 13:18:35.177            75.220                 Moscow          2350.625
       178   02 Jun 2027 13:18:51.151   02 Jun 2027 13:21:16.521           145.370                 Moscow          4542.812
       179   02 Jun 2027 13:21:38.097   02 Jun 2027 13:24:01.627           143.530              Murmansk2          4485.313
       180   02 Jun 2027 13:24:33.422   02 Jun 2027 13:25:49.438            76.016                Norilsk          2375.500
       181   02 Jun 2027 14:32:04.588   02 Jun 2027 14:35:08.234           183.646               CapeTown          5738.937
       182   02 Jun 2027 14:35:51.494   02 Jun 2027 14:36:24.065            32.571               CapeTown          1017.844
       183   02 Jun 2027 14:37:17.615   02 Jun 2027 14:38:45.516            87.901               CapeTown          2746.906
       184   02 Jun 2027 14:57:44.470   02 Jun 2027 15:00:04.672           140.202              Murmansk1          4381.312
       185   02 Jun 2027 15:05:49.484   02 Jun 2027 15:06:16.109            26.625              Murmansk2           832.031
       186   02 Jun 2027 15:06:35.019   02 Jun 2027 15:07:30.348            55.329              Murmansk1          1729.031
       187   02 Jun 2027 15:08:52.112   02 Jun 2027 15:09:40.297            48.185              Murmansk1          1505.781
       188   02 Jun 2027 15:11:52.553   02 Jun 2027 15:14:49.028           176.475                Anadyr1          5514.844
       189   02 Jun 2027 15:17:53.079   02 Jun 2027 15:19:01.820            68.741                Anadyr1          2148.156
       190   02 Jun 2027 16:18:50.039   02 Jun 2027 16:19:20.350            30.311               CapeTown           947.219
       191   02 Jun 2027 16:36:57.925   02 Jun 2027 16:38:47.102           109.177              Murmansk2          3411.781
       192   02 Jun 2027 16:40:04.236   02 Jun 2027 16:40:40.983            36.747              Murmansk1          1148.344
       193   02 Jun 2027 16:41:41.132   02 Jun 2027 16:42:07.945            26.813              Murmansk2           837.906
       194   02 Jun 2027 16:42:38.466   02 Jun 2027 16:42:50.020            11.554              Murmansk1           361.062
       195   02 Jun 2027 16:43:12.715   02 Jun 2027 16:43:48.532            35.817              Murmansk1          1119.281
       196   02 Jun 2027 16:47:22.976   02 Jun 2027 16:48:36.772            73.796                Anadyr2          2306.125
       197   02 Jun 2027 16:50:24.104   02 Jun 2027 16:50:54.305            30.201                Anadyr1           943.781
       198   02 Jun 2027 16:50:55.259   02 Jun 2027 16:53:05.232           129.973               Magadan2          4061.656
       199   02 Jun 2027 16:55:18.836   02 Jun 2027 16:56:13.706            54.870               Magadan1          1714.687
       200   02 Jun 2027 16:59:20.185   02 Jun 2027 16:59:46.165            25.980                Anadyr1           811.875
       201   02 Jun 2027 18:23:17.413   02 Jun 2027 18:25:36.986           139.573                Anadyr1          4361.656
       202   02 Jun 2027 18:25:39.841   02 Jun 2027 18:29:12.578           212.737               Magadan2          6648.031
       203   02 Jun 2027 18:30:44.523   02 Jun 2027 18:30:52.459             7.936               Magadan2           248.000
       204   02 Jun 2027 18:31:04.607   02 Jun 2027 18:31:12.405             7.798               Magadan2           243.688
       205   02 Jun 2027 18:31:40.642   02 Jun 2027 18:32:02.969            22.327               Magadan2           697.719
       206   02 Jun 2027 18:32:36.349   02 Jun 2027 18:33:26.963            50.614               Magadan2          1581.688
       207   02 Jun 2027 18:34:24.578   02 Jun 2027 18:34:50.405            25.827                Anadyr2           807.094
       208   02 Jun 2027 18:34:50.443   02 Jun 2027 18:35:01.185            10.742               Magadan1           335.688
       209   02 Jun 2027 18:35:41.034   02 Jun 2027 18:35:59.622            18.588               Magadan1           580.875
       210   02 Jun 2027 18:36:31.275   02 Jun 2027 18:37:27.050            55.775               Magadan2          1742.969
       211   02 Jun 2027 19:59:09.026   02 Jun 2027 20:01:13.094           124.068                Anadyr1          3877.125
       212   02 Jun 2027 20:01:25.337   02 Jun 2027 20:04:46.155           200.818                Norilsk          6275.562
       213   02 Jun 2027 20:04:57.076   02 Jun 2027 20:05:06.148             9.072                Norilsk           283.500
       214   02 Jun 2027 20:06:20.579   02 Jun 2027 20:06:26.699             6.120                Norilsk           191.250
       215   02 Jun 2027 20:06:50.450   02 Jun 2027 20:07:40.811            50.361                Norilsk          1573.781
       216   02 Jun 2027 20:09:31.442   02 Jun 2027 20:10:08.825            37.383                Irkutsk          1168.219
       217   02 Jun 2027 20:10:39.010   02 Jun 2027 20:11:33.710            54.700                Irkutsk          1709.375
       218   02 Jun 2027 20:13:28.970   02 Jun 2027 20:13:45.020            16.050                Irkutsk           501.562
       219   02 Jun 2027 20:23:06.187   02 Jun 2027 20:27:02.157           235.970                Sumatra          7374.062
       220   02 Jun 2027 21:37:01.768   02 Jun 2027 21:37:53.328            51.560                Norilsk          1611.250
       221   02 Jun 2027 21:38:15.335   02 Jun 2027 21:39:02.305            46.970                Norilsk          1467.812
       222   02 Jun 2027 21:41:00.914   02 Jun 2027 21:42:29.552            88.638                Irkutsk          2769.937
       223   02 Jun 2027 21:46:03.653   02 Jun 2027 21:46:13.107             9.454                Norilsk           295.438
       224   02 Jun 2027 21:46:14.153   02 Jun 2027 21:46:50.720            36.567                Irkutsk          1142.719
       225   02 Jun 2027 21:48:07.299   02 Jun 2027 21:48:08.221             0.922                Norilsk            28.813
       226   02 Jun 2027 21:48:23.365   02 Jun 2027 21:48:59.823            36.458                Novosib          1139.313
       227   02 Jun 2027 21:50:22.355   02 Jun 2027 21:50:44.274            21.919                Novosib           684.969
       228   02 Jun 2027 21:52:01.867   02 Jun 2027 21:52:35.387            33.520                Irkutsk          1047.500
       229   02 Jun 2027 22:00:36.261   02 Jun 2027 22:01:24.699            48.438                Sumatra          1513.687
       230   02 Jun 2027 22:04:01.021   02 Jun 2027 22:04:11.002             9.981                Sumatra           311.906
       231   02 Jun 2027 22:04:20.913   02 Jun 2027 22:04:36.950            16.037                Sumatra           501.156
       232   02 Jun 2027 22:37:56.844   02 Jun 2027 22:38:28.659            31.815            RioGallegos           994.219
       233   02 Jun 2027 22:40:28.532   02 Jun 2027 22:41:07.579            39.047            RioGallegos          1220.219
       234   02 Jun 2027 23:09:19.146   02 Jun 2027 23:09:31.752            12.606                Anadyr1           393.937
       235   02 Jun 2027 23:09:45.897   02 Jun 2027 23:11:07.652            81.755                Anadyr2          2554.844
       236   02 Jun 2027 23:13:01.149   02 Jun 2027 23:13:21.689            20.540                Norilsk           641.875
       237   02 Jun 2027 23:13:37.478   02 Jun 2027 23:14:56.446            78.968               Magadan2          2467.750
       238   02 Jun 2027 23:15:05.920   02 Jun 2027 23:15:06.117             0.197               Magadan2             6.156
       239   02 Jun 2027 23:15:43.774   02 Jun 2027 23:15:55.417            11.643               Magadan1           363.844
       240   02 Jun 2027 23:16:06.515   02 Jun 2027 23:16:52.887            46.372               Magadan1          1449.125
       241   02 Jun 2027 23:17:28.945   02 Jun 2027 23:18:59.813            90.868              Murmansk2          2839.625
       242   02 Jun 2027 23:23:12.544   02 Jun 2027 23:24:02.107            49.563                Novosib          1548.844
       243   02 Jun 2027 23:27:54.190   02 Jun 2027 23:28:23.867            29.677                Novosib           927.406
       244   02 Jun 2027 23:30:23.871   02 Jun 2027 23:31:15.422            51.551                  Delhi          1610.969
       245   02 Jun 2027 23:32:27.943   02 Jun 2027 23:33:48.068            80.125                  Delhi          2503.906
       246   03 Jun 2027 00:42:16.753   03 Jun 2027 00:43:42.972            86.219                Anadyr1          2694.344
       247   03 Jun 2027 00:44:46.772   03 Jun 2027 00:44:52.075             5.303                Anadyr1           165.719
       248   03 Jun 2027 00:45:01.902   03 Jun 2027 00:45:06.419             4.517                Anadyr1           141.156
       249   03 Jun 2027 00:46:07.897   03 Jun 2027 00:46:32.355            24.458                Anadyr1           764.312
       250   03 Jun 2027 00:47:39.858   03 Jun 2027 00:48:01.755            21.897                Anadyr1           684.281
       251   03 Jun 2027 00:48:01.755   03 Jun 2027 00:48:32.985            31.230                Anadyr2           975.937
       252   03 Jun 2027 00:48:49.125   03 Jun 2027 00:50:49.537           120.412               Magadan1          3762.875
       253   03 Jun 2027 00:51:14.699   03 Jun 2027 00:51:49.414            34.715              Murmansk1          1084.844
       254   03 Jun 2027 00:52:29.469   03 Jun 2027 00:53:50.800            81.331              Murmansk2          2541.594
       255   03 Jun 2027 00:58:51.944   03 Jun 2027 00:58:57.049             5.105                 Moscow           159.531
       256   03 Jun 2027 00:59:36.874   03 Jun 2027 01:00:56.371            79.497                Irkutsk          2484.281
       257   03 Jun 2027 01:04:43.552   03 Jun 2027 01:04:48.275             4.723                 Moscow           147.594
       258   03 Jun 2027 01:07:09.981   03 Jun 2027 01:07:26.545            16.564                  Delhi           517.625
       259   03 Jun 2027 01:07:34.191   03 Jun 2027 01:07:52.703            18.512                  Delhi           578.500
       260   03 Jun 2027 01:24:11.971   03 Jun 2027 01:24:54.398            42.427               CapeTown          1325.844
       261   03 Jun 2027 02:15:55.387   03 Jun 2027 02:17:35.041            99.654                Anadyr2          3114.187
       262   03 Jun 2027 02:17:35.041   03 Jun 2027 02:17:44.218             9.177                Anadyr1           286.781
       263   03 Jun 2027 02:18:33.670   03 Jun 2027 02:18:47.974            14.304                Anadyr1           447.000
       264   03 Jun 2027 02:19:14.571   03 Jun 2027 02:19:19.785             5.214                Anadyr2           162.937
       265   03 Jun 2027 02:19:31.950   03 Jun 2027 02:20:27.339            55.389                Anadyr2          1730.906
       266   03 Jun 2027 02:20:30.355   03 Jun 2027 02:21:36.347            65.992               Magadan1          2062.250
       267   03 Jun 2027 02:24:47.558   03 Jun 2027 02:25:13.369            25.811                Norilsk           806.594
       268   03 Jun 2027 02:27:04.525   03 Jun 2027 02:27:13.592             9.067                Norilsk           283.344
       269   03 Jun 2027 02:27:23.748   03 Jun 2027 02:27:57.991            34.243              Murmansk1          1070.094
       270   03 Jun 2027 02:29:25.335   03 Jun 2027 02:29:49.023            23.688                Novosib           740.250
       271   03 Jun 2027 02:31:11.114   03 Jun 2027 02:31:55.673            44.559                Novosib          1392.469
       272   03 Jun 2027 02:33:49.468   03 Jun 2027 02:34:17.351            27.883                Novosib           871.344
       273   03 Jun 2027 02:36:22.736   03 Jun 2027 02:36:43.157            20.421              Murmansk1           638.156
       274   03 Jun 2027 02:38:23.323   03 Jun 2027 02:38:39.684            16.361              Murmansk2           511.281
       275   03 Jun 2027 02:39:32.544   03 Jun 2027 02:39:47.103            14.559                 Moscow           454.969
       276   03 Jun 2027 02:41:20.060   03 Jun 2027 02:41:41.539            21.479                 Moscow           671.219
       277   03 Jun 2027 02:42:12.576   03 Jun 2027 02:42:27.900            15.324                 Moscow           478.875
       278   03 Jun 2027 03:02:49.555   03 Jun 2027 03:03:02.062            12.507               CapeTown           390.844
       279   03 Jun 2027 03:03:50.180   03 Jun 2027 03:04:11.020            20.840               CapeTown           651.250
       280   03 Jun 2027 03:04:55.378   03 Jun 2027 03:06:40.977           105.599               CapeTown          3299.969
       281   03 Jun 2027 03:57:44.397   03 Jun 2027 04:01:30.320           225.923               Magadan2          7060.094
       282   03 Jun 2027 04:02:10.805   03 Jun 2027 04:03:54.064           103.259                Anadyr2          3226.844
       283   03 Jun 2027 05:32:54.573   03 Jun 2027 05:33:14.994            20.421                Anadyr2           638.156
       284   03 Jun 2027 05:33:14.994   03 Jun 2027 05:36:22.116           187.122                Anadyr1          5847.563
       285   03 Jun 2027 05:36:49.572   03 Jun 2027 05:39:43.732           174.160                Anadyr2          5442.500
       286   03 Jun 2027 05:43:06.213   03 Jun 2027 05:43:39.435            33.222              Murmansk1          1038.188
       287   03 Jun 2027 05:44:34.312   03 Jun 2027 05:44:46.670            12.358                Norilsk           386.187
       288   03 Jun 2027 05:45:21.458   03 Jun 2027 05:45:42.680            21.222              Murmansk2           663.188
       289   03 Jun 2027 06:18:16.706   03 Jun 2027 06:20:26.440           129.734            RioGallegos          4054.188
       290   03 Jun 2027 06:20:30.839   03 Jun 2027 06:20:39.886             9.047            RioGallegos           282.719
       291   03 Jun 2027 06:22:49.987   03 Jun 2027 06:23:14.795            24.808            RioGallegos           775.250
       292   03 Jun 2027 06:24:51.038   03 Jun 2027 06:25:29.880            38.842            RioGallegos          1213.813
       293   03 Jun 2027 07:07:48.850   03 Jun 2027 07:08:03.692            14.842               Magadan2           463.812
       294   03 Jun 2027 07:08:10.295   03 Jun 2027 07:08:41.651            31.356               Magadan1           979.875
       295   03 Jun 2027 07:08:41.651   03 Jun 2027 07:09:26.307            44.656               Magadan2          1395.500
       296   03 Jun 2027 07:09:34.813   03 Jun 2027 07:12:28.414           173.601               Magadan2          5425.031
       297   03 Jun 2027 07:12:37.108   03 Jun 2027 07:14:14.633            97.525                Anadyr1          3047.656
       298   03 Jun 2027 07:14:14.633   03 Jun 2027 07:14:40.670            26.037                Anadyr2           813.656
       299   03 Jun 2027 07:14:50.133   03 Jun 2027 07:15:32.487            42.354                Novosib          1323.563
       300   03 Jun 2027 07:50:26.023   03 Jun 2027 07:52:30.310           124.287            RioGallegos          3883.969
       301   03 Jun 2027 08:45:43.222   03 Jun 2027 08:48:10.705           147.483               Magadan1          4608.844
       302   03 Jun 2027 08:48:28.347   03 Jun 2027 08:49:44.392            76.045                Novosib          2376.406
       303   03 Jun 2027 08:49:45.939   03 Jun 2027 08:49:48.436             2.497              Murmansk2            78.031
       304   03 Jun 2027 08:49:48.436   03 Jun 2027 08:50:13.867            25.431              Murmansk1           794.719
       305   03 Jun 2027 08:50:20.789   03 Jun 2027 08:50:29.711             8.922                Norilsk           278.812
       306   03 Jun 2027 08:50:42.470   03 Jun 2027 08:50:50.785             8.315                Irkutsk           259.844
       307   03 Jun 2027 08:50:52.317   03 Jun 2027 08:52:22.773            90.456              Murmansk2          2826.750
       308   03 Jun 2027 08:52:22.773   03 Jun 2027 08:53:38.370            75.597              Murmansk1          2362.406
       309   03 Jun 2027 08:54:04.273   03 Jun 2027 08:54:58.778            54.505              Murmansk1          1703.281
       310   03 Jun 2027 09:26:10.902   03 Jun 2027 09:27:47.761            96.859            RioGallegos          3026.844
       311   03 Jun 2027 09:29:43.729   03 Jun 2027 09:29:48.684             4.955            RioGallegos           154.844
       312   03 Jun 2027 09:30:25.336   03 Jun 2027 09:30:51.987            26.651            RioGallegos           832.844
       313   03 Jun 2027 10:00:44.919   03 Jun 2027 10:01:48.610            63.691                Sumatra          1990.344
       314   03 Jun 2027 10:10:31.852   03 Jun 2027 10:11:29.794            57.942                  Delhi          1810.688
       315   03 Jun 2027 10:22:03.796   03 Jun 2027 10:23:11.254            67.458                Irkutsk          2108.063
       316   03 Jun 2027 10:23:13.240   03 Jun 2027 10:24:42.176            88.936              Murmansk2          2779.250
       317   03 Jun 2027 10:24:47.673   03 Jun 2027 10:26:27.971           100.298                 Moscow          3134.313
       318   03 Jun 2027 10:26:28.993   03 Jun 2027 10:26:46.265            17.272                Irkutsk           539.750
       319   03 Jun 2027 10:26:53.116   03 Jun 2027 10:27:44.877            51.761                Novosib          1617.531
       320   03 Jun 2027 10:28:48.383   03 Jun 2027 10:29:15.794            27.411                 Moscow           856.594
       321   03 Jun 2027 11:07:15.931   03 Jun 2027 11:07:20.212             4.281            RioGallegos           133.781
       322   03 Jun 2027 11:08:50.056   03 Jun 2027 11:09:00.069            10.013            RioGallegos           312.906
       323   03 Jun 2027 11:09:33.681   03 Jun 2027 11:10:22.878            49.197            RioGallegos          1537.406
       324   03 Jun 2027 11:45:10.043   03 Jun 2027 11:45:49.620            39.577                  Delhi          1236.781
       325   03 Jun 2027 11:47:58.370   03 Jun 2027 11:48:36.004            37.634                  Delhi          1176.062
       326   03 Jun 2027 11:53:14.730   03 Jun 2027 11:53:44.446            29.716                  Delhi           928.625
       327   03 Jun 2027 11:58:30.002   03 Jun 2027 11:58:39.341             9.339              Murmansk2           291.844
       328   03 Jun 2027 11:58:40.830   03 Jun 2027 11:59:05.962            25.132                 Moscow           785.375
       329   03 Jun 2027 11:59:34.544   03 Jun 2027 12:00:28.824            54.280                Norilsk          1696.250
       330   03 Jun 2027 12:00:30.150   03 Jun 2027 12:00:46.654            16.504                 Moscow           515.750
       331   03 Jun 2027 12:01:13.708   03 Jun 2027 12:02:05.791            52.083                Norilsk          1627.594
       332   03 Jun 2027 12:02:49.905   03 Jun 2027 12:03:39.979            50.074                Novosib          1564.812
       333   03 Jun 2027 12:05:05.022   03 Jun 2027 12:06:18.075            73.053                Norilsk          2282.906
       334   03 Jun 2027 12:07:28.577   03 Jun 2027 12:07:41.896            13.319                Norilsk           416.219
       335   03 Jun 2027 12:08:05.493   03 Jun 2027 12:09:04.679            59.186              Murmansk2          1849.562
       336   03 Jun 2027 12:09:43.208   03 Jun 2027 12:09:47.021             3.813              Murmansk2           119.156
       337   03 Jun 2027 13:29:19.887   03 Jun 2027 13:33:24.093           244.206                 Moscow          7631.437
       338   03 Jun 2027 13:34:21.123   03 Jun 2027 13:34:47.633            26.510              Murmansk2           828.438
       339   03 Jun 2027 13:34:47.633   03 Jun 2027 13:35:05.754            18.121              Murmansk1           566.281
       340   03 Jun 2027 13:36:07.956   03 Jun 2027 13:36:18.000            10.044              Murmansk1           313.875
       341   03 Jun 2027 13:37:15.899   03 Jun 2027 13:37:22.399             6.500              Murmansk1           203.125
       342   03 Jun 2027 13:37:38.442   03 Jun 2027 13:38:53.995            75.553                Norilsk          2361.031
       343   03 Jun 2027 13:39:19.054   03 Jun 2027 13:40:05.537            46.483                Norilsk          1452.594
       344   03 Jun 2027 13:42:29.396   03 Jun 2027 13:43:31.671            62.275                Norilsk          1946.094
       345   03 Jun 2027 14:43:41.478   03 Jun 2027 14:44:20.156            38.678               CapeTown          1208.688
       346   03 Jun 2027 14:45:04.116   03 Jun 2027 14:45:17.066            12.950               CapeTown           404.687
       347   03 Jun 2027 14:45:24.942   03 Jun 2027 14:45:29.345             4.403               CapeTown           137.594
       348   03 Jun 2027 14:48:18.612   03 Jun 2027 14:49:02.644            44.032               CapeTown          1376.000
       349   03 Jun 2027 14:52:27.325   03 Jun 2027 14:53:02.117            34.792               CapeTown          1087.250
       350   03 Jun 2027 15:07:00.750   03 Jun 2027 15:07:36.184            35.434                 Moscow          1107.313
       351   03 Jun 2027 15:10:02.364   03 Jun 2027 15:10:20.702            18.338              Murmansk1           573.063
       352   03 Jun 2027 15:10:35.907   03 Jun 2027 15:11:16.875            40.968              Murmansk1          1280.250
       353   03 Jun 2027 15:15:20.941   03 Jun 2027 15:15:38.112            17.171              Murmansk1           536.594
       354   03 Jun 2027 15:17:01.450   03 Jun 2027 15:17:22.566            21.116                 Moscow           659.875
       355   03 Jun 2027 15:18:08.427   03 Jun 2027 15:18:36.195            27.768              Murmansk1           867.750
       356   03 Jun 2027 15:23:47.402   03 Jun 2027 15:24:43.197            55.795                Anadyr1          1743.594
       357   03 Jun 2027 15:25:09.795   03 Jun 2027 15:26:12.589            62.794                Anadyr2          1962.313
       358   03 Jun 2027 15:28:39.104   03 Jun 2027 15:29:07.835            28.731                Anadyr2           897.844
       359   03 Jun 2027 15:32:19.809   03 Jun 2027 15:32:56.548            36.739                Anadyr2          1148.094
       360   03 Jun 2027 15:33:38.595   03 Jun 2027 15:33:41.672             3.077                Anadyr1            96.156
       361   03 Jun 2027 16:26:49.697   03 Jun 2027 16:27:43.253            53.556               CapeTown          1673.625
       362   03 Jun 2027 16:29:21.792   03 Jun 2027 16:30:11.347            49.555               CapeTown          1548.594
       363   03 Jun 2027 16:49:37.086   03 Jun 2027 16:51:22.103           105.017              Murmansk1          3281.781
       364   03 Jun 2027 16:55:27.669   03 Jun 2027 16:55:30.781             3.112              Murmansk1            97.250
       365   03 Jun 2027 16:55:49.601   03 Jun 2027 16:56:04.420            14.819              Murmansk2           463.094
       366   03 Jun 2027 16:56:47.613   03 Jun 2027 16:57:19.133            31.520              Murmansk2           985.000
       367   03 Jun 2027 16:59:23.685   03 Jun 2027 17:00:51.389            87.704                Anadyr2          2740.750
       368   03 Jun 2027 17:02:37.787   03 Jun 2027 17:02:54.919            17.132               Magadan2           535.375
       369   03 Jun 2027 17:04:54.135   03 Jun 2027 17:06:14.741            80.606               Magadan1          2518.938
       370   03 Jun 2027 18:35:18.849   03 Jun 2027 18:37:36.798           137.949                Anadyr2          4310.906
       371   03 Jun 2027 18:37:38.808   03 Jun 2027 18:41:08.575           209.767               Magadan2          6555.219
       372   03 Jun 2027 18:42:34.356   03 Jun 2027 18:43:05.932            31.576               Magadan2           986.750
       373   03 Jun 2027 18:46:12.349   03 Jun 2027 18:46:25.340            12.991               Magadan1           405.969
       374   03 Jun 2027 18:47:44.016   03 Jun 2027 18:48:01.884            17.868               Magadan1           558.375
       375   03 Jun 2027 18:48:33.937   03 Jun 2027 18:48:47.480            13.543               Magadan1           423.219
       376   03 Jun 2027 19:32:02.122   03 Jun 2027 19:34:15.271           133.149            RioGallegos          4160.906
       377   03 Jun 2027 20:11:08.669   03 Jun 2027 20:11:33.352            24.683                Anadyr1           771.344
       378   03 Jun 2027 20:12:22.073   03 Jun 2027 20:12:51.312            29.239                Anadyr1           913.719
       379   03 Jun 2027 20:12:54.116   03 Jun 2027 20:13:11.564            17.448                Anadyr1           545.250
       380   03 Jun 2027 20:13:20.519   03 Jun 2027 20:16:41.545           201.026                Norilsk          6282.063
       381   03 Jun 2027 20:18:24.622   03 Jun 2027 20:19:17.288            52.666                Irkutsk          1645.813
       382   03 Jun 2027 20:19:28.578   03 Jun 2027 20:21:27.992           119.414                Irkutsk          3731.688
       383   03 Jun 2027 20:22:50.660   03 Jun 2027 20:23:10.799            20.139                Irkutsk           629.344
       384   03 Jun 2027 20:33:39.679   03 Jun 2027 20:35:40.887           121.208                Sumatra          3787.750
       385   03 Jun 2027 20:37:55.233   03 Jun 2027 20:38:50.877            55.644                Sumatra          1738.875
       386   03 Jun 2027 21:49:04.022   03 Jun 2027 21:49:40.984            36.962                Norilsk          1155.063
       387   03 Jun 2027 21:50:07.315   03 Jun 2027 21:50:24.789            17.474                Norilsk           546.062
       388   03 Jun 2027 21:50:54.292   03 Jun 2027 21:51:02.259             7.967                Norilsk           248.969
       389   03 Jun 2027 21:52:59.175   03 Jun 2027 21:54:26.500            87.325                Irkutsk          2728.906
       390   03 Jun 2027 21:55:10.721   03 Jun 2027 21:57:12.491           121.770                Novosib          3805.312
       391   03 Jun 2027 22:04:33.325   03 Jun 2027 22:06:50.360           137.035                  Delhi          4282.344
       392   03 Jun 2027 23:22:51.100   03 Jun 2027 23:22:59.774             8.674                Anadyr1           271.062
       393   03 Jun 2027 23:25:03.131   03 Jun 2027 23:25:33.091            29.960                Norilsk           936.250
       394   03 Jun 2027 23:25:37.754   03 Jun 2027 23:26:28.440            50.686               Magadan1          1583.937
       395   03 Jun 2027 23:26:28.440   03 Jun 2027 23:26:46.370            17.930               Magadan2           560.312
       396   03 Jun 2027 23:28:09.372   03 Jun 2027 23:29:43.268            93.896              Murmansk2          2934.250
       397   03 Jun 2027 23:30:00.083   03 Jun 2027 23:32:52.427           172.344              Murmansk1          5385.750
       398   03 Jun 2027 23:44:48.383   03 Jun 2027 23:45:46.379            57.996                  Delhi          1812.375
       399   04 Jun 2027 00:22:24.796   04 Jun 2027 00:22:47.144            22.348            RioGallegos           698.375
       400   04 Jun 2027 00:53:58.231   04 Jun 2027 00:54:20.371            22.140                Anadyr2           691.875
       401   04 Jun 2027 00:54:43.071   04 Jun 2027 00:55:04.430            21.359                Anadyr1           667.469
       402   04 Jun 2027 00:55:44.261   04 Jun 2027 00:56:37.898            53.637                Anadyr2          1676.156
       403   04 Jun 2027 00:56:37.898   04 Jun 2027 00:57:03.989            26.091                Anadyr1           815.344
       404   04 Jun 2027 00:59:39.942   04 Jun 2027 01:00:08.902            28.960                Anadyr1           905.000
       405   04 Jun 2027 01:00:28.986   04 Jun 2027 01:01:38.766            69.780               Magadan1          2180.625
       406   04 Jun 2027 01:01:38.766   04 Jun 2027 01:03:49.127           130.361               Magadan2          4073.781
       407   04 Jun 2027 01:03:49.954   04 Jun 2027 01:05:22.818            92.864              Murmansk1          2902.000
       408   04 Jun 2027 01:13:20.441   04 Jun 2027 01:14:24.572            64.131                 Moscow          2004.094
       409   04 Jun 2027 01:33:32.641   04 Jun 2027 01:34:18.631            45.990               CapeTown          1437.188
       410   04 Jun 2027 02:27:44.544   04 Jun 2027 02:29:26.341           101.797                Anadyr1          3181.156
       411   04 Jun 2027 02:30:13.064   04 Jun 2027 02:30:45.316            32.252                Anadyr2          1007.875
       412   04 Jun 2027 02:31:45.126   04 Jun 2027 02:32:19.875            34.749               Magadan2          1085.906
       413   04 Jun 2027 02:32:27.950   04 Jun 2027 02:32:36.483             8.533               Magadan2           266.656
       414   04 Jun 2027 02:33:04.572   04 Jun 2027 02:33:44.986            40.414               Magadan2          1262.937
       415   04 Jun 2027 02:35:33.713   04 Jun 2027 02:35:46.328            12.615               Magadan1           394.219
       416   04 Jun 2027 02:37:37.452   04 Jun 2027 02:38:09.137            31.685                Norilsk           990.156
       417   04 Jun 2027 02:39:09.067   04 Jun 2027 02:39:32.228            23.161              Murmansk2           723.781
       418   04 Jun 2027 02:39:45.322   04 Jun 2027 02:40:22.675            37.353              Murmansk1          1167.281
       419   04 Jun 2027 02:40:49.485   04 Jun 2027 02:41:29.288            39.803              Murmansk2          1243.844
       420   04 Jun 2027 02:42:32.410   04 Jun 2027 02:43:02.397            29.987                Novosib           937.094
       421   04 Jun 2027 02:49:02.331   04 Jun 2027 02:49:16.300            13.969                 Moscow           436.531
       422   04 Jun 2027 02:52:08.742   04 Jun 2027 02:52:14.677             5.935                 Moscow           185.469
       423   04 Jun 2027 02:53:11.259   04 Jun 2027 02:53:51.581            40.322                 Moscow          1260.063
       424   04 Jun 2027 03:12:10.445   04 Jun 2027 03:13:14.798            64.353               CapeTown          2011.031
       425   04 Jun 2027 04:09:46.109   04 Jun 2027 04:11:18.873            92.764               Magadan1          2898.875
       426   04 Jun 2027 04:11:30.491   04 Jun 2027 04:13:32.484           121.993               Magadan1          3812.281
       427   04 Jun 2027 04:13:32.484   04 Jun 2027 04:13:53.596            21.112               Magadan2           659.750
       428   04 Jun 2027 04:13:54.501   04 Jun 2027 04:14:39.380            44.879                Anadyr1          1402.469
       429   04 Jun 2027 05:47:14.913   04 Jun 2027 05:49:15.542           120.629               Magadan2          3769.656
       430   04 Jun 2027 05:49:36.747   04 Jun 2027 05:50:03.488            26.741                Anadyr2           835.656
       431   04 Jun 2027 05:50:03.488   04 Jun 2027 05:50:17.873            14.385                Anadyr1           449.531
       432   04 Jun 2027 07:21:01.188   04 Jun 2027 07:21:11.949            10.761                Irkutsk           336.281
       433   04 Jun 2027 07:21:20.010   04 Jun 2027 07:22:56.589            96.579                Anadyr1          3018.094
       434   04 Jun 2027 07:22:56.589   04 Jun 2027 07:25:30.118           153.529                Anadyr2          4797.781
       435   04 Jun 2027 07:25:33.526   04 Jun 2027 07:27:13.275            99.749               Magadan2          3117.156
       436   04 Jun 2027 08:39:09.959   04 Jun 2027 08:39:14.556             4.597                Sumatra           143.656
       437   04 Jun 2027 08:42:19.274   04 Jun 2027 08:43:13.383            54.109                Sumatra          1690.906
       438   04 Jun 2027 08:57:35.520   04 Jun 2027 08:58:36.648            61.128                Novosib          1910.250
       439   04 Jun 2027 08:59:20.866   04 Jun 2027 08:59:21.764             0.898                Irkutsk            28.062
       440   04 Jun 2027 08:59:22.175   04 Jun 2027 08:59:41.319            19.144                Novosib           598.250
       441   04 Jun 2027 08:59:44.366   04 Jun 2027 09:01:09.189            84.823                Irkutsk          2650.719
       442   04 Jun 2027 09:01:15.038   04 Jun 2027 09:01:39.483            24.445              Murmansk1           763.906
       443   04 Jun 2027 09:01:44.262   04 Jun 2027 09:02:10.925            26.663                Novosib           833.219
       444   04 Jun 2027 09:02:14.596   04 Jun 2027 09:02:28.093            13.497                Irkutsk           421.781
       445   04 Jun 2027 09:02:31.092   04 Jun 2027 09:02:33.420             2.328                Norilsk            72.750
       446   04 Jun 2027 09:02:36.486   04 Jun 2027 09:03:04.759            28.273                Novosib           883.531
       447   04 Jun 2027 09:07:08.910   04 Jun 2027 09:07:14.794             5.884              Murmansk2           183.875
       448   04 Jun 2027 09:09:44.276   04 Jun 2027 09:10:21.800            37.524              Murmansk1          1172.625
       449   04 Jun 2027 09:38:26.958   04 Jun 2027 09:38:52.708            25.750            RioGallegos           804.687
       450   04 Jun 2027 09:41:10.938   04 Jun 2027 09:42:14.031            63.093            RioGallegos          1971.656
       451   04 Jun 2027 10:12:52.151   04 Jun 2027 10:13:14.377            22.226                Sumatra           694.563
       452   04 Jun 2027 10:22:02.591   04 Jun 2027 10:22:47.968            45.377                  Delhi          1418.031
       453   04 Jun 2027 10:33:38.507   04 Jun 2027 10:34:06.971            28.464                Irkutsk           889.500
       454   04 Jun 2027 10:34:20.230   04 Jun 2027 10:34:34.727            14.497                Norilsk           453.031
       455   04 Jun 2027 10:34:36.506   04 Jun 2027 10:34:57.075            20.569                 Moscow           642.781
       456   04 Jun 2027 10:35:01.507   04 Jun 2027 10:35:22.967            21.460              Murmansk1           670.625
       457   04 Jun 2027 10:35:32.592   04 Jun 2027 10:35:42.584             9.992              Murmansk2           312.250
       458   04 Jun 2027 10:35:43.746   04 Jun 2027 10:35:47.187             3.441                Norilsk           107.531
       459   04 Jun 2027 10:35:53.441   04 Jun 2027 10:36:30.549            37.108                Norilsk          1159.625
       460   04 Jun 2027 10:36:38.220   04 Jun 2027 10:37:04.690            26.470                Irkutsk           827.188
       461   04 Jun 2027 10:37:23.068   04 Jun 2027 10:38:09.759            46.691                Irkutsk          1459.094
       462   04 Jun 2027 10:38:18.340   04 Jun 2027 10:38:42.010            23.670              Murmansk2           739.687
       463   04 Jun 2027 10:38:48.567   04 Jun 2027 10:38:50.269             1.702                Novosib            53.187
       464   04 Jun 2027 10:38:58.799   04 Jun 2027 10:39:04.099             5.300                Norilsk           165.625
       465   04 Jun 2027 10:39:17.449   04 Jun 2027 10:39:35.933            18.484              Murmansk1           577.625
       466   04 Jun 2027 10:39:35.933   04 Jun 2027 10:40:23.996            48.063              Murmansk2          1501.969
       467   04 Jun 2027 11:57:27.501   04 Jun 2027 11:59:09.007           101.506                  Delhi          3172.062
       468   04 Jun 2027 12:02:01.835   04 Jun 2027 12:02:40.697            38.862                  Delhi          1214.438
       469   04 Jun 2027 12:07:10.257   04 Jun 2027 12:07:30.207            19.950                 Moscow           623.437
       470   04 Jun 2027 12:09:10.423   04 Jun 2027 12:09:34.206            23.783              Murmansk2           743.219
       471   04 Jun 2027 12:10:31.260   04 Jun 2027 12:10:40.633             9.373              Murmansk1           292.906
       472   04 Jun 2027 12:11:27.736   04 Jun 2027 12:11:45.495            17.759              Murmansk1           554.969
       473   04 Jun 2027 12:12:50.083   04 Jun 2027 12:13:04.579            14.496              Murmansk1           453.000
       474   04 Jun 2027 12:14:19.295   04 Jun 2027 12:14:36.504            17.209              Murmansk2           537.781
       475   04 Jun 2027 12:16:06.446   04 Jun 2027 12:16:19.059            12.613                Norilsk           394.156
       476   04 Jun 2027 12:18:33.316   04 Jun 2027 12:19:02.781            29.465                Norilsk           920.781
       477   04 Jun 2027 12:21:34.473   04 Jun 2027 12:21:37.123             2.650              Murmansk1            82.813
       478   04 Jun 2027 13:41:22.719   04 Jun 2027 13:45:34.879           252.160                 Moscow          7880.000
       479   04 Jun 2027 13:45:44.607   04 Jun 2027 13:47:59.139           134.532              Murmansk1          4204.125
       480   04 Jun 2027 13:50:07.121   04 Jun 2027 13:50:33.882            26.761                Norilsk           836.281
       481   04 Jun 2027 13:52:02.801   04 Jun 2027 13:52:16.159            13.358                Norilsk           417.437
       482   04 Jun 2027 13:54:16.755   04 Jun 2027 13:54:17.470             0.715                Norilsk            22.344
