uniorb/output/strategy_1/Drop/Drop_KinoSat_111503.txt

KinoSat_111503
-------------------------
    Access    *     Start Time (UTCG)     *     Stop Time (UTCG)  *   Duration (s)        *       Station  *  Data (Mbytes)
         1   01 Jun 2027 03:40:41.920   01 Jun 2027 03:40:52.186            10.266                Norilsk           320.812
         2   01 Jun 2027 03:40:58.388   01 Jun 2027 03:42:12.838            74.450              Murmansk1          2326.562
         3   01 Jun 2027 03:42:12.838   01 Jun 2027 03:42:23.669            10.831              Murmansk2           338.469
         4   01 Jun 2027 03:42:27.642   01 Jun 2027 03:42:59.399            31.757                Novosib           992.406
         5   01 Jun 2027 03:43:02.225   01 Jun 2027 03:44:00.331            58.106              Murmansk1          1815.812
         6   01 Jun 2027 03:44:00.331   01 Jun 2027 03:44:03.912             3.581              Murmansk2           111.906
         7   01 Jun 2027 03:44:20.138   01 Jun 2027 03:44:42.004            21.866                Novosib           683.313
         8   01 Jun 2027 03:44:46.906   01 Jun 2027 03:45:07.387            20.481              Murmansk2           640.031
         9   01 Jun 2027 03:45:12.404   01 Jun 2027 03:46:22.875            70.471                 Moscow          2202.219
        10   01 Jun 2027 03:47:30.116   01 Jun 2027 03:47:38.382             8.266                 Moscow           258.313
        11   01 Jun 2027 03:47:59.934   01 Jun 2027 03:48:31.055            31.121                 Moscow           972.531
        12   01 Jun 2027 04:07:29.223   01 Jun 2027 04:07:48.044            18.821               CapeTown           588.156
        13   01 Jun 2027 05:16:48.634   01 Jun 2027 05:17:41.177            52.543                Norilsk          1641.969
        14   01 Jun 2027 05:17:50.073   01 Jun 2027 05:20:22.231           152.158                 Moscow          4754.938
        15   01 Jun 2027 05:20:40.918   01 Jun 2027 05:21:03.729            22.811              Murmansk1           712.844
        16   01 Jun 2027 05:21:03.729   01 Jun 2027 05:22:22.496            78.767              Murmansk2          2461.469
        17   01 Jun 2027 05:23:39.003   01 Jun 2027 05:24:17.417            38.414                 Moscow          1200.438
        18   01 Jun 2027 06:40:29.544   01 Jun 2027 06:42:47.786           138.242               Magadan2          4320.062
        19   01 Jun 2027 08:17:28.826   01 Jun 2027 08:19:54.138           145.312                Irkutsk          4541.000
        20   01 Jun 2027 08:19:58.247   01 Jun 2027 08:20:50.722            52.475                Norilsk          1639.844
        21   01 Jun 2027 08:57:39.883   01 Jun 2027 08:57:57.736            17.853            RioGallegos           557.906
        22   01 Jun 2027 08:59:09.139   01 Jun 2027 08:59:17.500             8.361            RioGallegos           261.281
        23   01 Jun 2027 08:59:49.504   01 Jun 2027 09:00:15.980            26.476            RioGallegos           827.375
        24   01 Jun 2027 09:51:40.544   01 Jun 2027 09:52:10.999            30.455                Irkutsk           951.719
        25   01 Jun 2027 09:52:13.626   01 Jun 2027 09:52:48.645            35.019                Norilsk          1094.344
        26   01 Jun 2027 09:52:51.769   01 Jun 2027 09:53:21.378            29.609                Novosib           925.281
        27   01 Jun 2027 09:53:22.967   01 Jun 2027 09:56:53.419           210.452               Magadan1          6576.625
        28   01 Jun 2027 09:56:57.180   01 Jun 2027 09:57:27.283            30.103                Irkutsk           940.719
        29   01 Jun 2027 11:07:19.203   01 Jun 2027 11:09:36.835           137.632                Sumatra          4301.000
        30   01 Jun 2027 11:29:05.096   01 Jun 2027 11:29:25.253            20.157                Norilsk           629.906
        31   01 Jun 2027 11:29:40.272   01 Jun 2027 11:34:16.759           276.487                Novosib          8640.219
        32   01 Jun 2027 11:34:18.932   01 Jun 2027 11:35:39.690            80.758              Murmansk2          2523.688
        33   01 Jun 2027 12:10:36.289   01 Jun 2027 12:10:51.090            14.801            RioGallegos           462.531
        34   01 Jun 2027 12:44:55.627   01 Jun 2027 12:45:14.714            19.087                Sumatra           596.469
        35   01 Jun 2027 12:48:03.640   01 Jun 2027 12:49:45.777           102.137                Sumatra          3191.781
        36   01 Jun 2027 12:58:33.321   01 Jun 2027 13:01:16.517           163.196                Novosib          5099.875
        37   01 Jun 2027 13:02:36.236   01 Jun 2027 13:04:29.106           112.870                Norilsk          3527.188
        38   01 Jun 2027 13:10:42.643   01 Jun 2027 13:11:06.808            24.165                Norilsk           755.156
        39   01 Jun 2027 14:30:38.391   01 Jun 2027 14:31:14.185            35.794                  Delhi          1118.563
        40   01 Jun 2027 14:32:05.805   01 Jun 2027 14:34:25.788           139.983                  Delhi          4374.469
        41   01 Jun 2027 14:36:53.413   01 Jun 2027 14:37:40.624            47.211                 Moscow          1475.344
        42   01 Jun 2027 14:39:07.325   01 Jun 2027 14:41:10.741           123.416              Murmansk1          3856.750
        43   01 Jun 2027 14:41:13.773   01 Jun 2027 14:43:06.877           113.104                Novosib          3534.500
        44   01 Jun 2027 14:44:49.922   01 Jun 2027 14:45:51.252            61.330                Norilsk          1916.562
        45   01 Jun 2027 15:51:35.961   01 Jun 2027 15:53:35.253           119.292               CapeTown          3727.875
        46   01 Jun 2027 16:12:17.290   01 Jun 2027 16:13:43.345            86.055                 Moscow          2689.219
        47   01 Jun 2027 16:15:41.537   01 Jun 2027 16:17:14.355            92.818              Murmansk1          2900.563
        48   01 Jun 2027 16:30:29.991   01 Jun 2027 16:31:36.215            66.224                Anadyr1          2069.500
        49   01 Jun 2027 16:32:18.762   01 Jun 2027 16:33:30.141            71.379                Anadyr2          2230.594
        50   01 Jun 2027 17:25:07.007   01 Jun 2027 17:27:39.656           152.649               CapeTown          4770.281
        51   01 Jun 2027 17:53:50.903   01 Jun 2027 17:56:58.920           188.017                 Moscow          5875.531
        52   01 Jun 2027 17:57:56.400   01 Jun 2027 18:00:04.431           128.031              Murmansk1          4000.969
        53   01 Jun 2027 18:10:14.257   01 Jun 2027 18:10:40.999            26.742               Magadan2           835.688
        54   01 Jun 2027 18:11:06.574   01 Jun 2027 18:13:40.160           153.586               Magadan1          4799.562
        55   01 Jun 2027 19:41:39.209   01 Jun 2027 19:45:42.733           243.524                Anadyr2          7610.125
        56   01 Jun 2027 19:45:48.888   01 Jun 2027 19:46:39.940            51.052               Magadan1          1595.375
        57   01 Jun 2027 19:46:46.730   01 Jun 2027 19:46:53.974             7.244               Magadan1           226.375
        58   01 Jun 2027 19:47:29.312   01 Jun 2027 19:48:55.596            86.284               Magadan1          2696.375
        59   01 Jun 2027 21:17:33.676   01 Jun 2027 21:21:15.098           221.422                Anadyr2          6919.437
        60   01 Jun 2027 21:22:02.962   01 Jun 2027 21:25:00.581           177.619                Norilsk          5550.594
        61   01 Jun 2027 21:26:13.764   01 Jun 2027 21:26:44.603            30.839               Magadan2           963.719
        62   01 Jun 2027 21:27:24.266   01 Jun 2027 21:28:41.333            77.067                Irkutsk          2408.344
        63   01 Jun 2027 22:11:54.088   01 Jun 2027 22:14:48.719           174.631            RioGallegos          5457.219
        64   01 Jun 2027 22:20:07.654   01 Jun 2027 22:20:13.273             5.619            RioGallegos           175.594
        65   01 Jun 2027 22:20:29.009   01 Jun 2027 22:20:54.734            25.725            RioGallegos           803.906
        66   01 Jun 2027 22:53:08.029   01 Jun 2027 22:53:54.895            46.866                Anadyr1          1464.563
        67   01 Jun 2027 22:54:08.536   01 Jun 2027 22:54:26.819            18.283                Anadyr1           571.344
        68   01 Jun 2027 22:54:54.519   01 Jun 2027 22:55:28.194            33.675                Anadyr1          1052.344
        69   01 Jun 2027 22:55:41.655   01 Jun 2027 22:57:06.985            85.330                Norilsk          2666.563
        70   01 Jun 2027 22:57:14.958   01 Jun 2027 22:57:55.158            40.200               Magadan1          1256.250
        71   01 Jun 2027 23:00:25.567   01 Jun 2027 23:01:44.056            78.489                Irkutsk          2452.781
        72   01 Jun 2027 23:02:12.863   01 Jun 2027 23:02:18.250             5.387                Novosib           168.344
        73   01 Jun 2027 23:03:03.915   01 Jun 2027 23:03:56.399            52.484                Novosib          1640.125
        74   01 Jun 2027 23:05:34.704   01 Jun 2027 23:06:21.839            47.135                Novosib          1472.969
        75   01 Jun 2027 23:13:14.184   01 Jun 2027 23:15:52.816           158.632                Sumatra          4957.250
        76   01 Jun 2027 23:57:30.772   01 Jun 2027 23:57:33.051             2.279            RioGallegos            71.219
        77   01 Jun 2027 23:57:47.114   01 Jun 2027 23:57:55.421             8.307            RioGallegos           259.594
        78   02 Jun 2027 00:27:47.092   02 Jun 2027 00:29:21.483            94.391                Anadyr2          2949.719
        79   02 Jun 2027 00:31:21.605   02 Jun 2027 00:31:26.364             4.759                Norilsk           148.719
        80   02 Jun 2027 00:32:01.344   02 Jun 2027 00:34:02.711           121.367               Magadan1          3792.719
        81   02 Jun 2027 00:35:14.736   02 Jun 2027 00:36:37.937            83.201                Irkutsk          2600.031
        82   02 Jun 2027 00:36:51.894   02 Jun 2027 00:37:34.806            42.912                Novosib          1341.000
        83   02 Jun 2027 00:38:28.763   02 Jun 2027 00:38:59.211            30.448                Novosib           951.500
        84   02 Jun 2027 00:42:59.468   02 Jun 2027 00:44:18.663            79.195                  Delhi          2474.844
        85   02 Jun 2027 00:45:02.017   02 Jun 2027 00:46:20.256            78.239                  Delhi          2444.969
        86   02 Jun 2027 00:56:49.038   02 Jun 2027 00:58:36.637           107.599                Sumatra          3362.469
        87   02 Jun 2027 01:30:35.080   02 Jun 2027 01:30:57.910            22.830            RioGallegos           713.438
        88   02 Jun 2027 02:01:16.191   02 Jun 2027 02:02:24.308            68.117                Anadyr1          2128.656
        89   02 Jun 2027 02:03:19.821   02 Jun 2027 02:03:37.325            17.504                Anadyr2           547.000
        90   02 Jun 2027 02:03:56.531   02 Jun 2027 02:04:07.592            11.061                Anadyr2           345.656
        91   02 Jun 2027 02:06:49.766   02 Jun 2027 02:07:20.492            30.726                Anadyr1           960.188
        92   02 Jun 2027 02:07:24.852   02 Jun 2027 02:08:11.469            46.617               Magadan2          1456.781
        93   02 Jun 2027 02:08:35.068   02 Jun 2027 02:09:40.729            65.661               Magadan1          2051.906
        94   02 Jun 2027 02:09:58.170   02 Jun 2027 02:10:43.177            45.007              Murmansk2          1406.469
        95   02 Jun 2027 02:11:08.290   02 Jun 2027 02:12:14.766            66.476              Murmansk1          2077.375
        96   02 Jun 2027 02:16:54.901   02 Jun 2027 02:16:57.764             2.863                 Moscow            89.469
        97   02 Jun 2027 02:17:17.127   02 Jun 2027 02:17:42.704            25.577                 Moscow           799.281
        98   02 Jun 2027 02:19:43.902   02 Jun 2027 02:20:31.809            47.907                  Delhi          1497.094
        99   02 Jun 2027 02:27:11.882   02 Jun 2027 02:28:43.220            91.338                  Delhi          2854.312
       100   02 Jun 2027 03:52:27.302   02 Jun 2027 03:53:19.623            52.321              Murmansk1          1635.031
       101   02 Jun 2027 03:53:20.661   02 Jun 2027 03:55:22.503           121.842              Murmansk1          3807.562
       102   02 Jun 2027 03:55:48.822   02 Jun 2027 03:57:41.224           112.402              Murmansk2          3512.562
       103   02 Jun 2027 03:58:21.677   02 Jun 2027 04:01:22.254           180.577                 Moscow          5643.031
       104   02 Jun 2027 04:13:00.301   02 Jun 2027 04:13:42.817            42.516               CapeTown          1328.625
       105   02 Jun 2027 04:15:37.683   02 Jun 2027 04:16:21.997            44.314               CapeTown          1384.812
       106   02 Jun 2027 05:16:43.582   02 Jun 2027 05:18:09.867            86.285                Anadyr1          2696.406
       107   02 Jun 2027 05:18:09.867   02 Jun 2027 05:18:30.890            21.023                Anadyr2           656.969
       108   02 Jun 2027 05:18:55.914   02 Jun 2027 05:20:02.980            67.066                Anadyr2          2095.812
       109   02 Jun 2027 05:20:28.781   02 Jun 2027 05:20:32.938             4.157                Anadyr2           129.906
       110   02 Jun 2027 05:21:59.178   02 Jun 2027 05:22:15.893            16.715                Anadyr2           522.344
       111   02 Jun 2027 05:28:02.351   02 Jun 2027 05:28:48.762            46.411                Norilsk          1450.344
       112   02 Jun 2027 05:28:56.217   02 Jun 2027 05:29:17.098            20.881              Murmansk1           652.531
       113   02 Jun 2027 05:30:26.042   02 Jun 2027 05:31:04.349            38.307              Murmansk2          1197.094
       114   02 Jun 2027 05:32:51.371   02 Jun 2027 05:33:00.637             9.266              Murmansk2           289.563
       115   02 Jun 2027 05:33:55.311   02 Jun 2027 05:34:24.220            28.909              Murmansk2           903.406
       116   02 Jun 2027 06:52:02.160   02 Jun 2027 06:54:44.169           162.009               Magadan2          5062.781
       117   02 Jun 2027 06:55:00.114   02 Jun 2027 06:57:05.985           125.871                Anadyr2          3933.469
       118   02 Jun 2027 06:57:05.985   02 Jun 2027 06:58:09.345            63.360                Anadyr1          1980.000
       119   02 Jun 2027 08:27:28.820   02 Jun 2027 08:27:48.707            19.887               Magadan1           621.469
       120   02 Jun 2027 08:28:12.481   02 Jun 2027 08:30:16.109           123.628               Magadan2          3863.375
       121   02 Jun 2027 08:30:25.562   02 Jun 2027 08:33:30.207           184.645                Anadyr1          5770.156
       122   02 Jun 2027 10:03:54.754   02 Jun 2027 10:05:26.620            91.866                Norilsk          2870.812
       123   02 Jun 2027 10:05:28.044   02 Jun 2027 10:08:38.967           190.923               Magadan1          5966.344
       124   02 Jun 2027 10:08:56.385   02 Jun 2027 10:09:31.797            35.412                Irkutsk          1106.625
       125   02 Jun 2027 10:09:34.622   02 Jun 2027 10:09:48.874            14.252                Novosib           445.375
       126   02 Jun 2027 10:10:14.154   02 Jun 2027 10:10:40.376            26.222              Murmansk2           819.437
       127   02 Jun 2027 10:44:16.354   02 Jun 2027 10:45:37.116            80.762            RioGallegos          2523.812
       128   02 Jun 2027 11:19:10.662   02 Jun 2027 11:21:02.594           111.932                Sumatra          3497.875
       129   02 Jun 2027 11:39:50.432   02 Jun 2027 11:40:34.888            44.456                Irkutsk          1389.250
       130   02 Jun 2027 11:41:33.397   02 Jun 2027 11:42:39.461            66.064                Norilsk          2064.500
       131   02 Jun 2027 11:42:46.020   02 Jun 2027 11:45:46.571           180.551                Novosib          5642.219
       132   02 Jun 2027 12:23:24.117   02 Jun 2027 12:24:13.077            48.960            RioGallegos          1530.000
       133   02 Jun 2027 12:24:39.741   02 Jun 2027 12:25:11.094            31.353            RioGallegos           979.781
       134   02 Jun 2027 12:27:25.132   02 Jun 2027 12:28:07.899            42.767            RioGallegos          1336.469
       135   02 Jun 2027 12:58:06.221   02 Jun 2027 13:02:09.499           243.278                Sumatra          7602.437
       136   02 Jun 2027 13:13:43.557   02 Jun 2027 13:14:16.996            33.439                Novosib          1044.969
       137   02 Jun 2027 13:15:07.734   02 Jun 2027 13:16:23.493            75.759                Norilsk          2367.469
       138   02 Jun 2027 13:16:25.895   02 Jun 2027 13:17:37.053            71.158                Irkutsk          2223.688
       139   02 Jun 2027 14:44:57.090   02 Jun 2027 14:46:27.174            90.084                  Delhi          2815.125
       140   02 Jun 2027 14:46:29.521   02 Jun 2027 14:46:56.452            26.931                  Delhi           841.594
       141   02 Jun 2027 14:48:53.815   02 Jun 2027 14:49:42.646            48.831                 Moscow          1525.969
       142   02 Jun 2027 14:51:08.076   02 Jun 2027 14:52:34.133            86.057              Murmansk2          2689.281
       143   02 Jun 2027 14:52:46.441   02 Jun 2027 14:53:00.099            13.658              Murmansk1           426.812
       144   02 Jun 2027 14:53:11.595   02 Jun 2027 14:53:46.552            34.957                Novosib          1092.406
       145   02 Jun 2027 14:54:24.153   02 Jun 2027 14:55:21.496            57.343                Norilsk          1791.969
       146   02 Jun 2027 14:56:16.554   02 Jun 2027 14:56:52.204            35.650                Norilsk          1114.063
       147   02 Jun 2027 14:58:28.369   02 Jun 2027 14:59:20.858            52.489                Norilsk          1640.281
       148   02 Jun 2027 16:02:52.847   02 Jun 2027 16:05:00.085           127.238               CapeTown          3976.187
       149   02 Jun 2027 16:11:39.875   02 Jun 2027 16:11:56.771            16.896               CapeTown           528.000
       150   02 Jun 2027 16:24:37.666   02 Jun 2027 16:25:50.219            72.553                 Moscow          2267.281
       151   02 Jun 2027 16:27:55.928   02 Jun 2027 16:28:22.318            26.390              Murmansk2           824.687
       152   02 Jun 2027 16:28:22.318   02 Jun 2027 16:28:23.002             0.684              Murmansk1            21.375
       153   02 Jun 2027 16:28:42.812   02 Jun 2027 16:30:00.821            78.009              Murmansk2          2437.781
       154   02 Jun 2027 16:36:18.905   02 Jun 2027 16:36:54.046            35.141              Murmansk2          1098.156
       155   02 Jun 2027 16:42:21.146   02 Jun 2027 16:43:35.571            74.425                Anadyr2          2325.781
       156   02 Jun 2027 16:44:20.030   02 Jun 2027 16:44:45.235            25.205                Anadyr2           787.656
       157   02 Jun 2027 16:45:34.296   02 Jun 2027 16:45:37.035             2.739                Anadyr2            85.594
       158   02 Jun 2027 16:45:50.315   02 Jun 2027 16:46:05.095            14.780                Anadyr2           461.875
       159   02 Jun 2027 16:47:02.463   02 Jun 2027 16:47:22.976            20.513                Anadyr2           641.031
       160   02 Jun 2027 16:48:36.772   02 Jun 2027 16:48:58.832            22.060                Anadyr1           689.375
       161   02 Jun 2027 16:49:27.160   02 Jun 2027 16:49:44.582            17.422                Anadyr1           544.437
       162   02 Jun 2027 16:50:24.104   02 Jun 2027 16:50:54.305            30.201                Anadyr2           943.781
       163   02 Jun 2027 17:37:08.787   02 Jun 2027 17:39:29.149           140.362               CapeTown          4386.312
       164   02 Jun 2027 18:06:52.774   02 Jun 2027 18:10:25.867           213.093              Murmansk1          6659.156
       165   02 Jun 2027 18:12:12.748   02 Jun 2027 18:13:11.085            58.337              Murmansk1          1823.031
       166   02 Jun 2027 18:21:37.049   02 Jun 2027 18:21:46.981             9.932               Magadan2           310.375
       167   02 Jun 2027 18:21:46.981   02 Jun 2027 18:22:53.760            66.779               Magadan1          2086.844
       168   02 Jun 2027 18:24:35.396   02 Jun 2027 18:25:33.532            58.136               Magadan2          1816.750
       169   02 Jun 2027 18:29:42.231   02 Jun 2027 18:29:53.605            11.374                Anadyr1           355.437
       170   02 Jun 2027 19:15:29.574   02 Jun 2027 19:15:41.103            11.529               CapeTown           360.281
       171   02 Jun 2027 19:16:15.162   02 Jun 2027 19:17:05.768            50.606               CapeTown          1581.438
       172   02 Jun 2027 19:20:17.256   02 Jun 2027 19:21:09.815            52.559               CapeTown          1642.469
       173   02 Jun 2027 19:53:40.908   02 Jun 2027 19:57:25.573           224.665                Anadyr2          7020.781
       174   02 Jun 2027 19:57:50.208   02 Jun 2027 19:58:14.775            24.567               Magadan2           767.719
       175   02 Jun 2027 19:58:14.775   02 Jun 2027 19:58:31.737            16.962               Magadan1           530.063
       176   02 Jun 2027 19:58:39.401   02 Jun 2027 19:58:46.686             7.285               Magadan2           227.656
       177   02 Jun 2027 19:58:50.314   02 Jun 2027 19:59:11.673            21.359               Magadan2           667.469
       178   02 Jun 2027 20:01:32.416   02 Jun 2027 20:02:04.531            32.115               Magadan2          1003.594
       179   02 Jun 2027 20:03:00.413   02 Jun 2027 20:03:27.204            26.791               Magadan1           837.219
       180   02 Jun 2027 20:04:32.957   02 Jun 2027 20:05:25.672            52.715               Magadan1          1647.344
       181   02 Jun 2027 20:07:24.089   02 Jun 2027 20:07:53.159            29.070               Magadan1           908.438
       182   02 Jun 2027 21:29:34.193   02 Jun 2027 21:31:41.938           127.745                Anadyr1          3992.031
       183   02 Jun 2027 21:31:52.957   02 Jun 2027 21:36:41.986           289.029               Magadan2          9032.156
       184   02 Jun 2027 21:37:11.131   02 Jun 2027 21:37:43.143            32.012               Magadan1          1000.375
       185   02 Jun 2027 21:38:26.288   02 Jun 2027 21:38:40.784            14.496                Irkutsk           453.000
       186   02 Jun 2027 21:39:00.603   02 Jun 2027 21:39:12.755            12.152                Irkutsk           379.750
       187   02 Jun 2027 21:40:17.599   02 Jun 2027 21:40:17.852             0.253                Irkutsk             7.906
       188   02 Jun 2027 21:40:27.911   02 Jun 2027 21:41:03.184            35.273               Magadan1          1102.281
       189   02 Jun 2027 21:41:55.581   02 Jun 2027 21:42:15.733            20.152               Magadan2           629.750
       190   02 Jun 2027 21:43:23.017   02 Jun 2027 21:44:10.127            47.110               Magadan1          1472.188
       191   02 Jun 2027 22:23:45.798   02 Jun 2027 22:24:25.771            39.973            RioGallegos          1249.156
       192   02 Jun 2027 22:27:15.497   02 Jun 2027 22:27:33.441            17.944            RioGallegos           560.750
       193   02 Jun 2027 22:28:48.884   02 Jun 2027 22:28:57.423             8.539            RioGallegos           266.844
       194   02 Jun 2027 22:29:12.195   02 Jun 2027 22:29:52.657            40.462            RioGallegos          1264.438
       195   02 Jun 2027 22:31:59.488   02 Jun 2027 22:32:59.962            60.474            RioGallegos          1889.812
       196   02 Jun 2027 23:05:03.843   02 Jun 2027 23:06:10.741            66.898                Anadyr1          2090.563
       197   02 Jun 2027 23:06:55.846   02 Jun 2027 23:07:27.009            31.163                Anadyr2           973.844
       198   02 Jun 2027 23:07:33.100   02 Jun 2027 23:09:09.048            95.948                Norilsk          2998.375
       199   02 Jun 2027 23:09:23.168   02 Jun 2027 23:09:31.830             8.662               Magadan2           270.687
       200   02 Jun 2027 23:10:36.937   02 Jun 2027 23:11:09.411            32.474                Norilsk          1014.812
       201   02 Jun 2027 23:11:12.842   02 Jun 2027 23:11:16.296             3.454               Magadan1           107.938
       202   02 Jun 2027 23:11:26.023   02 Jun 2027 23:11:37.761            11.738               Magadan1           366.813
       203   02 Jun 2027 23:11:50.034   02 Jun 2027 23:12:14.223            24.189               Magadan1           755.906
       204   02 Jun 2027 23:12:40.214   02 Jun 2027 23:12:55.203            14.989                Novosib           468.406
       205   02 Jun 2027 23:13:51.714   02 Jun 2027 23:14:24.674            32.960                Novosib          1030.000
       206   02 Jun 2027 23:15:08.191   02 Jun 2027 23:15:15.298             7.107                Novosib           222.094
       207   02 Jun 2027 23:15:31.202   02 Jun 2027 23:15:47.304            16.102                Novosib           503.187
       208   02 Jun 2027 23:16:08.627   02 Jun 2027 23:18:22.863           134.236                Novosib          4194.875
       209   02 Jun 2027 23:33:24.351   02 Jun 2027 23:33:53.104            28.753                Sumatra           898.531
       210   02 Jun 2027 23:33:55.019   02 Jun 2027 23:34:42.527            47.508                Sumatra          1484.625
       211   02 Jun 2027 23:37:31.249   02 Jun 2027 23:37:52.089            20.840                Sumatra           651.250
       212   03 Jun 2027 00:08:27.306   03 Jun 2027 00:09:41.628            74.322            RioGallegos          2322.563
       213   03 Jun 2027 00:39:33.365   03 Jun 2027 00:40:31.940            58.575                Anadyr2          1830.469
       214   03 Jun 2027 00:41:48.654   03 Jun 2027 00:41:51.282             2.628                Anadyr2            82.125
       215   03 Jun 2027 00:42:03.194   03 Jun 2027 00:42:31.083            27.889                Anadyr2           871.531
       216   03 Jun 2027 00:43:23.859   03 Jun 2027 00:45:08.440           104.581                Norilsk          3268.156
       217   03 Jun 2027 00:46:35.062   03 Jun 2027 00:47:05.341            30.279               Magadan1           946.219
       218   03 Jun 2027 00:47:05.341   03 Jun 2027 00:47:22.104            16.763               Magadan2           523.844
       219   03 Jun 2027 00:47:46.004   03 Jun 2027 00:48:37.083            51.079                Irkutsk          1596.219
       220   03 Jun 2027 00:50:11.274   03 Jun 2027 00:51:24.056            72.782                Irkutsk          2274.437
       221   03 Jun 2027 00:55:01.424   03 Jun 2027 00:55:28.702            27.278                Novosib           852.438
       222   03 Jun 2027 00:56:29.743   03 Jun 2027 00:57:16.642            46.899                  Delhi          1465.594
       223   03 Jun 2027 01:01:07.283   03 Jun 2027 01:01:29.298            22.015                  Delhi           687.969
       224   03 Jun 2027 01:02:07.173   03 Jun 2027 01:02:40.852            33.679                  Delhi          1052.469
       225   03 Jun 2027 01:05:05.790   03 Jun 2027 01:05:30.874            25.084                  Delhi           783.875
       226   03 Jun 2027 01:06:56.831   03 Jun 2027 01:07:09.981            13.150                  Delhi           410.938
       227   03 Jun 2027 01:39:56.914   03 Jun 2027 01:41:35.067            98.153            RioGallegos          3067.281
       228   03 Jun 2027 01:44:02.034   03 Jun 2027 01:44:55.582            53.548            RioGallegos          1673.375
       229   03 Jun 2027 02:15:47.854   03 Jun 2027 02:15:54.932             7.078                Anadyr2           221.187
       230   03 Jun 2027 02:17:25.119   03 Jun 2027 02:17:35.041             9.922                Anadyr1           310.062
       231   03 Jun 2027 02:17:44.218   03 Jun 2027 02:18:23.974            39.756                Anadyr2          1242.375
       232   03 Jun 2027 02:19:10.156   03 Jun 2027 02:19:13.078             2.922               Magadan2            91.312
       233   03 Jun 2027 02:19:17.320   03 Jun 2027 02:19:53.418            36.098               Magadan1          1128.062
       234   03 Jun 2027 02:20:13.507   03 Jun 2027 02:20:39.002            25.495                Norilsk           796.719
       235   03 Jun 2027 02:21:38.724   03 Jun 2027 02:22:19.973            41.249              Murmansk1          1289.031
       236   03 Jun 2027 02:23:07.704   03 Jun 2027 02:23:16.130             8.426              Murmansk1           263.312
       237   03 Jun 2027 02:24:01.043   03 Jun 2027 02:24:08.877             7.834                Novosib           244.812
       238   03 Jun 2027 02:24:33.287   03 Jun 2027 02:24:37.812             4.525                Novosib           141.406
       239   03 Jun 2027 02:24:56.107   03 Jun 2027 02:25:38.125            42.018                Irkutsk          1313.063
       240   03 Jun 2027 02:28:26.194   03 Jun 2027 02:28:32.068             5.874                Novosib           183.563
       241   03 Jun 2027 02:29:12.230   03 Jun 2027 02:29:25.335            13.105                Novosib           409.531
       242   03 Jun 2027 02:29:47.136   03 Jun 2027 02:30:22.465            35.329                 Moscow          1104.031
       243   03 Jun 2027 02:32:50.162   03 Jun 2027 02:33:32.732            42.570                 Moscow          1330.313
       244   03 Jun 2027 02:36:39.653   03 Jun 2027 02:37:20.177            40.524                  Delhi          1266.375
       245   03 Jun 2027 02:38:56.313   03 Jun 2027 02:40:51.578           115.265                  Delhi          3602.031
       246   03 Jun 2027 04:04:10.109   03 Jun 2027 04:04:59.651            49.542                Norilsk          1548.187
       247   03 Jun 2027 04:05:38.092   03 Jun 2027 04:07:08.788            90.696                Novosib          2834.250
       248   03 Jun 2027 04:07:19.743   03 Jun 2027 04:07:37.864            18.121              Murmansk1           566.281
       249   03 Jun 2027 04:07:37.864   03 Jun 2027 04:09:54.923           137.059              Murmansk2          4283.094
       250   03 Jun 2027 04:09:55.898   03 Jun 2027 04:10:19.772            23.874                 Moscow           746.063
       251   03 Jun 2027 04:10:28.454   03 Jun 2027 04:10:58.307            29.853                 Moscow           932.906
       252   03 Jun 2027 04:33:25.157   03 Jun 2027 04:33:35.614            10.457               CapeTown           326.781
       253   03 Jun 2027 04:34:07.357   03 Jun 2027 04:35:09.191            61.834               CapeTown          1932.313
       254   03 Jun 2027 04:37:04.499   03 Jun 2027 04:37:25.073            20.574               CapeTown           642.938
       255   03 Jun 2027 05:28:12.868   03 Jun 2027 05:29:36.802            83.934               Magadan1          2622.938
       256   03 Jun 2027 05:40:06.933   03 Jun 2027 05:40:28.655            21.722              Murmansk1           678.812
       257   03 Jun 2027 05:41:19.281   03 Jun 2027 05:41:53.139            33.858              Murmansk1          1058.062
       258   03 Jun 2027 05:42:20.795   03 Jun 2027 05:42:40.588            19.793              Murmansk1           618.531
       259   03 Jun 2027 05:44:00.909   03 Jun 2027 05:44:31.416            30.507              Murmansk2           953.344
       260   03 Jun 2027 05:44:49.450   03 Jun 2027 05:45:08.594            19.144              Murmansk2           598.250
       261   03 Jun 2027 05:45:42.680   03 Jun 2027 05:46:22.750            40.070              Murmansk2          1252.187
       262   03 Jun 2027 07:04:03.998   03 Jun 2027 07:06:07.733           123.735               Magadan1          3866.719
       263   03 Jun 2027 07:06:27.683   03 Jun 2027 07:09:15.220           167.537                Anadyr2          5235.531
       264   03 Jun 2027 07:09:15.220   03 Jun 2027 07:10:09.446            54.226                Anadyr1          1694.563
       265   03 Jun 2027 08:38:00.350   03 Jun 2027 08:38:58.450            58.100                Anadyr1          1815.625
       266   03 Jun 2027 08:38:58.450   03 Jun 2027 08:41:59.095           180.645                Anadyr2          5645.156
       267   03 Jun 2027 08:41:59.095   03 Jun 2027 08:42:46.284            47.189                Anadyr1          1474.656
       268   03 Jun 2027 08:42:48.883   03 Jun 2027 08:43:24.762            35.879                Anadyr1          1121.219
       269   03 Jun 2027 08:44:07.859   03 Jun 2027 08:44:41.787            33.928               Magadan2          1060.250
       270   03 Jun 2027 08:45:18.554   03 Jun 2027 08:48:38.812           200.258                Norilsk          6258.062
       271   03 Jun 2027 08:48:45.603   03 Jun 2027 08:49:21.626            36.023              Murmansk1          1125.719
       272   03 Jun 2027 08:49:21.626   03 Jun 2027 08:49:45.939            24.313              Murmansk2           759.781
       273   03 Jun 2027 08:50:13.867   03 Jun 2027 08:50:52.317            38.450              Murmansk1          1201.563
       274   03 Jun 2027 09:21:02.266   03 Jun 2027 09:21:28.957            26.691            RioGallegos           834.094
       275   03 Jun 2027 09:23:23.504   03 Jun 2027 09:24:15.870            52.366            RioGallegos          1636.437
       276   03 Jun 2027 10:00:11.891   03 Jun 2027 10:00:24.396            12.505                Sumatra           390.781
       277   03 Jun 2027 10:14:37.178   03 Jun 2027 10:15:08.683            31.505                Irkutsk           984.531
       278   03 Jun 2027 10:15:46.300   03 Jun 2027 10:17:16.771            90.471                Irkutsk          2827.219
       279   03 Jun 2027 10:17:20.116   03 Jun 2027 10:18:19.180            59.064                Novosib          1845.750
       280   03 Jun 2027 10:18:27.897   03 Jun 2027 10:18:41.101            13.204                Norilsk           412.625
       281   03 Jun 2027 10:18:45.337   03 Jun 2027 10:19:10.602            25.265                Norilsk           789.531
       282   03 Jun 2027 10:19:18.080   03 Jun 2027 10:19:47.104            29.024                Novosib           907.000
       283   03 Jun 2027 10:19:50.010   03 Jun 2027 10:20:18.441            28.431               Magadan1           888.469
       284   03 Jun 2027 10:20:18.738   03 Jun 2027 10:20:46.100            27.362                Irkutsk           855.063
       285   03 Jun 2027 10:20:53.364   03 Jun 2027 10:22:28.495            95.131                Norilsk          2972.844
       286   03 Jun 2027 10:56:25.572   03 Jun 2027 10:56:27.030             1.458            RioGallegos            45.563
       287   03 Jun 2027 10:56:58.560   03 Jun 2027 10:57:42.401            43.841            RioGallegos          1370.031
       288   03 Jun 2027 10:58:20.532   03 Jun 2027 10:59:08.810            48.278            RioGallegos          1508.688
       289   03 Jun 2027 11:31:07.919   03 Jun 2027 11:31:51.486            43.567                Sumatra          1361.469
       290   03 Jun 2027 11:43:55.840   03 Jun 2027 11:44:18.354            22.514                  Delhi           703.562
       291   03 Jun 2027 11:51:55.051   03 Jun 2027 11:53:43.463           108.412                Irkutsk          3387.875
       292   03 Jun 2027 11:53:49.264   03 Jun 2027 11:54:31.921            42.657              Murmansk2          1333.031
       293   03 Jun 2027 11:54:40.916   03 Jun 2027 11:55:18.727            37.811                Novosib          1181.594
       294   03 Jun 2027 11:55:26.670   03 Jun 2027 11:56:41.958            75.288                Norilsk          2352.750
       295   03 Jun 2027 11:56:46.728   03 Jun 2027 11:56:56.998            10.270                Norilsk           320.937
       296   03 Jun 2027 11:56:57.179   03 Jun 2027 11:57:09.377            12.198                Novosib           381.188
       297   03 Jun 2027 11:57:10.990   03 Jun 2027 11:58:30.002            79.012              Murmansk2          2469.125
       298   03 Jun 2027 12:02:05.791   03 Jun 2027 12:02:20.205            14.414                Norilsk           450.437
       299   03 Jun 2027 12:02:51.947   03 Jun 2027 12:03:01.545             9.598              Murmansk1           299.938
       300   03 Jun 2027 12:03:16.745   03 Jun 2027 12:03:42.050            25.305              Murmansk1           790.781
       301   03 Jun 2027 12:03:59.921   03 Jun 2027 12:04:06.977             7.056              Murmansk2           220.500
       302   03 Jun 2027 12:36:25.030   03 Jun 2027 12:39:24.592           179.562            RioGallegos          5611.313
       303   03 Jun 2027 13:23:11.867   03 Jun 2027 13:23:43.412            31.545                Novosib           985.781
       304   03 Jun 2027 13:24:21.507   03 Jun 2027 13:25:10.401            48.894                Novosib          1527.938
       305   03 Jun 2027 13:26:12.586   03 Jun 2027 13:27:59.888           107.302                Novosib          3353.187
       306   03 Jun 2027 13:28:14.730   03 Jun 2027 13:28:56.592            41.862                Norilsk          1308.188
       307   03 Jun 2027 13:30:59.855   03 Jun 2027 13:31:51.607            51.752                Norilsk          1617.250
       308   03 Jun 2027 13:35:05.754   03 Jun 2027 13:36:07.956            62.202              Murmansk2          1943.812
       309   03 Jun 2027 13:40:03.264   03 Jun 2027 13:40:13.647            10.383              Murmansk1           324.469
       310   03 Jun 2027 14:59:44.457   03 Jun 2027 15:01:05.646            81.189                 Moscow          2537.156
       311   03 Jun 2027 15:02:05.161   03 Jun 2027 15:03:31.331            86.170                 Moscow          2692.813
       312   03 Jun 2027 15:04:27.154   03 Jun 2027 15:06:24.362           117.208              Murmansk1          3662.750
       313   03 Jun 2027 15:06:42.672   03 Jun 2027 15:06:46.174             3.502                 Moscow           109.438
       314   03 Jun 2027 15:07:02.635   03 Jun 2027 15:07:44.618            41.983              Murmansk2          1311.969
       315   03 Jun 2027 15:08:09.230   03 Jun 2027 15:08:35.338            26.108                Norilsk           815.875
       316   03 Jun 2027 15:10:38.496   03 Jun 2027 15:12:40.172           121.676                Norilsk          3802.375
       317   03 Jun 2027 16:14:23.123   03 Jun 2027 16:14:55.854            32.731               CapeTown          1022.844
       318   03 Jun 2027 16:17:23.308   03 Jun 2027 16:18:06.802            43.494               CapeTown          1359.188
       319   03 Jun 2027 16:18:53.349   03 Jun 2027 16:19:18.169            24.820               CapeTown           775.625
       320   03 Jun 2027 16:21:06.442   03 Jun 2027 16:21:43.678            37.236               CapeTown          1163.625
       321   03 Jun 2027 16:37:02.282   03 Jun 2027 16:37:20.513            18.231                 Moscow           569.719
       322   03 Jun 2027 16:39:41.627   03 Jun 2027 16:40:59.875            78.248                 Moscow          2445.250
       323   03 Jun 2027 16:44:06.539   03 Jun 2027 16:44:19.308            12.769              Murmansk2           399.031
       324   03 Jun 2027 16:46:50.082   03 Jun 2027 16:46:59.537             9.455                 Moscow           295.469
       325   03 Jun 2027 16:47:48.054   03 Jun 2027 16:48:20.905            32.851              Murmansk1          1026.594
       326   03 Jun 2027 16:48:47.488   03 Jun 2027 16:49:20.946            33.458              Murmansk1          1045.563
       327   03 Jun 2027 16:54:14.815   03 Jun 2027 16:55:23.408            68.593                Anadyr1          2143.531
       328   03 Jun 2027 16:56:21.206   03 Jun 2027 16:56:53.728            32.522                Anadyr1          1016.313
       329   03 Jun 2027 16:57:20.286   03 Jun 2027 16:57:40.983            20.697                Anadyr1           646.781
       330   03 Jun 2027 17:02:55.736   03 Jun 2027 17:03:00.227             4.491                Anadyr1           140.344
       331   03 Jun 2027 17:03:07.024   03 Jun 2027 17:03:17.344            10.320                Anadyr1           322.500
       332   03 Jun 2027 17:49:13.326   03 Jun 2027 17:49:44.112            30.786               CapeTown           962.063
       333   03 Jun 2027 17:52:42.740   03 Jun 2027 17:53:16.088            33.348               CapeTown          1042.125
       334   03 Jun 2027 17:57:41.311   03 Jun 2027 17:58:04.092            22.781               CapeTown           711.906
       335   03 Jun 2027 17:59:38.970   03 Jun 2027 17:59:53.185            14.215               CapeTown           444.219
       336   03 Jun 2027 18:01:04.205   03 Jun 2027 18:01:42.755            38.550               CapeTown          1204.687
       337   03 Jun 2027 18:19:29.201   03 Jun 2027 18:21:47.796           138.595              Murmansk2          4331.094
       338   03 Jun 2027 18:22:27.878   03 Jun 2027 18:23:41.396            73.518              Murmansk2          2297.437
       339   03 Jun 2027 18:33:14.112   03 Jun 2027 18:34:21.991            67.879               Magadan2          2121.219
       340   03 Jun 2027 18:35:03.648   03 Jun 2027 18:35:57.608            53.960               Magadan2          1686.250
       341   03 Jun 2027 18:39:12.536   03 Jun 2027 18:39:46.646            34.110               Magadan1          1065.937
       342   03 Jun 2027 20:05:42.592   03 Jun 2027 20:09:39.325           236.733                Anadyr1          7397.906
       343   03 Jun 2027 20:09:43.275   03 Jun 2027 20:12:09.031           145.756               Magadan2          4554.875
       344   03 Jun 2027 20:16:05.943   03 Jun 2027 20:16:14.824             8.881               Magadan1           277.531
       345   03 Jun 2027 20:16:14.824   03 Jun 2027 20:16:18.123             3.299               Magadan2           103.094
       346   03 Jun 2027 20:16:24.249   03 Jun 2027 20:16:36.090            11.841               Magadan2           370.031
       347   03 Jun 2027 20:18:10.695   03 Jun 2027 20:18:47.470            36.775               Magadan2          1149.219
       348   03 Jun 2027 21:41:34.356   03 Jun 2027 21:43:43.294           128.938                Anadyr1          4029.313
       349   03 Jun 2027 21:43:46.808   03 Jun 2027 21:48:28.560           281.752                Norilsk          8804.750
       350   03 Jun 2027 21:49:09.555   03 Jun 2027 21:49:18.782             9.227                Irkutsk           288.344
       351   03 Jun 2027 21:50:09.330   03 Jun 2027 21:51:15.065            65.735                Irkutsk          2054.219
       352   03 Jun 2027 21:54:54.808   03 Jun 2027 21:55:18.390            23.582                Irkutsk           736.937
       353   03 Jun 2027 22:05:08.024   03 Jun 2027 22:06:28.930            80.906                Sumatra          2528.313
       354   03 Jun 2027 22:09:09.384   03 Jun 2027 22:09:50.175            40.791                Sumatra          1274.719
       355   03 Jun 2027 22:43:53.988   03 Jun 2027 22:44:13.867            19.879            RioGallegos           621.219
       356   03 Jun 2027 23:16:58.684   03 Jun 2027 23:18:57.082           118.398                Anadyr2          3699.937
       357   03 Jun 2027 23:18:57.082   03 Jun 2027 23:19:25.206            28.124                Anadyr1           878.875
       358   03 Jun 2027 23:19:26.010   03 Jun 2027 23:19:49.770            23.760                Norilsk           742.500
       359   03 Jun 2027 23:20:13.797   03 Jun 2027 23:20:45.641            31.844                Norilsk           995.125
       360   03 Jun 2027 23:21:02.817   03 Jun 2027 23:22:18.593            75.776               Magadan1          2368.000
       361   03 Jun 2027 23:23:28.364   03 Jun 2027 23:23:38.796            10.432               Magadan1           326.000
       362   03 Jun 2027 23:24:20.764   03 Jun 2027 23:25:39.873            79.109                Novosib          2472.156
       363   03 Jun 2027 23:30:34.227   03 Jun 2027 23:30:46.524            12.297                Novosib           384.281
       364   03 Jun 2027 23:33:09.339   03 Jun 2027 23:33:19.036             9.697                Novosib           303.031
       365   03 Jun 2027 23:37:08.667   03 Jun 2027 23:37:25.699            17.032                Sumatra           532.250
       366   03 Jun 2027 23:38:44.711   03 Jun 2027 23:39:22.154            37.443                Sumatra          1170.094
       367   03 Jun 2027 23:40:17.659   03 Jun 2027 23:41:38.809            81.150                Sumatra          2535.937
       368   04 Jun 2027 00:15:15.325   04 Jun 2027 00:15:36.480            21.155            RioGallegos           661.094
       369   04 Jun 2027 00:17:57.186   04 Jun 2027 00:18:20.646            23.460            RioGallegos           733.125
       370   04 Jun 2027 00:22:47.144   04 Jun 2027 00:22:51.146             4.002            RioGallegos           125.063
       371   04 Jun 2027 00:23:17.604   04 Jun 2027 00:23:52.999            35.395            RioGallegos          1106.094
       372   04 Jun 2027 00:51:18.433   04 Jun 2027 00:51:57.513            39.080                Anadyr1          1221.250
       373   04 Jun 2027 00:52:28.231   04 Jun 2027 00:52:50.877            22.646                Anadyr1           707.687
       374   04 Jun 2027 00:53:27.087   04 Jun 2027 00:54:19.959            52.872                Anadyr1          1652.250
       375   04 Jun 2027 00:55:26.084   04 Jun 2027 00:57:28.333           122.249                Norilsk          3820.281
       376   04 Jun 2027 00:58:48.870   04 Jun 2027 01:00:12.397            83.527              Murmansk1          2610.219
       377   04 Jun 2027 01:01:08.259   04 Jun 2027 01:01:20.568            12.309                Irkutsk           384.656
       378   04 Jun 2027 01:03:04.674   04 Jun 2027 01:03:27.719            23.045                Novosib           720.156
       379   04 Jun 2027 01:03:57.040   04 Jun 2027 01:06:07.483           130.443                Novosib          4076.344
       380   04 Jun 2027 01:48:11.172   04 Jun 2027 01:49:29.159            77.987            RioGallegos          2437.094
       381   04 Jun 2027 01:54:22.732   04 Jun 2027 01:54:59.694            36.962            RioGallegos          1155.062
       382   04 Jun 2027 02:24:44.507   04 Jun 2027 02:25:02.410            17.903                Anadyr2           559.469
       383   04 Jun 2027 02:25:10.920   04 Jun 2027 02:25:26.577            15.657                Anadyr2           489.281
       384   04 Jun 2027 02:26:54.390   04 Jun 2027 02:27:04.775            10.385                Anadyr2           324.531
       385   04 Jun 2027 02:27:22.276   04 Jun 2027 02:27:37.247            14.971                Anadyr2           467.844
       386   04 Jun 2027 02:30:50.804   04 Jun 2027 02:31:19.659            28.855               Magadan1           901.719
       387   04 Jun 2027 02:31:19.659   04 Jun 2027 02:31:29.033             9.374               Magadan2           292.937
       388   04 Jun 2027 02:32:19.875   04 Jun 2027 02:32:27.950             8.075               Magadan2           252.344
       389   04 Jun 2027 02:32:30.745   04 Jun 2027 02:32:50.516            19.771                Norilsk           617.844
       390   04 Jun 2027 02:33:38.354   04 Jun 2027 02:35:06.728            88.374              Murmansk2          2761.688
       391   04 Jun 2027 02:35:06.728   04 Jun 2027 02:35:17.735            11.007              Murmansk1           343.969
       392   04 Jun 2027 02:35:53.424   04 Jun 2027 02:36:08.304            14.880              Murmansk2           465.000
       393   04 Jun 2027 02:36:16.412   04 Jun 2027 02:36:44.166            27.754                Novosib           867.312
       394   04 Jun 2027 02:38:03.471   04 Jun 2027 02:38:28.620            25.149                Irkutsk           785.906
       395   04 Jun 2027 02:41:49.164   04 Jun 2027 02:41:54.559             5.395                Irkutsk           168.594
       396   04 Jun 2027 02:42:05.921   04 Jun 2027 02:43:14.759            68.838                Irkutsk          2151.187
       397   04 Jun 2027 03:06:32.323   04 Jun 2027 03:07:18.329            46.006               CapeTown          1437.687
       398   04 Jun 2027 04:16:27.637   04 Jun 2027 04:18:24.114           116.477              Murmansk1          3639.906
       399   04 Jun 2027 04:18:27.821   04 Jun 2027 04:18:59.360            31.539              Murmansk2           985.594
       400   04 Jun 2027 04:19:07.993   04 Jun 2027 04:21:14.319           126.326              Murmansk1          3947.688
       401   04 Jun 2027 04:21:14.319   04 Jun 2027 04:22:05.568            51.249              Murmansk2          1601.531
       402   04 Jun 2027 04:23:24.123   04 Jun 2027 04:23:49.165            25.042                 Moscow           782.562
       403   04 Jun 2027 05:41:04.943   04 Jun 2027 05:41:17.581            12.638               Magadan2           394.937
       404   04 Jun 2027 05:41:18.200   04 Jun 2027 05:42:09.102            50.902                Anadyr2          1590.688
       405   04 Jun 2027 05:42:26.256   04 Jun 2027 05:43:19.702            53.446               Magadan1          1670.188
       406   04 Jun 2027 05:44:12.590   04 Jun 2027 05:44:35.673            23.083                Anadyr1           721.344
       407   04 Jun 2027 05:45:07.480   04 Jun 2027 05:45:51.961            44.481               Magadan1          1390.031
       408   04 Jun 2027 05:45:54.870   04 Jun 2027 05:46:19.240            24.370                Anadyr2           761.563
       409   04 Jun 2027 07:15:18.416   04 Jun 2027 07:16:13.484            55.068                Anadyr1          1720.875
       410   04 Jun 2027 07:16:40.796   04 Jun 2027 07:20:23.409           222.613                Anadyr2          6956.656
       411   04 Jun 2027 07:20:23.409   04 Jun 2027 07:20:32.220             8.811                Anadyr1           275.344
       412   04 Jun 2027 07:20:40.343   04 Jun 2027 07:21:09.632            29.289               Magadan1           915.281
       413   04 Jun 2027 07:21:20.849   04 Jun 2027 07:21:48.668            27.819               Magadan2           869.344
       414   04 Jun 2027 07:27:45.657   04 Jun 2027 07:28:29.753            44.096                 Moscow          1378.000
       415   04 Jun 2027 08:48:29.510   04 Jun 2027 08:49:24.636            55.126                Irkutsk          1722.687
       416   04 Jun 2027 08:49:44.155   04 Jun 2027 08:50:24.339            40.184                Irkutsk          1255.750
       417   04 Jun 2027 08:50:46.653   04 Jun 2027 08:51:16.699            30.046               Magadan1           938.937
       418   04 Jun 2027 08:51:42.359   04 Jun 2027 08:51:44.658             2.299               Magadan2            71.844
       419   04 Jun 2027 08:51:44.658   04 Jun 2027 08:52:17.615            32.957               Magadan1          1029.906
       420   04 Jun 2027 08:52:32.871   04 Jun 2027 08:53:52.334            79.463                Anadyr1          2483.219
       421   04 Jun 2027 08:54:03.729   04 Jun 2027 08:54:53.793            50.064               Magadan2          1564.500
       422   04 Jun 2027 08:55:08.804   04 Jun 2027 08:55:24.433            15.629               Magadan1           488.406
       423   04 Jun 2027 08:55:26.657   04 Jun 2027 08:55:42.856            16.199                Irkutsk           506.219
       424   04 Jun 2027 08:56:09.576   04 Jun 2027 08:56:50.226            40.650               Magadan1          1270.312
       425   04 Jun 2027 08:56:50.226   04 Jun 2027 08:57:41.199            50.973               Magadan2          1592.906
       426   04 Jun 2027 09:32:48.405   04 Jun 2027 09:33:22.793            34.388            RioGallegos          1074.625
       427   04 Jun 2027 10:10:24.635   04 Jun 2027 10:12:03.422            98.787                Sumatra          3087.094
       428   04 Jun 2027 10:26:42.771   04 Jun 2027 10:30:31.295           228.524               Magadan1          7141.375
       429   04 Jun 2027 10:30:58.082   04 Jun 2027 10:31:46.618            48.536               Magadan2          1516.750
       430   04 Jun 2027 10:31:55.642   04 Jun 2027 10:31:59.807             4.165              Murmansk2           130.156
       431   04 Jun 2027 10:32:03.625   04 Jun 2027 10:32:10.528             6.903              Murmansk2           215.719
       432   04 Jun 2027 10:32:22.752   04 Jun 2027 10:33:01.062            38.310              Murmansk2          1197.188
       433   04 Jun 2027 10:33:02.218   04 Jun 2027 10:33:06.787             4.569                Novosib           142.781
       434   04 Jun 2027 10:33:08.620   04 Jun 2027 10:33:38.507            29.887                Irkutsk           933.969
       435   04 Jun 2027 10:33:55.086   04 Jun 2027 10:34:12.162            17.076              Murmansk1           533.625
       436   04 Jun 2027 11:08:38.585   04 Jun 2027 11:09:37.294            58.709            RioGallegos          1834.656
       437   04 Jun 2027 11:09:46.803   04 Jun 2027 11:09:54.072             7.269            RioGallegos           227.156
       438   04 Jun 2027 11:43:10.827   04 Jun 2027 11:44:48.381            97.554                Sumatra          3048.563
       439   04 Jun 2027 12:06:57.953   04 Jun 2027 12:07:21.799            23.846                Novosib           745.188
       440   04 Jun 2027 12:08:41.218   04 Jun 2027 12:09:12.664            31.446              Murmansk1           982.688
       441   04 Jun 2027 12:11:31.219   04 Jun 2027 12:11:34.178             2.959                Norilsk            92.469
       442   04 Jun 2027 12:12:04.866   04 Jun 2027 12:12:07.092             2.226              Murmansk2            69.563
       443   04 Jun 2027 12:12:10.829   04 Jun 2027 12:12:15.093             4.264              Murmansk1           133.250
       444   04 Jun 2027 12:12:30.884   04 Jun 2027 12:12:37.401             6.517                Norilsk           203.656
       445   04 Jun 2027 12:12:50.083   04 Jun 2027 12:12:51.006             0.923              Murmansk2            28.844
       446   04 Jun 2027 12:13:04.579   04 Jun 2027 12:13:31.339            26.760              Murmansk1           836.250
       447   04 Jun 2027 12:16:07.903   04 Jun 2027 12:16:37.587            29.684              Murmansk1           927.625
       448   04 Jun 2027 12:49:51.503   04 Jun 2027 12:51:22.832            91.329            RioGallegos          2854.031
       449   04 Jun 2027 13:30:21.889   04 Jun 2027 13:30:52.657            30.768                  Delhi           961.500
       450   04 Jun 2027 13:33:31.955   04 Jun 2027 13:33:42.344            10.389                  Delhi           324.656
       451   04 Jun 2027 13:35:37.436   04 Jun 2027 13:37:05.196            87.760                Novosib          2742.500
       452   04 Jun 2027 13:37:30.888   04 Jun 2027 13:38:11.004            40.116                Novosib          1253.625
       453   04 Jun 2027 13:39:29.136   04 Jun 2027 13:40:25.454            56.318                Novosib          1759.937
       454   04 Jun 2027 13:40:53.440   04 Jun 2027 13:41:29.236            35.796                Novosib          1118.625
       455   04 Jun 2027 13:44:26.625   04 Jun 2027 13:44:41.884            15.259                Norilsk           476.844
       456   04 Jun 2027 13:46:17.524   04 Jun 2027 13:46:26.294             8.770                Novosib           274.062
       457   04 Jun 2027 13:47:17.187   04 Jun 2027 13:48:23.815            66.628                Norilsk          2082.125
       458   04 Jun 2027 15:11:45.088   04 Jun 2027 15:14:40.579           175.491                 Moscow          5484.094
       459   04 Jun 2027 15:15:04.004   04 Jun 2027 15:15:07.142             3.138                 Moscow            98.062
       460   04 Jun 2027 15:15:14.172   04 Jun 2027 15:16:29.058            74.886              Murmansk1          2340.187
       461   04 Jun 2027 15:19:50.412   04 Jun 2027 15:22:36.928           166.516                Norilsk          5203.625
       462   04 Jun 2027 15:24:00.760   04 Jun 2027 15:24:46.889            46.129                Norilsk          1441.531
       463   04 Jun 2027 16:30:46.353   04 Jun 2027 16:30:54.405             8.052               CapeTown           251.625
       464   04 Jun 2027 16:31:52.403   04 Jun 2027 16:31:59.185             6.782               CapeTown           211.938
       465   04 Jun 2027 16:33:29.641   04 Jun 2027 16:35:23.380           113.739               CapeTown          3554.344
       466   04 Jun 2027 16:52:47.043   04 Jun 2027 16:53:41.634            54.591              Murmansk2          1705.969
       467   04 Jun 2027 16:59:43.618   04 Jun 2027 17:00:22.819            39.201              Murmansk2          1225.031
       468   04 Jun 2027 17:06:10.295   04 Jun 2027 17:07:22.874            72.579                Anadyr1          2268.094
       469   04 Jun 2027 17:07:22.874   04 Jun 2027 17:08:22.249            59.375                Anadyr2          1855.469
       470   04 Jun 2027 17:14:46.607   04 Jun 2027 17:14:54.845             8.238                Anadyr2           257.438
       471   04 Jun 2027 17:15:12.970   04 Jun 2027 17:15:38.058            25.088                Anadyr1           784.000
       472   04 Jun 2027 18:02:09.362   04 Jun 2027 18:03:18.902            69.540               CapeTown          2173.125
       473   04 Jun 2027 18:12:24.895   04 Jun 2027 18:12:52.517            27.622               CapeTown           863.188
       474   04 Jun 2027 18:32:09.211   04 Jun 2027 18:33:33.291            84.080              Murmansk1          2627.500
       475   04 Jun 2027 18:33:39.889   04 Jun 2027 18:36:11.328           151.439              Murmansk2          4732.469
       476   04 Jun 2027 18:37:39.067   04 Jun 2027 18:37:41.944             2.877              Murmansk2            89.906
       477   04 Jun 2027 18:44:27.700   04 Jun 2027 18:44:48.191            20.491                Anadyr2           640.344
       478   04 Jun 2027 18:44:58.243   04 Jun 2027 18:45:50.183            51.940               Magadan1          1623.125
       479   04 Jun 2027 18:48:17.076   04 Jun 2027 18:48:45.104            28.028               Magadan1           875.875
       480   04 Jun 2027 18:50:59.940   04 Jun 2027 18:51:12.850            12.910               Magadan2           403.438
       481   04 Jun 2027 18:53:34.484   04 Jun 2027 18:53:40.007             5.523               Magadan1           172.594
       482   04 Jun 2027 20:17:44.220   04 Jun 2027 20:19:22.263            98.043                Anadyr2          3063.844
