uniorb/output/strategy_1/Drop/Drop_KinoSat_111909.txt

KinoSat_111909
-------------------------
    Access    *     Start Time (UTCG)     *     Stop Time (UTCG)  *   Duration (s)        *       Station  *  Data (Mbytes)
         1   01 Jun 2027 04:01:29.639   01 Jun 2027 04:03:33.883           124.244                Irkutsk          3882.625
         2   01 Jun 2027 04:03:36.504   01 Jun 2027 04:06:36.305           179.801                Irkutsk          5618.781
         3   01 Jun 2027 04:07:02.873   01 Jun 2027 04:07:19.259            16.386                Norilsk           512.062
         4   01 Jun 2027 04:07:27.578   01 Jun 2027 04:07:54.607            27.029                Novosib           844.656
         5   01 Jun 2027 05:40:04.540   01 Jun 2027 05:41:45.792           101.252                Norilsk          3164.125
         6   01 Jun 2027 05:41:56.550   01 Jun 2027 05:42:10.189            13.639              Murmansk2           426.219
         7   01 Jun 2027 05:42:31.989   01 Jun 2027 05:48:33.662           361.673                 Moscow         11302.281
         8   01 Jun 2027 06:04:20.993   01 Jun 2027 06:06:10.251           109.258               CapeTown          3414.312
         9   01 Jun 2027 06:12:09.159   01 Jun 2027 06:12:28.045            18.886               CapeTown           590.188
        10   01 Jun 2027 07:04:19.687   01 Jun 2027 07:05:18.145            58.458                Anadyr2          1826.812
        11   01 Jun 2027 07:15:17.028   01 Jun 2027 07:17:31.857           134.829              Murmansk2          4213.406
        12   01 Jun 2027 07:17:31.857   01 Jun 2027 07:19:03.454            91.597              Murmansk1          2862.406
        13   01 Jun 2027 07:20:32.732   01 Jun 2027 07:20:39.857             7.125                 Moscow           222.656
        14   01 Jun 2027 07:21:06.025   01 Jun 2027 07:21:39.107            33.082                 Moscow          1033.812
        15   01 Jun 2027 07:37:02.133   01 Jun 2027 07:41:53.259           291.126               CapeTown          9097.688
        16   01 Jun 2027 08:39:15.559   01 Jun 2027 08:39:47.646            32.087               Magadan2          1002.719
        17   01 Jun 2027 08:40:31.795   01 Jun 2027 08:43:03.833           152.038                Norilsk          4751.187
        18   01 Jun 2027 08:43:08.215   01 Jun 2027 08:45:15.477           127.262                Anadyr2          3976.938
        19   01 Jun 2027 10:12:29.390   01 Jun 2027 10:13:03.402            34.012               Magadan1          1062.875
        20   01 Jun 2027 10:13:51.714   01 Jun 2027 10:14:59.693            67.979               Magadan1          2124.344
        21   01 Jun 2027 10:14:59.693   01 Jun 2027 10:15:06.322             6.629               Magadan2           207.156
        22   01 Jun 2027 10:15:13.178   01 Jun 2027 10:15:21.904             8.726                Irkutsk           272.687
        23   01 Jun 2027 10:15:36.553   01 Jun 2027 10:17:37.753           121.200               Magadan1          3787.500
        24   01 Jun 2027 10:17:53.055   01 Jun 2027 10:20:31.862           158.807                Anadyr2          4962.719
        25   01 Jun 2027 10:57:12.884   01 Jun 2027 10:58:11.664            58.780            RioGallegos          1836.875
        26   01 Jun 2027 11:48:14.073   01 Jun 2027 11:55:23.936           429.863               Magadan1         13433.219
        27   01 Jun 2027 11:55:30.886   01 Jun 2027 11:55:35.712             4.826               Magadan2           150.812
        28   01 Jun 2027 14:11:00.763   01 Jun 2027 14:18:21.117           440.354            RioGallegos         13761.063
        29   01 Jun 2027 14:46:22.533   01 Jun 2027 14:49:45.586           203.053                Sumatra          6345.406
        30   01 Jun 2027 15:02:16.755   01 Jun 2027 15:05:00.369           163.614                Irkutsk          5112.937
        31   01 Jun 2027 16:41:50.822   01 Jun 2027 16:43:25.518            94.696                Norilsk          2959.250
        32   01 Jun 2027 16:45:35.361   01 Jun 2027 16:45:50.881            15.520                Norilsk           485.000
        33   01 Jun 2027 16:46:32.906   01 Jun 2027 16:47:34.004            61.098                Norilsk          1909.313
        34   01 Jun 2027 16:50:17.616   01 Jun 2027 16:50:29.866            12.250              Murmansk1           382.813
        35   01 Jun 2027 16:50:57.949   01 Jun 2027 16:51:12.011            14.062              Murmansk2           439.438
        36   01 Jun 2027 17:49:39.538   01 Jun 2027 17:50:08.962            29.424               CapeTown           919.500
        37   01 Jun 2027 17:50:42.077   01 Jun 2027 17:52:38.398           116.321               CapeTown          3635.031
        38   01 Jun 2027 17:56:03.561   01 Jun 2027 17:56:34.758            31.197               CapeTown           974.906
        39   01 Jun 2027 17:57:44.109   01 Jun 2027 17:58:53.830            69.721               CapeTown          2178.781
        40   01 Jun 2027 18:13:41.809   01 Jun 2027 18:17:00.630           198.821                 Moscow          6213.156
        41   01 Jun 2027 18:21:51.639   01 Jun 2027 18:22:28.495            36.856                 Moscow          1151.750
        42   01 Jun 2027 18:25:13.501   01 Jun 2027 18:26:23.482            69.981              Murmansk1          2186.906
        43   01 Jun 2027 18:37:16.268   01 Jun 2027 18:37:33.098            16.830                Anadyr2           525.938
        44   01 Jun 2027 18:38:05.396   01 Jun 2027 18:38:14.636             9.240                Anadyr2           288.750
        45   01 Jun 2027 19:27:46.586   01 Jun 2027 19:28:25.084            38.498               CapeTown          1203.063
        46   01 Jun 2027 19:29:55.359   01 Jun 2027 19:31:42.804           107.445               CapeTown          3357.656
        47   01 Jun 2027 19:33:55.719   01 Jun 2027 19:35:22.440            86.721               CapeTown          2710.031
        48   01 Jun 2027 19:54:17.289   01 Jun 2027 19:56:38.670           141.381              Murmansk1          4418.156
        49   01 Jun 2027 19:57:03.611   01 Jun 2027 20:02:57.108           353.497              Murmansk1         11046.781
        50   01 Jun 2027 21:03:19.528   01 Jun 2027 21:07:21.656           242.128               CapeTown          7566.500
        51   01 Jun 2027 21:49:48.079   01 Jun 2027 21:49:56.350             8.271                Anadyr1           258.469
        52   01 Jun 2027 21:50:28.606   01 Jun 2027 21:50:46.017            17.411               Magadan2           544.094
        53   01 Jun 2027 21:51:24.932   01 Jun 2027 21:51:46.323            21.391               Magadan1           668.469
        54   01 Jun 2027 21:53:03.363   01 Jun 2027 21:53:42.742            39.379               Magadan2          1230.594
        55   01 Jun 2027 21:54:43.473   01 Jun 2027 21:54:55.645            12.172               Magadan2           380.375
        56   01 Jun 2027 21:55:09.336   01 Jun 2027 21:55:26.762            17.426               Magadan1           544.562
        57   01 Jun 2027 23:16:40.488   01 Jun 2027 23:20:46.447           245.959                Anadyr2          7686.219
        58   01 Jun 2027 23:20:46.451   01 Jun 2027 23:22:06.115            79.664                Norilsk          2489.500
        59   01 Jun 2027 23:22:12.621   01 Jun 2027 23:22:42.420            29.799               Magadan1           931.219
        60   01 Jun 2027 23:23:46.031   01 Jun 2027 23:24:01.133            15.102               Magadan2           471.938
        61   01 Jun 2027 23:24:22.132   01 Jun 2027 23:24:39.110            16.978               Magadan2           530.563
        62   01 Jun 2027 23:25:09.137   01 Jun 2027 23:25:37.573            28.436               Magadan2           888.625
        63   01 Jun 2027 23:25:57.794   01 Jun 2027 23:26:39.100            41.306                Irkutsk          1290.813
        64   01 Jun 2027 23:29:14.431   01 Jun 2027 23:29:43.530            29.099                Irkutsk           909.344
        65   01 Jun 2027 23:41:06.910   01 Jun 2027 23:43:39.887           152.977                Sumatra          4780.531
        66   02 Jun 2027 00:16:07.741   02 Jun 2027 00:16:43.738            35.997            RioGallegos          1124.906
        67   02 Jun 2027 00:19:05.519   02 Jun 2027 00:20:00.785            55.266            RioGallegos          1727.063
        68   02 Jun 2027 00:52:07.720   02 Jun 2027 00:52:35.443            27.723                Anadyr1           866.344
        69   02 Jun 2027 00:52:48.619   02 Jun 2027 00:53:12.270            23.651                Anadyr1           739.094
        70   02 Jun 2027 00:53:40.410   02 Jun 2027 00:54:25.606            45.196                Anadyr2          1412.375
        71   02 Jun 2027 00:54:52.834   02 Jun 2027 00:56:23.590            90.756                Norilsk          2836.125
        72   02 Jun 2027 00:56:34.047   02 Jun 2027 00:56:58.425            24.378               Magadan2           761.813
        73   02 Jun 2027 00:57:39.403   02 Jun 2027 00:58:26.363            46.960               Magadan2          1467.500
        74   02 Jun 2027 00:58:31.025   02 Jun 2027 00:59:46.354            75.329                Irkutsk          2354.031
        75   02 Jun 2027 01:03:00.815   02 Jun 2027 01:03:26.846            26.031                Novosib           813.469
        76   02 Jun 2027 01:05:38.006   02 Jun 2027 01:06:04.319            26.313                Irkutsk           822.281
        77   02 Jun 2027 01:08:37.567   02 Jun 2027 01:09:20.080            42.513                Irkutsk          1328.531
        78   02 Jun 2027 01:14:51.169   02 Jun 2027 01:15:23.132            31.963                Sumatra           998.844
        79   02 Jun 2027 01:16:20.034   02 Jun 2027 01:18:04.499           104.465                Sumatra          3264.531
        80   02 Jun 2027 01:23:34.242   02 Jun 2027 01:24:56.907            82.665                Sumatra          2583.281
        81   02 Jun 2027 02:26:47.259   02 Jun 2027 02:27:35.741            48.482                Anadyr1          1515.062
        82   02 Jun 2027 02:30:00.861   02 Jun 2027 02:30:10.482             9.621                Anadyr1           300.656
        83   02 Jun 2027 02:30:30.433   02 Jun 2027 02:31:47.200            76.767                Norilsk          2398.969
        84   02 Jun 2027 02:32:19.317   02 Jun 2027 02:32:50.126            30.809                Norilsk           962.781
        85   02 Jun 2027 02:34:04.516   02 Jun 2027 02:34:41.362            36.846              Murmansk2          1151.437
        86   02 Jun 2027 02:34:42.716   02 Jun 2027 02:36:00.969            78.253                Irkutsk          2445.406
        87   02 Jun 2027 02:40:02.721   02 Jun 2027 02:40:18.916            16.195                Irkutsk           506.094
        88   02 Jun 2027 02:41:48.780   02 Jun 2027 02:42:46.366            57.586                  Delhi          1799.563
        89   02 Jun 2027 02:45:36.463   02 Jun 2027 02:46:13.256            36.793                Irkutsk          1149.781
        90   02 Jun 2027 02:52:12.247   02 Jun 2027 02:53:46.544            94.297                  Delhi          2946.781
        91   02 Jun 2027 03:24:14.104   02 Jun 2027 03:24:53.293            39.189            RioGallegos          1224.656
        92   02 Jun 2027 03:26:11.617   02 Jun 2027 03:26:12.993             1.376            RioGallegos            43.000
        93   02 Jun 2027 03:29:20.781   02 Jun 2027 03:30:40.302            79.521            RioGallegos          2485.031
        94   02 Jun 2027 04:13:22.639   02 Jun 2027 04:14:02.655            40.016                Norilsk          1250.500
        95   02 Jun 2027 04:14:14.428   02 Jun 2027 04:15:39.404            84.976                Novosib          2655.500
        96   02 Jun 2027 04:15:43.785   02 Jun 2027 04:18:18.872           155.087                Irkutsk          4846.469
        97   02 Jun 2027 04:18:19.225   02 Jun 2027 04:18:35.069            15.844                Novosib           495.125
        98   02 Jun 2027 04:18:49.744   02 Jun 2027 04:25:45.276           415.532                  Delhi         12985.375
        99   02 Jun 2027 05:52:05.879   02 Jun 2027 05:54:02.691           116.812                Norilsk          3650.375
       100   02 Jun 2027 05:54:32.171   02 Jun 2027 05:57:07.648           155.477              Murmansk1          4858.656
       101   02 Jun 2027 05:57:26.986   02 Jun 2027 06:00:41.656           194.670                 Moscow          6083.437
       102   02 Jun 2027 07:16:22.370   02 Jun 2027 07:16:55.659            33.289               Magadan1          1040.281
       103   02 Jun 2027 07:16:55.659   02 Jun 2027 07:17:34.910            39.251               Magadan2          1226.594
       104   02 Jun 2027 07:18:03.627   02 Jun 2027 07:20:02.190           118.563                Anadyr1          3705.094
       105   02 Jun 2027 07:20:49.147   02 Jun 2027 07:20:55.499             6.352               Magadan1           198.500
       106   02 Jun 2027 07:27:09.379   02 Jun 2027 07:27:31.874            22.495              Murmansk1           702.969
       107   02 Jun 2027 07:27:32.228   02 Jun 2027 07:28:17.042            44.814                Norilsk          1400.438
       108   02 Jun 2027 07:28:46.069   02 Jun 2027 07:29:20.776            34.707              Murmansk1          1084.594
       109   02 Jun 2027 07:29:26.780   02 Jun 2027 07:29:54.940            28.160                 Moscow           880.000
       110   02 Jun 2027 07:49:45.315   02 Jun 2027 07:54:19.390           274.075               CapeTown          8564.844
       111   02 Jun 2027 08:49:04.039   02 Jun 2027 08:50:12.411            68.372                Anadyr2          2136.625
       112   02 Jun 2027 08:51:27.051   02 Jun 2027 08:55:58.902           271.851                Anadyr1          8495.344
       113   02 Jun 2027 08:56:23.683   02 Jun 2027 08:57:01.167            37.484               Magadan2          1171.375
       114   02 Jun 2027 10:24:18.029   02 Jun 2027 10:25:28.269            70.240               Magadan1          2195.000
       115   02 Jun 2027 10:25:33.070   02 Jun 2027 10:32:19.204           406.134                Anadyr2         12691.688
       116   02 Jun 2027 12:01:14.647   02 Jun 2027 12:05:18.095           243.448               Magadan2          7607.750
       117   02 Jun 2027 14:24:12.932   02 Jun 2027 14:29:39.836           326.904            RioGallegos         10215.750
       118   02 Jun 2027 16:55:16.797   02 Jun 2027 17:00:32.417           315.620                Norilsk          9863.125
       119   02 Jun 2027 20:06:55.745   02 Jun 2027 20:08:39.866           104.121              Murmansk1          3253.781
       120   02 Jun 2027 20:08:57.064   02 Jun 2027 20:14:54.095           357.031              Murmansk1         11157.219
       121   03 Jun 2027 01:04:02.144   03 Jun 2027 01:04:03.278             1.134                Anadyr2            35.438
       122   03 Jun 2027 01:04:10.961   03 Jun 2027 01:04:34.837            23.876                Anadyr1           746.125
       123   03 Jun 2027 01:05:05.691   03 Jun 2027 01:05:39.337            33.646                Anadyr2          1051.438
       124   03 Jun 2027 01:06:18.429   03 Jun 2027 01:06:47.350            28.921                Anadyr2           903.781
       125   03 Jun 2027 01:07:05.845   03 Jun 2027 01:07:37.743            31.898                Norilsk           996.813
       126   03 Jun 2027 01:07:39.396   03 Jun 2027 01:08:41.419            62.023               Magadan2          1938.219
       127   03 Jun 2027 01:09:07.102   03 Jun 2027 01:10:42.444            95.342               Magadan2          2979.438
       128   03 Jun 2027 01:14:14.548   03 Jun 2027 01:14:40.590            26.042                Novosib           813.813
       129   03 Jun 2027 01:16:14.354   03 Jun 2027 01:17:00.124            45.770                Irkutsk          1430.312
       130   03 Jun 2027 01:20:25.582   03 Jun 2027 01:20:40.417            14.835                Novosib           463.594
       131   03 Jun 2027 01:21:16.527   03 Jun 2027 01:22:45.202            88.675                Irkutsk          2771.094
       132   03 Jun 2027 01:28:39.200   03 Jun 2027 01:29:57.874            78.674                Sumatra          2458.562
       133   03 Jun 2027 01:33:42.654   03 Jun 2027 01:33:50.194             7.540                Sumatra           235.625
       134   03 Jun 2027 02:03:21.167   03 Jun 2027 02:04:07.025            45.858            RioGallegos          1433.062
       135   03 Jun 2027 02:07:20.780   03 Jun 2027 02:07:34.130            13.350            RioGallegos           417.188
       136   03 Jun 2027 02:07:47.460   03 Jun 2027 02:08:09.698            22.238            RioGallegos           694.937
       137   03 Jun 2027 02:40:46.366   03 Jun 2027 02:40:56.166             9.800                Anadyr2           306.250
       138   03 Jun 2027 02:41:28.123   03 Jun 2027 02:41:34.074             5.951                Anadyr1           185.969
       139   03 Jun 2027 02:42:00.068   03 Jun 2027 02:42:07.615             7.547                Anadyr1           235.844
       140   03 Jun 2027 02:42:32.835   03 Jun 2027 02:44:00.298            87.463                Norilsk          2733.219
       141   03 Jun 2027 02:44:53.712   03 Jun 2027 02:44:58.311             4.599               Magadan2           143.719
       142   03 Jun 2027 02:45:37.425   03 Jun 2027 02:46:26.907            49.482              Murmansk1          1546.313
       143   03 Jun 2027 02:47:38.043   03 Jun 2027 02:47:51.510            13.467                Novosib           420.844
       144   03 Jun 2027 02:48:13.926   03 Jun 2027 02:48:51.702            37.776                Novosib          1180.500
       145   03 Jun 2027 02:51:07.051   03 Jun 2027 02:51:20.058            13.007                Irkutsk           406.469
       146   03 Jun 2027 02:51:59.074   03 Jun 2027 02:52:06.820             7.746                Irkutsk           242.063
       147   03 Jun 2027 02:53:43.950   03 Jun 2027 02:54:35.179            51.229                  Delhi          1600.906
       148   03 Jun 2027 02:57:27.253   03 Jun 2027 02:57:34.009             6.756                  Delhi           211.125
       149   03 Jun 2027 02:59:38.303   03 Jun 2027 03:00:40.546            62.243                  Delhi          1945.094
       150   03 Jun 2027 03:35:27.097   03 Jun 2027 03:37:16.317           109.220            RioGallegos          3413.125
       151   03 Jun 2027 04:24:39.744   03 Jun 2027 04:25:20.354            40.610                Irkutsk          1269.063
       152   03 Jun 2027 04:26:57.548   03 Jun 2027 04:27:28.298            30.750                 Moscow           960.938
       153   03 Jun 2027 04:27:31.300   03 Jun 2027 04:28:50.787            79.487                 Moscow          2483.969
       154   03 Jun 2027 04:28:52.794   03 Jun 2027 04:29:26.254            33.460                Novosib          1045.625
       155   03 Jun 2027 04:29:26.286   03 Jun 2027 04:29:50.989            24.703                Irkutsk           771.969
       156   03 Jun 2027 04:31:03.835   03 Jun 2027 04:37:21.432           377.597                  Delhi         11799.906
       157   03 Jun 2027 06:04:55.907   03 Jun 2027 06:05:11.315            15.408              Murmansk2           481.500
       158   03 Jun 2027 06:05:11.315   03 Jun 2027 06:07:40.988           149.673              Murmansk1          4677.281
       159   03 Jun 2027 06:08:06.509   03 Jun 2027 06:08:11.398             4.889              Murmansk1           152.781
       160   03 Jun 2027 06:08:36.744   03 Jun 2027 06:09:08.878            32.134                 Moscow          1004.188
       161   03 Jun 2027 06:09:12.073   03 Jun 2027 06:09:18.519             6.446              Murmansk2           201.438
       162   03 Jun 2027 06:10:33.312   03 Jun 2027 06:11:12.394            39.082                 Moscow          1221.312
       163   03 Jun 2027 07:28:43.114   03 Jun 2027 07:32:32.675           229.561                Anadyr1          7173.781
       164   03 Jun 2027 07:32:32.675   03 Jun 2027 07:32:53.125            20.450                Anadyr2           639.063
       165   03 Jun 2027 07:32:57.831   03 Jun 2027 07:32:58.842             1.011               Magadan2            31.594
       166   03 Jun 2027 07:33:05.668   03 Jun 2027 07:33:26.011            20.343                Anadyr2           635.719
       167   03 Jun 2027 08:02:44.329   03 Jun 2027 08:06:54.134           249.805               CapeTown          7806.406
       168   03 Jun 2027 09:03:59.822   03 Jun 2027 09:09:15.039           315.217                Anadyr2          9850.531
       169   03 Jun 2027 10:37:57.231   03 Jun 2027 10:42:58.022           300.791               Magadan1          9399.719
       170   03 Jun 2027 10:43:11.380   03 Jun 2027 10:44:46.025            94.645               Magadan1          2957.656
       171   03 Jun 2027 12:14:36.349   03 Jun 2027 12:18:27.103           230.754               Magadan1          7211.062
       172   03 Jun 2027 12:59:54.071   03 Jun 2027 13:00:38.016            43.945            RioGallegos          1373.281
       173   03 Jun 2027 13:33:19.235   03 Jun 2027 13:34:51.828            92.593                Sumatra          2893.531
       174   03 Jun 2027 13:38:46.341   03 Jun 2027 13:40:04.514            78.173                Sumatra          2442.906
       175   03 Jun 2027 13:45:50.222   03 Jun 2027 13:46:43.918            53.696                Irkutsk          1678.000
       176   03 Jun 2027 13:50:06.756   03 Jun 2027 13:50:12.861             6.105                Irkutsk           190.781
       177   03 Jun 2027 13:52:35.802   03 Jun 2027 13:54:58.475           142.673                Irkutsk          4458.531
       178   03 Jun 2027 14:38:22.012   03 Jun 2027 14:40:04.927           102.915            RioGallegos          3216.094
       179   03 Jun 2027 15:14:53.764   03 Jun 2027 15:15:34.746            40.982                  Delhi          1280.687
       180   03 Jun 2027 15:22:59.474   03 Jun 2027 15:24:04.360            64.886                Novosib          2027.687
       181   03 Jun 2027 15:27:29.345   03 Jun 2027 15:28:22.103            52.758                Novosib          1648.688
       182   03 Jun 2027 15:30:00.716   03 Jun 2027 15:31:46.968           106.252                Novosib          3320.375
       183   03 Jun 2027 17:00:06.115   03 Jun 2027 17:02:05.805           119.690                 Moscow          3740.313
       184   03 Jun 2027 17:07:00.306   03 Jun 2027 17:07:04.651             4.345                 Moscow           135.781
       185   03 Jun 2027 17:07:21.945   03 Jun 2027 17:13:11.406           349.461                Norilsk         10920.656
       186   03 Jun 2027 18:36:56.089   03 Jun 2027 18:38:38.822           102.733                 Moscow          3210.406
       187   03 Jun 2027 18:39:47.649   03 Jun 2027 18:40:30.676            43.027              Murmansk2          1344.594
       188   03 Jun 2027 18:41:39.198   03 Jun 2027 18:43:07.225            88.027              Murmansk2          2750.844
       189   03 Jun 2027 19:48:32.487   03 Jun 2027 19:51:03.727           151.240               CapeTown          4726.250
       190   03 Jun 2027 20:19:38.087   03 Jun 2027 20:24:08.808           270.721              Murmansk2          8460.031
       191   03 Jun 2027 20:25:26.154   03 Jun 2027 20:25:34.324             8.170              Murmansk1           255.313
       192   03 Jun 2027 20:35:12.249   03 Jun 2027 20:35:24.260            12.011               Magadan2           375.344
       193   03 Jun 2027 20:41:07.587   03 Jun 2027 20:41:10.274             2.687               Magadan2            83.969
       194   03 Jun 2027 22:04:51.178   03 Jun 2027 22:09:14.445           263.267                Anadyr1          8227.094
       195   03 Jun 2027 22:09:17.287   03 Jun 2027 22:10:43.663            86.376               Magadan1          2699.250
       196   03 Jun 2027 22:11:12.929   03 Jun 2027 22:12:48.083            95.154               Magadan2          2973.563
       197   03 Jun 2027 22:15:00.641   03 Jun 2027 22:15:07.103             6.462               Magadan2           201.937
       198   03 Jun 2027 22:15:26.782   03 Jun 2027 22:16:04.204            37.422               Magadan2          1169.438
       199   03 Jun 2027 23:00:44.830   03 Jun 2027 23:03:27.450           162.620            RioGallegos          5081.875
       200   03 Jun 2027 23:40:40.340   03 Jun 2027 23:43:24.577           164.237                Anadyr2          5132.406
       201   03 Jun 2027 23:43:30.647   03 Jun 2027 23:44:15.055            44.408                Norilsk          1387.750
       202   03 Jun 2027 23:44:40.030   03 Jun 2027 23:45:15.864            35.834               Magadan1          1119.813
       203   03 Jun 2027 23:45:59.115   03 Jun 2027 23:46:10.376            11.261                Norilsk           351.906
       204   03 Jun 2027 23:46:55.631   03 Jun 2027 23:47:53.431            57.800               Magadan1          1806.250
       205   03 Jun 2027 23:48:10.955   03 Jun 2027 23:48:26.721            15.766                Irkutsk           492.687
       206   03 Jun 2027 23:49:32.814   03 Jun 2027 23:50:28.892            56.078                Irkutsk          1752.437
       207   04 Jun 2027 00:02:25.653   04 Jun 2027 00:04:22.250           116.597                Sumatra          3643.656
       208   04 Jun 2027 00:06:37.377   04 Jun 2027 00:06:45.684             8.307                Sumatra           259.594
       209   04 Jun 2027 00:08:41.842   04 Jun 2027 00:10:19.049            97.207                Sumatra          3037.719
       210   04 Jun 2027 01:15:55.435   04 Jun 2027 01:16:19.853            24.418                Anadyr2           763.063
       211   04 Jun 2027 01:16:58.193   04 Jun 2027 01:17:38.744            40.551                Anadyr1          1267.219
       212   04 Jun 2027 01:18:08.517   04 Jun 2027 01:18:30.292            21.775                Anadyr1           680.469
       213   04 Jun 2027 01:18:30.292   04 Jun 2027 01:18:42.827            12.535                Anadyr2           391.719
       214   04 Jun 2027 01:18:56.011   04 Jun 2027 01:20:28.177            92.166                Norilsk          2880.188
       215   04 Jun 2027 01:20:32.391   04 Jun 2027 01:21:00.229            27.838               Magadan2           869.938
       216   04 Jun 2027 01:22:29.066   04 Jun 2027 01:25:41.007           191.941                Irkutsk          5998.156
       217   04 Jun 2027 01:32:43.408   04 Jun 2027 01:33:47.211            63.803                  Delhi          1993.844
       218   04 Jun 2027 01:36:26.372   04 Jun 2027 01:36:27.839             1.467                Sumatra            45.844
       219   04 Jun 2027 01:39:15.021   04 Jun 2027 01:41:06.859           111.838                Sumatra          3494.937
       220   04 Jun 2027 02:16:11.457   04 Jun 2027 02:16:22.067            10.610            RioGallegos           331.562
       221   04 Jun 2027 02:18:21.337   04 Jun 2027 02:18:38.692            17.355            RioGallegos           542.344
       222   04 Jun 2027 02:19:55.768   04 Jun 2027 02:20:15.515            19.747            RioGallegos           617.094
       223   04 Jun 2027 02:22:07.488   04 Jun 2027 02:22:32.226            24.738            RioGallegos           773.063
       224   04 Jun 2027 02:51:58.084   04 Jun 2027 02:52:38.529            40.445                Anadyr2          1263.906
       225   04 Jun 2027 02:53:45.231   04 Jun 2027 02:53:48.670             3.439                Anadyr1           107.469
       226   04 Jun 2027 02:53:59.480   04 Jun 2027 02:55:04.580            65.100                Anadyr1          2034.375
       227   04 Jun 2027 02:57:06.749   04 Jun 2027 02:57:12.035             5.286                Norilsk           165.188
       228   04 Jun 2027 02:57:22.905   04 Jun 2027 02:58:20.860            57.955              Murmansk1          1811.094
       229   04 Jun 2027 02:58:22.606   04 Jun 2027 02:59:14.525            51.919                Novosib          1622.469
       230   04 Jun 2027 02:59:14.728   04 Jun 2027 03:00:03.429            48.701                Irkutsk          1521.906
       231   04 Jun 2027 03:00:16.947   04 Jun 2027 03:00:44.340            27.393              Murmansk2           856.031
       232   04 Jun 2027 03:00:58.353   04 Jun 2027 03:01:28.099            29.746                Irkutsk           929.562
       233   04 Jun 2027 03:01:30.914   04 Jun 2027 03:02:11.750            40.836              Murmansk1          1276.125
       234   04 Jun 2027 03:02:37.183   04 Jun 2027 03:03:10.915            33.732                Norilsk          1054.125
       235   04 Jun 2027 03:03:29.389   04 Jun 2027 03:03:34.846             5.457                Irkutsk           170.531
       236   04 Jun 2027 03:03:48.663   04 Jun 2027 03:07:30.334           221.671                Norilsk          6927.219
       237   04 Jun 2027 03:07:59.713   04 Jun 2027 03:08:13.550            13.837                Irkutsk           432.406
       238   04 Jun 2027 03:08:53.790   04 Jun 2027 03:10:32.213            98.423                  Delhi          3075.719
       239   04 Jun 2027 03:47:46.022   04 Jun 2027 03:52:55.876           309.854            RioGallegos          9682.938
       240   04 Jun 2027 04:37:42.553   04 Jun 2027 04:38:17.940            35.387                Irkutsk          1105.844
       241   04 Jun 2027 04:38:25.976   04 Jun 2027 04:38:30.260             4.284              Murmansk2           133.875
       242   04 Jun 2027 04:38:32.598   04 Jun 2027 04:39:15.930            43.332                Novosib          1354.125
       243   04 Jun 2027 04:39:20.273   04 Jun 2027 04:39:29.416             9.143                Novosib           285.719
       244   04 Jun 2027 04:39:31.761   04 Jun 2027 04:41:01.680            89.919                 Moscow          2809.969
       245   04 Jun 2027 04:41:04.621   04 Jun 2027 04:41:07.596             2.975                Novosib            92.969
       246   04 Jun 2027 04:41:27.011   04 Jun 2027 04:43:07.991           100.980                Norilsk          3155.625
       247   04 Jun 2027 04:43:10.374   04 Jun 2027 04:44:09.487            59.113                Novosib          1847.281
       248   04 Jun 2027 04:46:54.873   04 Jun 2027 04:50:29.841           214.968                  Delhi          6717.750
       249   04 Jun 2027 06:16:42.248   04 Jun 2027 06:17:31.392            49.144                Novosib          1535.750
       250   04 Jun 2027 06:17:46.863   04 Jun 2027 06:18:49.893            63.030                 Moscow          1969.688
       251   04 Jun 2027 06:18:57.956   04 Jun 2027 06:23:04.472           246.516                 Moscow          7703.625
       252   04 Jun 2027 06:35:47.840   04 Jun 2027 06:39:00.625           192.785               CapeTown          6024.531
       253   04 Jun 2027 07:40:05.775   04 Jun 2027 07:41:43.764            97.989               Magadan1          3062.156
       254   04 Jun 2027 07:42:00.966   04 Jun 2027 07:44:49.210           168.244                Anadyr2          5257.625
       255   04 Jun 2027 07:44:49.210   04 Jun 2027 07:45:26.699            37.489                Anadyr1          1171.531
       256   04 Jun 2027 08:16:15.395   04 Jun 2027 08:19:40.368           204.973               CapeTown          6405.406
       257   04 Jun 2027 09:15:12.600   04 Jun 2027 09:15:24.945            12.345                Anadyr1           385.781
       258   04 Jun 2027 09:15:27.901   04 Jun 2027 09:15:45.142            17.241               Magadan1           538.781
       259   04 Jun 2027 09:15:58.125   04 Jun 2027 09:18:53.314           175.189                Anadyr1          5474.656
       260   04 Jun 2027 10:47:39.700   04 Jun 2027 10:50:30.847           171.147               Magadan1          5348.344
       261   04 Jun 2027 10:50:30.847   04 Jun 2027 10:50:33.624             2.777               Magadan2            86.781
       262   04 Jun 2027 10:50:45.908   04 Jun 2027 10:51:49.008            63.100               Magadan2          1971.875
       263   04 Jun 2027 10:52:06.860   04 Jun 2027 10:52:23.078            16.218                Norilsk           506.812
       264   04 Jun 2027 10:52:25.154   04 Jun 2027 10:53:27.735            62.581                Irkutsk          1955.656
       265   04 Jun 2027 10:53:36.050   04 Jun 2027 10:54:07.540            31.490                Irkutsk           984.062
       266   04 Jun 2027 10:54:52.244   04 Jun 2027 10:55:27.362            35.118                Norilsk          1097.438
       267   04 Jun 2027 10:55:32.717   04 Jun 2027 10:55:43.814            11.097              Murmansk2           346.781
       268   04 Jun 2027 10:55:53.450   04 Jun 2027 10:56:07.170            13.720              Murmansk1           428.750
       269   04 Jun 2027 10:56:08.939   04 Jun 2027 10:56:11.157             2.218                Norilsk            69.312
       270   04 Jun 2027 10:56:27.660   04 Jun 2027 10:57:42.648            74.988                Norilsk          2343.375
       271   04 Jun 2027 11:31:39.143   04 Jun 2027 11:32:47.987            68.844            RioGallegos          2151.375
       272   04 Jun 2027 12:08:03.356   04 Jun 2027 12:08:13.242             9.886                Sumatra           308.937
       273   04 Jun 2027 12:09:48.628   04 Jun 2027 12:10:41.877            53.249                Sumatra          1664.031
       274   04 Jun 2027 12:19:54.149   04 Jun 2027 12:21:48.024           113.875                Irkutsk          3558.594
       275   04 Jun 2027 12:24:49.515   04 Jun 2027 12:25:54.727            65.212                Norilsk          2037.875
       276   04 Jun 2027 12:28:38.581   04 Jun 2027 12:29:44.060            65.479                Norilsk          2046.219
       277   04 Jun 2027 13:08:13.117   04 Jun 2027 13:08:28.751            15.634            RioGallegos           488.563
       278   04 Jun 2027 13:10:15.010   04 Jun 2027 13:13:10.759           175.749            RioGallegos          5492.156
       279   04 Jun 2027 13:42:33.434   04 Jun 2027 13:43:01.981            28.547                Sumatra           892.094
       280   04 Jun 2027 13:49:39.882   04 Jun 2027 13:51:06.091            86.209                Sumatra          2694.031
       281   04 Jun 2027 13:57:30.877   04 Jun 2027 13:58:36.266            65.389                Irkutsk          2043.406
       282   04 Jun 2027 14:00:40.338   04 Jun 2027 14:00:41.070             0.732                Novosib            22.875
       283   04 Jun 2027 14:01:50.523   04 Jun 2027 14:02:25.446            34.923                Irkutsk          1091.344
       284   04 Jun 2027 14:12:56.171   04 Jun 2027 14:13:25.436            29.265                Norilsk           914.531
       285   04 Jun 2027 15:27:17.195   04 Jun 2027 15:29:17.508           120.313                  Delhi          3759.781
       286   04 Jun 2027 15:31:59.958   04 Jun 2027 15:35:12.629           192.671                  Delhi          6020.969
       287   04 Jun 2027 15:35:33.248   04 Jun 2027 15:37:29.917           116.669                Novosib          3645.906
       288   04 Jun 2027 15:39:22.534   04 Jun 2027 15:40:07.411            44.877                Norilsk          1402.406
       289   04 Jun 2027 15:48:31.684   04 Jun 2027 15:49:37.961            66.277                Norilsk          2071.156
       290   04 Jun 2027 17:10:57.948   04 Jun 2027 17:12:03.206            65.258                 Moscow          2039.313
       291   04 Jun 2027 17:13:13.315   04 Jun 2027 17:14:11.562            58.247                 Moscow          1820.219
       292   04 Jun 2027 17:20:16.091   04 Jun 2027 17:24:27.552           251.461                Norilsk          7858.156
       293   04 Jun 2027 18:49:34.793   04 Jun 2027 18:54:13.695           278.902                 Moscow          8715.688
       294   04 Jun 2027 20:00:45.282   04 Jun 2027 20:02:45.487           120.205               CapeTown          3756.406
       295   04 Jun 2027 20:04:12.934   04 Jun 2027 20:04:29.978            17.044               CapeTown           532.625
       296   04 Jun 2027 20:05:20.203   04 Jun 2027 20:05:23.463             3.260               CapeTown           101.875
       297   04 Jun 2027 20:11:01.764   04 Jun 2027 20:12:01.082            59.318               CapeTown          1853.687
       298   04 Jun 2027 20:32:25.162   04 Jun 2027 20:36:48.116           262.954              Murmansk2          8217.313
       299   04 Jun 2027 20:37:27.051   04 Jun 2027 20:38:41.885            74.834              Murmansk1          2338.562
       300   04 Jun 2027 22:16:52.861   04 Jun 2027 22:20:43.250           230.389                Anadyr1          7199.656
       301   04 Jun 2027 22:20:53.925   04 Jun 2027 22:23:50.564           176.639               Magadan2          5519.969
       302   04 Jun 2027 22:24:00.942   04 Jun 2027 22:24:05.137             4.195               Magadan1           131.094
       303   04 Jun 2027 22:24:05.137   04 Jun 2027 22:24:46.804            41.667               Magadan2          1302.094
       304   04 Jun 2027 23:12:11.221   04 Jun 2027 23:15:13.140           181.919            RioGallegos          5684.969
       305   04 Jun 2027 23:18:36.435   04 Jun 2027 23:19:08.671            32.236            RioGallegos          1007.375
       306   04 Jun 2027 23:52:39.534   04 Jun 2027 23:53:51.835            72.301                Anadyr1          2259.406
       307   04 Jun 2027 23:54:44.213   04 Jun 2027 23:56:16.811            92.598                Norilsk          2893.687
       308   04 Jun 2027 23:56:19.145   04 Jun 2027 23:56:47.305            28.160               Magadan1           880.000
       309   04 Jun 2027 23:57:41.096   04 Jun 2027 23:58:32.890            51.794               Magadan2          1618.562
       310   04 Jun 2027 23:59:21.267   05 Jun 2027 00:00:25.583            64.316                Irkutsk          2009.875
       311   05 Jun 2027 00:01:30.881   05 Jun 2027 00:02:45.711            74.830                Irkutsk          2338.438
       312   05 Jun 2027 00:13:44.518   05 Jun 2027 00:15:05.276            80.758                Sumatra          2523.688
       313   05 Jun 2027 00:18:06.614   05 Jun 2027 00:19:06.084            59.470                Sumatra          1858.437
       314   05 Jun 2027 00:53:43.463   05 Jun 2027 00:54:15.691            32.228            RioGallegos          1007.125
       315   05 Jun 2027 01:27:47.511   05 Jun 2027 01:29:21.363            93.852                Anadyr2          2932.875
       316   05 Jun 2027 01:29:38.573   05 Jun 2027 01:29:54.453            15.880                Anadyr1           496.250
       317   05 Jun 2027 01:30:34.479   05 Jun 2027 01:30:47.004            12.525                Anadyr1           391.406
       318   05 Jun 2027 01:30:56.274   05 Jun 2027 01:31:03.750             7.476                Anadyr1           233.625
       319   05 Jun 2027 01:31:07.012   05 Jun 2027 01:32:30.406            83.394                Norilsk          2606.062
       320   05 Jun 2027 01:32:59.592   05 Jun 2027 01:33:46.552            46.960               Magadan1          1467.500
       321   05 Jun 2027 01:34:29.661   05 Jun 2027 01:37:00.597           150.936                Irkutsk          4716.750
       322   05 Jun 2027 01:41:34.166   05 Jun 2027 01:41:41.453             7.287                Irkutsk           227.719
       323   05 Jun 2027 01:43:48.075   05 Jun 2027 01:44:17.705            29.630                  Delhi           925.937
       324   05 Jun 2027 01:47:05.561   05 Jun 2027 01:47:46.193            40.632                  Delhi          1269.750
       325   05 Jun 2027 01:48:42.227   05 Jun 2027 01:51:01.909           139.682                Sumatra          4365.062
       326   05 Jun 2027 02:25:01.518   05 Jun 2027 02:25:30.900            29.382            RioGallegos           918.187
       327   05 Jun 2027 02:33:59.948   05 Jun 2027 02:34:22.282            22.334            RioGallegos           697.937
       328   05 Jun 2027 03:10:47.069   05 Jun 2027 03:11:25.013            37.944               Magadan2          1185.750
       329   05 Jun 2027 03:12:21.583   05 Jun 2027 03:12:55.905            34.322                Norilsk          1072.563
       330   05 Jun 2027 03:13:08.317   05 Jun 2027 03:14:17.177            68.860                Norilsk          2151.875
       331   05 Jun 2027 03:14:23.813   05 Jun 2027 03:15:01.840            38.027              Murmansk1          1188.344
       332   05 Jun 2027 03:15:04.876   05 Jun 2027 03:15:40.809            35.933                Norilsk          1122.906
       333   05 Jun 2027 03:15:43.557   05 Jun 2027 03:15:53.361             9.804              Murmansk1           306.375
       334   05 Jun 2027 03:15:53.909   05 Jun 2027 03:16:05.247            11.338                Novosib           354.312
       335   05 Jun 2027 03:16:09.770   05 Jun 2027 03:18:28.200           138.430                Norilsk          4325.938
       336   05 Jun 2027 03:18:37.351   05 Jun 2027 03:19:22.270            44.919                Irkutsk          1403.719
       337   05 Jun 2027 04:00:11.191   05 Jun 2027 04:00:55.296            44.105            RioGallegos          1378.281
       338   05 Jun 2027 04:02:24.071   05 Jun 2027 04:05:01.704           157.633            RioGallegos          4926.031
       339   05 Jun 2027 04:50:09.687   05 Jun 2027 04:51:27.146            77.459                Irkutsk          2420.594
       340   05 Jun 2027 04:51:37.991   05 Jun 2027 04:51:50.914            12.923              Murmansk1           403.844
       341   05 Jun 2027 04:51:59.580   05 Jun 2027 04:54:18.574           138.994                 Moscow          4343.563
       342   05 Jun 2027 04:54:27.924   05 Jun 2027 04:55:39.507            71.583              Murmansk1          2236.969
       343   05 Jun 2027 04:56:58.329   05 Jun 2027 04:57:31.868            33.539                Novosib          1048.094
       344   05 Jun 2027 04:59:34.857   05 Jun 2027 05:00:51.527            76.670                  Delhi          2395.938
       345   05 Jun 2027 06:29:16.624   05 Jun 2027 06:29:50.149            33.525              Murmansk1          1047.656
       346   05 Jun 2027 06:29:50.149   05 Jun 2027 06:29:58.721             8.572              Murmansk2           267.875
       347   05 Jun 2027 06:30:02.265   05 Jun 2027 06:30:26.989            24.724              Murmansk1           772.625
       348   05 Jun 2027 06:30:35.460   05 Jun 2027 06:31:52.596            77.136              Murmansk1          2410.500
       349   05 Jun 2027 06:31:52.596   05 Jun 2027 06:33:20.189            87.593              Murmansk2          2737.281
       350   05 Jun 2027 06:47:54.478   05 Jun 2027 06:48:13.103            18.625               CapeTown           582.031
       351   05 Jun 2027 06:50:42.149   05 Jun 2027 06:50:59.171            17.022               CapeTown           531.938
       352   05 Jun 2027 06:53:19.575   05 Jun 2027 06:53:29.535             9.960               CapeTown           311.250
       353   05 Jun 2027 06:57:29.031   05 Jun 2027 06:57:31.312             2.281               CapeTown            71.281
       354   05 Jun 2027 07:51:23.281   05 Jun 2027 07:51:26.570             3.289               Magadan1           102.781
       355   05 Jun 2027 07:51:44.239   05 Jun 2027 07:53:13.466            89.227                Anadyr1          2788.344
       356   05 Jun 2027 07:53:36.928   05 Jun 2027 07:55:29.699           112.771                Anadyr2          3524.094
       357   05 Jun 2027 07:56:43.722   05 Jun 2027 07:57:29.317            45.595                Anadyr2          1424.844
       358   05 Jun 2027 09:27:18.331   05 Jun 2027 09:29:24.551           126.220                Anadyr1          3944.375
       359   05 Jun 2027 09:29:29.874   05 Jun 2027 09:32:37.674           187.800                Anadyr2          5868.750
       360   05 Jun 2027 11:02:31.947   05 Jun 2027 11:02:35.934             3.987                Irkutsk           124.594
       361   05 Jun 2027 11:02:37.540   05 Jun 2027 11:03:09.915            32.375               Magadan2          1011.719
       362   05 Jun 2027 11:03:09.915   05 Jun 2027 11:04:56.613           106.698               Magadan1          3334.312
       363   05 Jun 2027 11:05:10.164   05 Jun 2027 11:06:04.064            53.900                Novosib          1684.375
       364   05 Jun 2027 11:06:26.990   05 Jun 2027 11:06:47.695            20.705                Norilsk           647.031
       365   05 Jun 2027 11:06:54.397   05 Jun 2027 11:06:56.759             2.362                Irkutsk            73.812
       366   05 Jun 2027 11:07:16.430   05 Jun 2027 11:07:44.367            27.937                Norilsk           873.031
       367   05 Jun 2027 11:07:53.231   05 Jun 2027 11:08:00.365             7.134              Murmansk2           222.937
       368   05 Jun 2027 11:08:01.627   05 Jun 2027 11:08:09.056             7.429                Norilsk           232.156
       369   05 Jun 2027 11:08:11.102   05 Jun 2027 11:08:30.300            19.198              Murmansk1           599.938
       370   05 Jun 2027 11:08:32.443   05 Jun 2027 11:08:37.611             5.168               Magadan2           161.500
       371   05 Jun 2027 11:08:38.055   05 Jun 2027 11:08:42.570             4.515                Norilsk           141.094
       372   05 Jun 2027 11:08:45.316   05 Jun 2027 11:08:46.249             0.933              Murmansk1            29.156
       373   05 Jun 2027 11:08:57.106   05 Jun 2027 11:09:36.874            39.768                Novosib          1242.750
       374   05 Jun 2027 11:17:15.336   05 Jun 2027 11:17:27.130            11.794              Murmansk2           368.562
       375   05 Jun 2027 11:43:33.628   05 Jun 2027 11:44:47.638            74.010            RioGallegos          2312.812
       376   05 Jun 2027 12:19:28.547   05 Jun 2027 12:19:36.648             8.101                Sumatra           253.156
       377   05 Jun 2027 12:20:22.395   05 Jun 2027 12:20:30.394             7.999                Sumatra           249.969
       378   05 Jun 2027 12:23:11.262   05 Jun 2027 12:24:47.219            95.957                Sumatra          2998.656
       379   05 Jun 2027 12:31:55.684   05 Jun 2027 12:33:26.170            90.486                Irkutsk          2827.688
       380   05 Jun 2027 12:35:06.561   05 Jun 2027 12:35:11.651             5.090                Irkutsk           159.062
       381   05 Jun 2027 12:36:49.316   05 Jun 2027 12:37:41.847            52.531                Norilsk          1641.594
       382   05 Jun 2027 12:39:46.959   05 Jun 2027 12:39:58.446            11.487                Norilsk           358.969
       383   05 Jun 2027 12:40:10.387   05 Jun 2027 12:40:41.834            31.447                Norilsk           982.719
       384   05 Jun 2027 13:20:37.615   05 Jun 2027 13:21:25.250            47.635            RioGallegos          1488.594
       385   05 Jun 2027 13:22:19.558   05 Jun 2027 13:25:40.499           200.941            RioGallegos          6279.406
       386   05 Jun 2027 13:54:52.917   05 Jun 2027 13:56:52.795           119.878                Sumatra          3746.188
       387   05 Jun 2027 14:10:06.531   05 Jun 2027 14:14:46.820           280.289                Irkutsk          8759.031
       388   05 Jun 2027 15:39:49.164   05 Jun 2027 15:40:52.699            63.535                  Delhi          1985.469
       389   05 Jun 2027 15:43:18.165   05 Jun 2027 15:44:41.771            83.606                  Delhi          2612.688
       390   05 Jun 2027 15:48:13.439   05 Jun 2027 15:50:47.138           153.699                Novosib          4803.094
       391   05 Jun 2027 15:51:51.036   05 Jun 2027 15:52:08.638            17.602                Norilsk           550.063
       392   05 Jun 2027 17:23:06.504   05 Jun 2027 17:23:58.916            52.412                 Moscow          1637.875
       393   05 Jun 2027 17:26:11.783   05 Jun 2027 17:27:10.879            59.096                 Moscow          1846.750
       394   05 Jun 2027 17:27:49.997   05 Jun 2027 17:29:24.809            94.812              Murmansk2          2962.875
       395   05 Jun 2027 17:33:21.117   05 Jun 2027 17:36:28.088           186.971                Norilsk          5842.844
       396   05 Jun 2027 18:42:37.448   05 Jun 2027 18:42:55.260            17.812               CapeTown           556.625
       397   05 Jun 2027 18:47:56.022   05 Jun 2027 18:48:19.616            23.594               CapeTown           737.312
       398   05 Jun 2027 19:02:21.250   05 Jun 2027 19:06:47.599           266.349                 Moscow          8323.406
       399   05 Jun 2027 19:09:38.988   05 Jun 2027 19:10:29.652            50.664              Murmansk1          1583.250
       400   05 Jun 2027 20:13:02.102   05 Jun 2027 20:14:21.264            79.162               CapeTown          2473.813
       401   05 Jun 2027 20:14:45.771   05 Jun 2027 20:15:53.530            67.759               CapeTown          2117.469
       402   05 Jun 2027 20:17:17.405   05 Jun 2027 20:17:57.395            39.990               CapeTown          1249.688
       403   05 Jun 2027 20:45:18.598   05 Jun 2027 20:50:30.204           311.606              Murmansk2          9737.688
       404   05 Jun 2027 22:28:54.400   05 Jun 2027 22:32:44.188           229.788                Anadyr2          7180.875
       405   05 Jun 2027 22:32:48.375   05 Jun 2027 22:36:34.714           226.339               Magadan2          7073.094
       406   05 Jun 2027 22:42:08.293   05 Jun 2027 22:42:29.950            21.657               Magadan2           676.781
       407   05 Jun 2027 23:23:48.421   05 Jun 2027 23:25:40.055           111.634            RioGallegos          3488.563
       408   05 Jun 2027 23:26:06.130   05 Jun 2027 23:26:29.682            23.552            RioGallegos           736.000
       409   05 Jun 2027 23:28:46.933   05 Jun 2027 23:29:10.917            23.984            RioGallegos           749.500
       410   05 Jun 2027 23:30:07.878   05 Jun 2027 23:30:18.611            10.733            RioGallegos           335.406
       411   05 Jun 2027 23:32:58.121   05 Jun 2027 23:32:58.390             0.269            RioGallegos             8.406
       412   06 Jun 2027 00:04:38.134   06 Jun 2027 00:06:06.165            88.031                Anadyr2          2750.969
       413   06 Jun 2027 00:06:43.828   06 Jun 2027 00:08:31.714           107.886                Norilsk          3371.438
       414   06 Jun 2027 00:09:14.433   06 Jun 2027 00:10:14.612            60.179                Norilsk          1880.594
       415   06 Jun 2027 00:10:14.778   06 Jun 2027 00:10:49.536            34.758               Magadan2          1086.187
       416   06 Jun 2027 00:10:49.536   06 Jun 2027 00:11:26.871            37.335               Magadan1          1166.719
       417   06 Jun 2027 00:11:35.166   06 Jun 2027 00:12:03.190            28.024                Irkutsk           875.750
       418   06 Jun 2027 00:15:40.427   06 Jun 2027 00:15:47.080             6.653                Irkutsk           207.906
       419   06 Jun 2027 00:17:45.191   06 Jun 2027 00:19:25.782           100.591                Irkutsk          3143.469
       420   06 Jun 2027 00:25:15.016   06 Jun 2027 00:25:37.719            22.703                Sumatra           709.469
       421   06 Jun 2027 00:26:29.327   06 Jun 2027 00:26:46.147            16.820                Sumatra           525.625
       422   06 Jun 2027 00:31:07.952   06 Jun 2027 00:31:56.203            48.251                Sumatra          1507.844
       423   06 Jun 2027 00:36:18.229   06 Jun 2027 00:36:40.312            22.083                Sumatra           690.094
       424   06 Jun 2027 01:00:35.286   06 Jun 2027 01:01:04.241            28.955            RioGallegos           904.844
       425   06 Jun 2027 01:04:32.081   06 Jun 2027 01:05:43.888            71.807            RioGallegos          2243.969
       426   06 Jun 2027 01:39:38.299   06 Jun 2027 01:39:58.227            19.928                Anadyr2           622.750
       427   06 Jun 2027 01:40:04.990   06 Jun 2027 01:40:23.425            18.435                Anadyr1           576.094
       428   06 Jun 2027 01:40:23.425   06 Jun 2027 01:40:56.102            32.677                Anadyr2          1021.156
       429   06 Jun 2027 01:41:59.155   06 Jun 2027 01:42:20.869            21.714                Anadyr1           678.562
       430   06 Jun 2027 01:43:03.095   06 Jun 2027 01:44:08.183            65.088                Norilsk          2034.000
       431   06 Jun 2027 01:44:18.404   06 Jun 2027 01:44:29.681            11.277                Norilsk           352.406
       432   06 Jun 2027 01:44:31.316   06 Jun 2027 01:45:01.243            29.927               Magadan2           935.219
       433   06 Jun 2027 01:46:11.379   06 Jun 2027 01:46:28.985            17.606               Magadan2           550.187
       434   06 Jun 2027 01:46:31.173   06 Jun 2027 01:48:50.764           139.591                Irkutsk          4362.219
       435   06 Jun 2027 01:53:25.709   06 Jun 2027 01:54:10.653            44.944                Novosib          1404.500
       436   06 Jun 2027 01:58:07.726   06 Jun 2027 01:58:24.299            16.573                  Delhi           517.906
       437   06 Jun 2027 02:00:14.895   06 Jun 2027 02:01:32.841            77.946                  Delhi          2435.812
       438   06 Jun 2027 02:02:41.791   06 Jun 2027 02:04:56.511           134.720                Sumatra          4210.000
       439   06 Jun 2027 02:41:59.692   06 Jun 2027 02:42:55.869            56.177            RioGallegos          1755.531
       440   06 Jun 2027 03:24:43.884   06 Jun 2027 03:31:00.019           376.135                Irkutsk         11754.219
       441   06 Jun 2027 03:31:13.606   06 Jun 2027 03:32:49.948            96.342                  Delhi          3010.688
       442   06 Jun 2027 03:35:59.863   06 Jun 2027 03:38:28.005           148.142                  Delhi          4629.437
       443   06 Jun 2027 04:12:50.014   06 Jun 2027 04:16:18.980           208.966            RioGallegos          6530.188
       444   06 Jun 2027 05:02:47.009   06 Jun 2027 05:03:19.889            32.880                Norilsk          1027.500
       445   06 Jun 2027 05:03:35.336   06 Jun 2027 05:07:52.448           257.112              Murmansk1          8034.750
       446   06 Jun 2027 05:07:52.448   06 Jun 2027 05:08:14.212            21.764              Murmansk2           680.125
       447   06 Jun 2027 05:08:22.180   06 Jun 2027 05:09:08.558            46.378                Novosib          1449.312
       448   06 Jun 2027 05:25:12.793   06 Jun 2027 05:25:46.589            33.796               CapeTown          1056.125
       449   06 Jun 2027 05:27:00.381   06 Jun 2027 05:28:08.895            68.514               CapeTown          2141.062
       450   06 Jun 2027 06:40:23.446   06 Jun 2027 06:41:01.699            38.253                 Moscow          1195.406
       451   06 Jun 2027 06:41:16.911   06 Jun 2027 06:41:58.455            41.544              Murmansk1          1298.250
       452   06 Jun 2027 06:42:00.013   06 Jun 2027 06:42:43.689            43.676                 Moscow          1364.875
       453   06 Jun 2027 06:42:59.064   06 Jun 2027 06:43:16.890            17.826                 Moscow           557.062
       454   06 Jun 2027 07:00:06.611   06 Jun 2027 07:04:51.149           284.538               CapeTown          8891.813
       455   06 Jun 2027 08:03:09.552   06 Jun 2027 08:03:49.553            40.001               Magadan2          1250.031
       456   06 Jun 2027 08:03:58.291   06 Jun 2027 08:05:09.248            70.957               Magadan1          2217.406
       457   06 Jun 2027 08:05:10.046   06 Jun 2027 08:05:35.877            25.831                Anadyr2           807.219
       458   06 Jun 2027 08:05:35.877   06 Jun 2027 08:06:32.381            56.504                Anadyr1          1765.750
       459   06 Jun 2027 09:35:37.019   06 Jun 2027 09:35:56.340            19.321                Anadyr2           603.781
       460   06 Jun 2027 09:35:58.894   06 Jun 2027 09:37:13.635            74.741                Anadyr1          2335.656
       461   06 Jun 2027 09:39:12.496   06 Jun 2027 09:44:47.832           335.336                Anadyr1         10479.250
       462   06 Jun 2027 11:14:26.156   06 Jun 2027 11:16:53.842           147.686               Magadan2          4615.187
       463   06 Jun 2027 11:17:14.491   06 Jun 2027 11:17:26.402            11.911                Novosib           372.219
       464   06 Jun 2027 11:17:37.638   06 Jun 2027 11:17:47.868            10.230                Irkutsk           319.688
       465   06 Jun 2027 11:17:50.884   06 Jun 2027 11:18:29.186            38.302                Norilsk          1196.938
       466   06 Jun 2027 11:18:29.802   06 Jun 2027 11:20:30.860           121.058               Magadan2          3783.062
       467   06 Jun 2027 11:20:47.854   06 Jun 2027 11:20:55.360             7.506              Murmansk1           234.562
       468   06 Jun 2027 11:22:22.042   06 Jun 2027 11:22:43.937            21.895              Murmansk2           684.219
       469   06 Jun 2027 11:26:05.215   06 Jun 2027 11:26:10.778             5.563              Murmansk2           173.844
       470   06 Jun 2027 11:27:12.516   06 Jun 2027 11:27:26.156            13.640              Murmansk1           426.250
       471   06 Jun 2027 11:55:31.390   06 Jun 2027 11:56:46.108            74.718            RioGallegos          2334.938
       472   06 Jun 2027 12:31:03.632   06 Jun 2027 12:32:37.977            94.345                Sumatra          2948.281
       473   06 Jun 2027 12:44:00.548   06 Jun 2027 12:47:14.433           193.885                Irkutsk          6058.906
       474   06 Jun 2027 12:48:50.484   06 Jun 2027 12:49:49.569            59.085                Norilsk          1846.406
       475   06 Jun 2027 13:33:07.549   06 Jun 2027 13:34:41.624            94.075            RioGallegos          2939.844
       476   06 Jun 2027 13:37:22.981   06 Jun 2027 13:38:01.591            38.610            RioGallegos          1206.563
       477   06 Jun 2027 14:07:20.978   06 Jun 2027 14:10:25.609           184.631                Sumatra          5769.719
       478   06 Jun 2027 14:22:49.796   06 Jun 2027 14:26:49.153           239.357                Irkutsk          7479.906
       479   06 Jun 2027 14:28:17.585   06 Jun 2027 14:29:24.269            66.684                Irkutsk          2083.875
       480   06 Jun 2027 15:52:32.383   06 Jun 2027 15:54:11.340            98.957                  Delhi          3092.406
       481   06 Jun 2027 16:01:01.865   06 Jun 2027 16:05:25.113           263.248                Novosib          8226.500
       482   06 Jun 2027 16:09:51.210   06 Jun 2027 16:10:44.602            53.392                Norilsk          1668.500
