uniorb/output/strategy_1/Drop/Drop_KinoSat_110304.txt

KinoSat_110304
-------------------------
    Access    *     Start Time (UTCG)     *     Stop Time (UTCG)  *   Duration (s)        *       Station  *  Data (Mbytes)
         1   01 Jun 2027 04:07:54.083   01 Jun 2027 04:08:11.720            17.637               Magadan1          2204.625
         2   01 Jun 2027 04:08:28.362   01 Jun 2027 04:10:33.298           124.936               Magadan1         15617.000
         3   01 Jun 2027 04:10:42.595   01 Jun 2027 04:11:30.003            47.408               Magadan1          5926.000
         4   01 Jun 2027 04:11:49.704   01 Jun 2027 04:12:19.489            29.785               Magadan2          3723.125
         5   01 Jun 2027 04:12:41.173   01 Jun 2027 04:13:18.886            37.713                Irkutsk          4714.125
         6   01 Jun 2027 04:14:42.673   01 Jun 2027 04:14:51.979             9.306              Murmansk1          1163.250
         7   01 Jun 2027 04:15:06.628   01 Jun 2027 04:15:13.134             6.506                Norilsk           813.250
         8   01 Jun 2027 04:15:17.348   01 Jun 2027 04:15:24.580             7.232                Norilsk           904.000
         9   01 Jun 2027 04:48:55.349   01 Jun 2027 04:49:41.547            46.198            RioGallegos          5774.750
        10   01 Jun 2027 05:22:58.611   01 Jun 2027 05:24:02.302            63.691                Sumatra          7961.375
        11   01 Jun 2027 05:33:44.173   01 Jun 2027 05:36:28.850           164.677                  Delhi         20584.625
        12   01 Jun 2027 05:45:40.724   01 Jun 2027 05:46:06.713            25.989                Irkutsk          3248.625
        13   01 Jun 2027 05:46:31.458   01 Jun 2027 05:48:34.774           123.316                Irkutsk         15414.500
        14   01 Jun 2027 05:49:15.976   01 Jun 2027 05:49:53.605            37.629                 Moscow          4703.625
        15   01 Jun 2027 05:49:56.336   01 Jun 2027 05:50:03.881             7.545                Novosib           943.125
        16   01 Jun 2027 06:27:33.799   01 Jun 2027 06:27:49.948            16.149            RioGallegos          2018.625
        17   01 Jun 2027 07:02:30.723   01 Jun 2027 07:04:36.430           125.707                Sumatra         15713.375
        18   01 Jun 2027 07:23:32.897   01 Jun 2027 07:23:49.007            16.110              Murmansk1          2013.750
        19   01 Jun 2027 07:23:54.480   01 Jun 2027 07:24:06.969            12.489                Norilsk          1561.125
        20   01 Jun 2027 07:24:27.515   01 Jun 2027 07:24:39.211            11.696                Novosib          1462.000
        21   01 Jun 2027 07:24:44.823   01 Jun 2027 07:26:32.562           107.739                Novosib         13467.375
        22   01 Jun 2027 08:56:24.667   01 Jun 2027 08:58:07.235           102.568                 Moscow         12821.000
        23   01 Jun 2027 08:58:29.286   01 Jun 2027 08:58:56.451            27.165                Norilsk          3395.625
        24   01 Jun 2027 08:59:13.495   01 Jun 2027 09:00:23.609            70.114                Norilsk          8764.250
        25   01 Jun 2027 09:00:31.644   01 Jun 2027 09:01:20.854            49.210              Murmansk2          6151.250
        26   01 Jun 2027 09:01:33.760   01 Jun 2027 09:01:49.634            15.874                Norilsk          1984.250
        27   01 Jun 2027 09:02:08.856   01 Jun 2027 09:03:11.506            62.650                 Moscow          7831.250
        28   01 Jun 2027 10:06:32.591   01 Jun 2027 10:14:39.203           486.612               CapeTown         60826.500
        29   01 Jun 2027 10:46:10.373   01 Jun 2027 10:51:44.221           333.848                Anadyr2         41731.000
        30   01 Jun 2027 12:29:48.154   01 Jun 2027 12:32:03.124           134.970               Magadan1         16871.250
        31   01 Jun 2027 15:41:27.144   01 Jun 2027 15:44:40.095           192.951                Irkutsk         24118.875
        32   01 Jun 2027 15:58:34.792   01 Jun 2027 16:01:10.074           155.282                Sumatra         19410.250
        33   01 Jun 2027 17:15:16.331   01 Jun 2027 17:16:52.181            95.850                Irkutsk         11981.250
        34   01 Jun 2027 17:17:54.347   01 Jun 2027 17:20:17.547           143.200                Novosib         17900.000
        35   01 Jun 2027 17:31:37.405   01 Jun 2027 17:31:55.781            18.376                Sumatra          2297.000
        36   01 Jun 2027 18:58:34.900   01 Jun 2027 19:02:33.516           238.616                  Delhi         29827.000
        37   01 Jun 2027 20:29:40.753   01 Jun 2027 20:29:49.606             8.853                 Moscow           939.500
        38   02 Jun 2027 04:24:44.135   02 Jun 2027 04:24:52.335             8.200                Norilsk          1025.000
        39   02 Jun 2027 04:25:03.570   02 Jun 2027 04:26:47.010           103.440                Norilsk         12930.000
        40   02 Jun 2027 04:26:47.497   02 Jun 2027 04:27:15.851            28.354                Norilsk          3544.250
        41   02 Jun 2027 04:28:22.187   02 Jun 2027 04:28:25.022             2.835                Norilsk           354.375
        42   02 Jun 2027 05:00:18.825   02 Jun 2027 05:02:03.896           105.071            RioGallegos         13133.875
        43   02 Jun 2027 05:03:15.401   02 Jun 2027 05:03:26.301            10.900            RioGallegos          1362.500
        44   02 Jun 2027 05:34:57.423   02 Jun 2027 05:37:29.031           151.608                Sumatra         18951.000
        45   02 Jun 2027 05:45:01.908   02 Jun 2027 05:46:25.748            83.840                  Delhi         10480.000
        46   02 Jun 2027 05:51:03.443   02 Jun 2027 05:52:40.311            96.868                  Delhi         12108.500
        47   02 Jun 2027 05:58:09.849   02 Jun 2027 05:58:20.558            10.709                Norilsk          1338.625
        48   02 Jun 2027 05:58:34.128   02 Jun 2027 06:00:16.537           102.409                Irkutsk         12801.125
        49   02 Jun 2027 06:00:40.655   02 Jun 2027 06:01:03.450            22.795                Norilsk          2849.375
        50   02 Jun 2027 06:01:16.395   02 Jun 2027 06:01:54.212            37.817              Murmansk1          4727.125
        51   02 Jun 2027 06:02:39.826   02 Jun 2027 06:02:55.834            16.008                Novosib          2001.000
        52   02 Jun 2027 07:19:18.041   02 Jun 2027 07:20:28.614            70.573                  Delhi          8821.625
        53   02 Jun 2027 07:22:15.105   02 Jun 2027 07:24:09.123           114.018                  Delhi         14252.250
        54   02 Jun 2027 07:35:46.378   02 Jun 2027 07:36:00.588            14.210                Novosib          1776.250
        55   02 Jun 2027 07:36:38.337   02 Jun 2027 07:39:10.599           152.262              Murmansk2         19032.750
        56   02 Jun 2027 09:08:45.271   02 Jun 2027 09:09:49.069            63.798                 Moscow          7974.750
        57   02 Jun 2027 09:09:51.715   02 Jun 2027 09:10:21.028            29.313              Murmansk1          3664.125
        58   02 Jun 2027 09:10:48.151   02 Jun 2027 09:11:44.716            56.565              Murmansk2          7070.625
        59   02 Jun 2027 09:11:44.716   02 Jun 2027 09:11:57.966            13.250              Murmansk1          1656.250
        60   02 Jun 2027 09:12:07.903   02 Jun 2027 09:13:08.866            60.963                 Moscow          7620.375
        61   02 Jun 2027 10:18:05.610   02 Jun 2027 10:24:56.732           411.122               CapeTown         51390.250
        62   02 Jun 2027 10:59:48.614   02 Jun 2027 11:02:33.136           164.522                Anadyr1         20565.250
        63   02 Jun 2027 12:37:00.016   02 Jun 2027 12:41:01.241           241.225               Magadan2         30153.125
        64   02 Jun 2027 12:41:56.148   02 Jun 2027 12:44:56.529           180.381               Magadan1         22547.625
        65   02 Jun 2027 15:08:30.501   02 Jun 2027 15:09:04.777            34.276            RioGallegos          4284.500
        66   02 Jun 2027 15:52:51.526   02 Jun 2027 15:56:29.671           218.145                Irkutsk         27268.125
        67   02 Jun 2027 16:08:27.777   02 Jun 2027 16:10:26.624           118.847                Sumatra         14855.875
        68   02 Jun 2027 17:28:06.700   02 Jun 2027 17:28:50.406            43.706                Novosib          5463.250
        69   02 Jun 2027 17:30:08.477   02 Jun 2027 17:32:11.499           123.022                Novosib         15377.750
        70   02 Jun 2027 19:10:28.586   02 Jun 2027 19:13:18.269           169.683                  Delhi         21210.375
        71   02 Jun 2027 19:21:07.946   02 Jun 2027 19:21:24.382            16.436                  Delhi          2054.500
        72   02 Jun 2027 20:40:08.254   02 Jun 2027 20:41:20.358            72.104              Murmansk1          9013.000
        73   02 Jun 2027 20:41:26.613   02 Jun 2027 20:43:40.466           133.853                 Moscow         16731.625
        74   02 Jun 2027 21:09:18.938   02 Jun 2027 21:09:57.656            38.718               CapeTown          4839.750
        75   02 Jun 2027 22:40:30.053   02 Jun 2027 22:42:19.443           109.390               CapeTown         13673.750
        76   03 Jun 2027 04:13:51.417   03 Jun 2027 04:16:16.950           145.533                Sumatra         18191.625
        77   03 Jun 2027 04:36:48.022   03 Jun 2027 04:37:35.074            47.052                Norilsk          5881.500
        78   03 Jun 2027 05:13:37.670   03 Jun 2027 05:15:00.599            82.929            RioGallegos         10366.125
        79   03 Jun 2027 05:47:01.837   03 Jun 2027 05:48:44.426           102.589                Sumatra         12823.625
        80   03 Jun 2027 05:58:22.363   03 Jun 2027 06:00:05.411           103.048                  Delhi         12881.000
        81   03 Jun 2027 06:10:02.111   03 Jun 2027 06:11:09.280            67.169                Novosib          8396.125
        82   03 Jun 2027 06:11:10.111   03 Jun 2027 06:11:42.332            32.221                Norilsk          4027.625
        83   03 Jun 2027 06:11:53.486   03 Jun 2027 06:12:29.197            35.711                Norilsk          4463.875
        84   03 Jun 2027 06:12:48.802   03 Jun 2027 06:13:23.430            34.628                Novosib          4328.500
        85   03 Jun 2027 06:14:23.298   03 Jun 2027 06:15:18.002            54.704                Norilsk          6838.000
        86   03 Jun 2027 07:31:32.378   03 Jun 2027 07:34:07.554           155.176                  Delhi         19397.000
        87   03 Jun 2027 07:47:08.649   03 Jun 2027 07:47:31.596            22.947              Murmansk2          2868.375
        88   03 Jun 2027 07:47:51.038   03 Jun 2027 07:48:07.180            16.142                Novosib          2017.750
        89   03 Jun 2027 07:48:08.109   03 Jun 2027 07:49:38.414            90.305                 Moscow         11288.125
        90   03 Jun 2027 07:50:14.279   03 Jun 2027 07:50:18.982             4.703                Novosib           587.875
        91   03 Jun 2027 09:22:33.895   03 Jun 2027 09:23:49.308            75.413                 Moscow          9426.625
        92   03 Jun 2027 09:24:13.532   03 Jun 2027 09:24:38.514            24.982                 Moscow          3122.750
        93   03 Jun 2027 09:26:24.852   03 Jun 2027 09:27:02.515            37.663                 Moscow          4707.875
        94   03 Jun 2027 10:29:45.971   03 Jun 2027 10:33:52.751           246.780               CapeTown         30847.500
        95   03 Jun 2027 10:33:54.063   03 Jun 2027 10:36:02.977           128.914               CapeTown         16114.250
        96   03 Jun 2027 11:09:59.684   03 Jun 2027 11:14:32.190           272.506                Anadyr1         34063.250
        97   03 Jun 2027 11:18:09.516   03 Jun 2027 11:19:18.904            69.388                Anadyr2          8673.500
        98   03 Jun 2027 12:48:45.154   03 Jun 2027 12:50:26.916           101.762               Magadan1         12720.250
        99   03 Jun 2027 12:50:39.705   03 Jun 2027 12:54:24.411           224.706               Magadan2         28088.250
       100   03 Jun 2027 15:17:45.036   03 Jun 2027 15:20:49.871           184.835            RioGallegos         23104.375
       101   03 Jun 2027 16:04:27.523   03 Jun 2027 16:06:17.093           109.570                Irkutsk         13696.250
       102   03 Jun 2027 16:19:22.116   03 Jun 2027 16:22:09.014           166.898                Sumatra         20862.250
       103   03 Jun 2027 16:24:41.364   03 Jun 2027 16:26:44.346           122.982                Sumatra         15372.750
       104   03 Jun 2027 17:49:49.537   03 Jun 2027 17:51:59.294           129.757                  Delhi         16219.625
       105   03 Jun 2027 19:22:25.854   03 Jun 2027 19:23:28.112            62.258                  Delhi          7782.250
       106   03 Jun 2027 20:49:51.465   03 Jun 2027 20:50:17.516            26.051              Murmansk1          3256.375
       107   03 Jun 2027 20:53:16.001   03 Jun 2027 20:55:56.171           160.170                 Moscow         20021.250
       108   03 Jun 2027 22:52:29.929   03 Jun 2027 22:52:49.057            19.128               CapeTown          2391.000
       109   04 Jun 2027 03:09:17.339   04 Jun 2027 03:09:55.922            38.583                Anadyr2          4822.875
       110   04 Jun 2027 03:10:07.772   04 Jun 2027 03:10:54.693            46.921               Magadan1          5865.125
       111   04 Jun 2027 03:11:08.875   04 Jun 2027 03:12:10.748            61.873                Anadyr2          7734.125
       112   04 Jun 2027 03:12:19.789   04 Jun 2027 03:13:24.465            64.676               Magadan2          8084.500
       113   04 Jun 2027 04:24:57.772   04 Jun 2027 04:26:11.034            73.262                Sumatra          9157.750
       114   04 Jun 2027 04:44:46.979   04 Jun 2027 04:46:15.514            88.535                Irkutsk         11066.875
       115   04 Jun 2027 04:46:57.423   04 Jun 2027 04:48:29.202            91.779                Norilsk         11472.375
       116   04 Jun 2027 04:48:43.070   04 Jun 2027 04:48:59.108            16.038                Norilsk          2004.750
       117   04 Jun 2027 04:49:03.321   04 Jun 2027 04:49:20.609            17.288                Irkutsk          2161.000
       118   04 Jun 2027 05:24:51.135   04 Jun 2027 05:26:38.380           107.245            RioGallegos         13405.625
       119   04 Jun 2027 05:59:12.115   04 Jun 2027 06:00:17.600            65.485                Sumatra          8185.625
       120   04 Jun 2027 06:10:01.991   04 Jun 2027 06:10:15.336            13.345                  Delhi          1668.125
       121   04 Jun 2027 06:13:52.995   04 Jun 2027 06:14:35.832            42.837                  Delhi          5354.625
       122   04 Jun 2027 06:21:32.307   04 Jun 2027 06:21:40.008             7.701              Murmansk1           962.625
       123   04 Jun 2027 06:22:09.101   04 Jun 2027 06:23:23.470            74.369                Norilsk          9296.125
       124   04 Jun 2027 06:23:42.985   04 Jun 2027 06:24:26.466            43.481                Novosib          5435.125
       125   04 Jun 2027 06:24:35.876   04 Jun 2027 06:25:38.481            62.605                Novosib          7825.625
       126   04 Jun 2027 07:43:53.414   04 Jun 2027 07:45:21.850            88.436                  Delhi         11054.500
       127   04 Jun 2027 07:46:42.142   04 Jun 2027 07:47:50.538            68.396                  Delhi          8549.500
       128   04 Jun 2027 07:58:29.034   04 Jun 2027 07:58:55.215            26.181              Murmansk2          3272.625
       129   04 Jun 2027 07:59:06.531   04 Jun 2027 07:59:29.327            22.796              Murmansk1          2849.500
       130   04 Jun 2027 07:59:29.774   04 Jun 2027 08:00:20.863            51.089                 Moscow          6386.125
       131   04 Jun 2027 08:00:26.453   04 Jun 2027 08:00:40.391            13.938              Murmansk2          1742.250
       132   04 Jun 2027 08:00:58.318   04 Jun 2027 08:01:31.014            32.696              Murmansk2          4087.000
       133   04 Jun 2027 09:34:49.440   04 Jun 2027 09:36:28.090            98.650              Murmansk1         12331.250
       134   04 Jun 2027 09:48:31.945   04 Jun 2027 09:49:49.862            77.917                Anadyr2          9739.625
       135   04 Jun 2027 10:41:31.728   04 Jun 2027 10:43:39.560           127.832               CapeTown         15979.000
       136   04 Jun 2027 10:45:51.681   04 Jun 2027 10:47:27.446            95.765               CapeTown         11970.625
       137   04 Jun 2027 11:21:56.452   04 Jun 2027 11:23:27.247            90.795                Anadyr1         11349.375
       138   04 Jun 2027 11:24:45.638   04 Jun 2027 11:26:31.787           106.149                Anadyr2         13268.625
       139   04 Jun 2027 13:00:34.207   04 Jun 2027 13:04:52.706           258.499               Magadan2         32312.375
       140   04 Jun 2027 14:35:52.296   04 Jun 2027 14:36:40.347            48.051               Magadan1          6006.375
       141   04 Jun 2027 15:29:05.540   04 Jun 2027 15:32:38.678           213.138            RioGallegos         26642.250
       142   04 Jun 2027 16:17:59.581   04 Jun 2027 16:20:16.058           136.477                Irkutsk         17059.625
       143   04 Jun 2027 16:30:37.214   04 Jun 2027 16:32:07.700            90.486                Sumatra         11310.750
       144   04 Jun 2027 16:36:54.028   04 Jun 2027 16:38:55.794           121.766                Sumatra         15220.750
       145   04 Jun 2027 17:52:30.433   04 Jun 2027 17:54:26.721           116.288                Novosib         14536.000
       146   04 Jun 2027 18:00:45.414   04 Jun 2027 18:03:43.052           177.638                  Delhi         22204.750
       147   04 Jun 2027 21:05:07.987   04 Jun 2027 21:08:01.253           173.266                 Moscow         21658.250
       148   04 Jun 2027 21:31:49.943   04 Jun 2027 21:33:17.846            87.903               CapeTown         10987.875
       149   05 Jun 2027 03:22:48.990   05 Jun 2027 03:22:58.997            10.007               Magadan2          1250.875
       150   05 Jun 2027 03:23:14.752   05 Jun 2027 03:25:19.282           124.530               Magadan2         15566.250
       151   05 Jun 2027 04:36:19.734   05 Jun 2027 04:37:04.278            44.544                Sumatra          5568.000
       152   05 Jun 2027 04:38:05.305   05 Jun 2027 04:39:54.570           109.265                Sumatra         13658.125
       153   05 Jun 2027 04:57:08.741   05 Jun 2027 04:57:23.499            14.758                Norilsk          1844.750
       154   05 Jun 2027 04:57:31.868   05 Jun 2027 04:58:53.317            81.449                Novosib         10181.125
       155   05 Jun 2027 04:59:19.318   05 Jun 2027 04:59:57.047            37.729              Murmansk1          4716.125
       156   05 Jun 2027 05:00:01.274   05 Jun 2027 05:00:12.363            11.089              Murmansk2          1386.125
       157   05 Jun 2027 05:00:16.560   05 Jun 2027 05:00:51.861            35.301                Novosib          4412.625
       158   05 Jun 2027 05:00:52.323   05 Jun 2027 05:01:30.557            38.234                Irkutsk          4779.250
       159   05 Jun 2027 06:11:28.959   05 Jun 2027 06:13:39.797           130.838                Sumatra         16354.750
       160   05 Jun 2027 06:19:44.660   05 Jun 2027 06:19:57.135            12.475                  Delhi          1559.375
       161   05 Jun 2027 06:34:35.742   05 Jun 2027 06:34:48.983            13.241              Murmansk1          1655.125
       162   05 Jun 2027 06:35:03.968   05 Jun 2027 06:35:21.704            17.736                Irkutsk          2217.000
       163   05 Jun 2027 06:35:22.543   05 Jun 2027 06:35:58.328            35.785              Murmansk1          4473.125
       164   05 Jun 2027 06:36:06.677   05 Jun 2027 06:36:36.854            30.177                Norilsk          3772.125
       165   05 Jun 2027 06:36:38.056   05 Jun 2027 06:37:32.760            54.704              Murmansk1          6838.000
       166   05 Jun 2027 07:56:22.412   05 Jun 2027 07:57:38.988            76.576                  Delhi          9572.000
       167   05 Jun 2027 08:09:46.942   05 Jun 2027 08:10:03.746            16.804                Norilsk          2100.500
       168   05 Jun 2027 08:10:05.122   05 Jun 2027 08:10:18.472            13.350              Murmansk2          1668.750
       169   05 Jun 2027 08:10:21.032   05 Jun 2027 08:10:44.277            23.245                 Moscow          2905.625
       170   05 Jun 2027 08:10:56.055   05 Jun 2027 08:11:58.902            62.847                Novosib          7855.875
       171   05 Jun 2027 08:12:17.284   05 Jun 2027 08:12:45.636            28.352                Norilsk          3544.000
       172   05 Jun 2027 08:12:50.863   05 Jun 2027 08:13:08.410            17.547                Norilsk          2193.375
       173   05 Jun 2027 08:13:23.489   05 Jun 2027 08:13:25.019             1.530                 Moscow           191.250
       174   05 Jun 2027 08:13:32.293   05 Jun 2027 08:13:45.937            13.644              Murmansk1          1705.500
       175   05 Jun 2027 08:13:47.024   05 Jun 2027 08:13:51.370             4.346                 Moscow           543.250
       176   05 Jun 2027 09:59:29.355   05 Jun 2027 10:01:43.414           134.059                Anadyr2         16757.375
       177   05 Jun 2027 10:53:21.753   05 Jun 2027 10:55:42.665           140.912               CapeTown         17614.000
       178   05 Jun 2027 11:33:54.200   05 Jun 2027 11:38:45.067           290.867                Anadyr1         36358.375
       179   05 Jun 2027 13:12:25.993   05 Jun 2027 13:19:09.208           403.215               Magadan1         50401.875
       180   05 Jun 2027 15:40:39.436   05 Jun 2027 15:42:25.166           105.730            RioGallegos         13216.250
       181   05 Jun 2027 16:30:34.257   05 Jun 2027 16:32:11.951            97.694                Irkutsk         12211.750
       182   05 Jun 2027 16:43:21.085   05 Jun 2027 16:45:52.658           151.573                Sumatra         18946.625
       183   05 Jun 2027 16:49:00.613   05 Jun 2027 16:49:13.374            12.761                Sumatra          1595.125
       184   05 Jun 2027 18:03:35.821   05 Jun 2027 18:05:00.808            84.987                Novosib         10623.375
       185   05 Jun 2027 18:12:04.457   05 Jun 2027 18:15:31.761           207.304                  Delhi         25913.000
       186   05 Jun 2027 18:20:09.937   05 Jun 2027 18:20:48.300            38.363                  Delhi          4795.375
       187   05 Jun 2027 21:17:01.977   05 Jun 2027 21:18:52.152           110.175                 Moscow         13771.875
       188   05 Jun 2027 21:42:02.278   05 Jun 2027 21:43:04.434            62.156               CapeTown          7769.500
       189   05 Jun 2027 21:43:48.992   05 Jun 2027 21:45:31.885           102.893               CapeTown         12861.625
       190   06 Jun 2027 03:34:51.375   06 Jun 2027 03:35:13.666            22.291               Magadan1          2786.375
       191   06 Jun 2027 03:35:33.993   06 Jun 2027 03:35:47.457            13.464               Magadan1          1683.000
       192   06 Jun 2027 03:36:16.900   06 Jun 2027 03:37:12.365            55.465               Magadan1          6933.125
       193   06 Jun 2027 03:39:46.055   06 Jun 2027 03:40:55.845            69.790                Norilsk          8723.750
       194   06 Jun 2027 04:49:35.204   06 Jun 2027 04:51:52.142           136.938                Sumatra         17117.250
       195   06 Jun 2027 05:09:48.949   06 Jun 2027 05:10:21.586            32.637                Norilsk          4079.625
       196   06 Jun 2027 05:10:21.665   06 Jun 2027 05:11:07.592            45.927                Irkutsk          5740.875
       197   06 Jun 2027 05:11:27.409   06 Jun 2027 05:11:34.171             6.762              Murmansk1           845.250
       198   06 Jun 2027 05:11:41.989   06 Jun 2027 05:13:30.309           108.320                Irkutsk         13540.000
       199   06 Jun 2027 05:49:41.947   06 Jun 2027 05:50:03.874            21.927            RioGallegos          2740.875
       200   06 Jun 2027 06:25:17.586   06 Jun 2027 06:26:27.033            69.447                Sumatra          8680.875
       201   06 Jun 2027 06:31:31.533   06 Jun 2027 06:32:25.145            53.612                  Delhi          6701.500
       202   06 Jun 2027 06:46:53.290   06 Jun 2027 06:47:03.882            10.592                Novosib          1324.000
       203   06 Jun 2027 06:47:10.153   06 Jun 2027 06:47:32.339            22.186                Irkutsk          2773.250
       204   06 Jun 2027 06:47:42.566   06 Jun 2027 06:47:52.311             9.745              Murmansk2          1218.125
       205   06 Jun 2027 06:47:55.816   06 Jun 2027 06:48:02.189             6.373                Norilsk           796.625
       206   06 Jun 2027 06:48:17.997   06 Jun 2027 06:50:35.437           137.440                Novosib         17180.000
       207   06 Jun 2027 08:09:01.653   06 Jun 2027 08:10:16.563            74.910                  Delhi          9363.750
       208   06 Jun 2027 08:21:36.646   06 Jun 2027 08:22:31.081            54.435                Norilsk          6804.375
       209   06 Jun 2027 08:22:38.238   06 Jun 2027 08:23:03.726            25.488              Murmansk1          3186.000
       210   06 Jun 2027 08:23:23.020   06 Jun 2027 08:24:26.390            63.370              Murmansk1          7921.250
       211   06 Jun 2027 08:24:40.648   06 Jun 2027 08:25:44.085            63.437                Norilsk          7929.625
       212   06 Jun 2027 08:26:05.765   06 Jun 2027 08:26:11.428             5.663              Murmansk2           707.875
       213   06 Jun 2027 08:27:03.286   06 Jun 2027 08:27:29.605            26.319                 Moscow          3289.875
       214   06 Jun 2027 10:11:02.201   06 Jun 2027 10:15:00.232           238.031                Anadyr2         29753.875
       215   06 Jun 2027 11:05:42.843   06 Jun 2027 11:07:20.763            97.920               CapeTown         12240.000
       216   06 Jun 2027 11:47:04.901   06 Jun 2027 11:49:01.986           117.085                Anadyr2         14635.625
       217   06 Jun 2027 13:24:19.814   06 Jun 2027 13:28:41.216           261.402               Magadan1         32675.250
       218   06 Jun 2027 15:52:20.698   06 Jun 2027 15:58:36.625           375.927            RioGallegos         46990.875
       219   06 Jun 2027 16:42:37.729   06 Jun 2027 16:43:41.352            63.623                Irkutsk          7952.875
       220   06 Jun 2027 16:43:55.120   06 Jun 2027 16:44:23.411            28.291                Novosib          3536.375
       221   06 Jun 2027 16:53:41.568   06 Jun 2027 16:55:38.947           117.379                Sumatra         14672.375
       222   06 Jun 2027 16:55:47.025   06 Jun 2027 16:57:53.022           125.997                Sumatra         15749.625
       223   06 Jun 2027 18:23:35.601   06 Jun 2027 18:27:24.610           229.009                  Delhi         28626.125
       224   06 Jun 2027 19:56:06.021   06 Jun 2027 19:58:02.377           116.356                 Moscow         14544.500
       225   06 Jun 2027 21:33:08.044   06 Jun 2027 21:35:06.701           118.657              Murmansk1         14832.125
       226   06 Jun 2027 21:55:22.170   06 Jun 2027 21:55:45.119            22.949               CapeTown          2868.625
       227   06 Jun 2027 21:59:17.270   06 Jun 2027 22:00:10.373            53.103               CapeTown          6637.875
       228   07 Jun 2027 03:46:53.608   07 Jun 2027 03:47:09.638            16.030               Magadan2          2003.750
       229   07 Jun 2027 03:47:27.461   07 Jun 2027 03:48:17.481            50.020               Magadan1          6252.500
       230   07 Jun 2027 03:48:47.599   07 Jun 2027 03:49:08.691            21.092                Irkutsk          2636.500
       231   07 Jun 2027 03:49:45.279   07 Jun 2027 03:49:52.815             7.536                Norilsk           942.000
       232   07 Jun 2027 03:50:56.975   07 Jun 2027 03:51:13.297            16.322                Norilsk          2040.250
       233   07 Jun 2027 03:51:35.988   07 Jun 2027 03:52:02.123            26.135                Norilsk          3266.875
       234   07 Jun 2027 04:24:13.548   07 Jun 2027 04:25:40.371            86.823            RioGallegos         10852.875
       235   07 Jun 2027 04:27:31.543   07 Jun 2027 04:27:41.625            10.082            RioGallegos          1260.250
       236   07 Jun 2027 04:36:28.260   07 Jun 2027 04:37:06.602            38.342            RioGallegos          4792.750
       237   07 Jun 2027 04:59:32.744   07 Jun 2027 05:01:27.362           114.618                Sumatra         14327.250
       238   07 Jun 2027 05:13:29.125   07 Jun 2027 05:17:06.963           217.838                  Delhi         27229.750
       239   07 Jun 2027 05:22:22.762   07 Jun 2027 05:23:01.703            38.941                Norilsk          4867.625
       240   07 Jun 2027 05:23:02.006   07 Jun 2027 05:25:29.041           147.035                Irkutsk         18379.375
       241   07 Jun 2027 06:43:23.865   07 Jun 2027 06:45:03.055            99.190                  Delhi         12398.750
       242   07 Jun 2027 06:59:33.107   07 Jun 2027 06:59:37.797             4.690                 Moscow           586.250
       243   07 Jun 2027 06:59:44.070   07 Jun 2027 07:00:13.100            29.030                Novosib          3628.750
       244   07 Jun 2027 07:00:22.332   07 Jun 2027 07:00:29.534             7.202                Norilsk           900.250
       245   07 Jun 2027 07:00:36.884   07 Jun 2027 07:01:21.249            44.365                 Moscow          5545.625
       246   07 Jun 2027 07:01:35.753   07 Jun 2027 07:02:24.826            49.073                 Moscow          6134.125
       247   07 Jun 2027 08:22:53.062   07 Jun 2027 08:24:59.111           126.049                  Delhi         15756.125
       248   07 Jun 2027 08:33:20.355   07 Jun 2027 08:33:41.412            21.057                Novosib          2632.125
       249   07 Jun 2027 08:33:50.429   07 Jun 2027 08:34:06.460            16.031                 Moscow          2003.875
       250   07 Jun 2027 08:34:07.408   07 Jun 2027 08:34:25.451            18.043                Norilsk          2255.375
       251   07 Jun 2027 08:34:29.253   07 Jun 2027 08:35:02.960            33.707              Murmansk1          4213.375
       252   07 Jun 2027 08:35:25.354   07 Jun 2027 08:36:27.898            62.544                Norilsk          7818.000
       253   07 Jun 2027 08:36:33.446   07 Jun 2027 08:37:08.570            35.124              Murmansk1          4390.500
       254   07 Jun 2027 08:37:18.162   07 Jun 2027 08:37:42.358            24.196                Norilsk          3024.500
       255   07 Jun 2027 08:37:47.518   07 Jun 2027 08:39:33.141           105.623                 Moscow         13202.875
       256   07 Jun 2027 09:44:23.766   07 Jun 2027 09:46:44.769           141.003               CapeTown         17625.375
       257   07 Jun 2027 10:25:26.948   07 Jun 2027 10:26:55.421            88.473                Anadyr2         11059.125
       258   07 Jun 2027 11:57:51.911   07 Jun 2027 11:58:46.043            54.132                Anadyr2          6766.500
       259   07 Jun 2027 12:00:24.213   07 Jun 2027 12:02:32.876           128.663                Anadyr2         16082.875
       260   07 Jun 2027 13:36:15.214   07 Jun 2027 13:38:01.478           106.264               Magadan1         13283.000
       261   07 Jun 2027 13:39:17.920   07 Jun 2027 13:40:47.559            89.639               Magadan2         11204.875
       262   07 Jun 2027 13:41:22.953   07 Jun 2027 13:41:33.236            10.283               Magadan1          1285.375
       263   07 Jun 2027 13:43:40.525   07 Jun 2027 13:45:35.248           114.723               Magadan2         14340.375
       264   07 Jun 2027 16:04:06.767   07 Jun 2027 16:06:41.875           155.108            RioGallegos         19388.500
       265   07 Jun 2027 16:07:21.734   07 Jun 2027 16:10:00.542           158.808            RioGallegos         19851.000
       266   07 Jun 2027 16:51:40.144   07 Jun 2027 16:53:33.909           113.765                Irkutsk         14220.625
       267   07 Jun 2027 16:56:40.272   07 Jun 2027 16:58:43.644           123.372                Novosib         15421.500
       268   07 Jun 2027 17:07:13.655   07 Jun 2027 17:08:04.827            51.172                Sumatra          6396.500
       269   07 Jun 2027 17:14:51.921   07 Jun 2027 17:16:18.024            86.103                Sumatra         10762.875
       270   07 Jun 2027 18:27:26.050   07 Jun 2027 18:29:04.023            97.973                Novosib         12246.625
       271   07 Jun 2027 18:35:14.724   07 Jun 2027 18:36:48.450            93.726                  Delhi         11715.750
       272   07 Jun 2027 18:37:32.787   07 Jun 2027 18:39:21.118           108.331                  Delhi         13541.375
       273   07 Jun 2027 21:40:54.465   07 Jun 2027 21:42:49.389           114.924                 Moscow         14365.500
       274   07 Jun 2027 21:47:08.092   07 Jun 2027 21:47:37.493            29.401              Murmansk1          3675.125
       275   07 Jun 2027 21:50:25.020   07 Jun 2027 21:51:05.697            40.677                 Moscow          5084.625
       276   07 Jun 2027 22:09:24.485   07 Jun 2027 22:10:26.635            62.150               CapeTown          7768.750
       277   07 Jun 2027 22:12:38.227   07 Jun 2027 22:14:36.849           118.622               CapeTown         14827.750
       278   08 Jun 2027 03:58:58.003   08 Jun 2027 03:59:44.363            46.360               Magadan1          5795.000
       279   08 Jun 2027 04:00:17.006   08 Jun 2027 04:00:50.851            33.845               Magadan1          4230.625
       280   08 Jun 2027 04:01:46.137   08 Jun 2027 04:01:54.321             8.184                Norilsk          1023.000
       281   08 Jun 2027 04:02:51.052   08 Jun 2027 04:03:08.808            17.756                Norilsk          2219.500
       282   08 Jun 2027 04:05:09.486   08 Jun 2027 04:05:55.062            45.576              Murmansk2          5697.000
       283   08 Jun 2027 04:37:09.972   08 Jun 2027 04:38:18.302            68.330            RioGallegos          8541.250
       284   08 Jun 2027 04:41:16.850   08 Jun 2027 04:41:41.586            24.736            RioGallegos          3092.000
       285   08 Jun 2027 05:11:20.010   08 Jun 2027 05:12:30.876            70.866                Sumatra          8858.250
       286   08 Jun 2027 05:14:11.163   08 Jun 2027 05:16:04.242           113.079                Sumatra         14134.875
       287   08 Jun 2027 05:33:55.720   08 Jun 2027 05:34:18.312            22.592              Murmansk1          2824.000
       288   08 Jun 2027 05:34:26.538   08 Jun 2027 05:36:02.193            95.655                Irkutsk         11956.875
       289   08 Jun 2027 05:36:19.879   08 Jun 2027 05:36:36.728            16.849                Novosib          2106.125
       290   08 Jun 2027 05:37:03.079   08 Jun 2027 05:37:40.143            37.064              Murmansk2          4633.000
       291   08 Jun 2027 05:37:57.733   08 Jun 2027 05:38:45.967            48.234                Novosib          6029.250
       292   08 Jun 2027 05:40:57.808   08 Jun 2027 05:41:19.346            21.538                Norilsk          2692.250
       293   08 Jun 2027 06:15:49.549   08 Jun 2027 06:16:26.662            37.113            RioGallegos          4639.125
       294   08 Jun 2027 06:49:20.185   08 Jun 2027 06:49:46.816            26.631                Sumatra          3328.875
       295   08 Jun 2027 06:55:21.494   08 Jun 2027 06:56:54.699            93.205                  Delhi         11650.625
       296   08 Jun 2027 07:11:32.932   08 Jun 2027 07:11:36.716             3.784              Murmansk1           473.000
       297   08 Jun 2027 07:11:50.426   08 Jun 2027 07:12:32.656            42.230                Novosib          5278.750
       298   08 Jun 2027 07:12:44.712   08 Jun 2027 07:13:36.944            52.232                 Moscow          6529.000
       299   08 Jun 2027 07:13:40.816   08 Jun 2027 07:14:29.711            48.895                 Moscow          6111.875
       300   08 Jun 2027 08:35:18.110   08 Jun 2027 08:36:55.992            97.882                  Delhi         12235.250
       301   08 Jun 2027 08:42:57.829   08 Jun 2027 08:43:02.781             4.952                 Moscow           619.000
       302   08 Jun 2027 08:43:11.160   08 Jun 2027 08:44:32.918            81.758                 Moscow         10219.750
       303   08 Jun 2027 08:44:50.820   08 Jun 2027 08:45:26.403            35.583                Novosib          4447.875
       304   08 Jun 2027 08:45:29.527   08 Jun 2027 08:46:01.367            31.840              Murmansk1          3980.000
       305   08 Jun 2027 08:46:09.305   08 Jun 2027 08:46:20.498            11.193                Norilsk          1399.125
       306   08 Jun 2027 08:46:21.002   08 Jun 2027 08:46:32.923            11.921              Murmansk1          1490.125
       307   08 Jun 2027 08:46:35.881   08 Jun 2027 08:47:02.574            26.693              Murmansk2          3336.625
       308   08 Jun 2027 08:47:26.880   08 Jun 2027 08:48:47.716            80.836                Norilsk         10104.500
       309   08 Jun 2027 08:48:57.467   08 Jun 2027 08:49:44.732            47.265              Murmansk2          5908.125
       310   08 Jun 2027 08:49:53.395   08 Jun 2027 08:50:28.649            35.254                Norilsk          4406.750
       311   08 Jun 2027 08:50:30.991   08 Jun 2027 08:51:11.797            40.806                 Moscow          5100.750
       312   08 Jun 2027 09:55:24.807   08 Jun 2027 09:58:29.448           184.641               CapeTown         23080.125
       313   08 Jun 2027 10:37:11.769   08 Jun 2027 10:38:51.953           100.184                Anadyr1         12523.000
       314   08 Jun 2027 12:09:51.600   08 Jun 2027 12:10:39.330            47.730                Anadyr1          5966.250
       315   08 Jun 2027 12:12:14.408   08 Jun 2027 12:13:09.995            55.587                Anadyr1          6948.375
       316   08 Jun 2027 12:13:23.862   08 Jun 2027 12:13:36.462            12.600                Anadyr2          1575.000
       317   08 Jun 2027 12:14:07.374   08 Jun 2027 12:17:00.643           173.269               Magadan1         21658.625
       318   08 Jun 2027 13:48:11.859   08 Jun 2027 13:49:38.359            86.500               Magadan2         10812.500
       319   08 Jun 2027 13:50:13.661   08 Jun 2027 13:51:20.803            67.142               Magadan1          8392.750
       320   08 Jun 2027 15:30:46.219   08 Jun 2027 15:33:08.483           142.264                Irkutsk         17783.000
       321   08 Jun 2027 16:15:56.290   08 Jun 2027 16:18:44.978           168.688            RioGallegos         21086.000
       322   08 Jun 2027 16:20:16.724   08 Jun 2027 16:21:36.147            79.423            RioGallegos          9927.875
       323   08 Jun 2027 17:03:34.769   08 Jun 2027 17:05:32.818           118.049                Irkutsk         14756.125
       324   08 Jun 2027 17:08:40.270   08 Jun 2027 17:11:56.100           195.830                Novosib         24478.750
       325   08 Jun 2027 17:20:15.947   08 Jun 2027 17:21:23.468            67.521                Sumatra          8440.125
       326   08 Jun 2027 18:44:01.071   08 Jun 2027 18:44:35.367            34.296                Novosib          4287.000
       327   08 Jun 2027 18:46:06.810   08 Jun 2027 18:47:19.176            72.366                Novosib          9045.750
       328   08 Jun 2027 18:49:14.563   08 Jun 2027 18:52:36.105           201.542                  Delhi         25192.750
       329   08 Jun 2027 20:18:14.395   08 Jun 2027 20:19:37.058            82.663                 Moscow         10332.875
       330   08 Jun 2027 21:52:52.463   08 Jun 2027 21:53:39.935            47.472                 Moscow          5934.000
       331   08 Jun 2027 22:00:51.605   08 Jun 2027 22:02:26.073            94.468                 Moscow         11808.500
       332   08 Jun 2027 22:16:59.693   08 Jun 2027 22:17:27.244            27.551               CapeTown          3443.875
       333   08 Jun 2027 22:24:37.539   08 Jun 2027 22:26:25.851           108.312               CapeTown         13539.000
       334   09 Jun 2027 04:11:44.640   09 Jun 2027 04:12:25.086            40.446               Magadan2          5055.750
       335   09 Jun 2027 04:12:56.510   09 Jun 2027 04:13:33.628            37.118                Irkutsk          4639.750
       336   09 Jun 2027 04:13:47.212   09 Jun 2027 04:13:55.598             8.386                Norilsk          1048.250
       337   09 Jun 2027 04:15:14.449   09 Jun 2027 04:15:34.124            19.675                Norilsk          2459.375
       338   09 Jun 2027 04:17:11.503   09 Jun 2027 04:17:39.954            28.451              Murmansk1          3556.375
       339   09 Jun 2027 04:48:23.423   09 Jun 2027 04:49:09.825            46.402            RioGallegos          5800.250
       340   09 Jun 2027 04:51:31.653   09 Jun 2027 04:51:36.226             4.573            RioGallegos           571.625
       341   09 Jun 2027 04:51:52.872   09 Jun 2027 04:52:09.953            17.081            RioGallegos          2135.125
       342   09 Jun 2027 04:57:06.858   09 Jun 2027 04:57:20.928            14.070            RioGallegos          1758.750
       343   09 Jun 2027 05:23:13.264   09 Jun 2027 05:24:16.277            63.013                Sumatra          7876.625
       344   09 Jun 2027 05:30:38.765   09 Jun 2027 05:32:46.461           127.696                Sumatra         15962.000
       345   09 Jun 2027 05:39:07.885   09 Jun 2027 05:41:04.211           116.326                  Delhi         14540.750
       346   09 Jun 2027 05:46:46.047   09 Jun 2027 05:47:01.783            15.736                Irkutsk          1967.000
       347   09 Jun 2027 05:47:17.135   09 Jun 2027 05:48:33.854            76.719              Murmansk2          9589.875
       348   09 Jun 2027 05:48:37.121   09 Jun 2027 05:49:36.936            59.815                Novosib          7476.875
       349   09 Jun 2027 07:07:24.436   09 Jun 2027 07:08:10.086            45.650                  Delhi          5706.250
       350   09 Jun 2027 07:10:33.641   09 Jun 2027 07:11:12.636            38.995                  Delhi          4874.375
       351   09 Jun 2027 07:23:24.654   09 Jun 2027 07:23:47.797            23.143              Murmansk1          2892.875
       352   09 Jun 2027 07:23:56.149   09 Jun 2027 07:24:11.658            15.509                Novosib          1938.625
       353   09 Jun 2027 07:24:21.755   09 Jun 2027 07:24:44.511            22.756                Norilsk          2844.500
       354   09 Jun 2027 07:25:00.008   09 Jun 2027 07:26:03.753            63.745              Murmansk1          7968.125
       355   09 Jun 2027 07:26:10.313   09 Jun 2027 07:26:24.785            14.472                Norilsk          1809.000
       356   09 Jun 2027 07:27:08.345   09 Jun 2027 07:27:21.059            12.714                 Moscow          1589.250
       357   09 Jun 2027 08:54:55.039   09 Jun 2027 08:55:16.508            21.469                 Moscow          2683.625
       358   09 Jun 2027 08:55:37.911   09 Jun 2027 08:57:08.890            90.979                 Moscow         11372.375
       359   09 Jun 2027 08:57:16.945   09 Jun 2027 08:57:53.568            36.623              Murmansk2          4577.875
       360   09 Jun 2027 08:57:59.903   09 Jun 2027 08:58:34.280            34.377              Murmansk2          4297.125
       361   09 Jun 2027 08:58:44.558   09 Jun 2027 08:59:28.535            43.977                Norilsk          5497.125
       362   09 Jun 2027 08:59:44.077   09 Jun 2027 09:00:20.111            36.034                 Moscow          4504.250
       363   09 Jun 2027 09:00:25.430   09 Jun 2027 09:00:59.397            33.967                Norilsk          4245.875
       364   09 Jun 2027 09:01:10.540   09 Jun 2027 09:01:42.814            32.274                Norilsk          4034.250
       365   09 Jun 2027 09:01:48.988   09 Jun 2027 09:02:30.375            41.387                Norilsk          5173.375
       366   09 Jun 2027 10:06:46.845   09 Jun 2027 10:10:18.607           211.762               CapeTown         26470.250
       367   09 Jun 2027 10:12:50.789   09 Jun 2027 10:14:54.247           123.458               CapeTown         15432.250
       368   09 Jun 2027 12:21:51.698   09 Jun 2027 12:22:34.431            42.733                Anadyr2          5341.625
       369   09 Jun 2027 12:24:30.376   09 Jun 2027 12:24:44.403            14.027                Anadyr2          1753.375
       370   09 Jun 2027 12:25:35.307   09 Jun 2027 12:29:22.516           227.209               Magadan2         28401.125
       371   09 Jun 2027 14:00:09.519   09 Jun 2027 14:01:22.215            72.696               Magadan1          9087.000
       372   09 Jun 2027 14:02:21.857   09 Jun 2027 14:04:47.445           145.588               Magadan2         18198.500
       373   09 Jun 2027 15:41:41.195   09 Jun 2027 15:44:54.699           193.504                Irkutsk         24188.000
       374   09 Jun 2027 15:58:46.116   09 Jun 2027 16:01:28.051           161.935                Sumatra         20241.875
       375   09 Jun 2027 17:15:30.989   09 Jun 2027 17:17:06.540            95.551                Irkutsk         11943.875
       376   09 Jun 2027 17:18:09.667   09 Jun 2027 17:20:32.243           142.576                Novosib         17822.000
       377   09 Jun 2027 17:29:49.637   09 Jun 2027 17:31:54.018           124.381                Sumatra         15547.625
       378   09 Jun 2027 17:40:30.730   09 Jun 2027 17:41:03.803            33.073                Sumatra          4134.125
       379   09 Jun 2027 18:56:02.189   09 Jun 2027 18:56:30.023            27.834                Novosib          3479.250
       380   09 Jun 2027 18:58:49.491   09 Jun 2027 19:01:33.221           163.730                  Delhi         20466.250
       381   09 Jun 2027 19:07:37.250   09 Jun 2027 19:08:18.722            41.472                  Delhi          5184.000
       382   09 Jun 2027 20:29:55.220   09 Jun 2027 20:31:51.845           116.625                 Moscow         14578.125
       383   09 Jun 2027 22:06:21.905   09 Jun 2027 22:08:33.523           131.618              Murmansk1         16452.250
       384   09 Jun 2027 22:28:49.716   09 Jun 2027 22:29:56.507            66.791               CapeTown          8348.875
       385   09 Jun 2027 22:36:33.956   09 Jun 2027 22:38:19.863           105.907               CapeTown         13238.375
       386   10 Jun 2027 04:03:29.009   10 Jun 2027 04:04:52.593            83.584                Sumatra         10448.000
       387   10 Jun 2027 04:24:45.453   10 Jun 2027 04:25:24.554            39.101              Murmansk1          4887.625
       388   10 Jun 2027 04:25:33.090   10 Jun 2027 04:25:53.004            19.914                Novosib          2489.250
       389   10 Jun 2027 04:26:07.327   10 Jun 2027 04:26:12.447             5.120              Murmansk2           640.000
       390   10 Jun 2027 04:26:36.378   10 Jun 2027 04:27:01.621            25.243                Norilsk          3155.375
       391   10 Jun 2027 05:00:33.706   10 Jun 2027 05:00:59.320            25.614            RioGallegos          3201.750
       392   10 Jun 2027 05:01:12.615   10 Jun 2027 05:02:18.446            65.831            RioGallegos          8228.875
       393   10 Jun 2027 05:03:30.077   10 Jun 2027 05:03:40.614            10.537            RioGallegos          1317.125
       394   10 Jun 2027 05:35:12.156   10 Jun 2027 05:37:43.065           150.909                Sumatra         18863.625
       395   10 Jun 2027 05:45:33.799   10 Jun 2027 05:46:40.693            66.894                  Delhi          8361.750
       396   10 Jun 2027 05:51:18.413   10 Jun 2027 05:52:53.852            95.439                  Delhi         11929.875
       397   10 Jun 2027 05:58:16.297   10 Jun 2027 05:58:45.032            28.735                Irkutsk          3591.875
       398   10 Jun 2027 05:59:07.619   10 Jun 2027 05:59:28.851            21.232                Norilsk          2654.000
       399   10 Jun 2027 05:59:43.163   10 Jun 2027 06:00:25.020            41.857              Murmansk2          5232.125
       400   10 Jun 2027 06:00:31.010   10 Jun 2027 06:01:17.472            46.462                Irkutsk          5807.750
       401   10 Jun 2027 06:01:31.290   10 Jun 2027 06:02:11.526            40.236              Murmansk1          5029.500
       402   10 Jun 2027 06:06:53.393   10 Jun 2027 06:07:02.704             9.311              Murmansk2          1163.875
       403   10 Jun 2027 06:40:57.042   10 Jun 2027 06:41:14.773            17.731            RioGallegos          2216.375
       404   10 Jun 2027 06:43:04.344   10 Jun 2027 06:43:10.968             6.624            RioGallegos           828.000
       405   10 Jun 2027 07:19:32.911   10 Jun 2027 07:20:42.946            70.035                  Delhi          8754.375
       406   10 Jun 2027 07:22:31.565   10 Jun 2027 07:24:23.712           112.147                  Delhi         14018.375
       407   10 Jun 2027 07:35:34.551   10 Jun 2027 07:35:35.663             1.112                Norilsk           139.000
       408   10 Jun 2027 07:35:36.428   10 Jun 2027 07:35:50.882            14.454                 Moscow          1806.750
       409   10 Jun 2027 07:36:00.569   10 Jun 2027 07:37:12.355            71.786                 Moscow          8973.250
       410   10 Jun 2027 09:07:15.398   10 Jun 2027 09:07:56.172            40.774              Murmansk1          5096.750
       411   10 Jun 2027 09:08:06.574   10 Jun 2027 09:08:10.952             4.378              Murmansk1           547.250
       412   10 Jun 2027 09:08:32.114   10 Jun 2027 09:10:02.290            90.176                 Moscow         11272.000
       413   10 Jun 2027 09:10:06.769   10 Jun 2027 09:10:35.760            28.991              Murmansk2          3623.875
       414   10 Jun 2027 09:10:39.120   10 Jun 2027 09:11:02.774            23.654              Murmansk2          2956.750
       415   10 Jun 2027 09:11:19.315   10 Jun 2027 09:12:22.625            63.310                 Moscow          7913.750
       416   10 Jun 2027 09:12:34.447   10 Jun 2027 09:13:11.703            37.256                Norilsk          4657.000
       417   10 Jun 2027 09:13:26.944   10 Jun 2027 09:13:47.814            20.870              Murmansk2          2608.750
       418   10 Jun 2027 10:18:19.988   10 Jun 2027 10:22:11.467           231.479               CapeTown         28934.875
       419   10 Jun 2027 10:25:06.122   10 Jun 2027 10:25:10.511             4.389               CapeTown           548.625
       420   10 Jun 2027 10:58:18.816   10 Jun 2027 10:59:59.327           100.511                Anadyr2         12563.875
       421   10 Jun 2027 10:59:59.327   10 Jun 2027 11:00:35.547            36.220                Anadyr1          4527.500
       422   10 Jun 2027 11:00:47.970   10 Jun 2027 11:00:55.768             7.798                Anadyr1           974.750
       423   10 Jun 2027 11:06:51.068   10 Jun 2027 11:07:55.091            64.023                Anadyr1          8002.875
       424   10 Jun 2027 12:37:14.466   10 Jun 2027 12:41:15.957           241.491               Magadan2         30186.375
       425   10 Jun 2027 14:12:08.012   10 Jun 2027 14:12:38.123            30.111               Magadan1          3763.875
       426   10 Jun 2027 14:15:43.014   10 Jun 2027 14:16:48.103            65.089               Magadan2          8136.125
       427   10 Jun 2027 15:07:18.291   10 Jun 2027 15:09:19.298           121.007            RioGallegos         15125.875
       428   10 Jun 2027 15:53:05.818   10 Jun 2027 15:56:44.332           218.514                Irkutsk         27314.250
       429   10 Jun 2027 16:08:41.320   10 Jun 2027 16:10:41.086           119.766                Sumatra         14970.750
       430   10 Jun 2027 16:12:36.964   10 Jun 2027 16:14:53.909           136.945                Sumatra         17118.125
       431   10 Jun 2027 17:34:15.996   10 Jun 2027 17:34:35.539            19.543                Novosib          2442.875
       432   10 Jun 2027 17:41:13.696   10 Jun 2027 17:43:20.728           127.032                Sumatra         15879.000
       433   10 Jun 2027 19:10:43.230   10 Jun 2027 19:13:32.228           168.998                  Delhi         21124.750
       434   10 Jun 2027 19:21:04.974   10 Jun 2027 19:21:23.551            18.577                  Delhi          2322.125
       435   10 Jun 2027 20:37:43.707   10 Jun 2027 20:38:07.816            24.109              Murmansk1          3013.625
       436   10 Jun 2027 20:41:35.470   10 Jun 2027 20:42:25.869            50.399              Murmansk1          6299.875
       437   10 Jun 2027 20:43:56.114   10 Jun 2027 20:45:53.382           117.268                 Moscow         14658.500
       438   10 Jun 2027 21:09:22.150   10 Jun 2027 21:10:19.216            57.066               CapeTown          7133.250
       439   10 Jun 2027 22:40:44.722   10 Jun 2027 22:42:35.356           110.634               CapeTown         13829.250
       440   11 Jun 2027 04:14:05.207   11 Jun 2027 04:16:31.475           146.268                Sumatra         18283.500
       441   11 Jun 2027 04:34:46.450   11 Jun 2027 04:35:32.681            46.231                Novosib          5778.875
       442   11 Jun 2027 04:35:52.820   11 Jun 2027 04:35:57.984             5.164                Norilsk           645.500
       443   11 Jun 2027 04:36:10.519   11 Jun 2027 04:36:34.812            24.293              Murmansk1          3036.625
       444   11 Jun 2027 04:36:51.197   11 Jun 2027 04:37:49.925            58.728                Norilsk          7341.000
       445   11 Jun 2027 04:37:57.166   11 Jun 2027 04:38:51.849            54.683                Novosib          6835.375
       446   11 Jun 2027 05:12:47.838   11 Jun 2027 05:12:51.984             4.146            RioGallegos           518.250
       447   11 Jun 2027 05:13:52.024   11 Jun 2027 05:15:14.964            82.940            RioGallegos         10367.500
       448   11 Jun 2027 05:47:16.650   11 Jun 2027 05:48:55.575            98.925                Sumatra         12365.625
       449   11 Jun 2027 05:57:58.511   11 Jun 2027 05:58:37.241            38.730                  Delhi          4841.250
       450   11 Jun 2027 06:03:25.303   11 Jun 2027 06:03:42.014            16.711                  Delhi          2088.875
       451   11 Jun 2027 06:10:24.010   11 Jun 2027 06:11:09.927            45.917                Norilsk          5739.625
       452   11 Jun 2027 06:11:22.161   11 Jun 2027 06:12:10.501            48.340                Norilsk          6042.500
       453   11 Jun 2027 06:12:43.279   11 Jun 2027 06:14:11.978            88.699              Murmansk1         11087.375
       454   11 Jun 2027 06:14:33.118   11 Jun 2027 06:14:49.137            16.019                Novosib          2002.375
       455   11 Jun 2027 07:31:47.337   11 Jun 2027 07:34:22.129           154.792                  Delhi         19349.000
       456   11 Jun 2027 07:46:38.617   11 Jun 2027 07:47:08.649            30.032                Norilsk          3754.000
       457   11 Jun 2027 07:47:13.207   11 Jun 2027 07:47:43.053            29.846                 Moscow          3730.750
       458   11 Jun 2027 07:47:51.759   11 Jun 2027 07:48:18.802            27.043                Norilsk          3380.375
       459   11 Jun 2027 07:48:21.895   11 Jun 2027 07:49:12.368            50.473                Novosib          6309.125
       460   11 Jun 2027 07:50:30.611   11 Jun 2027 07:50:33.570             2.959                Novosib           369.875
       461   11 Jun 2027 09:19:51.501   11 Jun 2027 09:20:51.400            59.899              Murmansk1          7487.375
       462   11 Jun 2027 09:20:51.400   11 Jun 2027 09:21:07.152            15.752              Murmansk2          1969.000
       463   11 Jun 2027 09:21:32.377   11 Jun 2027 09:22:55.200            82.823              Murmansk1         10352.875
       464   11 Jun 2027 09:23:03.302   11 Jun 2027 09:23:49.320            46.018              Murmansk1          5752.250
       465   11 Jun 2027 09:23:59.135   11 Jun 2027 09:24:12.505            13.370              Murmansk1          1671.250
       466   11 Jun 2027 09:24:13.912   11 Jun 2027 09:24:28.840            14.928                Norilsk          1866.000
       467   11 Jun 2027 09:24:56.410   11 Jun 2027 09:25:03.658             7.248                 Moscow           906.000
       468   11 Jun 2027 09:27:18.155   11 Jun 2027 09:27:55.713            37.558                 Moscow          4694.750
       469   11 Jun 2027 10:30:00.444   11 Jun 2027 10:34:07.533           247.089               CapeTown         30886.125
       470   11 Jun 2027 11:10:14.332   11 Jun 2027 11:13:38.313           203.981                Anadyr2         25497.625
       471   11 Jun 2027 12:48:59.675   11 Jun 2027 12:53:11.058           251.383               Magadan2         31422.875
       472   11 Jun 2027 12:54:39.687   11 Jun 2027 12:57:56.372           196.685               Magadan1         24585.625
       473   11 Jun 2027 15:17:59.012   11 Jun 2027 15:21:04.465           185.453            RioGallegos         23181.625
       474   11 Jun 2027 16:06:32.333   11 Jun 2027 16:08:36.543           124.210                Irkutsk         15526.250
       475   11 Jun 2027 16:19:36.069   11 Jun 2027 16:20:27.874            51.805                Sumatra          6475.625
       476   11 Jun 2027 16:24:56.458   11 Jun 2027 16:26:59.507           123.049                Sumatra         15381.125
       477   11 Jun 2027 17:50:03.031   11 Jun 2027 17:52:13.787           130.756                  Delhi         16344.500
       478   11 Jun 2027 17:53:36.439   11 Jun 2027 17:55:46.768           130.329                  Delhi         16291.125
       479   11 Jun 2027 19:22:40.548   11 Jun 2027 19:23:43.477            62.929                  Delhi          7866.125
       480   11 Jun 2027 20:50:07.132   11 Jun 2027 20:50:32.054            24.922              Murmansk1          3115.250
       481   11 Jun 2027 20:53:30.574   11 Jun 2027 20:54:09.443            38.869                 Moscow          4858.625
       482   11 Jun 2027 20:56:11.292   11 Jun 2027 20:57:50.028            98.736                 Moscow         12342.000
