uniorb/output/strategy_1/Drop/Drop_KinoSat_110701.txt

KinoSat_110701
-------------------------
    Access    *     Start Time (UTCG)     *     Stop Time (UTCG)  *   Duration (s)        *       Station  *  Data (Mbytes)
         1   01 Jun 2027 04:20:03.572   01 Jun 2027 04:20:18.386            14.814               Magadan1           462.938
         2   01 Jun 2027 04:20:18.386   01 Jun 2027 04:22:04.633           106.247               Magadan2          3320.219
         3   01 Jun 2027 04:22:07.181   01 Jun 2027 04:22:43.954            36.773                Anadyr2          1149.156
         4   01 Jun 2027 05:55:34.015   01 Jun 2027 05:56:03.864            29.849                Irkutsk           932.781
         5   01 Jun 2027 05:56:19.525   01 Jun 2027 05:57:38.171            78.646               Magadan2          2457.687
         6   01 Jun 2027 05:57:44.242   01 Jun 2027 05:58:55.576            71.334               Magadan1          2229.188
         7   01 Jun 2027 05:59:07.032   01 Jun 2027 05:59:57.335            50.303                Norilsk          1571.969
         8   01 Jun 2027 05:59:57.933   01 Jun 2027 06:00:38.983            41.050              Murmansk1          1282.812
         9   01 Jun 2027 06:00:38.983   01 Jun 2027 06:01:02.462            23.479              Murmansk2           733.719
        10   01 Jun 2027 06:34:53.326   01 Jun 2027 06:37:09.118           135.792            RioGallegos          4243.500
        11   01 Jun 2027 07:10:33.558   01 Jun 2027 07:11:53.274            79.716                Sumatra          2491.125
        12   01 Jun 2027 07:12:12.686   01 Jun 2027 07:14:06.225           113.539                Sumatra          3548.094
        13   01 Jun 2027 07:32:35.499   01 Jun 2027 07:33:39.679            64.180                Norilsk          2005.625
        14   01 Jun 2027 07:33:45.466   01 Jun 2027 07:36:09.878           144.412                Irkutsk          4512.875
        15   01 Jun 2027 07:36:23.456   01 Jun 2027 07:36:44.941            21.485              Murmansk1           671.406
        16   01 Jun 2027 07:36:50.932   01 Jun 2027 07:37:39.747            48.815                Novosib          1525.469
        17   01 Jun 2027 08:46:30.935   01 Jun 2027 08:47:04.541            33.606                Sumatra          1050.188
        18   01 Jun 2027 08:49:10.466   01 Jun 2027 08:50:09.771            59.305                Sumatra          1853.281
        19   01 Jun 2027 08:54:11.871   01 Jun 2027 08:57:53.092           221.221                  Delhi          6913.156
        20   01 Jun 2027 09:09:07.873   01 Jun 2027 09:09:20.567            12.694                 Moscow           396.687
        21   01 Jun 2027 09:09:36.681   01 Jun 2027 09:10:48.560            71.879              Murmansk2          2246.219
        22   01 Jun 2027 09:11:08.315   01 Jun 2027 09:14:11.987           183.672              Murmansk2          5739.750
        23   01 Jun 2027 09:14:18.373   01 Jun 2027 09:14:37.529            19.156                 Moscow           598.625
        24   01 Jun 2027 09:15:05.720   01 Jun 2027 09:15:14.314             8.594              Murmansk2           268.563
        25   01 Jun 2027 09:16:44.728   01 Jun 2027 09:17:02.258            17.530                Norilsk           547.813
        26   01 Jun 2027 09:18:46.354   01 Jun 2027 09:18:49.891             3.537              Murmansk1           110.531
        27   01 Jun 2027 10:31:37.671   01 Jun 2027 10:35:54.456           256.785                  Delhi          8024.531
        28   01 Jun 2027 10:40:01.870   01 Jun 2027 10:40:55.444            53.574                  Delhi          1674.188
        29   01 Jun 2027 10:45:05.554   01 Jun 2027 10:45:06.520             0.966                Norilsk            30.188
        30   01 Jun 2027 10:45:28.566   01 Jun 2027 10:47:58.794           150.228                Novosib          4694.625
        31   01 Jun 2027 10:48:03.649   01 Jun 2027 10:48:15.040            11.391                 Moscow           355.969
        32   01 Jun 2027 10:48:19.517   01 Jun 2027 10:48:36.882            17.365              Murmansk2           542.656
        33   01 Jun 2027 10:48:51.812   01 Jun 2027 10:49:32.542            40.730                Norilsk          1272.812
        34   01 Jun 2027 12:14:35.764   01 Jun 2027 12:15:40.778            65.014                 Moscow          2031.687
        35   01 Jun 2027 12:18:06.007   01 Jun 2027 12:21:20.290           194.283              Murmansk2          6071.344
        36   01 Jun 2027 12:22:25.140   01 Jun 2027 12:23:50.018            84.878              Murmansk2          2652.437
        37   01 Jun 2027 12:26:28.219   01 Jun 2027 12:27:05.217            36.998                Norilsk          1156.188
        38   01 Jun 2027 12:33:43.389   01 Jun 2027 12:37:17.883           214.494                Anadyr2          6702.938
        39   01 Jun 2027 12:38:16.039   01 Jun 2027 12:39:34.434            78.395                Anadyr1          2449.844
        40   01 Jun 2027 13:27:55.242   01 Jun 2027 13:29:35.842           100.600               CapeTown          3143.750
        41   01 Jun 2027 13:56:14.676   01 Jun 2027 13:57:01.699            47.023              Murmansk1          1469.469
        42   01 Jun 2027 14:08:32.354   01 Jun 2027 14:12:44.853           252.499                Anadyr1          7890.594
        43   01 Jun 2027 15:37:28.652   01 Jun 2027 15:39:47.844           139.192              Murmansk1          4349.750
        44   01 Jun 2027 15:44:20.795   01 Jun 2027 15:46:31.640           130.845                Anadyr1          4088.906
        45   01 Jun 2027 15:46:59.760   01 Jun 2027 15:51:02.583           242.823               Magadan2          7588.219
        46   01 Jun 2027 15:55:04.400   01 Jun 2027 15:55:20.454            16.054               Magadan1           501.687
        47   01 Jun 2027 15:56:05.293   01 Jun 2027 15:57:57.213           111.920               Magadan1          3497.500
        48   01 Jun 2027 17:22:32.755   01 Jun 2027 17:24:28.083           115.328               Magadan1          3604.000
        49   01 Jun 2027 17:25:37.226   01 Jun 2027 17:25:37.914             0.688                Norilsk            21.500
        50   01 Jun 2027 18:15:01.489   01 Jun 2027 18:17:40.940           159.451            RioGallegos          4982.844
        51   01 Jun 2027 18:17:54.743   01 Jun 2027 18:21:20.278           205.535            RioGallegos          6422.969
        52   01 Jun 2027 18:59:25.499   01 Jun 2027 19:01:36.961           131.462                Norilsk          4108.188
        53   01 Jun 2027 19:02:27.650   01 Jun 2027 19:03:22.284            54.634                Irkutsk          1707.313
        54   01 Jun 2027 19:03:44.360   01 Jun 2027 19:04:19.209            34.849                Irkutsk          1089.031
        55   01 Jun 2027 19:12:45.191   01 Jun 2027 19:13:41.002            55.811                Irkutsk          1744.094
        56   01 Jun 2027 19:16:22.619   01 Jun 2027 19:20:05.085           222.466                Sumatra          6952.063
        57   01 Jun 2027 19:22:39.761   01 Jun 2027 19:22:53.685            13.924                Sumatra           435.125
        58   01 Jun 2027 20:38:10.075   01 Jun 2027 20:39:12.977            62.902                Novosib          1965.687
        59   01 Jun 2027 20:40:16.902   01 Jun 2027 20:41:14.236            57.334                Novosib          1791.688
        60   01 Jun 2027 20:44:29.106   01 Jun 2027 20:44:40.555            11.449                Novosib           357.781
        61   01 Jun 2027 20:45:11.844   01 Jun 2027 20:45:39.024            27.180                Novosib           849.375
        62   01 Jun 2027 20:46:17.048   01 Jun 2027 20:47:32.038            74.990                  Delhi          2343.438
        63   01 Jun 2027 20:49:42.279   01 Jun 2027 20:49:58.772            16.493                  Delhi           515.406
        64   01 Jun 2027 20:51:30.623   01 Jun 2027 20:53:04.946            94.323                  Delhi          2947.594
        65   01 Jun 2027 22:12:31.220   01 Jun 2027 22:19:00.032           388.812              Murmansk1         12150.375
        66   01 Jun 2027 22:19:15.156   01 Jun 2027 22:22:27.408           192.252                 Moscow          6007.875
        67   01 Jun 2027 23:49:26.074   01 Jun 2027 23:50:07.093            41.019              Murmansk2          1281.844
        68   01 Jun 2027 23:51:37.387   01 Jun 2027 23:52:32.390            55.003                 Moscow          1718.844
        69   01 Jun 2027 23:55:05.174   01 Jun 2027 23:55:44.497            39.323                 Moscow          1228.844
        70   01 Jun 2027 23:56:12.580   01 Jun 2027 23:58:05.895           113.315                 Moscow          3541.094
        71   02 Jun 2027 00:16:16.870   02 Jun 2027 00:16:34.638            17.768               CapeTown           555.250
        72   02 Jun 2027 00:17:36.523   02 Jun 2027 00:19:42.516           125.993               CapeTown          3937.281
        73   02 Jun 2027 01:24:08.324   02 Jun 2027 01:26:28.580           140.256              Murmansk1          4383.000
        74   02 Jun 2027 01:31:44.801   02 Jun 2027 01:32:17.208            32.407                 Moscow          1012.719
        75   02 Jun 2027 01:36:20.675   02 Jun 2027 01:36:39.391            18.716                 Moscow           584.875
        76   02 Jun 2027 01:51:39.077   02 Jun 2027 01:52:41.319            62.242               CapeTown          1945.062
        77   02 Jun 2027 02:01:25.376   02 Jun 2027 02:01:30.551             5.175               CapeTown           161.719
        78   02 Jun 2027 02:48:14.278   02 Jun 2027 02:51:46.943           212.665               Magadan1          6645.781
        79   02 Jun 2027 02:52:00.574   02 Jun 2027 02:52:03.854             3.280               Magadan1           102.500
        80   02 Jun 2027 02:53:44.813   02 Jun 2027 02:53:52.528             7.715               Magadan2           241.094
        81   02 Jun 2027 02:56:21.155   02 Jun 2027 02:56:26.776             5.621                Norilsk           175.656
        82   02 Jun 2027 02:56:56.666   02 Jun 2027 02:57:23.757            27.091                Norilsk           846.594
        83   02 Jun 2027 03:00:01.799   02 Jun 2027 03:00:43.765            41.966              Murmansk1          1311.437
        84   02 Jun 2027 04:30:17.692   02 Jun 2027 04:30:44.360            26.668                Irkutsk           833.375
        85   02 Jun 2027 04:31:05.986   02 Jun 2027 04:31:46.801            40.815                Irkutsk          1275.469
        86   02 Jun 2027 04:32:42.025   02 Jun 2027 04:33:35.476            53.451                Irkutsk          1670.344
        87   02 Jun 2027 04:33:48.777   02 Jun 2027 04:33:53.495             4.718               Magadan1           147.438
        88   02 Jun 2027 04:34:07.808   02 Jun 2027 04:34:47.822            40.014                Anadyr1          1250.437
        89   02 Jun 2027 04:35:02.476   02 Jun 2027 04:35:03.967             1.491                Irkutsk            46.594
        90   02 Jun 2027 04:35:33.821   02 Jun 2027 04:35:44.972            11.151               Magadan1           348.469
        91   02 Jun 2027 04:36:00.075   02 Jun 2027 04:36:24.088            24.013                Anadyr2           750.406
        92   02 Jun 2027 04:36:40.020   02 Jun 2027 04:37:49.767            69.747                Norilsk          2179.594
        93   02 Jun 2027 05:12:40.025   02 Jun 2027 05:14:37.276           117.251            RioGallegos          3664.094
        94   02 Jun 2027 06:06:57.116   02 Jun 2027 06:07:42.395            45.279                Irkutsk          1414.969
        95   02 Jun 2027 06:07:43.907   02 Jun 2027 06:07:50.108             6.201                Norilsk           193.781
        96   02 Jun 2027 06:08:05.336   02 Jun 2027 06:11:19.772           194.436               Magadan1          6076.125
        97   02 Jun 2027 06:11:23.906   02 Jun 2027 06:12:08.412            44.506                Irkutsk          1390.812
        98   02 Jun 2027 06:12:12.627   02 Jun 2027 06:13:24.359            71.732              Murmansk2          2241.625
        99   02 Jun 2027 06:16:00.954   02 Jun 2027 06:16:32.467            31.513              Murmansk1           984.781
       100   02 Jun 2027 06:46:52.960   02 Jun 2027 06:46:56.366             3.406            RioGallegos           106.438
       101   02 Jun 2027 06:47:06.353   02 Jun 2027 06:48:09.860            63.507            RioGallegos          1984.594
       102   02 Jun 2027 07:22:13.523   02 Jun 2027 07:26:05.335           231.812                Sumatra          7244.125
       103   02 Jun 2027 07:34:58.299   02 Jun 2027 07:35:44.156            45.857                  Delhi          1433.031
       104   02 Jun 2027 07:43:40.059   02 Jun 2027 07:44:11.741            31.682                Novosib           990.062
       105   02 Jun 2027 07:44:16.694   02 Jun 2027 07:44:27.880            11.186                Novosib           349.563
       106   02 Jun 2027 07:44:28.009   02 Jun 2027 07:44:41.939            13.930                Norilsk           435.313
       107   02 Jun 2027 07:44:45.263   02 Jun 2027 07:45:26.694            41.431              Murmansk2          1294.719
       108   02 Jun 2027 07:45:27.379   02 Jun 2027 07:46:07.770            40.391              Murmansk2          1262.219
       109   02 Jun 2027 07:46:21.245   02 Jun 2027 07:48:07.754           106.509                Irkutsk          3328.406
       110   02 Jun 2027 07:48:13.378   02 Jun 2027 07:48:18.741             5.363              Murmansk2           167.594
       111   02 Jun 2027 07:48:45.913   02 Jun 2027 07:49:05.122            19.209              Murmansk1           600.281
       112   02 Jun 2027 07:50:05.830   02 Jun 2027 07:50:17.989            12.159              Murmansk2           379.969
       113   02 Jun 2027 07:51:49.985   02 Jun 2027 07:51:59.709             9.724              Murmansk2           303.875
       114   02 Jun 2027 07:52:52.156   02 Jun 2027 07:53:10.425            18.269                Norilsk           570.906
       115   02 Jun 2027 07:54:16.393   02 Jun 2027 07:55:01.003            44.610              Murmansk2          1394.062
       116   02 Jun 2027 08:25:11.386   02 Jun 2027 08:25:23.464            12.078            RioGallegos           377.437
       117   02 Jun 2027 08:27:21.313   02 Jun 2027 08:28:14.202            52.889            RioGallegos          1652.781
       118   02 Jun 2027 08:59:28.890   02 Jun 2027 08:59:44.330            15.440                Sumatra           482.500
       119   02 Jun 2027 09:02:58.186   02 Jun 2027 09:03:31.082            32.896                Sumatra          1028.000
       120   02 Jun 2027 09:06:03.789   02 Jun 2027 09:09:10.086           186.297                  Delhi          5821.781
       121   02 Jun 2027 09:22:03.044   02 Jun 2027 09:22:17.491            14.447                Novosib           451.469
       122   02 Jun 2027 09:22:31.738   02 Jun 2027 09:23:53.011            81.273                Norilsk          2539.781
       123   02 Jun 2027 09:24:06.634   02 Jun 2027 09:26:53.503           166.869                 Moscow          5214.656
       124   02 Jun 2027 10:44:30.362   02 Jun 2027 10:47:58.156           207.794                  Delhi          6493.563
       125   02 Jun 2027 10:56:58.375   02 Jun 2027 10:59:46.889           168.514                 Moscow          5266.062
       126   02 Jun 2027 11:00:07.375   02 Jun 2027 11:02:41.824           154.449              Murmansk1          4826.531
       127   02 Jun 2027 11:02:50.801   02 Jun 2027 11:02:55.557             4.756                Norilsk           148.625
       128   02 Jun 2027 11:03:22.085   02 Jun 2027 11:04:15.159            53.074                Norilsk          1658.563
       129   02 Jun 2027 12:07:09.512   02 Jun 2027 12:09:12.211           122.699               CapeTown          3834.344
       130   02 Jun 2027 12:12:27.405   02 Jun 2027 12:12:41.729            14.324               CapeTown           447.625
       131   02 Jun 2027 12:26:49.484   02 Jun 2027 12:27:39.177            49.693                 Moscow          1552.906
       132   02 Jun 2027 12:30:16.894   02 Jun 2027 12:32:54.105           157.211              Murmansk2          4912.844
       133   02 Jun 2027 12:34:26.666   02 Jun 2027 12:34:36.783            10.117              Murmansk1           316.156
       134   02 Jun 2027 12:34:54.795   02 Jun 2027 12:35:16.785            21.990              Murmansk1           687.187
       135   02 Jun 2027 12:45:25.806   02 Jun 2027 12:49:11.796           225.990                Anadyr1          7062.188
       136   02 Jun 2027 12:50:34.637   02 Jun 2027 12:52:28.927           114.290                Anadyr2          3571.563
       137   02 Jun 2027 13:39:51.725   02 Jun 2027 13:40:01.717             9.992               CapeTown           312.250
       138   02 Jun 2027 14:08:42.871   02 Jun 2027 14:09:01.584            18.713              Murmansk2           584.781
       139   02 Jun 2027 14:20:31.483   02 Jun 2027 14:22:09.978            98.495                Anadyr1          3077.969
       140   02 Jun 2027 14:22:16.771   02 Jun 2027 14:24:45.293           148.522                Anadyr2          4641.312
       141   02 Jun 2027 14:26:05.283   02 Jun 2027 14:27:51.189           105.906               Magadan2          3309.562
       142   02 Jun 2027 15:17:00.337   02 Jun 2027 15:17:09.588             9.251               CapeTown           289.094
       143   02 Jun 2027 15:56:22.097   02 Jun 2027 15:59:34.104           192.007                Anadyr2          6000.219
       144   02 Jun 2027 16:00:22.175   02 Jun 2027 16:01:55.460            93.285               Magadan1          2915.156
       145   02 Jun 2027 16:01:55.460   02 Jun 2027 16:03:01.104            65.644               Magadan2          2051.375
       146   02 Jun 2027 16:04:19.215   02 Jun 2027 16:06:57.238           158.023               Magadan1          4938.219
       147   02 Jun 2027 17:32:16.414   02 Jun 2027 17:35:19.337           182.923                Anadyr1          5716.344
       148   02 Jun 2027 17:35:40.841   02 Jun 2027 17:38:45.233           184.392                Norilsk          5762.250
       149   02 Jun 2027 18:26:47.244   02 Jun 2027 18:30:35.603           228.359            RioGallegos          7136.219
       150   02 Jun 2027 18:31:04.357   02 Jun 2027 18:31:20.672            16.315            RioGallegos           509.844
       151   02 Jun 2027 19:10:08.505   02 Jun 2027 19:12:06.075           117.570                Norilsk          3674.063
       152   02 Jun 2027 19:12:35.559   02 Jun 2027 19:15:36.613           181.054                Norilsk          5657.937
       153   02 Jun 2027 19:16:11.524   02 Jun 2027 19:16:58.725            47.201                Irkutsk          1475.031
       154   02 Jun 2027 19:17:25.282   02 Jun 2027 19:21:16.275           230.993                Novosib          7218.531
       155   02 Jun 2027 19:29:32.649   02 Jun 2027 19:31:57.716           145.067                Sumatra          4533.344
       156   02 Jun 2027 20:52:19.377   02 Jun 2027 20:52:25.430             6.053                Novosib           189.156
       157   02 Jun 2027 20:56:33.417   02 Jun 2027 20:57:00.811            27.394                Novosib           856.062
       158   02 Jun 2027 20:57:55.642   02 Jun 2027 21:01:23.923           208.281                  Delhi          6508.781
       159   02 Jun 2027 21:03:09.705   02 Jun 2027 21:04:19.905            70.200                  Delhi          2193.750
       160   02 Jun 2027 22:24:27.614   02 Jun 2027 22:26:42.117           134.503              Murmansk2          4203.219
       161   02 Jun 2027 22:26:57.984   02 Jun 2027 22:28:36.870            98.886              Murmansk1          3090.187
       162   02 Jun 2027 22:29:24.094   02 Jun 2027 22:34:03.074           278.980                 Moscow          8718.125
       163   02 Jun 2027 22:35:46.540   02 Jun 2027 22:35:48.059             1.519                 Moscow            47.469
       164   03 Jun 2027 00:00:11.863   03 Jun 2027 00:01:03.328            51.465              Murmansk1          1608.281
       165   03 Jun 2027 00:03:34.189   03 Jun 2027 00:05:20.041           105.852                 Moscow          3307.875
       166   03 Jun 2027 00:09:24.269   03 Jun 2027 00:09:47.388            23.119                 Moscow           722.469
       167   03 Jun 2027 00:27:55.761   03 Jun 2027 00:30:14.256           138.495               CapeTown          4327.969
       168   03 Jun 2027 00:31:37.723   03 Jun 2027 00:32:23.274            45.551               CapeTown          1423.469
       169   03 Jun 2027 01:31:14.319   03 Jun 2027 01:31:39.337            25.018               Magadan1           781.813
       170   03 Jun 2027 01:36:09.882   03 Jun 2027 01:37:27.838            77.956              Murmansk1          2436.125
       171   03 Jun 2027 01:39:07.887   03 Jun 2027 01:39:42.483            34.596              Murmansk1          1081.125
       172   03 Jun 2027 01:39:45.430   03 Jun 2027 01:40:42.129            56.699                 Moscow          1771.844
       173   03 Jun 2027 02:04:01.010   03 Jun 2027 02:04:23.760            22.750               CapeTown           710.938
       174   03 Jun 2027 02:05:11.839   03 Jun 2027 02:05:59.416            47.577               CapeTown          1486.781
       175   03 Jun 2027 03:00:04.264   03 Jun 2027 03:02:07.167           122.903               Magadan1          3840.719
       176   03 Jun 2027 03:05:22.851   03 Jun 2027 03:09:32.351           249.500               Magadan2          7796.875
       177   03 Jun 2027 03:09:45.208   03 Jun 2027 03:09:52.309             7.101               Magadan1           221.906
       178   03 Jun 2027 03:09:52.309   03 Jun 2027 03:10:15.494            23.185               Magadan2           724.531
       179   03 Jun 2027 03:10:59.863   03 Jun 2027 03:11:30.454            30.591               Magadan1           955.969
       180   03 Jun 2027 04:42:43.577   03 Jun 2027 04:44:25.098           101.521                Anadyr2          3172.531
       181   03 Jun 2027 04:44:39.489   03 Jun 2027 04:44:46.464             6.975                Anadyr2           217.969
       182   03 Jun 2027 04:44:46.464   03 Jun 2027 04:45:49.483            63.019                Anadyr1          1969.344
       183   03 Jun 2027 04:45:56.754   03 Jun 2027 04:46:08.238            11.484                Anadyr1           358.875
       184   03 Jun 2027 04:46:19.270   03 Jun 2027 04:46:45.553            26.283                Anadyr2           821.344
       185   03 Jun 2027 04:46:45.553   03 Jun 2027 04:48:01.453            75.900                Anadyr1          2371.875
       186   03 Jun 2027 05:24:17.112   03 Jun 2027 05:26:24.487           127.375            RioGallegos          3980.469
       187   03 Jun 2027 05:26:39.141   03 Jun 2027 05:26:43.856             4.715            RioGallegos           147.344
       188   03 Jun 2027 06:17:53.117   03 Jun 2027 06:18:04.470            11.353               Magadan2           354.781
       189   03 Jun 2027 06:18:04.470   03 Jun 2027 06:18:56.333            51.863               Magadan1          1620.719
       190   03 Jun 2027 06:19:18.444   03 Jun 2027 06:21:42.302           143.858               Magadan1          4495.563
       191   03 Jun 2027 06:21:52.587   03 Jun 2027 06:22:17.041            24.454               Magadan2           764.188
       192   03 Jun 2027 06:22:21.784   03 Jun 2027 06:23:59.770            97.986              Murmansk2          3062.062
       193   03 Jun 2027 06:24:25.370   03 Jun 2027 06:25:15.577            50.207              Murmansk2          1568.969
       194   03 Jun 2027 06:25:26.580   03 Jun 2027 06:25:37.877            11.297              Murmansk2           353.031
       195   03 Jun 2027 06:26:12.356   03 Jun 2027 06:26:22.121             9.765                Norilsk           305.156
       196   03 Jun 2027 06:26:36.698   03 Jun 2027 06:27:05.217            28.519              Murmansk1           891.219
       197   03 Jun 2027 06:27:05.217   03 Jun 2027 06:28:00.323            55.106              Murmansk2          1722.063
       198   03 Jun 2027 06:28:48.356   03 Jun 2027 06:29:15.424            27.068              Murmansk1           845.875
       199   03 Jun 2027 06:58:55.914   03 Jun 2027 07:00:39.776           103.862            RioGallegos          3245.688
       200   03 Jun 2027 07:03:25.711   03 Jun 2027 07:03:41.621            15.910            RioGallegos           497.188
       201   03 Jun 2027 07:34:00.303   03 Jun 2027 07:38:01.266           240.963                Sumatra          7530.094
       202   03 Jun 2027 07:45:37.822   03 Jun 2027 07:45:44.920             7.098                  Delhi           221.812
       203   03 Jun 2027 07:55:36.846   03 Jun 2027 07:56:29.471            52.625                Novosib          1644.531
       204   03 Jun 2027 07:56:56.175   03 Jun 2027 07:57:16.623            20.448                Norilsk           639.000
       205   03 Jun 2027 07:57:22.003   03 Jun 2027 07:58:41.632            79.629                Novosib          2488.406
       206   03 Jun 2027 07:58:47.605   03 Jun 2027 08:01:29.096           161.491                 Moscow          5046.594
       207   03 Jun 2027 09:11:54.875   03 Jun 2027 09:13:21.070            86.195                Sumatra          2693.594
       208   03 Jun 2027 09:18:01.006   03 Jun 2027 09:20:36.635           155.629                  Delhi          4863.406
       209   03 Jun 2027 09:33:52.171   03 Jun 2027 09:34:52.296            60.125                 Moscow          1878.906
       210   03 Jun 2027 09:34:54.313   03 Jun 2027 09:35:31.872            37.559                 Moscow          1173.719
       211   03 Jun 2027 09:35:34.788   03 Jun 2027 09:37:03.702            88.914                 Moscow          2778.562
       212   03 Jun 2027 09:38:02.565   03 Jun 2027 09:38:28.481            25.916                Norilsk           809.875
       213   03 Jun 2027 10:57:49.429   03 Jun 2027 11:00:07.178           137.749                  Delhi          4304.656
       214   03 Jun 2027 11:05:51.198   03 Jun 2027 11:06:18.090            26.892              Murmansk1           840.375
       215   03 Jun 2027 11:06:26.407   03 Jun 2027 11:06:39.428            13.021              Murmansk2           406.906
       216   03 Jun 2027 11:06:49.336   03 Jun 2027 11:07:00.801            11.465                 Moscow           358.281
       217   03 Jun 2027 11:07:01.225   03 Jun 2027 11:07:10.099             8.874                Novosib           277.313
       218   03 Jun 2027 11:07:10.501   03 Jun 2027 11:08:07.949            57.448                 Moscow          1795.250
       219   03 Jun 2027 11:08:19.899   03 Jun 2027 11:08:41.661            21.762                 Moscow           680.063
       220   03 Jun 2027 11:08:42.550   03 Jun 2027 11:08:52.310             9.760                Norilsk           305.000
       221   03 Jun 2027 11:08:55.560   03 Jun 2027 11:09:02.416             6.856                Novosib           214.250
       222   03 Jun 2027 11:09:04.140   03 Jun 2027 11:10:01.092            56.952                 Moscow          1779.750
       223   03 Jun 2027 11:10:12.882   03 Jun 2027 11:11:21.360            68.478              Murmansk2          2139.938
       224   03 Jun 2027 11:11:21.497   03 Jun 2027 11:11:29.584             8.087                 Moscow           252.719
       225   03 Jun 2027 11:12:04.503   03 Jun 2027 11:12:17.488            12.985                 Moscow           405.781
       226   03 Jun 2027 11:12:18.972   03 Jun 2027 11:12:28.372             9.400                Norilsk           293.750
       227   03 Jun 2027 11:12:36.530   03 Jun 2027 11:12:37.287             0.757              Murmansk1            23.656
       228   03 Jun 2027 11:12:37.287   03 Jun 2027 11:12:52.898            15.611              Murmansk2           487.844
       229   03 Jun 2027 11:13:06.386   03 Jun 2027 11:13:39.280            32.894                 Moscow          1027.937
       230   03 Jun 2027 12:18:07.963   03 Jun 2027 12:20:52.900           164.937               CapeTown          5154.281
       231   03 Jun 2027 12:24:40.618   03 Jun 2027 12:25:59.693            79.075               CapeTown          2471.094
       232   03 Jun 2027 12:39:06.820   03 Jun 2027 12:39:40.425            33.605                 Moscow          1050.156
       233   03 Jun 2027 12:42:29.651   03 Jun 2027 12:43:10.212            40.561              Murmansk2          1267.531
       234   03 Jun 2027 12:43:18.576   03 Jun 2027 12:44:51.681            93.105              Murmansk1          2909.531
       235   03 Jun 2027 12:46:42.849   03 Jun 2027 12:47:00.927            18.078              Murmansk2           564.937
       236   03 Jun 2027 12:47:35.121   03 Jun 2027 12:48:09.843            34.722              Murmansk2          1085.062
       237   03 Jun 2027 12:57:13.733   03 Jun 2027 13:01:07.350           233.617                Anadyr2          7300.531
       238   03 Jun 2027 13:01:21.612   03 Jun 2027 13:03:14.244           112.632                Anadyr1          3519.750
       239   03 Jun 2027 14:24:07.347   03 Jun 2027 14:24:17.825            10.478              Murmansk2           327.438
       240   03 Jun 2027 14:24:25.264   03 Jun 2027 14:25:06.104            40.840              Murmansk2          1276.250
       241   03 Jun 2027 14:32:31.137   03 Jun 2027 14:34:18.715           107.578                Anadyr2          3361.812
       242   03 Jun 2027 14:35:51.952   03 Jun 2027 14:36:46.004            54.052                Anadyr2          1689.125
       243   03 Jun 2027 14:36:50.246   03 Jun 2027 14:41:44.676           294.430               Magadan1          9200.938
       244   03 Jun 2027 16:08:23.442   03 Jun 2027 16:10:15.935           112.493                Anadyr2          3515.406
       245   03 Jun 2027 16:10:51.607   03 Jun 2027 16:12:51.498           119.891               Magadan1          3746.594
       246   03 Jun 2027 16:14:13.010   03 Jun 2027 16:15:25.016            72.006               Magadan1          2250.188
       247   03 Jun 2027 16:18:59.622   03 Jun 2027 16:19:09.827            10.205               Magadan2           318.906
       248   03 Jun 2027 17:44:16.812   03 Jun 2027 17:45:35.784            78.972                Anadyr1          2467.875
       249   03 Jun 2027 17:46:35.218   03 Jun 2027 17:47:58.229            83.011               Magadan1          2594.094
       250   03 Jun 2027 17:48:11.887   03 Jun 2027 17:51:58.183           226.296                Norilsk          7071.750
       251   03 Jun 2027 17:53:34.335   03 Jun 2027 17:55:34.306           119.971                Irkutsk          3749.094
       252   03 Jun 2027 18:40:26.831   03 Jun 2027 18:41:45.038            78.207            RioGallegos          2443.969
       253   03 Jun 2027 19:22:08.974   03 Jun 2027 19:23:39.101            90.127                Norilsk          2816.469
       254   03 Jun 2027 19:26:14.654   03 Jun 2027 19:26:49.482            34.828                Irkutsk          1088.375
       255   03 Jun 2027 19:27:46.446   03 Jun 2027 19:34:30.737           404.291                Novosib         12634.094
       256   03 Jun 2027 19:42:40.260   03 Jun 2027 19:43:31.211            50.951                Sumatra          1592.219
       257   03 Jun 2027 21:01:59.138   03 Jun 2027 21:02:01.248             2.110                Irkutsk            65.938
       258   03 Jun 2027 21:03:57.714   03 Jun 2027 21:05:38.312           100.598                Novosib          3143.688
       259   03 Jun 2027 21:09:40.254   03 Jun 2027 21:13:33.609           233.355                  Delhi          7292.344
       260   03 Jun 2027 21:13:44.184   03 Jun 2027 21:14:00.449            16.265                  Delhi           508.281
       261   03 Jun 2027 22:36:25.280   03 Jun 2027 22:38:22.205           116.925              Murmansk1          3653.906
       262   03 Jun 2027 22:39:43.867   03 Jun 2027 22:41:59.205           135.338              Murmansk2          4229.312
       263   03 Jun 2027 22:43:01.136   03 Jun 2027 22:48:47.056           345.920                 Moscow         10810.000
       264   04 Jun 2027 00:13:08.588   04 Jun 2027 00:13:34.526            25.938              Murmansk2           810.563
       265   04 Jun 2027 00:15:32.113   04 Jun 2027 00:17:47.438           135.325                 Moscow          4228.906
       266   04 Jun 2027 00:39:40.201   04 Jun 2027 00:43:14.365           214.164               CapeTown          6692.625
       267   04 Jun 2027 01:38:11.150   04 Jun 2027 01:38:19.751             8.601               Magadan1           268.781
       268   04 Jun 2027 01:38:53.203   04 Jun 2027 01:39:18.058            24.855               Magadan1           776.719
       269   04 Jun 2027 01:39:35.111   04 Jun 2027 01:40:09.517            34.406               Magadan2          1075.187
       270   04 Jun 2027 01:43:07.571   04 Jun 2027 01:43:17.002             9.431               Magadan2           294.719
       271   04 Jun 2027 01:48:11.343   04 Jun 2027 01:49:29.560            78.217              Murmansk1          2444.281
       272   04 Jun 2027 01:51:04.334   04 Jun 2027 01:51:10.221             5.887              Murmansk1           183.969
       273   04 Jun 2027 01:51:27.111   04 Jun 2027 01:52:42.599            75.488                 Moscow          2359.000
       274   04 Jun 2027 01:53:57.268   04 Jun 2027 01:54:16.135            18.867                 Moscow           589.594
       275   04 Jun 2027 01:55:28.398   04 Jun 2027 01:55:47.425            19.027                 Moscow           594.594
       276   04 Jun 2027 02:00:28.818   04 Jun 2027 02:00:33.155             4.337                 Moscow           135.531
       277   04 Jun 2027 02:00:36.658   04 Jun 2027 02:00:49.053            12.395                 Moscow           387.344
       278   04 Jun 2027 02:03:24.475   04 Jun 2027 02:03:41.477            17.002                 Moscow           531.312
       279   04 Jun 2027 02:16:30.556   04 Jun 2027 02:16:35.558             5.002               CapeTown           156.312
       280   04 Jun 2027 02:17:43.935   04 Jun 2027 02:19:04.226            80.291               CapeTown          2509.094
       281   04 Jun 2027 03:11:56.419   04 Jun 2027 03:12:01.300             4.881               Magadan1           152.531
       282   04 Jun 2027 03:13:21.739   04 Jun 2027 03:13:56.085            34.346                Anadyr2          1073.312
       283   04 Jun 2027 03:16:40.037   04 Jun 2027 03:17:34.939            54.902                Anadyr2          1715.687
       284   04 Jun 2027 03:17:41.430   04 Jun 2027 03:17:43.892             2.462                Anadyr2            76.938
       285   04 Jun 2027 03:18:00.137   04 Jun 2027 03:18:12.257            12.120                Anadyr2           378.750
       286   04 Jun 2027 03:18:47.903   04 Jun 2027 03:21:26.239           158.336               Magadan2          4948.000
       287   04 Jun 2027 03:21:26.239   04 Jun 2027 03:23:32.797           126.558               Magadan1          3954.938
       288   04 Jun 2027 03:23:40.028   04 Jun 2027 03:23:59.699            19.671                Anadyr2           614.719
       289   04 Jun 2027 03:24:15.607   04 Jun 2027 03:24:40.659            25.052                Anadyr2           782.875
       290   04 Jun 2027 04:53:45.591   04 Jun 2027 04:54:07.550            21.959                Irkutsk           686.219
       291   04 Jun 2027 04:54:08.762   04 Jun 2027 04:56:15.581           126.819                Anadyr1          3963.094
       292   04 Jun 2027 04:56:15.581   04 Jun 2027 04:57:31.725            76.144                Anadyr2          2379.500
       293   04 Jun 2027 04:57:45.920   04 Jun 2027 04:57:48.030             2.110               Magadan2            65.938
       294   04 Jun 2027 04:57:50.883   04 Jun 2027 04:57:53.169             2.286               Magadan2            71.438
       295   04 Jun 2027 04:58:03.480   04 Jun 2027 04:59:21.697            78.217                Novosib          2444.281
       296   04 Jun 2027 04:59:39.495   04 Jun 2027 04:59:48.293             8.798               Magadan2           274.938
       297   04 Jun 2027 04:59:59.418   04 Jun 2027 05:01:16.868            77.450              Murmansk2          2420.312
       298   04 Jun 2027 05:02:06.592   04 Jun 2027 05:02:45.834            39.242                Norilsk          1226.313
       299   04 Jun 2027 05:35:57.570   04 Jun 2027 05:38:54.053           176.483            RioGallegos          5515.094
       300   04 Jun 2027 06:30:27.037   04 Jun 2027 06:30:56.922            29.885                Novosib           933.906
       301   04 Jun 2027 06:31:07.535   04 Jun 2027 06:31:11.721             4.186               Magadan2           130.812
       302   04 Jun 2027 06:31:32.556   04 Jun 2027 06:34:01.991           149.435                Novosib          4669.844
       303   04 Jun 2027 06:34:10.398   04 Jun 2027 06:36:16.961           126.563                Irkutsk          3955.094
       304   04 Jun 2027 06:36:36.230   04 Jun 2027 06:37:07.361            31.131              Murmansk2           972.844
       305   04 Jun 2027 06:37:11.351   04 Jun 2027 06:37:37.786            26.435                Norilsk           826.094
       306   04 Jun 2027 06:38:55.856   04 Jun 2027 06:39:22.195            26.339                Norilsk           823.094
       307   04 Jun 2027 07:11:02.302   04 Jun 2027 07:12:29.887            87.585            RioGallegos          2737.031
       308   04 Jun 2027 07:14:11.245   04 Jun 2027 07:15:26.898            75.653            RioGallegos          2364.156
       309   04 Jun 2027 07:45:53.106   04 Jun 2027 07:47:35.960           102.854                Sumatra          3214.187
       310   04 Jun 2027 07:48:22.165   04 Jun 2027 07:49:06.314            44.149                Sumatra          1379.656
       311   04 Jun 2027 07:56:41.466   04 Jun 2027 07:57:53.267            71.801                  Delhi          2243.781
       312   04 Jun 2027 08:07:23.355   04 Jun 2027 08:08:57.103            93.748                Norilsk          2929.625
       313   04 Jun 2027 08:09:24.684   04 Jun 2027 08:09:33.767             9.083                Irkutsk           283.844
       314   04 Jun 2027 08:09:39.799   04 Jun 2027 08:09:44.339             4.540                Irkutsk           141.875
       315   04 Jun 2027 08:09:45.828   04 Jun 2027 08:10:01.643            15.815                Novosib           494.219
       316   04 Jun 2027 08:10:07.516   04 Jun 2027 08:11:04.157            56.641                 Moscow          1770.031
       317   04 Jun 2027 08:11:08.679   04 Jun 2027 08:11:11.580             2.901                Irkutsk            90.656
       318   04 Jun 2027 08:11:20.414   04 Jun 2027 08:13:04.153           103.739              Murmansk1          3241.844
       319   04 Jun 2027 08:13:26.526   04 Jun 2027 08:13:58.647            32.121                 Moscow          1003.781
       320   04 Jun 2027 08:53:10.826   04 Jun 2027 08:53:33.265            22.439            RioGallegos           701.219
       321   04 Jun 2027 09:25:17.284   04 Jun 2027 09:27:22.267           124.983                Sumatra          3905.719
       322   04 Jun 2027 09:30:03.540   04 Jun 2027 09:30:53.200            49.660                  Delhi          1551.875
       323   04 Jun 2027 09:44:02.210   04 Jun 2027 09:44:24.742            22.532              Murmansk2           704.125
       324   04 Jun 2027 09:44:36.609   04 Jun 2027 09:45:27.360            50.751                 Moscow          1585.969
       325   04 Jun 2027 09:45:32.538   04 Jun 2027 09:46:13.934            41.396              Murmansk2          1293.625
       326   04 Jun 2027 09:46:18.367   04 Jun 2027 09:46:37.052            18.685                Novosib           583.906
       327   04 Jun 2027 09:46:38.734   04 Jun 2027 09:46:57.309            18.575              Murmansk1           580.469
       328   04 Jun 2027 09:47:00.130   04 Jun 2027 09:48:03.782            63.652                 Moscow          1989.125
       329   04 Jun 2027 11:17:44.255   04 Jun 2027 11:18:47.328            63.073                 Moscow          1971.031
       330   04 Jun 2027 11:18:51.248   04 Jun 2027 11:19:27.402            36.154              Murmansk1          1129.813
       331   04 Jun 2027 11:19:36.350   04 Jun 2027 11:20:58.330            81.980                 Moscow          2561.875
       332   04 Jun 2027 11:21:12.682   04 Jun 2027 11:21:36.493            23.811              Murmansk1           744.094
       333   04 Jun 2027 11:21:37.668   04 Jun 2027 11:22:01.572            23.904                 Moscow           747.000
       334   04 Jun 2027 11:22:12.157   04 Jun 2027 11:22:18.754             6.597              Murmansk2           206.156
       335   04 Jun 2027 11:22:25.652   04 Jun 2027 11:22:34.927             9.275              Murmansk2           289.844
       336   04 Jun 2027 11:22:35.009   04 Jun 2027 11:23:13.434            38.425                Norilsk          1200.781
       337   04 Jun 2027 11:23:19.285   04 Jun 2027 11:24:23.607            64.322              Murmansk2          2010.063
       338   04 Jun 2027 11:24:35.397   04 Jun 2027 11:24:54.273            18.876              Murmansk1           589.875
       339   04 Jun 2027 11:25:17.843   04 Jun 2027 11:25:32.110            14.267              Murmansk1           445.844
       340   04 Jun 2027 12:29:28.861   04 Jun 2027 12:32:38.904           190.043               CapeTown          5938.844
       341   04 Jun 2027 12:34:37.704   04 Jun 2027 12:36:39.673           121.969               CapeTown          3811.531
       342   04 Jun 2027 12:54:44.342   04 Jun 2027 12:55:15.929            31.587              Murmansk1           987.094
       343   04 Jun 2027 12:55:17.088   04 Jun 2027 12:55:45.755            28.667              Murmansk2           895.844
       344   04 Jun 2027 12:56:15.631   04 Jun 2027 12:56:21.393             5.762              Murmansk2           180.062
       345   04 Jun 2027 12:57:11.763   04 Jun 2027 12:58:11.850            60.087              Murmansk2          1877.719
       346   04 Jun 2027 13:09:05.082   04 Jun 2027 13:13:52.284           287.202                Anadyr1          8975.063
       347   04 Jun 2027 13:14:04.674   04 Jun 2027 13:15:04.210            59.536                Anadyr2          1860.500
       348   04 Jun 2027 14:40:03.916   04 Jun 2027 14:40:10.360             6.444              Murmansk2           201.375
       349   04 Jun 2027 14:44:31.207   04 Jun 2027 14:46:02.210            91.003                Anadyr2          2843.844
       350   04 Jun 2027 14:46:03.406   04 Jun 2027 14:46:47.045            43.639                Anadyr1          1363.719
       351   04 Jun 2027 14:47:08.744   04 Jun 2027 14:47:52.188            43.444                Anadyr1          1357.625
       352   04 Jun 2027 14:48:16.850   04 Jun 2027 14:54:53.564           396.714               Magadan1         12397.313
       353   04 Jun 2027 16:22:49.200   04 Jun 2027 16:25:06.879           137.679               Magadan2          4302.469
       354   04 Jun 2027 16:26:15.734   04 Jun 2027 16:26:19.972             4.238               Magadan2           132.438
       355   04 Jun 2027 16:27:00.112   04 Jun 2027 16:27:44.579            44.467               Magadan2          1389.594
       356   04 Jun 2027 17:56:16.903   04 Jun 2027 17:58:22.228           125.325                Anadyr1          3916.406
       357   04 Jun 2027 17:58:36.895   04 Jun 2027 18:01:17.619           160.724               Magadan1          5022.625
       358   04 Jun 2027 18:01:42.946   04 Jun 2027 18:04:36.181           173.235                Norilsk          5413.594
       359   04 Jun 2027 18:05:36.697   04 Jun 2027 18:07:17.218           100.521                Irkutsk          3141.281
       360   04 Jun 2027 18:21:46.418   04 Jun 2027 18:23:47.417           120.999                Sumatra          3781.219
       361   04 Jun 2027 19:34:09.839   04 Jun 2027 19:35:10.198            60.359                Norilsk          1886.219
       362   04 Jun 2027 19:39:20.327   04 Jun 2027 19:46:34.162           433.835                Novosib         13557.344
       363   04 Jun 2027 21:14:01.033   04 Jun 2027 21:15:49.536           108.503                Novosib          3390.719
       364   04 Jun 2027 21:21:29.665   04 Jun 2027 21:24:54.100           204.435                  Delhi          6388.594
       365   04 Jun 2027 22:47:08.865   04 Jun 2027 22:47:18.619             9.754               Magadan1           304.812
       366   04 Jun 2027 22:47:28.467   04 Jun 2027 22:48:01.152            32.685               Magadan1          1021.406
       367   04 Jun 2027 22:48:23.913   04 Jun 2027 22:50:10.231           106.318              Murmansk2          3322.437
       368   04 Jun 2027 22:50:15.377   04 Jun 2027 22:54:50.912           275.535              Murmansk1          8610.469
       369   04 Jun 2027 22:55:04.644   04 Jun 2027 22:58:25.588           200.944                 Moscow          6279.500
       370   04 Jun 2027 23:20:28.565   04 Jun 2027 23:21:41.825            73.260               CapeTown          2289.375
       371   04 Jun 2027 23:24:02.916   04 Jun 2027 23:25:34.716            91.800               CapeTown          2868.750
       372   05 Jun 2027 00:26:04.186   05 Jun 2027 00:26:24.387            20.201              Murmansk2           631.281
       373   05 Jun 2027 00:26:43.245   05 Jun 2027 00:26:56.650            13.405              Murmansk2           418.906
       374   05 Jun 2027 00:28:55.817   05 Jun 2027 00:29:14.060            18.243                 Moscow           570.094
       375   05 Jun 2027 00:31:16.197   05 Jun 2027 00:31:37.814            21.617                 Moscow           675.531
       376   05 Jun 2027 00:37:05.196   05 Jun 2027 00:37:19.085            13.889                 Moscow           434.031
       377   05 Jun 2027 00:51:29.832   05 Jun 2027 00:53:17.282           107.450               CapeTown          3357.812
       378   05 Jun 2027 00:59:39.608   05 Jun 2027 01:00:59.670            80.062               CapeTown          2501.938
       379   05 Jun 2027 01:49:49.351   05 Jun 2027 01:50:23.400            34.049               Magadan2          1064.031
       380   05 Jun 2027 01:51:28.396   05 Jun 2027 01:51:48.998            20.602               Magadan1           643.812
       381   05 Jun 2027 01:52:07.178   05 Jun 2027 01:52:11.404             4.226               Magadan1           132.062
       382   05 Jun 2027 01:56:03.673   05 Jun 2027 01:56:10.619             6.946               Magadan1           217.062
       383   05 Jun 2027 01:57:00.871   05 Jun 2027 01:57:27.585            26.714                Norilsk           834.813
       384   05 Jun 2027 01:58:49.197   05 Jun 2027 01:58:52.227             3.030                Norilsk            94.687
       385   05 Jun 2027 01:59:02.942   05 Jun 2027 01:59:11.726             8.784                Norilsk           274.500
       386   05 Jun 2027 02:00:12.681   05 Jun 2027 02:01:27.933            75.252              Murmansk2          2351.625
       387   05 Jun 2027 02:02:59.512   05 Jun 2027 02:03:33.706            34.194              Murmansk2          1068.563
       388   05 Jun 2027 02:03:45.235   05 Jun 2027 02:04:33.781            48.546                 Moscow          1517.063
       389   05 Jun 2027 02:10:55.384   05 Jun 2027 02:11:47.617            52.233                 Moscow          1632.281
       390   05 Jun 2027 02:29:09.772   05 Jun 2027 02:29:22.661            12.889               CapeTown           402.781
       391   05 Jun 2027 02:31:48.004   05 Jun 2027 02:33:19.381            91.377               CapeTown          2855.531
       392   05 Jun 2027 03:29:18.912   05 Jun 2027 03:30:14.266            55.354               Magadan2          1729.812
       393   05 Jun 2027 03:30:14.266   05 Jun 2027 03:36:38.653           384.387               Magadan1         12012.094
       394   05 Jun 2027 05:05:18.329   05 Jun 2027 05:06:56.483            98.154               Magadan1          3067.313
       395   05 Jun 2027 05:06:57.369   05 Jun 2027 05:07:53.936            56.567                Irkutsk          1767.719
       396   05 Jun 2027 05:08:01.132   05 Jun 2027 05:09:51.050           109.918               Magadan1          3434.937
       397   05 Jun 2027 05:09:51.050   05 Jun 2027 05:11:42.206           111.156               Magadan2          3473.625
       398   05 Jun 2027 05:11:43.760   05 Jun 2027 05:11:46.108             2.348                Irkutsk            73.375
       399   05 Jun 2027 05:11:50.669   05 Jun 2027 05:12:00.262             9.593               Magadan2           299.781
       400   05 Jun 2027 05:12:12.523   05 Jun 2027 05:12:25.369            12.846               Magadan2           401.438
       401   05 Jun 2027 05:47:41.295   05 Jun 2027 05:51:00.772           199.477            RioGallegos          6233.656
       402   05 Jun 2027 06:26:17.643   05 Jun 2027 06:27:25.781            68.138                Sumatra          2129.312
       403   05 Jun 2027 06:42:02.320   05 Jun 2027 06:43:03.396            61.076                Irkutsk          1908.625
       404   05 Jun 2027 06:43:36.106   05 Jun 2027 06:44:13.525            37.419               Magadan2          1169.344
       405   05 Jun 2027 06:44:26.966   05 Jun 2027 06:44:47.567            20.601                Novosib           643.781
       406   05 Jun 2027 06:44:50.519   05 Jun 2027 06:48:20.096           209.577                Irkutsk          6549.281
       407   05 Jun 2027 06:48:22.722   05 Jun 2027 06:48:25.325             2.603                Novosib            81.344
       408   05 Jun 2027 07:23:12.299   05 Jun 2027 07:24:17.528            65.229            RioGallegos          2038.406
       409   05 Jun 2027 07:57:51.566   05 Jun 2027 07:58:47.212            55.646                Sumatra          1738.937
       410   05 Jun 2027 08:01:07.733   05 Jun 2027 08:02:37.872            90.139                Sumatra          2816.844
       411   05 Jun 2027 08:07:58.513   05 Jun 2027 08:10:07.550           129.037                  Delhi          4032.406
       412   05 Jun 2027 08:18:02.398   05 Jun 2027 08:18:06.408             4.010                  Delhi           125.313
       413   05 Jun 2027 08:18:46.634   05 Jun 2027 08:19:26.122            39.488                Novosib          1234.000
       414   05 Jun 2027 08:19:38.782   05 Jun 2027 08:19:39.706             0.924                Norilsk            28.875
       415   05 Jun 2027 08:20:01.540   05 Jun 2027 08:20:38.644            37.104                Irkutsk          1159.500
       416   05 Jun 2027 08:20:58.130   05 Jun 2027 08:21:28.798            30.668              Murmansk2           958.375
       417   05 Jun 2027 08:21:28.798   05 Jun 2027 08:21:52.686            23.888              Murmansk1           746.500
       418   05 Jun 2027 08:22:01.303   05 Jun 2027 08:22:20.160            18.857                Irkutsk           589.281
       419   05 Jun 2027 08:22:27.917   05 Jun 2027 08:23:06.906            38.989                 Moscow          1218.406
       420   05 Jun 2027 08:23:13.594   05 Jun 2027 08:23:19.068             5.474                Norilsk           171.063
       421   05 Jun 2027 08:23:19.306   05 Jun 2027 08:23:42.572            23.266              Murmansk1           727.063
       422   05 Jun 2027 08:23:47.430   05 Jun 2027 08:24:41.784            54.354              Murmansk2          1698.563
       423   05 Jun 2027 08:24:46.403   05 Jun 2027 08:25:02.491            16.088                 Moscow           502.750
       424   05 Jun 2027 08:26:07.796   05 Jun 2027 08:26:17.384             9.588                 Moscow           299.625
       425   05 Jun 2027 09:03:30.487   05 Jun 2027 09:04:03.013            32.526            RioGallegos          1016.437
       426   05 Jun 2027 09:05:11.077   05 Jun 2027 09:06:02.605            51.528            RioGallegos          1610.250
       427   05 Jun 2027 09:42:11.571   05 Jun 2027 09:43:51.488            99.917                  Delhi          3122.406
       428   05 Jun 2027 09:46:20.666   05 Jun 2027 09:47:28.515            67.849                  Delhi          2120.281
       429   05 Jun 2027 09:56:06.982   05 Jun 2027 09:56:57.630            50.648                Novosib          1582.750
       430   05 Jun 2027 09:57:12.185   05 Jun 2027 09:57:23.081            10.896              Murmansk1           340.500
       431   05 Jun 2027 09:57:25.501   05 Jun 2027 09:58:24.488            58.987              Murmansk1          1843.344
       432   05 Jun 2027 09:58:29.911   05 Jun 2027 09:58:32.629             2.718              Murmansk1            84.937
       433   05 Jun 2027 09:58:35.214   05 Jun 2027 09:58:43.590             8.376                Novosib           261.750
       434   05 Jun 2027 09:58:45.065   05 Jun 2027 09:59:06.316            21.251                Novosib           664.094
       435   05 Jun 2027 09:59:14.182   05 Jun 2027 10:00:59.224           105.042                 Moscow          3282.563
       436   05 Jun 2027 11:29:46.211   05 Jun 2027 11:30:54.892            68.681                 Moscow          2146.281
       437   05 Jun 2027 11:30:58.460   05 Jun 2027 11:31:44.918            46.458                 Moscow          1451.813
       438   05 Jun 2027 11:31:56.700   05 Jun 2027 11:32:23.605            26.905              Murmansk2           840.781
       439   05 Jun 2027 11:32:38.480   05 Jun 2027 11:33:15.162            36.682              Murmansk1          1146.313
       440   05 Jun 2027 11:33:24.158   05 Jun 2027 11:34:03.612            39.454              Murmansk1          1232.937
       441   05 Jun 2027 11:34:26.309   05 Jun 2027 11:34:57.182            30.873              Murmansk1           964.781
       442   05 Jun 2027 11:35:02.053   05 Jun 2027 11:35:18.595            16.542              Murmansk2           516.938
       443   05 Jun 2027 11:36:01.911   05 Jun 2027 11:36:32.608            30.697                Norilsk           959.281
       444   05 Jun 2027 11:38:14.473   05 Jun 2027 11:38:19.447             4.974                 Moscow           155.437
       445   05 Jun 2027 11:39:21.124   05 Jun 2027 11:39:21.754             0.630                 Moscow            19.687
       446   05 Jun 2027 11:39:24.026   05 Jun 2027 11:39:42.915            18.889              Murmansk1           590.281
       447   05 Jun 2027 12:41:01.318   05 Jun 2027 12:43:47.347           166.029               CapeTown          5188.406
       448   05 Jun 2027 12:44:38.285   05 Jun 2027 12:47:04.389           146.104               CapeTown          4565.750
       449   05 Jun 2027 13:07:01.052   05 Jun 2027 13:07:23.325            22.273              Murmansk2           696.031
       450   05 Jun 2027 13:07:47.881   05 Jun 2027 13:08:50.998            63.117              Murmansk1          1972.406
       451   05 Jun 2027 13:18:16.012   05 Jun 2027 13:18:37.575            21.563              Murmansk1           673.844
       452   05 Jun 2027 13:20:58.775   05 Jun 2027 13:23:36.661           157.886                Anadyr1          4933.937
       453   05 Jun 2027 13:24:00.886   05 Jun 2027 13:25:01.948            61.062                Anadyr2          1908.188
       454   05 Jun 2027 13:28:51.206   05 Jun 2027 13:30:31.986           100.780                Anadyr2          3149.375
       455   05 Jun 2027 14:48:27.509   05 Jun 2027 14:48:51.393            23.884              Murmansk1           746.375
       456   05 Jun 2027 14:52:05.204   05 Jun 2027 14:52:29.707            24.503              Murmansk1           765.719
       457   05 Jun 2027 14:56:31.628   05 Jun 2027 14:58:29.732           118.104                Anadyr2          3690.750
       458   05 Jun 2027 14:59:14.686   05 Jun 2027 14:59:52.073            37.387                Anadyr2          1168.344
       459   05 Jun 2027 14:59:55.381   05 Jun 2027 15:06:24.980           389.599               Magadan2         12174.969
       460   05 Jun 2027 16:34:47.639   05 Jun 2027 16:37:08.115           140.476               Magadan2          4389.875
       461   05 Jun 2027 16:37:28.179   05 Jun 2027 16:38:18.459            50.280               Magadan2          1571.250
       462   05 Jun 2027 17:30:10.614   05 Jun 2027 17:31:46.126            95.512            RioGallegos          2984.750
       463   05 Jun 2027 18:08:16.633   05 Jun 2027 18:09:36.681            80.048                Anadyr2          2501.500
       464   05 Jun 2027 18:09:36.681   05 Jun 2027 18:10:07.775            31.094                Anadyr1           971.688
       465   05 Jun 2027 18:10:32.142   05 Jun 2027 18:14:37.414           245.272                Norilsk          7664.750
       466   05 Jun 2027 18:15:38.176   05 Jun 2027 18:16:51.828            73.652                Norilsk          2301.625
       467   05 Jun 2027 18:17:40.972   05 Jun 2027 18:19:04.456            83.484                Irkutsk          2608.875
       468   05 Jun 2027 18:22:24.847   05 Jun 2027 18:23:21.322            56.475                Irkutsk          1764.844
       469   05 Jun 2027 18:31:27.309   05 Jun 2027 18:33:11.157           103.848                Sumatra          3245.250
       470   05 Jun 2027 18:36:42.040   05 Jun 2027 18:37:59.304            77.264                Sumatra          2414.500
       471   05 Jun 2027 19:51:01.934   05 Jun 2027 19:54:43.304           221.370                Novosib          6917.812
       472   05 Jun 2027 19:56:10.087   05 Jun 2027 19:56:56.026            45.939                Novosib          1435.594
       473   05 Jun 2027 20:11:37.619   05 Jun 2027 20:12:20.744            43.125                Sumatra          1347.656
       474   05 Jun 2027 21:22:44.519   05 Jun 2027 21:23:18.482            33.963               Magadan2          1061.344
       475   05 Jun 2027 21:25:31.587   05 Jun 2027 21:29:23.967           232.380              Murmansk1          7261.875
       476   05 Jun 2027 21:33:23.111   05 Jun 2027 21:34:52.670            89.559                  Delhi          2798.719
       477   05 Jun 2027 21:35:27.115   05 Jun 2027 21:35:38.522            11.407                  Delhi           356.469
       478   05 Jun 2027 21:38:49.735   05 Jun 2027 21:39:09.821            20.086                  Delhi           627.688
       479   05 Jun 2027 22:59:12.232   05 Jun 2027 22:59:21.079             8.847               Magadan2           276.469
       480   05 Jun 2027 22:59:27.144   05 Jun 2027 22:59:44.958            17.814                Norilsk           556.688
       481   05 Jun 2027 23:00:10.374   05 Jun 2027 23:00:44.538            34.164               Magadan2          1067.625
       482   05 Jun 2027 23:00:45.060   05 Jun 2027 23:02:02.395            77.335              Murmansk2          2416.719
