uniorb/output/strategy_1/Drop/Drop_KinoSat_111701.txt

KinoSat_111701
-------------------------
    Access    *     Start Time (UTCG)     *     Stop Time (UTCG)  *   Duration (s)        *       Station  *  Data (Mbytes)
         1   01 Jun 2027 03:51:22.759   01 Jun 2027 03:52:19.985            57.226                Irkutsk          1788.312
         2   01 Jun 2027 03:52:32.163   01 Jun 2027 03:53:42.087            69.924              Murmansk1          2185.125
         3   01 Jun 2027 03:53:45.065   01 Jun 2027 03:56:09.370           144.305              Murmansk1          4509.531
         4   01 Jun 2027 03:56:26.362   01 Jun 2027 03:58:28.280           121.918                  Delhi          3809.938
         5   01 Jun 2027 05:29:05.790   01 Jun 2027 05:30:05.645            59.855                 Moscow          1870.469
         6   01 Jun 2027 05:30:28.346   01 Jun 2027 05:33:52.519           204.173              Murmansk1          6380.406
         7   01 Jun 2027 05:33:53.174   01 Jun 2027 05:35:45.209           112.035                 Moscow          3501.094
         8   01 Jun 2027 05:48:11.967   01 Jun 2027 05:50:34.965           142.998               CapeTown          4468.688
         9   01 Jun 2027 06:51:38.676   01 Jun 2027 06:52:53.941            75.265               Magadan2          2352.031
        10   01 Jun 2027 06:53:14.196   01 Jun 2027 06:55:05.473           111.277               Magadan2          3477.406
        11   01 Jun 2027 06:55:05.473   01 Jun 2027 06:57:26.055           140.582               Magadan1          4393.187
        12   01 Jun 2027 08:28:51.498   01 Jun 2027 08:33:28.263           276.765               Magadan2          8648.906
        13   01 Jun 2027 10:01:41.989   01 Jun 2027 10:02:54.588            72.599               Magadan2          2268.719
        14   01 Jun 2027 10:03:01.925   01 Jun 2027 10:04:08.135            66.210               Magadan1          2069.062
        15   01 Jun 2027 10:04:59.165   01 Jun 2027 10:07:32.585           153.420                Anadyr1          4794.375
        16   01 Jun 2027 10:07:55.267   01 Jun 2027 10:08:19.964            24.697               Magadan1           771.781
        17   01 Jun 2027 10:08:29.960   01 Jun 2027 10:08:56.126            26.166               Magadan2           817.687
        18   01 Jun 2027 10:10:26.367   01 Jun 2027 10:11:05.526            39.159              Murmansk2          1223.719
        19   01 Jun 2027 10:44:00.015   01 Jun 2027 10:45:25.401            85.386            RioGallegos          2668.312
        20   01 Jun 2027 11:20:15.375   01 Jun 2027 11:20:25.158             9.783                Sumatra           305.719
        21   01 Jun 2027 11:39:19.059   01 Jun 2027 11:40:21.252            62.193                Irkutsk          1943.531
        22   01 Jun 2027 11:40:21.329   01 Jun 2027 11:40:40.534            19.205                Novosib           600.156
        23   01 Jun 2027 11:40:52.355   01 Jun 2027 11:41:21.176            28.821                Irkutsk           900.656
        24   01 Jun 2027 11:42:13.706   01 Jun 2027 11:43:04.678            50.972                Norilsk          1592.875
        25   01 Jun 2027 11:43:12.935   01 Jun 2027 11:44:18.168            65.233                Norilsk          2038.531
        26   01 Jun 2027 11:44:20.726   01 Jun 2027 11:45:49.290            88.564              Murmansk2          2767.625
        27   01 Jun 2027 11:46:00.678   01 Jun 2027 11:46:19.799            19.121                Norilsk           597.531
        28   01 Jun 2027 12:20:42.352   01 Jun 2027 12:21:04.319            21.967            RioGallegos           686.469
        29   01 Jun 2027 12:21:45.838   01 Jun 2027 12:22:24.497            38.659            RioGallegos          1208.094
        30   01 Jun 2027 12:22:46.589   01 Jun 2027 12:24:59.329           132.740            RioGallegos          4148.125
        31   01 Jun 2027 12:55:00.821   01 Jun 2027 12:55:22.606            21.785                Sumatra           680.781
        32   01 Jun 2027 12:57:28.085   01 Jun 2027 12:59:41.937           133.852                Sumatra          4182.875
        33   01 Jun 2027 13:10:03.144   01 Jun 2027 13:10:30.611            27.467                Irkutsk           858.344
        34   01 Jun 2027 13:13:20.966   01 Jun 2027 13:15:05.973           105.007                Irkutsk          3281.469
        35   01 Jun 2027 13:16:07.712   01 Jun 2027 13:17:19.053            71.341                Norilsk          2229.406
        36   01 Jun 2027 14:39:47.964   01 Jun 2027 14:41:45.799           117.835                  Delhi          3682.344
        37   01 Jun 2027 14:44:01.396   01 Jun 2027 14:44:11.673            10.277                  Delhi           321.156
        38   01 Jun 2027 14:45:00.676   01 Jun 2027 14:45:12.106            11.430                  Delhi           357.187
        39   01 Jun 2027 14:48:06.812   01 Jun 2027 14:51:25.554           198.742                Novosib          6210.687
        40   01 Jun 2027 14:51:53.353   01 Jun 2027 14:53:52.065           118.712                Norilsk          3709.750
        41   01 Jun 2027 14:58:34.237   01 Jun 2027 14:58:38.989             4.752                Norilsk           148.500
        42   01 Jun 2027 14:59:51.566   01 Jun 2027 15:01:50.504           118.938                Norilsk          3716.812
        43   01 Jun 2027 16:23:22.818   01 Jun 2027 16:26:50.859           208.041                 Moscow          6501.281
        44   01 Jun 2027 16:27:36.275   01 Jun 2027 16:28:02.416            26.141              Murmansk2           816.906
        45   01 Jun 2027 16:28:38.963   01 Jun 2027 16:29:41.512            62.549              Murmansk1          1954.656
        46   01 Jun 2027 16:32:57.015   01 Jun 2027 16:37:17.110           260.095                Norilsk          8127.969
        47   01 Jun 2027 17:37:33.298   01 Jun 2027 17:37:35.644             2.346               CapeTown            73.312
        48   01 Jun 2027 17:37:55.356   01 Jun 2027 17:38:36.998            41.642               CapeTown          1301.313
        49   01 Jun 2027 17:44:15.690   01 Jun 2027 17:44:19.801             4.111               CapeTown           128.469
        50   01 Jun 2027 17:46:33.349   01 Jun 2027 17:47:26.618            53.269               CapeTown          1664.656
        51   01 Jun 2027 18:02:09.985   01 Jun 2027 18:06:57.965           287.980                 Moscow          8999.375
        52   01 Jun 2027 18:22:48.939   01 Jun 2027 18:23:11.491            22.552                Anadyr2           704.750
        53   01 Jun 2027 18:24:28.928   01 Jun 2027 18:24:55.801            26.873                Anadyr1           839.781
        54   01 Jun 2027 18:25:54.358   01 Jun 2027 18:25:58.946             4.588                Anadyr1           143.375
        55   01 Jun 2027 18:26:01.804   01 Jun 2027 18:26:05.695             3.891                Anadyr1           121.594
        56   01 Jun 2027 18:27:06.780   01 Jun 2027 18:27:30.191            23.411                Anadyr1           731.594
        57   01 Jun 2027 18:27:47.650   01 Jun 2027 18:28:12.429            24.779                Anadyr1           774.344
        58   01 Jun 2027 18:28:26.553   01 Jun 2027 18:28:34.768             8.215                Anadyr1           256.719
        59   01 Jun 2027 19:15:02.209   01 Jun 2027 19:17:31.866           149.657               CapeTown          4676.781
        60   01 Jun 2027 19:45:03.022   01 Jun 2027 19:51:00.798           357.776              Murmansk1         11180.500
        61   01 Jun 2027 21:29:15.920   01 Jun 2027 21:33:00.820           224.900                Anadyr2          7028.125
        62   01 Jun 2027 21:33:11.059   01 Jun 2027 21:35:03.477           112.418                Anadyr1          3513.063
        63   01 Jun 2027 21:35:23.900   01 Jun 2027 21:37:35.433           131.533               Magadan2          4110.406
        64   01 Jun 2027 21:39:54.231   01 Jun 2027 21:40:17.654            23.423               Magadan2           731.969
        65   01 Jun 2027 21:40:35.275   01 Jun 2027 21:40:51.649            16.374               Magadan1           511.687
        66   01 Jun 2027 21:42:27.271   01 Jun 2027 21:42:40.839            13.568               Magadan2           424.000
        67   01 Jun 2027 21:43:40.519   01 Jun 2027 21:44:23.534            43.015               Magadan2          1344.219
        68   01 Jun 2027 22:24:27.458   01 Jun 2027 22:25:06.440            38.982            RioGallegos          1218.187
        69   01 Jun 2027 22:25:57.154   01 Jun 2027 22:26:31.188            34.034            RioGallegos          1063.562
        70   01 Jun 2027 22:28:02.165   01 Jun 2027 22:28:28.396            26.231            RioGallegos           819.719
        71   01 Jun 2027 22:29:38.190   01 Jun 2027 22:29:40.272             2.082            RioGallegos            65.062
        72   01 Jun 2027 22:30:31.707   01 Jun 2027 22:31:13.114            41.407            RioGallegos          1293.969
        73   01 Jun 2027 23:05:01.589   01 Jun 2027 23:07:22.825           141.236                Anadyr2          4413.625
        74   01 Jun 2027 23:07:23.700   01 Jun 2027 23:08:10.191            46.491                Norilsk          1452.844
        75   01 Jun 2027 23:08:46.149   01 Jun 2027 23:08:50.297             4.148               Magadan2           129.625
        76   01 Jun 2027 23:09:00.034   01 Jun 2027 23:09:12.167            12.133               Magadan1           379.156
        77   01 Jun 2027 23:09:53.174   01 Jun 2027 23:10:25.881            32.707                Norilsk          1022.094
        78   01 Jun 2027 23:10:31.003   01 Jun 2027 23:11:02.190            31.187               Magadan1           974.594
        79   01 Jun 2027 23:11:40.959   01 Jun 2027 23:11:59.235            18.276                Irkutsk           571.125
        80   01 Jun 2027 23:13:47.345   01 Jun 2027 23:15:02.699            75.354                Irkutsk          2354.812
        81   01 Jun 2027 23:18:47.384   01 Jun 2027 23:19:08.751            21.367               Magadan2           667.719
        82   01 Jun 2027 23:20:11.722   01 Jun 2027 23:20:24.705            12.983                Irkutsk           405.719
        83   01 Jun 2027 23:20:25.707   01 Jun 2027 23:21:06.652            40.945                Irkutsk          1279.531
        84   01 Jun 2027 23:29:28.279   01 Jun 2027 23:30:53.167            84.888                Sumatra          2652.750
        85   01 Jun 2027 23:34:53.843   01 Jun 2027 23:35:10.395            16.552                Sumatra           517.250
        86   01 Jun 2027 23:35:26.276   01 Jun 2027 23:36:14.506            48.230                Sumatra          1507.188
        87   02 Jun 2027 00:09:37.033   02 Jun 2027 00:10:21.731            44.698            RioGallegos          1396.813
        88   02 Jun 2027 00:40:07.263   02 Jun 2027 00:40:22.973            15.710                Anadyr2           490.937
        89   02 Jun 2027 00:40:37.723   02 Jun 2027 00:41:17.257            39.534                Anadyr1          1235.437
        90   02 Jun 2027 00:42:21.078   02 Jun 2027 00:42:37.162            16.084                Anadyr1           502.625
        91   02 Jun 2027 00:42:59.877   02 Jun 2027 00:43:22.589            22.712                Norilsk           709.750
        92   02 Jun 2027 00:43:39.440   02 Jun 2027 00:44:56.190            76.750               Magadan2          2398.437
        93   02 Jun 2027 00:45:14.035   02 Jun 2027 00:45:19.608             5.573               Magadan2           174.156
        94   02 Jun 2027 00:46:00.218   02 Jun 2027 00:46:23.440            23.222               Magadan1           725.687
        95   02 Jun 2027 00:46:52.769   02 Jun 2027 00:47:47.566            54.797                Irkutsk          1712.406
        96   02 Jun 2027 00:47:52.533   02 Jun 2027 00:48:28.879            36.346                Novosib          1135.813
        97   02 Jun 2027 00:49:43.180   02 Jun 2027 00:50:10.606            27.426                Irkutsk           857.062
        98   02 Jun 2027 00:52:42.037   02 Jun 2027 00:53:13.122            31.085                Irkutsk           971.406
        99   02 Jun 2027 00:53:19.320   02 Jun 2027 00:53:21.665             2.345                Novosib            73.281
       100   02 Jun 2027 00:53:22.870   02 Jun 2027 00:54:26.923            64.053                Novosib          2001.656
       101   02 Jun 2027 00:57:50.885   02 Jun 2027 00:57:57.294             6.409                Novosib           200.281
       102   02 Jun 2027 00:58:24.236   02 Jun 2027 00:58:31.025             6.789                Irkutsk           212.156
       103   02 Jun 2027 00:59:40.197   02 Jun 2027 01:00:08.820            28.623                  Delhi           894.469
       104   02 Jun 2027 01:01:51.975   02 Jun 2027 01:02:41.844            49.869                  Delhi          1558.406
       105   02 Jun 2027 01:09:30.808   02 Jun 2027 01:11:04.542            93.734                Sumatra          2929.187
       106   02 Jun 2027 01:42:29.453   02 Jun 2027 01:42:47.495            18.042            RioGallegos           563.812
       107   02 Jun 2027 01:43:32.388   02 Jun 2027 01:43:56.675            24.287            RioGallegos           758.969
       108   02 Jun 2027 01:44:57.325   02 Jun 2027 01:45:47.402            50.077            RioGallegos          1564.906
       109   02 Jun 2027 02:15:58.310   02 Jun 2027 02:16:10.705            12.395                Anadyr1           387.344
       110   02 Jun 2027 02:16:10.705   02 Jun 2027 02:16:22.934            12.229                Anadyr2           382.156
       111   02 Jun 2027 02:19:00.816   02 Jun 2027 02:20:09.505            68.689                Norilsk          2146.531
       112   02 Jun 2027 02:20:50.539   02 Jun 2027 02:21:07.975            17.436               Magadan2           544.875
       113   02 Jun 2027 02:21:35.693   02 Jun 2027 02:23:02.295            86.602              Murmansk1          2706.313
       114   02 Jun 2027 02:23:10.758   02 Jun 2027 02:23:23.743            12.985                Irkutsk           405.781
       115   02 Jun 2027 02:23:52.385   02 Jun 2027 02:24:06.267            13.882                Irkutsk           433.813
       116   02 Jun 2027 02:24:06.303   02 Jun 2027 02:24:39.002            32.699                Irkutsk          1021.844
       117   02 Jun 2027 02:27:44.517   02 Jun 2027 02:28:47.615            63.098                Irkutsk          1971.813
       118   02 Jun 2027 02:36:34.325   02 Jun 2027 02:38:29.690           115.365                  Delhi          3605.156
       119   02 Jun 2027 03:12:41.525   02 Jun 2027 03:15:24.187           162.662            RioGallegos          5083.187
       120   02 Jun 2027 03:15:54.309   02 Jun 2027 03:17:35.748           101.439            RioGallegos          3169.969
       121   02 Jun 2027 04:02:35.918   02 Jun 2027 04:03:16.731            40.813                Irkutsk          1275.406
       122   02 Jun 2027 04:03:50.069   02 Jun 2027 04:03:59.948             9.879              Murmansk2           308.719
       123   02 Jun 2027 04:03:59.948   02 Jun 2027 04:04:08.779             8.831              Murmansk1           275.969
       124   02 Jun 2027 04:04:28.491   02 Jun 2027 04:04:39.575            11.084                Norilsk           346.375
       125   02 Jun 2027 04:04:39.937   02 Jun 2027 04:05:14.552            34.615              Murmansk2          1081.719
       126   02 Jun 2027 04:05:14.552   02 Jun 2027 04:05:36.843            22.291              Murmansk1           696.594
       127   02 Jun 2027 04:05:41.562   02 Jun 2027 04:08:39.683           178.121                Novosib          5566.281
       128   02 Jun 2027 04:09:31.142   02 Jun 2027 04:09:48.647            17.505                Novosib           547.031
       129   02 Jun 2027 04:10:06.520   02 Jun 2027 04:12:17.701           131.181                  Delhi          4099.406
       130   02 Jun 2027 05:41:53.079   02 Jun 2027 05:43:41.758           108.679                 Moscow          3396.219
       131   02 Jun 2027 05:43:58.868   02 Jun 2027 05:45:04.386            65.518              Murmansk1          2047.437
       132   02 Jun 2027 05:45:04.386   02 Jun 2027 05:45:14.125             9.739              Murmansk2           304.344
       133   02 Jun 2027 05:46:36.337   02 Jun 2027 05:47:50.529            74.192                 Moscow          2318.500
       134   02 Jun 2027 07:04:14.914   02 Jun 2027 07:04:38.404            23.490               Magadan2           734.062
       135   02 Jun 2027 07:04:39.118   02 Jun 2027 07:05:26.785            47.667                Anadyr2          1489.594
       136   02 Jun 2027 07:05:26.785   02 Jun 2027 07:05:47.838            21.053                Anadyr1           657.906
       137   02 Jun 2027 07:06:04.452   02 Jun 2027 07:06:47.402            42.950                Anadyr1          1342.188
       138   02 Jun 2027 08:40:12.484   02 Jun 2027 08:40:18.037             5.553                Anadyr1           173.531
       139   02 Jun 2027 08:40:56.204   02 Jun 2027 08:43:48.485           172.281                Anadyr2          5383.781
       140   02 Jun 2027 10:16:19.560   02 Jun 2027 10:20:58.235           278.675               Magadan1          8708.594
       141   02 Jun 2027 11:52:36.221   02 Jun 2027 11:53:57.980            81.759                Irkutsk          2554.969
       142   02 Jun 2027 11:54:15.882   02 Jun 2027 11:54:31.046            15.164                Norilsk           473.875
       143   02 Jun 2027 11:54:38.195   02 Jun 2027 11:56:06.558            88.363                Norilsk          2761.344
       144   02 Jun 2027 11:56:08.642   02 Jun 2027 11:58:11.334           122.692                Novosib          3834.125
       145   02 Jun 2027 12:33:08.215   02 Jun 2027 12:33:45.387            37.172            RioGallegos          1161.625
       146   02 Jun 2027 12:36:59.032   02 Jun 2027 12:37:55.201            56.169            RioGallegos          1755.281
       147   02 Jun 2027 12:42:42.027   02 Jun 2027 12:44:07.238            85.211            RioGallegos          2662.844
       148   02 Jun 2027 13:07:22.341   02 Jun 2027 13:08:39.315            76.974                Sumatra          2405.438
       149   02 Jun 2027 13:11:13.288   02 Jun 2027 13:12:38.713            85.425                Sumatra          2669.531
       150   02 Jun 2027 13:15:26.052   02 Jun 2027 13:17:16.159           110.107                Sumatra          3440.844
       151   02 Jun 2027 13:22:40.668   02 Jun 2027 13:25:18.338           157.670                Irkutsk          4927.188
       152   02 Jun 2027 13:27:33.669   02 Jun 2027 13:28:03.872            30.203                Irkutsk           943.844
       153   02 Jun 2027 13:40:00.148   02 Jun 2027 13:40:00.443             0.295              Murmansk1             9.219
       154   02 Jun 2027 14:52:22.606   02 Jun 2027 14:55:27.066           184.460                  Delhi          5764.375
       155   02 Jun 2027 14:56:00.102   02 Jun 2027 14:57:21.654            81.552                  Delhi          2548.500
       156   02 Jun 2027 15:00:49.015   02 Jun 2027 15:05:47.253           298.238                Novosib          9319.937
       157   02 Jun 2027 15:06:15.472   02 Jun 2027 15:06:55.275            39.803                Novosib          1243.844
       158   02 Jun 2027 15:08:31.236   02 Jun 2027 15:09:29.089            57.853                Novosib          1807.906
       159   02 Jun 2027 16:35:32.211   02 Jun 2027 16:37:16.078           103.867                 Moscow          3245.844
       160   02 Jun 2027 16:38:34.282   02 Jun 2027 16:39:26.466            52.184                 Moscow          1630.750
       161   02 Jun 2027 16:40:33.036   02 Jun 2027 16:41:08.754            35.718                 Moscow          1116.187
       162   02 Jun 2027 16:42:07.945   02 Jun 2027 16:42:09.378             1.433              Murmansk1            44.781
       163   02 Jun 2027 16:42:12.297   02 Jun 2027 16:42:39.906            27.609                 Moscow           862.781
       164   02 Jun 2027 16:43:48.532   02 Jun 2027 16:44:02.361            13.829              Murmansk2           432.156
       165   02 Jun 2027 16:44:24.191   02 Jun 2027 16:45:03.813            39.622                 Moscow          1238.188
       166   02 Jun 2027 16:45:54.808   02 Jun 2027 16:46:49.636            54.828              Murmansk2          1713.375
       167   02 Jun 2027 16:46:50.130   02 Jun 2027 16:48:07.871            77.741                 Moscow          2429.406
       168   02 Jun 2027 16:48:24.129   02 Jun 2027 16:48:51.313            27.184                Norilsk           849.500
       169   02 Jun 2027 16:55:22.315   02 Jun 2027 16:55:29.265             6.950                Anadyr2           217.188
       170   02 Jun 2027 16:55:50.295   02 Jun 2027 16:56:04.442            14.147                Anadyr2           442.094
       171   02 Jun 2027 16:56:31.100   02 Jun 2027 16:56:57.974            26.874                Anadyr2           839.812
       172   02 Jun 2027 16:57:21.559   02 Jun 2027 16:57:54.553            32.994                Anadyr1          1031.062
       173   02 Jun 2027 16:58:29.468   02 Jun 2027 16:59:00.752            31.284                Anadyr1           977.625
       174   02 Jun 2027 16:59:20.185   02 Jun 2027 16:59:46.165            25.980                Anadyr2           811.875
       175   02 Jun 2027 17:55:01.613   02 Jun 2027 17:55:31.869            30.256               CapeTown           945.500
       176   02 Jun 2027 17:56:26.010   02 Jun 2027 17:57:08.266            42.256               CapeTown          1320.500
       177   02 Jun 2027 17:57:40.439   02 Jun 2027 17:58:28.547            48.108               CapeTown          1503.375
       178   02 Jun 2027 17:59:19.330   02 Jun 2027 18:00:20.597            61.267               CapeTown          1914.594
       179   02 Jun 2027 18:00:33.332   02 Jun 2027 18:01:15.147            41.815               CapeTown          1306.719
       180   02 Jun 2027 18:14:59.017   02 Jun 2027 18:15:57.749            58.732                 Moscow          1835.375
       181   02 Jun 2027 18:19:31.185   02 Jun 2027 18:21:53.134           141.949                 Moscow          4435.906
       182   02 Jun 2027 18:25:23.800   02 Jun 2027 18:25:41.291            17.491              Murmansk1           546.594
       183   02 Jun 2027 18:27:00.242   02 Jun 2027 18:27:39.327            39.085              Murmansk1          1221.406
       184   02 Jun 2027 18:36:12.644   02 Jun 2027 18:36:47.084            34.440                Anadyr2          1076.250
       185   02 Jun 2027 18:37:42.304   02 Jun 2027 18:38:10.249            27.945                Anadyr1           873.281
       186   02 Jun 2027 18:39:06.070   02 Jun 2027 18:39:40.139            34.069                Anadyr1          1064.656
       187   02 Jun 2027 18:39:40.139   02 Jun 2027 18:39:52.138            11.999                Anadyr2           374.969
       188   02 Jun 2027 18:40:27.388   02 Jun 2027 18:40:58.281            30.893                Anadyr1           965.406
       189   02 Jun 2027 19:29:21.489   02 Jun 2027 19:30:20.694            59.205               CapeTown          1850.156
       190   02 Jun 2027 19:30:53.523   02 Jun 2027 19:32:21.229            87.706               CapeTown          2740.812
       191   02 Jun 2027 19:35:22.360   02 Jun 2027 19:35:34.727            12.367               CapeTown           386.469
       192   02 Jun 2027 19:57:58.912   02 Jun 2027 20:02:47.045           288.133              Murmansk1          9004.156
       193   02 Jun 2027 20:16:21.202   02 Jun 2027 20:17:00.096            38.894               Magadan2          1215.437
       194   02 Jun 2027 20:17:24.865   02 Jun 2027 20:17:31.500             6.635               Magadan2           207.344
       195   02 Jun 2027 20:17:58.705   02 Jun 2027 20:18:13.572            14.867               Magadan2           464.594
       196   02 Jun 2027 20:18:33.337   02 Jun 2027 20:18:49.220            15.883               Magadan2           496.344
       197   02 Jun 2027 21:41:17.314   02 Jun 2027 21:45:01.618           224.304                Anadyr1          7009.500
       198   02 Jun 2027 21:45:02.839   02 Jun 2027 21:46:52.642           109.803               Magadan2          3431.344
       199   02 Jun 2027 21:46:54.754   02 Jun 2027 21:47:05.153            10.399                Anadyr2           324.969
       200   02 Jun 2027 21:47:53.316   02 Jun 2027 21:49:21.881            88.565               Magadan1          2767.656
       201   02 Jun 2027 21:51:32.919   02 Jun 2027 21:52:08.314            35.395               Magadan1          1106.094
       202   02 Jun 2027 21:53:16.737   02 Jun 2027 21:53:28.187            11.450               Magadan1           357.812
       203   02 Jun 2027 21:53:42.506   02 Jun 2027 21:53:45.860             3.354               Magadan2           104.812
       204   02 Jun 2027 21:54:10.766   02 Jun 2027 21:54:52.213            41.447               Magadan1          1295.219
       205   02 Jun 2027 21:56:01.792   02 Jun 2027 21:56:28.012            26.220               Magadan1           819.375
       206   02 Jun 2027 22:39:35.635   02 Jun 2027 22:40:28.532            52.897            RioGallegos          1653.031
       207   02 Jun 2027 22:41:30.413   02 Jun 2027 22:42:33.845            63.432            RioGallegos          1982.250
       208   02 Jun 2027 22:45:13.851   02 Jun 2027 22:45:28.409            14.558            RioGallegos           454.937
       209   02 Jun 2027 23:16:59.923   02 Jun 2027 23:18:50.624           110.701                Anadyr2          3459.406
       210   02 Jun 2027 23:18:50.624   02 Jun 2027 23:19:06.321            15.697                Anadyr1           490.531
       211   02 Jun 2027 23:19:07.097   02 Jun 2027 23:19:12.065             4.968                Norilsk           155.250
       212   02 Jun 2027 23:19:34.558   02 Jun 2027 23:21:06.879            92.321               Magadan2          2885.031
       213   02 Jun 2027 23:22:30.472   02 Jun 2027 23:23:17.845            47.373               Magadan1          1480.406
       214   02 Jun 2027 23:24:18.399   02 Jun 2027 23:24:32.145            13.746                Norilsk           429.563
       215   02 Jun 2027 23:25:36.637   02 Jun 2027 23:26:46.576            69.939                Irkutsk          2185.594
       216   02 Jun 2027 23:29:50.171   02 Jun 2027 23:30:24.466            34.295               Magadan1          1071.719
       217   02 Jun 2027 23:31:02.446   02 Jun 2027 23:31:22.088            19.642               Magadan2           613.813
       218   02 Jun 2027 23:32:04.493   02 Jun 2027 23:32:58.353            53.860                Irkutsk          1683.125
       219   02 Jun 2027 23:43:04.150   02 Jun 2027 23:43:24.694            20.544                Sumatra           642.000
       220   02 Jun 2027 23:44:20.041   02 Jun 2027 23:45:50.095            90.054                Sumatra          2814.188
       221   03 Jun 2027 00:19:07.520   03 Jun 2027 00:19:49.624            42.104            RioGallegos          1315.750
       222   03 Jun 2027 00:21:29.327   03 Jun 2027 00:22:27.719            58.392            RioGallegos          1824.750
       223   03 Jun 2027 00:51:57.627   03 Jun 2027 00:51:58.355             0.728                Anadyr2            22.750
       224   03 Jun 2027 00:52:17.940   03 Jun 2027 00:52:38.771            20.831                Anadyr1           650.969
       225   03 Jun 2027 00:53:18.532   03 Jun 2027 00:54:15.133            56.601                Anadyr2          1768.781
       226   03 Jun 2027 00:55:02.137   03 Jun 2027 00:56:06.873            64.736                Norilsk          2023.000
       227   03 Jun 2027 00:56:14.796   03 Jun 2027 00:56:57.220            42.424               Magadan1          1325.750
       228   03 Jun 2027 00:57:30.199   03 Jun 2027 00:57:32.868             2.669               Magadan1            83.406
       229   03 Jun 2027 00:58:53.864   03 Jun 2027 00:59:15.633            21.769               Magadan1           680.281
       230   03 Jun 2027 00:59:18.383   03 Jun 2027 00:59:36.874            18.491                Irkutsk           577.844
       231   03 Jun 2027 01:01:04.800   03 Jun 2027 01:01:33.125            28.325                Novosib           885.156
       232   03 Jun 2027 01:03:44.345   03 Jun 2027 01:04:08.235            23.890               Magadan2           746.563
       233   03 Jun 2027 01:05:10.690   03 Jun 2027 01:05:28.286            17.596                Irkutsk           549.875
       234   03 Jun 2027 01:05:59.749   03 Jun 2027 01:06:19.187            19.438                Novosib           607.437
       235   03 Jun 2027 01:07:32.644   03 Jun 2027 01:07:57.450            24.806                Novosib           775.188
       236   03 Jun 2027 01:08:42.535   03 Jun 2027 01:09:35.698            53.163                Novosib          1661.344
       237   03 Jun 2027 01:14:16.414   03 Jun 2027 01:14:31.607            15.193                  Delhi           474.781
       238   03 Jun 2027 01:16:08.255   03 Jun 2027 01:16:52.627            44.372                  Delhi          1386.625
       239   03 Jun 2027 01:17:49.126   03 Jun 2027 01:18:49.156            60.030                Sumatra          1875.937
       240   03 Jun 2027 01:21:19.730   03 Jun 2027 01:23:22.407           122.677                Sumatra          3833.656
       241   03 Jun 2027 01:56:54.871   03 Jun 2027 01:57:31.572            36.701            RioGallegos          1146.906
       242   03 Jun 2027 02:31:02.815   03 Jun 2027 02:31:57.874            55.059                Norilsk          1720.594
       243   03 Jun 2027 02:32:04.126   03 Jun 2027 02:32:49.737            45.611               Magadan2          1425.344
       244   03 Jun 2027 02:34:49.248   03 Jun 2027 02:34:58.679             9.431                Novosib           294.719
       245   03 Jun 2027 02:35:27.534   03 Jun 2027 02:36:42.334            74.800                Novosib          2337.500
       246   03 Jun 2027 02:40:56.447   03 Jun 2027 02:40:58.587             2.140                Irkutsk            66.875
       247   03 Jun 2027 02:41:36.479   03 Jun 2027 02:42:16.670            40.191                Novosib          1255.969
       248   03 Jun 2027 02:44:51.245   03 Jun 2027 02:45:09.560            18.315                Novosib           572.344
       249   03 Jun 2027 02:47:06.782   03 Jun 2027 02:47:56.617            49.835                  Delhi          1557.344
       250   03 Jun 2027 02:51:06.533   03 Jun 2027 02:51:54.731            48.198                  Delhi          1506.187
       251   03 Jun 2027 03:25:27.096   03 Jun 2027 03:26:41.292            74.196            RioGallegos          2318.625
       252   03 Jun 2027 03:27:08.762   03 Jun 2027 03:28:17.908            69.146            RioGallegos          2160.813
       253   03 Jun 2027 04:14:49.647   03 Jun 2027 04:15:29.940            40.293                Novosib          1259.156
       254   03 Jun 2027 04:15:47.301   03 Jun 2027 04:19:15.866           208.565                Norilsk          6517.656
       255   03 Jun 2027 04:19:18.381   03 Jun 2027 04:21:24.589           126.208                Novosib          3944.000
       256   03 Jun 2027 05:53:30.511   03 Jun 2027 05:55:47.079           136.568              Murmansk1          4267.750
       257   03 Jun 2027 05:55:47.079   03 Jun 2027 05:55:57.967            10.888              Murmansk2           340.250
       258   03 Jun 2027 05:57:27.000   03 Jun 2027 05:57:58.463            31.463                 Moscow           983.219
       259   03 Jun 2027 05:58:09.624   03 Jun 2027 05:58:17.470             7.846                 Moscow           245.188
       260   03 Jun 2027 07:16:16.291   03 Jun 2027 07:17:23.732            67.441               Magadan1          2107.531
       261   03 Jun 2027 07:17:31.642   03 Jun 2027 07:17:53.129            21.487                Anadyr2           671.469
       262   03 Jun 2027 07:18:06.141   03 Jun 2027 07:18:40.774            34.633                Anadyr2          1082.281
       263   03 Jun 2027 08:53:18.576   03 Jun 2027 08:54:20.151            61.575                Irkutsk          1924.219
       264   03 Jun 2027 08:54:42.034   03 Jun 2027 08:57:29.712           167.678                Anadyr2          5239.938
       265   03 Jun 2027 10:25:40.824   03 Jun 2027 10:26:40.886            60.062               Magadan2          1876.938
       266   03 Jun 2027 10:27:59.689   03 Jun 2027 10:32:50.752           291.063               Magadan1          9095.719
       267   03 Jun 2027 11:07:53.996   03 Jun 2027 11:08:50.056            56.060            RioGallegos          1751.875
       268   03 Jun 2027 11:18:48.875   03 Jun 2027 11:18:49.992             1.117            RioGallegos            34.906
       269   03 Jun 2027 11:19:43.490   03 Jun 2027 11:19:47.889             4.399            RioGallegos           137.469
       270   03 Jun 2027 11:43:20.930   03 Jun 2027 11:44:51.987            91.057                Sumatra          2845.531
       271   03 Jun 2027 12:04:23.536   03 Jun 2027 12:05:05.107            41.571                Irkutsk          1299.094
       272   03 Jun 2027 12:06:46.049   03 Jun 2027 12:07:07.914            21.865                Irkutsk           683.281
       273   03 Jun 2027 12:09:47.021   03 Jun 2027 12:09:49.462             2.441              Murmansk2            76.281
       274   03 Jun 2027 12:09:58.008   03 Jun 2027 12:10:04.872             6.864                Norilsk           214.500
       275   03 Jun 2027 12:10:39.781   03 Jun 2027 12:11:05.562            25.781              Murmansk2           805.656
       276   03 Jun 2027 12:12:10.696   03 Jun 2027 12:12:16.556             5.860              Murmansk2           183.125
       277   03 Jun 2027 12:12:44.823   03 Jun 2027 12:13:10.324            25.501              Murmansk1           796.906
       278   03 Jun 2027 12:14:12.509   03 Jun 2027 12:14:47.391            34.882              Murmansk1          1090.062
       279   03 Jun 2027 12:49:36.655   03 Jun 2027 12:50:42.022            65.367            RioGallegos          2042.719
       280   03 Jun 2027 12:51:52.490   03 Jun 2027 12:52:34.454            41.964            RioGallegos          1311.375
       281   03 Jun 2027 12:54:42.612   03 Jun 2027 12:55:55.711            73.099            RioGallegos          2284.344
       282   03 Jun 2027 13:22:32.129   03 Jun 2027 13:23:48.657            76.528                Sumatra          2391.500
       283   03 Jun 2027 13:27:11.747   03 Jun 2027 13:29:27.096           135.349                Sumatra          4229.656
       284   03 Jun 2027 13:37:04.422   03 Jun 2027 13:40:07.170           182.748                Irkutsk          5710.875
       285   03 Jun 2027 15:05:09.634   03 Jun 2027 15:06:13.290            63.656                  Delhi          1989.250
       286   03 Jun 2027 15:07:55.247   03 Jun 2027 15:09:50.579           115.332                  Delhi          3604.125
       287   03 Jun 2027 15:13:40.214   03 Jun 2027 15:18:04.722           264.508                Novosib          8265.875
       288   03 Jun 2027 16:50:33.307   03 Jun 2027 16:51:22.732            49.425                 Moscow          1544.531
       289   03 Jun 2027 16:53:40.038   03 Jun 2027 16:54:09.180            29.142              Murmansk2           910.687
       290   03 Jun 2027 16:56:24.612   03 Jun 2027 16:57:00.157            35.545                 Moscow          1110.781
       291   03 Jun 2027 16:59:32.167   03 Jun 2027 16:59:51.363            19.196              Murmansk2           599.875
       292   03 Jun 2027 17:03:12.948   03 Jun 2027 17:03:46.017            33.069              Murmansk2          1033.406
       293   03 Jun 2027 17:06:28.233   03 Jun 2027 17:07:20.238            52.005                Anadyr1          1625.156
       294   03 Jun 2027 17:09:19.296   03 Jun 2027 17:09:46.557            27.261                Anadyr1           851.906
       295   03 Jun 2027 17:12:23.955   03 Jun 2027 17:12:31.936             7.981                Anadyr2           249.406
       296   03 Jun 2027 17:12:53.750   03 Jun 2027 17:13:08.504            14.754                Anadyr1           461.062
       297   03 Jun 2027 18:01:42.755   03 Jun 2027 18:02:58.400            75.645               CapeTown          2363.906
       298   03 Jun 2027 18:10:26.800   03 Jun 2027 18:11:06.413            39.613               CapeTown          1237.906
       299   03 Jun 2027 18:28:00.345   03 Jun 2027 18:31:25.696           205.351                 Moscow          6417.219
       300   03 Jun 2027 18:31:51.723   03 Jun 2027 18:32:18.193            26.470                 Moscow           827.188
       301   03 Jun 2027 18:34:17.426   03 Jun 2027 18:35:09.979            52.553              Murmansk1          1642.281
       302   03 Jun 2027 18:51:05.937   03 Jun 2027 18:52:02.965            57.028                Anadyr1          1782.125
       303   03 Jun 2027 19:37:53.508   03 Jun 2027 19:38:01.012             7.504               CapeTown           234.500
       304   03 Jun 2027 19:38:50.543   03 Jun 2027 19:39:47.211            56.668               CapeTown          1770.875
       305   03 Jun 2027 20:11:07.917   03 Jun 2027 20:14:22.247           194.330              Murmansk1          6072.812
       306   03 Jun 2027 20:19:56.365   03 Jun 2027 20:21:20.557            84.192               Magadan1          2631.000
       307   03 Jun 2027 20:21:56.034   03 Jun 2027 20:22:46.473            50.439               Magadan2          1576.219
       308   03 Jun 2027 20:23:42.833   03 Jun 2027 20:24:04.151            21.318               Magadan1           666.188
       309   03 Jun 2027 20:25:23.833   03 Jun 2027 20:25:40.438            16.605               Magadan2           518.906
       310   03 Jun 2027 20:26:21.540   03 Jun 2027 20:27:11.807            50.267               Magadan2          1570.844
       311   03 Jun 2027 21:53:18.499   03 Jun 2027 21:57:09.254           230.755                Anadyr1          7211.094
       312   03 Jun 2027 21:57:28.252   03 Jun 2027 21:57:29.059             0.807                Anadyr1            25.219
       313   03 Jun 2027 21:57:36.425   03 Jun 2027 21:58:54.336            77.911               Magadan2          2434.719
       314   03 Jun 2027 21:58:54.336   03 Jun 2027 21:59:37.109            42.773               Magadan1          1336.656
       315   03 Jun 2027 21:59:54.779   03 Jun 2027 22:00:54.490            59.711               Magadan1          1865.969
       316   03 Jun 2027 22:01:55.421   03 Jun 2027 22:02:11.704            16.283               Magadan2           508.844
       317   03 Jun 2027 22:06:02.367   03 Jun 2027 22:06:28.512            26.145               Magadan1           817.031
       318   03 Jun 2027 22:47:51.336   03 Jun 2027 22:50:02.911           131.575            RioGallegos          4111.719
       319   03 Jun 2027 22:50:39.522   03 Jun 2027 22:51:11.504            31.982            RioGallegos           999.438
       320   03 Jun 2027 23:28:57.559   03 Jun 2027 23:29:50.286            52.727                Anadyr1          1647.719
       321   03 Jun 2027 23:29:58.690   03 Jun 2027 23:32:13.053           134.363                Anadyr2          4198.844
       322   03 Jun 2027 23:32:19.517   03 Jun 2027 23:32:47.300            27.783                Norilsk           868.219
       323   03 Jun 2027 23:32:50.216   03 Jun 2027 23:32:55.715             5.499               Magadan1           171.844
       324   03 Jun 2027 23:33:03.558   03 Jun 2027 23:33:25.655            22.097               Magadan2           690.531
       325   03 Jun 2027 23:34:47.704   03 Jun 2027 23:35:11.715            24.011               Magadan1           750.344
       326   03 Jun 2027 23:35:22.648   03 Jun 2027 23:36:39.544            76.896                Irkutsk          2403.000
       327   03 Jun 2027 23:37:33.103   03 Jun 2027 23:38:18.386            45.283                Irkutsk          1415.094
       328   03 Jun 2027 23:42:32.067   03 Jun 2027 23:43:35.964            63.897                Irkutsk          1996.781
       329   03 Jun 2027 23:49:49.440   03 Jun 2027 23:50:47.175            57.735                Sumatra          1804.219
       330   03 Jun 2027 23:59:17.569   04 Jun 2027 00:00:58.453           100.884                Sumatra          3152.625
       331   04 Jun 2027 01:04:15.881   04 Jun 2027 01:05:19.856            63.975                Anadyr1          1999.219
       332   04 Jun 2027 01:05:19.856   04 Jun 2027 01:06:01.474            41.618                Anadyr2          1300.562
       333   04 Jun 2027 01:07:04.462   04 Jun 2027 01:08:47.808           103.346                Norilsk          3229.563
       334   04 Jun 2027 01:08:56.549   04 Jun 2027 01:09:17.609            21.060               Magadan2           658.125
       335   04 Jun 2027 01:10:56.875   04 Jun 2027 01:12:55.073           118.198                Irkutsk          3693.687
       336   04 Jun 2027 01:13:20.135   04 Jun 2027 01:13:23.932             3.797                Novosib           118.656
       337   04 Jun 2027 01:15:59.688   04 Jun 2027 01:16:07.770             8.082                Irkutsk           252.563
       338   04 Jun 2027 01:18:19.123   04 Jun 2027 01:18:30.788            11.665                Novosib           364.531
       339   04 Jun 2027 01:19:02.891   04 Jun 2027 01:19:46.554            43.663                  Delhi          1364.469
       340   04 Jun 2027 01:23:02.200   04 Jun 2027 01:24:00.227            58.027                  Delhi          1813.344
       341   04 Jun 2027 01:26:13.007   04 Jun 2027 01:26:44.221            31.214                Sumatra           975.437
       342   04 Jun 2027 01:59:22.404   04 Jun 2027 02:00:13.803            51.399            RioGallegos          1606.219
       343   04 Jun 2027 02:00:32.826   04 Jun 2027 02:00:58.271            25.445            RioGallegos           795.156
       344   04 Jun 2027 02:05:47.772   04 Jun 2027 02:06:24.340            36.568            RioGallegos          1142.750
       345   04 Jun 2027 02:37:22.722   04 Jun 2027 02:38:00.476            37.754                Anadyr1          1179.813
       346   04 Jun 2027 02:43:04.675   04 Jun 2027 02:44:58.581           113.906                Norilsk          3559.562
       347   04 Jun 2027 02:45:26.947   04 Jun 2027 02:46:19.647            52.700              Murmansk2          1646.875
       348   04 Jun 2027 02:46:51.853   04 Jun 2027 02:47:06.957            15.104                Novosib           472.000
       349   04 Jun 2027 02:47:28.857   04 Jun 2027 02:48:24.333            55.476                Irkutsk          1733.625
       350   04 Jun 2027 02:50:02.896   04 Jun 2027 02:50:12.841             9.945                Novosib           310.781
       351   04 Jun 2027 02:50:20.606   04 Jun 2027 02:50:28.432             7.826                Novosib           244.562
       352   04 Jun 2027 02:51:17.051   04 Jun 2027 02:51:35.963            18.912                Irkutsk           591.000
       353   04 Jun 2027 02:54:24.851   04 Jun 2027 02:54:47.284            22.433                  Delhi           701.031
       354   04 Jun 2027 02:59:46.703   04 Jun 2027 03:01:49.473           122.770                  Delhi          3836.563
       355   04 Jun 2027 04:27:41.358   04 Jun 2027 04:28:34.132            52.774              Murmansk1          1649.187
       356   04 Jun 2027 04:28:34.653   04 Jun 2027 04:31:21.220           166.567                Novosib          5205.219
       357   04 Jun 2027 04:31:35.480   04 Jun 2027 04:32:29.109            53.629              Murmansk2          1675.906
       358   04 Jun 2027 04:32:43.923   04 Jun 2027 04:32:50.701             6.778              Murmansk2           211.813
       359   04 Jun 2027 04:32:53.822   04 Jun 2027 04:32:57.742             3.920                Novosib           122.500
       360   04 Jun 2027 04:33:04.151   04 Jun 2027 04:33:09.876             5.725              Murmansk1           178.906
       361   04 Jun 2027 04:33:47.658   04 Jun 2027 04:36:53.616           185.958                 Moscow          5811.187
       362   04 Jun 2027 04:49:04.521   04 Jun 2027 04:55:15.510           370.989               CapeTown         11593.406
       363   04 Jun 2027 04:55:35.186   04 Jun 2027 04:55:50.711            15.525               CapeTown           485.156
       364   04 Jun 2027 05:46:19.240   04 Jun 2027 05:46:26.834             7.594                Anadyr2           237.312
       365   04 Jun 2027 06:04:15.768   04 Jun 2027 06:05:35.608            79.840                 Moscow          2495.000
       366   04 Jun 2027 06:05:53.846   04 Jun 2027 06:10:05.029           251.183              Murmansk1          7849.469
       367   04 Jun 2027 06:29:25.520   04 Jun 2027 06:29:53.428            27.908               CapeTown           872.125
       368   04 Jun 2027 07:29:14.830   04 Jun 2027 07:29:22.819             7.989                Norilsk           249.656
       369   04 Jun 2027 07:29:23.890   04 Jun 2027 07:33:05.465           221.575               Magadan2          6924.219
       370   04 Jun 2027 07:37:12.728   04 Jun 2027 07:37:32.464            19.736                 Moscow           616.750
       371   04 Jun 2027 09:03:19.413   04 Jun 2027 09:05:12.808           113.395                Anadyr2          3543.594
       372   04 Jun 2027 09:05:12.808   04 Jun 2027 09:05:27.013            14.205                Anadyr1           443.906
       373   04 Jun 2027 09:05:44.933   04 Jun 2027 09:06:33.190            48.257               Magadan2          1508.031
       374   04 Jun 2027 09:07:13.221   04 Jun 2027 09:07:32.643            19.422               Magadan1           606.937
       375   04 Jun 2027 09:07:50.209   04 Jun 2027 09:09:24.559            94.350                Anadyr1          2948.437
       376   04 Jun 2027 09:48:06.777   04 Jun 2027 09:48:17.305            10.528            RioGallegos           329.000
       377   04 Jun 2027 10:38:09.759   04 Jun 2027 10:38:38.079            28.320                Irkutsk           885.000
       378   04 Jun 2027 10:39:26.385   04 Jun 2027 10:39:26.957             0.572                Irkutsk            17.875
       379   04 Jun 2027 10:39:56.889   04 Jun 2027 10:41:03.305            66.416                Irkutsk          2075.500
       380   04 Jun 2027 10:41:10.795   04 Jun 2027 10:41:14.752             3.957                Norilsk           123.656
       381   04 Jun 2027 10:41:16.682   04 Jun 2027 10:43:24.930           128.248               Magadan2          4007.750
       382   04 Jun 2027 10:43:24.930   04 Jun 2027 10:44:40.619            75.689               Magadan1          2365.281
       383   04 Jun 2027 10:45:01.379   04 Jun 2027 10:45:17.073            15.694              Murmansk1           490.437
       384   04 Jun 2027 10:45:37.757   04 Jun 2027 10:45:39.803             2.046                Norilsk            63.938
       385   04 Jun 2027 10:45:43.291   04 Jun 2027 10:46:03.476            20.185                Novosib           630.781
       386   04 Jun 2027 10:52:03.220   04 Jun 2027 10:52:27.124            23.904              Murmansk1           747.000
       387   04 Jun 2027 11:19:55.955   04 Jun 2027 11:20:56.945            60.990            RioGallegos          1905.937
       388   04 Jun 2027 11:55:05.634   04 Jun 2027 11:55:45.966            40.332                Sumatra          1260.375
       389   04 Jun 2027 12:07:06.284   04 Jun 2027 12:07:20.979            14.695                  Delhi           459.219
       390   04 Jun 2027 12:08:34.412   04 Jun 2027 12:10:20.992           106.580                Irkutsk          3330.625
       391   04 Jun 2027 12:12:38.505   04 Jun 2027 12:12:53.044            14.539                Irkutsk           454.344
       392   04 Jun 2027 12:14:34.322   04 Jun 2027 12:14:35.923             1.601                Norilsk            50.031
       393   04 Jun 2027 12:14:39.575   04 Jun 2027 12:15:16.368            36.793                Norilsk          1149.781
       394   04 Jun 2027 12:19:59.220   04 Jun 2027 12:20:06.380             7.160                Norilsk           223.750
       395   04 Jun 2027 12:20:13.598   04 Jun 2027 12:20:38.632            25.034              Murmansk2           782.312
       396   04 Jun 2027 12:22:06.864   04 Jun 2027 12:22:24.451            17.587                Norilsk           549.594
       397   04 Jun 2027 12:58:18.052   04 Jun 2027 13:00:54.676           156.624            RioGallegos          4894.500
       398   04 Jun 2027 13:32:37.037   04 Jun 2027 13:35:43.425           186.388                Sumatra          5824.625
       399   04 Jun 2027 13:48:23.633   04 Jun 2027 13:52:29.520           245.887                Irkutsk          7683.969
       400   04 Jun 2027 15:18:16.834   04 Jun 2027 15:19:46.446            89.612                  Delhi          2800.375
       401   04 Jun 2027 15:26:45.103   04 Jun 2027 15:30:26.138           221.035                Novosib          6907.344
       402   04 Jun 2027 15:33:02.839   04 Jun 2027 15:33:27.224            24.385                Norilsk           762.031
       403   04 Jun 2027 15:34:21.806   04 Jun 2027 15:34:44.096            22.290                Norilsk           696.562
       404   04 Jun 2027 16:41:08.923   04 Jun 2027 16:41:38.506            29.583               CapeTown           924.469
       405   04 Jun 2027 17:00:01.246   04 Jun 2027 17:01:02.008            60.762                 Moscow          1898.812
       406   04 Jun 2027 17:02:31.328   04 Jun 2027 17:03:05.765            34.437                 Moscow          1076.156
       407   04 Jun 2027 17:04:07.384   04 Jun 2027 17:04:10.275             2.891              Murmansk1            90.344
       408   04 Jun 2027 17:04:36.628   04 Jun 2027 17:04:37.226             0.598                 Moscow            18.687
       409   04 Jun 2027 17:04:49.787   04 Jun 2027 17:05:38.010            48.223              Murmansk2          1506.969
       410   04 Jun 2027 17:11:31.591   04 Jun 2027 17:11:50.371            18.780              Murmansk2           586.875
       411   04 Jun 2027 17:14:29.333   04 Jun 2027 17:15:09.965            40.632              Murmansk2          1269.750
       412   04 Jun 2027 17:18:15.523   04 Jun 2027 17:19:18.000            62.477                Anadyr1          1952.406
       413   04 Jun 2027 17:19:30.935   04 Jun 2027 17:20:00.141            29.206                Anadyr1           912.687
       414   04 Jun 2027 17:20:57.725   04 Jun 2027 17:21:15.328            17.603                Anadyr2           550.094
       415   04 Jun 2027 18:12:52.517   04 Jun 2027 18:13:28.745            36.228               CapeTown          1132.125
       416   04 Jun 2027 18:16:05.783   04 Jun 2027 18:16:14.903             9.120               CapeTown           285.000
       417   04 Jun 2027 18:17:58.714   04 Jun 2027 18:18:19.377            20.663               CapeTown           645.719
       418   04 Jun 2027 18:21:36.717   04 Jun 2027 18:21:44.074             7.357               CapeTown           229.906
       419   04 Jun 2027 18:24:45.061   04 Jun 2027 18:25:14.753            29.692               CapeTown           927.875
       420   04 Jun 2027 18:41:25.734   04 Jun 2027 18:44:16.523           170.789                 Moscow          5337.156
       421   04 Jun 2027 18:45:44.078   04 Jun 2027 18:47:06.874            82.796              Murmansk1          2587.375
       422   04 Jun 2027 18:54:30.572   04 Jun 2027 18:55:07.957            37.385                Anadyr2          1168.281
       423   04 Jun 2027 18:59:39.933   04 Jun 2027 19:00:36.619            56.686               Magadan2          1771.437
       424   04 Jun 2027 19:50:25.220   04 Jun 2027 19:51:00.631            35.411               CapeTown          1106.594
       425   04 Jun 2027 19:54:11.192   04 Jun 2027 19:55:28.905            77.713               CapeTown          2428.531
       426   04 Jun 2027 20:29:24.646   04 Jun 2027 20:31:08.828           104.182                Anadyr1          3255.688
       427   04 Jun 2027 20:31:53.021   04 Jun 2027 20:34:15.788           142.767               Magadan2          4461.469
       428   04 Jun 2027 20:34:15.788   04 Jun 2027 20:34:19.372             3.584               Magadan1           112.000
       429   04 Jun 2027 20:34:27.596   04 Jun 2027 20:34:59.431            31.835               Magadan1           994.844
       430   04 Jun 2027 20:38:53.775   04 Jun 2027 20:39:07.985            14.210               Magadan2           444.063
       431   04 Jun 2027 20:41:59.560   04 Jun 2027 20:42:21.517            21.957               Magadan1           686.156
       432   04 Jun 2027 22:05:19.445   04 Jun 2027 22:07:17.308           117.863                Anadyr2          3683.219
       433   04 Jun 2027 22:07:34.678   04 Jun 2027 22:09:02.220            87.542                Anadyr1          2735.687
       434   04 Jun 2027 22:09:37.753   04 Jun 2027 22:13:38.086           240.333               Magadan2          7510.406
       435   04 Jun 2027 22:15:47.772   04 Jun 2027 22:16:27.910            40.138                Irkutsk          1254.312
       436   04 Jun 2027 22:59:40.043   04 Jun 2027 23:02:09.279           149.236            RioGallegos          4663.625
       437   04 Jun 2027 23:40:54.421   04 Jun 2027 23:42:04.808            70.387                Anadyr1          2199.594
       438   04 Jun 2027 23:43:08.337   04 Jun 2027 23:43:22.398            14.061                Norilsk           439.406
       439   04 Jun 2027 23:43:34.156   04 Jun 2027 23:44:21.958            47.802                Norilsk          1493.813
       440   04 Jun 2027 23:44:36.313   04 Jun 2027 23:44:48.562            12.249               Magadan1           382.781
       441   04 Jun 2027 23:44:48.562   04 Jun 2027 23:44:58.345             9.783               Magadan2           305.719
       442   04 Jun 2027 23:45:16.382   04 Jun 2027 23:45:28.367            11.985               Magadan2           374.531
       443   04 Jun 2027 23:46:14.343   04 Jun 2027 23:47:03.339            48.996               Magadan1          1531.125
       444   04 Jun 2027 23:47:16.997   04 Jun 2027 23:47:17.370             0.373                Irkutsk            11.656
       445   04 Jun 2027 23:48:10.993   04 Jun 2027 23:48:41.213            30.220                Irkutsk           944.375
       446   04 Jun 2027 23:48:55.794   04 Jun 2027 23:50:48.532           112.738                Novosib          3523.062
       447   04 Jun 2027 23:51:33.862   04 Jun 2027 23:51:43.946            10.084                Novosib           315.125
       448   04 Jun 2027 23:54:59.708   04 Jun 2027 23:55:12.060            12.352                Novosib           386.000
       449   04 Jun 2027 23:55:12.115   04 Jun 2027 23:55:29.176            17.061                Irkutsk           533.156
       450   05 Jun 2027 00:01:00.414   05 Jun 2027 00:03:30.645           150.231                Sumatra          4694.719
       451   05 Jun 2027 00:40:09.808   05 Jun 2027 00:40:50.281            40.473            RioGallegos          1264.781
       452   05 Jun 2027 00:46:42.808   05 Jun 2027 00:47:52.349            69.541            RioGallegos          2173.156
       453   05 Jun 2027 01:16:40.284   05 Jun 2027 01:17:21.201            40.917                Anadyr1          1278.656
       454   05 Jun 2027 01:17:48.286   05 Jun 2027 01:17:49.096             0.810                Anadyr1            25.312
       455   05 Jun 2027 01:19:06.820   05 Jun 2027 01:20:49.614           102.794                Norilsk          3212.312
       456   05 Jun 2027 01:20:55.193   05 Jun 2027 01:21:11.791            16.598               Magadan2           518.688
       457   05 Jun 2027 01:22:41.818   05 Jun 2027 01:22:54.336            12.518                Norilsk           391.188
       458   05 Jun 2027 01:23:00.137   05 Jun 2027 01:24:54.880           114.743                Irkutsk          3585.719
       459   05 Jun 2027 01:25:05.143   05 Jun 2027 01:25:19.940            14.797                Novosib           462.406
       460   05 Jun 2027 01:25:46.726   05 Jun 2027 01:25:56.331             9.605                Novosib           300.156
       461   05 Jun 2027 01:27:16.477   05 Jun 2027 01:28:08.278            51.801                Irkutsk          1618.781
       462   05 Jun 2027 01:31:24.054   05 Jun 2027 01:32:03.256            39.202                  Delhi          1225.063
       463   05 Jun 2027 01:39:06.674   05 Jun 2027 01:41:38.582           151.908                Sumatra          4747.125
       464   05 Jun 2027 02:20:42.500   05 Jun 2027 02:21:10.333            27.833            RioGallegos           869.781
       465   05 Jun 2027 02:50:19.053   05 Jun 2027 02:51:35.843            76.790                Anadyr2          2399.687
       466   05 Jun 2027 02:55:06.355   05 Jun 2027 02:55:34.835            28.480                Norilsk           890.000
       467   05 Jun 2027 02:55:55.756   05 Jun 2027 02:56:05.307             9.551                Norilsk           298.469
       468   05 Jun 2027 02:56:48.720   05 Jun 2027 02:57:01.281            12.561                Norilsk           392.531
       469   05 Jun 2027 02:57:24.890   05 Jun 2027 02:58:25.014            60.124              Murmansk2          1878.875
       470   05 Jun 2027 02:58:54.982   05 Jun 2027 02:59:53.356            58.374                Novosib          1824.188
       471   05 Jun 2027 03:00:09.191   05 Jun 2027 03:00:18.746             9.555                Norilsk           298.594
       472   05 Jun 2027 03:00:45.896   05 Jun 2027 03:03:09.991           144.095              Murmansk2          4502.969
       473   05 Jun 2027 03:03:18.591   05 Jun 2027 03:03:58.024            39.433              Murmansk1          1232.281
       474   05 Jun 2027 03:03:59.223   05 Jun 2027 03:04:37.693            38.470                 Moscow          1202.187
       475   05 Jun 2027 03:05:00.248   05 Jun 2027 03:06:00.503            60.255                 Moscow          1882.969
       476   05 Jun 2027 03:08:39.617   05 Jun 2027 03:11:11.437           151.820                  Delhi          4744.375
       477   05 Jun 2027 04:39:51.761   05 Jun 2027 04:40:34.885            43.124                Novosib          1347.625
       478   05 Jun 2027 04:40:45.225   05 Jun 2027 04:40:51.809             6.584              Murmansk1           205.750
       479   05 Jun 2027 04:40:59.748   05 Jun 2027 04:42:32.310            92.562                Novosib          2892.562
       480   05 Jun 2027 04:42:41.132   05 Jun 2027 04:42:58.960            17.828                Norilsk           557.125
       481   05 Jun 2027 04:43:28.749   05 Jun 2027 04:45:25.798           117.049              Murmansk1          3657.781
       482   05 Jun 2027 04:45:52.323   05 Jun 2027 04:49:07.004           194.681                 Moscow          6083.781
