uniorb/output/strategy_1/Drop/Drop_KinoSat_110203.txt

KinoSat_110203
-------------------------
    Access    *     Start Time (UTCG)     *     Stop Time (UTCG)  *   Duration (s)        *       Station  *  Data (Mbytes)
         1   01 Jun 2027 04:23:13.469   01 Jun 2027 04:24:32.409            78.940                Irkutsk          9867.500
         2   01 Jun 2027 04:25:12.974   01 Jun 2027 04:25:26.086            13.112              Murmansk2          1639.000
         3   01 Jun 2027 04:25:41.597   01 Jun 2027 04:27:14.744            93.147              Murmansk2         11643.375
         4   01 Jun 2027 04:27:40.358   01 Jun 2027 04:28:26.553            46.195              Murmansk2          5774.375
         5   01 Jun 2027 04:28:57.715   01 Jun 2027 04:29:11.031            13.316              Murmansk2          1664.500
         6   01 Jun 2027 04:30:34.400   01 Jun 2027 04:30:44.718            10.318                Norilsk          1289.750
         7   01 Jun 2027 05:03:43.500   01 Jun 2027 05:05:52.068           128.568            RioGallegos         16071.000
         8   01 Jun 2027 05:39:43.094   01 Jun 2027 05:40:17.097            34.003                Sumatra          4250.375
         9   01 Jun 2027 05:41:22.481   01 Jun 2027 05:42:08.435            45.954                Sumatra          5744.250
        10   01 Jun 2027 05:44:04.871   01 Jun 2027 05:44:11.722             6.851                Sumatra           856.375
        11   01 Jun 2027 05:45:51.349   01 Jun 2027 05:48:36.131           164.782                  Delhi         20597.750
        12   01 Jun 2027 06:02:10.569   01 Jun 2027 06:04:47.911           157.342                Novosib         19667.750
        13   01 Jun 2027 07:37:39.747   01 Jun 2027 07:38:35.326            55.579                Novosib          6947.375
        14   01 Jun 2027 07:39:06.421   01 Jun 2027 07:39:27.876            21.455                 Moscow          2681.875
        15   01 Jun 2027 09:29:15.626   01 Jun 2027 09:30:35.692            80.066                Anadyr2         10008.250
        16   01 Jun 2027 11:00:07.921   01 Jun 2027 11:01:06.190            58.269                Anadyr2          7283.625
        17   01 Jun 2027 11:04:13.243   01 Jun 2027 11:07:29.776           196.533                Anadyr1         24566.625
        18   01 Jun 2027 12:38:36.942   01 Jun 2027 12:41:38.277           181.335               Magadan1         22666.875
        19   01 Jun 2027 12:42:21.117   01 Jun 2027 12:43:09.483            48.366               Magadan2          6045.750
        20   01 Jun 2027 12:43:42.701   01 Jun 2027 12:43:59.644            16.943               Magadan1          2117.875
        21   01 Jun 2027 12:47:49.685   01 Jun 2027 12:49:22.556            92.871               Magadan1         11608.875
        22   01 Jun 2027 15:06:42.875   01 Jun 2027 15:10:46.283           243.408            RioGallegos         30426.000
        23   01 Jun 2027 16:08:05.576   01 Jun 2027 16:12:12.954           247.378                Sumatra         30922.250
        24   01 Jun 2027 17:29:47.096   01 Jun 2027 17:31:30.281           103.185                Novosib         12898.125
        25   01 Jun 2027 17:38:01.853   01 Jun 2027 17:41:46.950           225.097                  Delhi         28137.125
        26   01 Jun 2027 17:44:40.482   01 Jun 2027 17:45:39.620            59.138                  Delhi          2507.375
        27   02 Jun 2027 04:13:55.158   02 Jun 2027 04:18:14.401           259.243                Sumatra         32405.375
        28   02 Jun 2027 04:36:12.959   02 Jun 2027 04:36:27.735            14.776                Irkutsk          1847.000
        29   02 Jun 2027 04:37:26.997   02 Jun 2027 04:37:29.414             2.417              Murmansk2           302.125
        30   02 Jun 2027 04:37:29.414   02 Jun 2027 04:37:45.145            15.731              Murmansk1          1966.375
        31   02 Jun 2027 04:37:55.058   02 Jun 2027 04:38:22.989            27.931                Novosib          3491.375
        32   02 Jun 2027 04:38:30.177   02 Jun 2027 04:38:38.254             8.077              Murmansk2          1009.625
        33   02 Jun 2027 04:39:00.543   02 Jun 2027 04:40:21.397            80.854              Murmansk2         10106.750
        34   02 Jun 2027 05:16:14.763   02 Jun 2027 05:17:00.101            45.338            RioGallegos          5667.250
        35   02 Jun 2027 05:50:26.457   02 Jun 2027 05:52:31.551           125.094                Sumatra         15636.750
        36   02 Jun 2027 05:57:41.305   02 Jun 2027 06:01:15.173           213.868                  Delhi         26733.500
        37   02 Jun 2027 06:13:43.019   02 Jun 2027 06:14:18.190            35.171                Novosib          4396.375
        38   02 Jun 2027 06:14:45.816   02 Jun 2027 06:15:14.552            28.736              Murmansk2          3592.000
        39   02 Jun 2027 06:15:15.616   02 Jun 2027 06:15:51.277            35.661                 Moscow          4457.625
        40   02 Jun 2027 07:35:44.156   02 Jun 2027 07:36:07.653            23.497                  Delhi          2937.125
        41   02 Jun 2027 07:49:05.122   02 Jun 2027 07:50:05.830            60.708              Murmansk2          7588.500
        42   02 Jun 2027 07:50:17.989   02 Jun 2027 07:50:32.420            14.431              Murmansk2          1803.875
        43   02 Jun 2027 07:50:36.224   02 Jun 2027 07:51:15.962            39.738                 Moscow          4967.250
        44   02 Jun 2027 07:51:40.671   02 Jun 2027 07:52:52.156            71.485                Norilsk          8935.625
        45   02 Jun 2027 07:52:55.518   02 Jun 2027 07:53:52.727            57.209                 Moscow          7151.125
        46   02 Jun 2027 08:59:19.731   02 Jun 2027 09:01:10.946           111.215               CapeTown         13901.875
        47   02 Jun 2027 11:12:06.852   02 Jun 2027 11:12:54.331            47.479                Anadyr2          5934.875
        48   02 Jun 2027 11:15:50.345   02 Jun 2027 11:17:39.982           109.637                Anadyr1         13704.625
        49   02 Jun 2027 12:50:31.711   02 Jun 2027 12:55:07.213           275.502               Magadan1         34437.750
        50   02 Jun 2027 15:18:27.059   02 Jun 2027 15:20:43.158           136.099            RioGallegos         17012.375
        51   02 Jun 2027 16:05:57.758   02 Jun 2027 16:09:09.272           191.514                Irkutsk         23939.250
        52   02 Jun 2027 16:19:46.536   02 Jun 2027 16:22:12.525           145.989                Sumatra         18248.625
        53   02 Jun 2027 17:41:42.364   02 Jun 2027 17:43:53.293           130.929                Novosib         16366.125
        54   02 Jun 2027 17:49:37.800   02 Jun 2027 17:53:42.429           244.629                  Delhi         30578.625
        55   02 Jun 2027 20:51:46.514   02 Jun 2027 20:52:06.327            19.813              Murmansk1          2476.625
        56   02 Jun 2027 20:55:10.356   02 Jun 2027 20:56:35.574            85.218                 Moscow         10652.250
        57   02 Jun 2027 21:19:37.995   02 Jun 2027 21:20:08.206            30.211               CapeTown          3776.375
        58   03 Jun 2027 03:14:32.447   03 Jun 2027 03:15:11.599            39.152               Magadan1          4894.000
        59   03 Jun 2027 03:15:42.189   03 Jun 2027 03:15:46.616             4.427                Irkutsk           553.375
        60   03 Jun 2027 03:16:06.497   03 Jun 2027 03:16:15.514             9.017                Norilsk          1127.125
        61   03 Jun 2027 03:22:23.335   03 Jun 2027 03:22:52.175            28.840              Murmansk2          3605.000
        62   03 Jun 2027 03:50:29.632   03 Jun 2027 03:53:17.334           167.702            RioGallegos         20962.750
        63   03 Jun 2027 04:25:39.578   03 Jun 2027 04:30:21.606           282.028                Sumatra         35253.500
        64   03 Jun 2027 04:47:21.978   03 Jun 2027 04:48:31.443            69.465                Irkutsk          8683.125
        65   03 Jun 2027 04:49:28.268   03 Jun 2027 04:50:14.140            45.872              Murmansk1          5734.000
        66   03 Jun 2027 04:50:52.715   03 Jun 2027 04:51:40.926            48.211              Murmansk1          6026.375
        67   03 Jun 2027 04:52:16.903   03 Jun 2027 04:52:49.253            32.350                Novosib          4043.750
        68   03 Jun 2027 05:28:52.818   03 Jun 2027 05:29:52.260            59.442            RioGallegos          7430.250
        69   03 Jun 2027 06:03:09.582   03 Jun 2027 06:04:55.691           106.109                Sumatra         13263.625
        70   03 Jun 2027 06:09:36.607   03 Jun 2027 06:11:19.653           103.046                  Delhi         12880.750
        71   03 Jun 2027 06:25:44.651   03 Jun 2027 06:26:12.356            27.705                Norilsk          3463.125
        72   03 Jun 2027 06:26:22.121   03 Jun 2027 06:26:58.650            36.529                Norilsk          4566.125
        73   03 Jun 2027 06:27:02.308   03 Jun 2027 06:27:33.764            31.456                Norilsk          3932.000
        74   03 Jun 2027 06:27:49.116   03 Jun 2027 06:28:00.323            11.207              Murmansk1          1400.875
        75   03 Jun 2027 07:48:51.044   03 Jun 2027 07:50:56.442           125.398                  Delhi         15674.750
        76   03 Jun 2027 07:59:21.074   03 Jun 2027 08:00:03.996            42.922              Murmansk2          5365.250
        77   03 Jun 2027 08:00:06.271   03 Jun 2027 08:00:37.637            31.366              Murmansk1          3920.750
        78   03 Jun 2027 08:00:46.888   03 Jun 2027 08:01:04.457            17.569              Murmansk2          2196.125
        79   03 Jun 2027 08:01:05.576   03 Jun 2027 08:01:45.874            40.298                Novosib          5037.250
        80   03 Jun 2027 08:01:59.458   03 Jun 2027 08:02:20.459            21.001              Murmansk2          2625.125
        81   03 Jun 2027 08:02:22.937   03 Jun 2027 08:02:38.507            15.570              Murmansk2          1946.250
        82   03 Jun 2027 08:02:46.596   03 Jun 2027 08:02:53.112             6.516                Novosib           814.500
        83   03 Jun 2027 08:03:00.710   03 Jun 2027 08:03:42.677            41.967              Murmansk1          5245.875
        84   03 Jun 2027 08:03:48.884   03 Jun 2027 08:04:30.399            41.515              Murmansk1          5189.375
        85   03 Jun 2027 08:04:56.903   03 Jun 2027 08:05:29.367            32.464                 Moscow          4058.000
        86   03 Jun 2027 09:10:01.782   03 Jun 2027 09:12:54.107           172.325               CapeTown         21540.625
        87   03 Jun 2027 11:26:24.225   03 Jun 2027 11:27:05.695            41.470                Anadyr1          5183.750
        88   03 Jun 2027 11:28:54.120   03 Jun 2027 11:29:04.060             9.940                Anadyr1          1242.500
        89   03 Jun 2027 11:30:08.746   03 Jun 2027 11:32:00.424           111.678                Anadyr2         13959.750
        90   03 Jun 2027 13:02:27.860   03 Jun 2027 13:03:56.570            88.710               Magadan1         11088.750
        91   03 Jun 2027 13:04:18.569   03 Jun 2027 13:07:46.377           207.808               Magadan2         25976.000
        92   03 Jun 2027 15:30:15.206   03 Jun 2027 15:33:56.758           221.552            RioGallegos         27694.000
        93   03 Jun 2027 16:20:01.413   03 Jun 2027 16:20:02.876             1.463                Irkutsk           182.875
        94   03 Jun 2027 16:31:34.174   03 Jun 2027 16:36:27.467           293.293                Sumatra         36661.625
        95   03 Jun 2027 17:53:38.994   03 Jun 2027 17:55:00.257            81.263                Novosib         10157.875
        96   03 Jun 2027 18:01:20.415   03 Jun 2027 18:03:18.745           118.330                  Delhi         14791.250
        97   03 Jun 2027 19:39:58.258   03 Jun 2027 19:40:02.510             4.252                 Moscow           531.500
        98   03 Jun 2027 21:07:07.912   03 Jun 2027 21:08:16.244            68.332                 Moscow          8541.500
        99   03 Jun 2027 21:11:52.977   03 Jun 2027 21:13:51.128           118.151                 Moscow         14768.875
       100   03 Jun 2027 21:31:20.469   03 Jun 2027 21:33:29.169           128.700               CapeTown         16087.500
       101   04 Jun 2027 03:25:33.311   04 Jun 2027 03:25:50.577            17.266               Magadan2          2158.250
       102   04 Jun 2027 03:27:08.435   04 Jun 2027 03:27:49.221            40.786              Murmansk2          5098.250
       103   04 Jun 2027 03:28:12.556   04 Jun 2027 03:28:50.841            38.285                Norilsk          4785.625
       104   04 Jun 2027 03:29:44.449   04 Jun 2027 03:30:09.865            25.416                Norilsk          3177.000
       105   04 Jun 2027 03:34:12.865   04 Jun 2027 03:34:24.042            11.177              Murmansk2          1397.125
       106   04 Jun 2027 04:02:34.763   04 Jun 2027 04:02:45.195            10.432            RioGallegos          1304.000
       107   04 Jun 2027 04:04:40.045   04 Jun 2027 04:05:44.898            64.853            RioGallegos          8106.625
       108   04 Jun 2027 04:11:59.921   04 Jun 2027 04:12:15.914            15.993            RioGallegos          1999.125
       109   04 Jun 2027 04:37:30.259   04 Jun 2027 04:41:52.010           261.751                Sumatra         32718.875
       110   04 Jun 2027 05:00:06.099   04 Jun 2027 05:01:58.379           112.280                Novosib         14035.000
       111   04 Jun 2027 05:02:24.921   04 Jun 2027 05:02:42.641            17.720              Murmansk1          2215.000
       112   04 Jun 2027 05:02:45.834   04 Jun 2027 05:03:00.058            14.224                Norilsk          1778.000
       113   04 Jun 2027 05:03:00.528   04 Jun 2027 05:03:39.461            38.933                Irkutsk          4866.625
       114   04 Jun 2027 05:41:39.614   04 Jun 2027 05:41:50.694            11.080            RioGallegos          1385.000
       115   04 Jun 2027 05:43:14.181   04 Jun 2027 05:43:42.316            28.135            RioGallegos          3516.875
       116   04 Jun 2027 06:21:30.458   04 Jun 2027 06:22:20.929            50.471                Sumatra          6308.875
       117   04 Jun 2027 06:22:57.932   04 Jun 2027 06:23:37.445            39.513                  Delhi          4939.125
       118   04 Jun 2027 06:24:49.010   04 Jun 2027 06:26:40.925           111.915                  Delhi         13989.375
       119   04 Jun 2027 06:38:06.377   04 Jun 2027 06:38:39.271            32.894                 Moscow          4111.750
       120   04 Jun 2027 06:38:52.763   04 Jun 2027 06:39:18.480            25.717              Murmansk1          3214.625
       121   04 Jun 2027 06:39:22.195   04 Jun 2027 06:39:51.293            29.098                Norilsk          3637.250
       122   04 Jun 2027 06:40:04.079   04 Jun 2027 06:40:42.201            38.122                 Moscow          4765.250
       123   04 Jun 2027 08:09:57.029   04 Jun 2027 08:10:55.810            58.781              Murmansk2          7347.625
       124   04 Jun 2027 08:11:04.157   04 Jun 2027 08:11:23.913            19.756                 Moscow          2469.500
       125   04 Jun 2027 08:11:29.718   04 Jun 2027 08:12:56.513            86.795                 Moscow         10849.375
       126   04 Jun 2027 08:13:23.694   04 Jun 2027 08:13:59.160            35.466              Murmansk2          4433.250
       127   04 Jun 2027 08:14:04.331   04 Jun 2027 08:14:04.845             0.514                 Moscow            64.250
       128   04 Jun 2027 08:14:07.754   04 Jun 2027 08:14:26.991            19.237              Murmansk2          2404.625
       129   04 Jun 2027 08:14:29.549   04 Jun 2027 08:14:58.885            29.336              Murmansk2          3667.000
       130   04 Jun 2027 08:15:11.842   04 Jun 2027 08:15:54.459            42.617                Norilsk          5327.125
       131   04 Jun 2027 08:16:10.889   04 Jun 2027 08:17:13.869            62.980                Norilsk          7872.500
       132   04 Jun 2027 08:17:19.719   04 Jun 2027 08:17:39.357            19.638              Murmansk1          2454.750
       133   04 Jun 2027 08:18:52.871   04 Jun 2027 08:18:54.994             2.123                 Moscow           265.375
       134   04 Jun 2027 09:21:16.540   04 Jun 2027 09:24:42.056           205.516               CapeTown         25689.500
       135   04 Jun 2027 10:02:44.492   04 Jun 2027 10:04:50.309           125.817                Anadyr1         15727.125
       136   04 Jun 2027 11:36:06.294   04 Jun 2027 11:36:39.598            33.304                Anadyr1          4163.000
       137   04 Jun 2027 11:38:38.388   04 Jun 2027 11:40:55.187           136.799                Anadyr1         17099.875
       138   04 Jun 2027 13:14:25.122   04 Jun 2027 13:20:20.003           354.881               Magadan1         44360.125
       139   04 Jun 2027 15:42:06.295   04 Jun 2027 15:45:42.417           216.122            RioGallegos         27015.250
       140   04 Jun 2027 16:37:45.723   04 Jun 2027 16:39:05.560            79.837                Irkutsk          9979.625
       141   04 Jun 2027 16:43:27.778   04 Jun 2027 16:46:34.267           186.489                Sumatra         23311.125
       142   04 Jun 2027 18:08:27.417   04 Jun 2027 18:10:22.477           115.060                Novosib         14382.500
       143   04 Jun 2027 18:13:08.202   04 Jun 2027 18:15:40.555           152.353                  Delhi         19044.125
       144   04 Jun 2027 19:44:17.532   04 Jun 2027 19:45:04.975            47.443                 Moscow          5930.375
       145   04 Jun 2027 21:15:49.405   04 Jun 2027 21:16:04.369            14.964              Murmansk1          1870.500
       146   04 Jun 2027 21:19:06.473   04 Jun 2027 21:19:51.740            45.267                 Moscow          5658.375
       147   04 Jun 2027 21:22:34.444   04 Jun 2027 21:23:54.415            79.971                 Moscow          9996.375
       148   04 Jun 2027 21:43:08.247   04 Jun 2027 21:43:57.919            49.672               CapeTown          6209.000
       149   04 Jun 2027 21:46:04.573   04 Jun 2027 21:46:49.002            44.429               CapeTown          5553.625
       150   04 Jun 2027 21:50:56.052   04 Jun 2027 21:52:36.639           100.587               CapeTown         12573.375
       151   05 Jun 2027 03:18:48.306   05 Jun 2027 03:19:21.091            32.785                Sumatra          4098.125
       152   05 Jun 2027 03:20:36.016   05 Jun 2027 03:21:54.806            78.790                Sumatra          9848.750
       153   05 Jun 2027 03:37:28.035   05 Jun 2027 03:38:11.649            43.614               Magadan2          5451.750
       154   05 Jun 2027 03:39:25.775   05 Jun 2027 03:40:18.655            52.880              Murmansk1          6610.000
       155   05 Jun 2027 04:14:43.435   05 Jun 2027 04:15:04.332            20.897            RioGallegos          2612.125
       156   05 Jun 2027 04:17:45.688   05 Jun 2027 04:19:22.260            96.572            RioGallegos         12071.500
       157   05 Jun 2027 04:22:23.334   05 Jun 2027 04:23:24.590            61.256            RioGallegos          7657.000
       158   05 Jun 2027 04:49:26.704   05 Jun 2027 04:52:27.175           180.471                Sumatra         22558.875
       159   05 Jun 2027 05:11:33.275   05 Jun 2027 05:11:43.760            10.485                Irkutsk          1310.625
       160   05 Jun 2027 05:12:11.880   05 Jun 2027 05:12:39.666            27.786                Norilsk          3473.250
       161   05 Jun 2027 05:12:42.110   05 Jun 2027 05:13:24.303            42.193                Norilsk          5274.125
       162   05 Jun 2027 05:13:28.130   05 Jun 2027 05:14:38.917            70.787                Irkutsk          8848.375
       163   05 Jun 2027 05:15:19.330   05 Jun 2027 05:15:24.038             4.708              Murmansk1           588.500
       164   05 Jun 2027 05:15:43.102   05 Jun 2027 05:16:32.183            49.081                Norilsk          6135.125
       165   05 Jun 2027 05:22:53.999   05 Jun 2027 05:23:00.679             6.680              Murmansk1           835.000
       166   05 Jun 2027 05:54:39.087   05 Jun 2027 05:55:22.496            43.409            RioGallegos          5426.125
       167   05 Jun 2027 05:55:46.664   05 Jun 2027 05:56:05.149            18.485            RioGallegos          2310.625
       168   05 Jun 2027 06:00:12.719   05 Jun 2027 06:00:37.596            24.877            RioGallegos          3109.625
       169   05 Jun 2027 06:33:43.208   05 Jun 2027 06:35:04.486            81.278                  Delhi         10159.750
       170   05 Jun 2027 06:36:18.685   05 Jun 2027 06:38:35.372           136.687                  Delhi         17085.875
       171   05 Jun 2027 06:50:04.020   05 Jun 2027 06:50:53.594            49.574                Norilsk          6196.750
       172   05 Jun 2027 06:50:59.953   05 Jun 2027 06:51:41.155            41.202                 Moscow          5150.250
       173   05 Jun 2027 08:21:52.686   05 Jun 2027 08:22:57.059            64.373              Murmansk2          8046.625
       174   05 Jun 2027 08:23:06.906   05 Jun 2027 08:23:38.971            32.065                 Moscow          4008.125
       175   05 Jun 2027 08:23:42.572   05 Jun 2027 08:23:47.430             4.858              Murmansk2           607.250
       176   05 Jun 2027 08:23:47.430   05 Jun 2027 08:24:41.784            54.354              Murmansk1          6794.250
       177   05 Jun 2027 08:25:02.491   05 Jun 2027 08:26:07.796            65.305                 Moscow          8163.125
       178   05 Jun 2027 08:26:21.663   05 Jun 2027 08:27:29.505            67.842              Murmansk1          8480.250
       179   05 Jun 2027 08:27:37.617   05 Jun 2027 08:28:50.603            72.986                 Moscow          9123.250
       180   05 Jun 2027 09:32:45.460   05 Jun 2027 09:36:33.903           228.443               CapeTown         28555.375
       181   05 Jun 2027 09:39:22.887   05 Jun 2027 09:40:09.788            46.901               CapeTown          5862.625
       182   05 Jun 2027 10:14:27.481   05 Jun 2027 10:17:07.485           160.004                Anadyr1         20000.500
       183   05 Jun 2027 10:17:07.485   05 Jun 2027 10:17:08.935             1.450                Anadyr2           181.250
       184   05 Jun 2027 11:52:27.978   05 Jun 2027 11:52:45.471            17.493               Magadan1          2186.625
       185   05 Jun 2027 11:57:35.582   05 Jun 2027 11:58:46.743            71.161               Magadan2          8895.125
       186   05 Jun 2027 13:26:23.291   05 Jun 2027 13:28:57.729           154.438               Magadan1         19304.750
       187   05 Jun 2027 15:23:37.277   05 Jun 2027 15:26:50.282           193.005                Sumatra         24125.625
       188   05 Jun 2027 15:56:09.394   05 Jun 2027 15:56:20.824            11.430            RioGallegos          1428.750
       189   05 Jun 2027 15:58:35.320   05 Jun 2027 15:59:20.962            45.642            RioGallegos          5705.250
       190   05 Jun 2027 16:41:44.196   05 Jun 2027 16:43:03.033            78.837                Irkutsk          9854.625
       191   05 Jun 2027 16:46:29.320   05 Jun 2027 16:48:32.812           123.492                Irkutsk         15436.500
       192   05 Jun 2027 16:55:27.014   05 Jun 2027 16:57:57.796           150.782                Sumatra         18847.750
       193   05 Jun 2027 17:03:07.579   05 Jun 2027 17:05:04.942           117.363                Sumatra         14670.375
       194   05 Jun 2027 18:22:24.034   05 Jun 2027 18:22:36.608            12.574                Novosib          1571.750
       195   05 Jun 2027 18:25:00.267   05 Jun 2027 18:27:55.562           175.295                  Delhi         21911.875
       196   05 Jun 2027 18:34:05.210   05 Jun 2027 18:34:31.144            25.934                  Delhi          3241.750
       197   05 Jun 2027 19:56:01.494   05 Jun 2027 19:58:26.640           145.146                 Moscow         18143.250
       198   05 Jun 2027 21:38:34.415   05 Jun 2027 21:39:09.811            35.396                 Moscow          4424.500
       199   05 Jun 2027 21:55:01.077   05 Jun 2027 21:56:44.541           103.464               CapeTown         12933.000
       200   05 Jun 2027 22:06:54.010   05 Jun 2027 22:07:46.757            52.747               CapeTown          6593.375
       201   06 Jun 2027 03:28:51.355   06 Jun 2027 03:30:57.659           126.304                Sumatra         15788.000
       202   06 Jun 2027 03:33:02.232   06 Jun 2027 03:35:44.732           162.500                Sumatra         20312.500
       203   06 Jun 2027 03:51:13.290   06 Jun 2027 03:51:24.151            10.861                Irkutsk          1357.625
       204   06 Jun 2027 03:51:34.202   06 Jun 2027 03:51:56.914            22.712                Irkutsk          2839.000
       205   06 Jun 2027 03:52:10.177   06 Jun 2027 03:52:45.052            34.875                Novosib          4359.375
       206   06 Jun 2027 03:52:47.956   06 Jun 2027 03:53:01.054            13.098                Norilsk          1637.250
       207   06 Jun 2027 03:55:12.422   06 Jun 2027 03:55:31.326            18.904              Murmansk1          2363.000
       208   06 Jun 2027 03:56:20.384   06 Jun 2027 03:56:56.540            36.156              Murmansk1          4519.500
       209   06 Jun 2027 03:57:49.950   06 Jun 2027 03:58:21.201            31.251              Murmansk2          3906.375
       210   06 Jun 2027 04:26:55.852   06 Jun 2027 04:27:29.853            34.001            RioGallegos          4250.125
       211   06 Jun 2027 04:35:01.105   06 Jun 2027 04:36:07.000            65.895            RioGallegos          8236.875
       212   06 Jun 2027 05:01:28.729   06 Jun 2027 05:02:54.830            86.101                Sumatra         10762.625
       213   06 Jun 2027 05:11:16.623   06 Jun 2027 05:12:03.199            46.576                  Delhi          5822.000
       214   06 Jun 2027 05:24:35.474   06 Jun 2027 05:25:38.315            62.841                Norilsk          7855.125
       215   06 Jun 2027 05:25:50.876   06 Jun 2027 05:27:04.849            73.973                Norilsk          9246.625
       216   06 Jun 2027 05:27:07.621   06 Jun 2027 05:27:26.042            18.421              Murmansk1          2302.625
       217   06 Jun 2027 05:27:34.396   06 Jun 2027 05:27:42.683             8.287                Novosib          1035.875
       218   06 Jun 2027 05:28:01.042   06 Jun 2027 05:28:12.825            11.783              Murmansk1          1472.875
       219   06 Jun 2027 06:08:02.647   06 Jun 2027 06:08:54.580            51.933            RioGallegos          6491.625
       220   06 Jun 2027 06:45:54.947   06 Jun 2027 06:48:37.186           162.239                  Delhi         20279.875
       221   06 Jun 2027 06:52:17.499   06 Jun 2027 06:52:40.915            23.416                  Delhi          2927.000
       222   06 Jun 2027 07:00:58.259   06 Jun 2027 07:01:26.812            28.553              Murmansk2          3569.125
       223   06 Jun 2027 07:01:32.899   06 Jun 2027 07:02:28.549            55.650              Murmansk1          6956.250
       224   06 Jun 2027 07:02:41.639   06 Jun 2027 07:03:17.294            35.655              Murmansk1          4456.875
       225   06 Jun 2027 07:03:28.517   06 Jun 2027 07:03:51.568            23.051                Novosib          2881.375
       226   06 Jun 2027 07:04:04.848   06 Jun 2027 07:04:35.690            30.842                 Moscow          3855.250
       227   06 Jun 2027 08:33:48.992   06 Jun 2027 08:35:31.559           102.567              Murmansk2         12820.875
       228   06 Jun 2027 08:35:49.636   06 Jun 2027 08:37:09.080            79.444                 Moscow          9930.500
       229   06 Jun 2027 08:37:26.723   06 Jun 2027 08:38:01.149            34.426                 Moscow          4303.250
       230   06 Jun 2027 08:38:10.778   06 Jun 2027 08:38:17.922             7.144                 Moscow           893.000
       231   06 Jun 2027 08:38:31.476   06 Jun 2027 08:39:40.110            68.634                 Moscow          8579.250
       232   06 Jun 2027 08:41:20.054   06 Jun 2027 08:42:57.527            97.473                 Moscow         12184.125
       233   06 Jun 2027 09:44:23.018   06 Jun 2027 09:45:27.257            64.239               CapeTown          8029.875
       234   06 Jun 2027 09:47:23.885   06 Jun 2027 09:48:29.082            65.197               CapeTown          8149.625
       235   06 Jun 2027 10:25:59.688   06 Jun 2027 10:27:17.711            78.023                Anadyr1          9752.875
       236   06 Jun 2027 10:28:42.182   06 Jun 2027 10:29:07.849            25.667                Anadyr2          3208.375
       237   06 Jun 2027 12:00:07.237   06 Jun 2027 12:00:31.809            24.572                Anadyr2          3071.500
       238   06 Jun 2027 12:01:17.961   06 Jun 2027 12:03:05.200           107.239                Anadyr2         13404.875
       239   06 Jun 2027 12:04:17.670   06 Jun 2027 12:05:29.279            71.609               Magadan2          8951.125
       240   06 Jun 2027 12:07:17.895   06 Jun 2027 12:07:32.986            15.091               Magadan1          1886.375
       241   06 Jun 2027 13:38:22.213   06 Jun 2027 13:39:09.627            47.414               Magadan2          5926.750
       242   06 Jun 2027 13:41:12.441   06 Jun 2027 13:43:22.132           129.691               Magadan1         16211.375
       243   06 Jun 2027 15:23:52.408   06 Jun 2027 15:27:21.260           208.852                Irkutsk         26106.500
       244   06 Jun 2027 15:34:16.213   06 Jun 2027 15:36:48.776           152.563                Sumatra         19070.375
       245   06 Jun 2027 15:39:12.151   06 Jun 2027 15:42:16.758           184.607                Sumatra         23075.875
       246   06 Jun 2027 16:55:59.831   06 Jun 2027 16:57:19.522            79.691                Novosib          9961.375
       247   06 Jun 2027 17:05:02.874   06 Jun 2027 17:06:40.364            97.490                  Delhi         12186.250
       248   06 Jun 2027 17:15:21.270   06 Jun 2027 17:17:14.464           113.194                Sumatra         14149.250
       249   06 Jun 2027 18:36:56.062   06 Jun 2027 18:39:21.118           145.056                  Delhi         18132.000
       250   06 Jun 2027 18:46:29.695   06 Jun 2027 18:47:22.224            52.529                  Delhi          6566.125
       251   06 Jun 2027 20:07:49.546   06 Jun 2027 20:08:08.587            19.041                 Moscow          2380.125
       252   06 Jun 2027 20:10:34.647   06 Jun 2027 20:12:11.561            96.914                 Moscow         12114.250
       253   06 Jun 2027 21:44:45.403   06 Jun 2027 21:44:49.756             4.353              Murmansk2           544.125
       254   06 Jun 2027 21:45:00.763   06 Jun 2027 21:46:22.877            82.114                 Moscow         10264.250
       255   06 Jun 2027 21:51:08.356   06 Jun 2027 21:52:41.232            92.876                 Moscow         11609.500
       256   06 Jun 2027 22:14:41.116   06 Jun 2027 22:14:51.052             9.936               CapeTown          1242.000
       257   07 Jun 2027 03:39:47.733   07 Jun 2027 03:42:41.574           173.841                Sumatra         21730.125
       258   07 Jun 2027 03:45:20.256   07 Jun 2027 03:48:42.371           202.115                Sumatra         25264.375
       259   07 Jun 2027 04:03:51.522   07 Jun 2027 04:04:11.764            20.242                Norilsk          2530.250
       260   07 Jun 2027 04:07:34.160   07 Jun 2027 04:08:13.888            39.728                Norilsk          4966.000
       261   07 Jun 2027 04:39:12.273   07 Jun 2027 04:40:09.549            57.276            RioGallegos          7159.500
       262   07 Jun 2027 04:44:58.119   07 Jun 2027 04:45:23.740            25.621            RioGallegos          3202.625
       263   07 Jun 2027 04:47:14.813   07 Jun 2027 04:47:31.937            17.124            RioGallegos          2140.500
       264   07 Jun 2027 05:13:36.468   07 Jun 2027 05:14:31.726            55.258                Sumatra          6907.250
       265   07 Jun 2027 05:16:28.880   07 Jun 2027 05:17:29.263            60.383                Sumatra          7547.875
       266   07 Jun 2027 05:22:43.101   07 Jun 2027 05:24:24.185           101.084                  Delhi         12635.500
       267   07 Jun 2027 05:37:19.248   07 Jun 2027 05:37:33.834            14.586                Norilsk          1823.250
       268   07 Jun 2027 05:37:35.647   07 Jun 2027 05:38:16.692            41.045              Murmansk1          5130.625
       269   07 Jun 2027 05:38:22.457   07 Jun 2027 05:39:19.909            57.452                Irkutsk          7181.500
       270   07 Jun 2027 05:39:28.297   07 Jun 2027 05:39:51.494            23.197                Novosib          2899.625
       271   07 Jun 2027 05:41:21.768   07 Jun 2027 05:41:26.882             5.114                Novosib           639.250
       272   07 Jun 2027 06:58:13.022   07 Jun 2027 07:00:30.897           137.875                  Delhi         17234.375
       273   07 Jun 2027 07:13:11.202   07 Jun 2027 07:14:17.100            65.898                 Moscow          8237.250
       274   07 Jun 2027 07:14:23.105   07 Jun 2027 07:16:00.937            97.832                 Moscow         12229.000
       275   07 Jun 2027 07:16:25.697   07 Jun 2027 07:16:43.025            17.328                Novosib          2166.000
       276   07 Jun 2027 08:48:31.598   07 Jun 2027 08:48:53.031            21.433              Murmansk1          2679.125
       277   07 Jun 2027 08:49:05.108   07 Jun 2027 08:49:53.255            48.147              Murmansk1          6018.375
       278   07 Jun 2027 08:50:13.263   07 Jun 2027 08:50:23.497            10.234                 Moscow          1279.250
       279   07 Jun 2027 08:50:27.021   07 Jun 2027 08:51:45.583            78.562                 Moscow          9820.250
       280   07 Jun 2027 09:56:06.664   07 Jun 2027 10:00:27.250           260.586               CapeTown         32573.250
       281   07 Jun 2027 10:36:27.076   07 Jun 2027 10:38:05.115            98.039                Anadyr2         12254.875
       282   07 Jun 2027 12:12:08.101   07 Jun 2027 12:12:29.537            21.436                Anadyr1          2679.500
       283   07 Jun 2027 12:12:50.114   07 Jun 2027 12:13:52.329            62.215                Anadyr2          7776.875
       284   07 Jun 2027 12:15:15.124   07 Jun 2027 12:16:59.087           103.963                Anadyr1         12995.375
       285   07 Jun 2027 12:18:33.087   07 Jun 2027 12:19:29.071            55.984               Magadan1          6998.000
       286   07 Jun 2027 13:50:21.778   07 Jun 2027 13:51:01.379            39.601               Magadan2          4950.125
       287   07 Jun 2027 13:51:26.451   07 Jun 2027 13:53:24.178           117.727               Magadan1         14715.875
       288   07 Jun 2027 13:54:41.886   07 Jun 2027 13:55:19.406            37.520               Magadan1          4690.000
       289   07 Jun 2027 13:57:34.910   07 Jun 2027 13:58:30.349            55.439               Magadan1          6929.875
       290   07 Jun 2027 14:48:04.174   07 Jun 2027 14:50:37.369           153.195            RioGallegos         19149.375
       291   07 Jun 2027 15:33:43.298   07 Jun 2027 15:34:52.987            69.689                Irkutsk          8711.125
       292   07 Jun 2027 15:37:00.812   07 Jun 2027 15:37:10.507             9.695                Irkutsk          1211.875
       293   07 Jun 2027 15:45:23.997   07 Jun 2027 15:48:35.949           191.952                Sumatra         23994.000
       294   07 Jun 2027 15:51:26.683   07 Jun 2027 15:54:27.941           181.258                Sumatra         22657.250
       295   07 Jun 2027 17:09:17.811   07 Jun 2027 17:10:40.200            82.389                Novosib         10298.625
       296   07 Jun 2027 17:15:38.067   07 Jun 2027 17:18:22.553           164.486                  Delhi         20560.750
       297   07 Jun 2027 18:48:55.287   07 Jun 2027 18:49:59.575            64.288                  Delhi          8036.000
       298   07 Jun 2027 20:19:40.536   07 Jun 2027 20:24:09.065           268.529                 Moscow         33566.125
       299   07 Jun 2027 22:20:37.757   07 Jun 2027 22:21:39.595            61.838               CapeTown          7729.750
       300   08 Jun 2027 03:51:03.934   08 Jun 2027 03:54:31.819           207.885                Sumatra         25985.625
       301   08 Jun 2027 04:15:18.594   08 Jun 2027 04:15:42.818            24.224                Norilsk          3028.000
       302   08 Jun 2027 04:51:33.085   08 Jun 2027 04:52:42.560            69.475            RioGallegos          8684.375
       303   08 Jun 2027 04:53:34.562   08 Jun 2027 04:54:05.295            30.733            RioGallegos          3841.625
       304   08 Jun 2027 04:57:35.803   08 Jun 2027 04:58:36.546            60.743            RioGallegos          7592.875
       305   08 Jun 2027 05:25:50.417   08 Jun 2027 05:26:27.662            37.245                Sumatra          4655.625
       306   08 Jun 2027 05:34:21.502   08 Jun 2027 05:38:38.023           256.521                  Delhi         32065.125
       307   08 Jun 2027 05:49:59.893   08 Jun 2027 05:50:09.536             9.643              Murmansk1          1205.375
       308   08 Jun 2027 05:50:12.014   08 Jun 2027 05:50:24.791            12.777                Norilsk          1597.125
       309   08 Jun 2027 05:50:29.971   08 Jun 2027 05:52:01.538            91.567                Novosib         11445.875
       310   08 Jun 2027 07:10:38.442   08 Jun 2027 07:11:20.462            42.020                  Delhi          5252.500
       311   08 Jun 2027 07:13:00.505   08 Jun 2027 07:13:57.560            57.055                  Delhi          7131.875
       312   08 Jun 2027 07:25:22.320   08 Jun 2027 07:25:36.541            14.221              Murmansk2          1777.625
       313   08 Jun 2027 07:25:37.686   08 Jun 2027 07:26:19.696            42.010                 Moscow          5251.250
       314   08 Jun 2027 07:26:27.616   08 Jun 2027 07:26:49.613            21.997                Norilsk          2749.625
       315   08 Jun 2027 07:27:00.145   08 Jun 2027 07:28:21.551            81.406              Murmansk1         10175.750
       316   08 Jun 2027 09:01:23.720   08 Jun 2027 09:01:47.076            23.356              Murmansk1          2919.500
       317   08 Jun 2027 09:02:45.690   08 Jun 2027 09:03:07.464            21.774              Murmansk2          2721.750
       318   08 Jun 2027 09:03:31.598   08 Jun 2027 09:03:54.168            22.570                 Moscow          2821.250
       319   08 Jun 2027 10:07:54.994   08 Jun 2027 10:12:28.221           273.227               CapeTown         34153.375
       320   08 Jun 2027 10:48:24.461   08 Jun 2027 10:49:28.612            64.151                Anadyr2          8018.875
       321   08 Jun 2027 10:52:46.342   08 Jun 2027 10:53:30.125            43.783                Anadyr2          5472.875
       322   08 Jun 2027 12:26:42.441   08 Jun 2027 12:27:22.856            40.415                Anadyr2          5051.875
       323   08 Jun 2027 12:27:43.140   08 Jun 2027 12:31:26.289           223.149               Magadan2         27893.625
       324   08 Jun 2027 14:02:21.883   08 Jun 2027 14:02:55.171            33.288               Magadan2          4161.000
       325   08 Jun 2027 14:03:58.137   08 Jun 2027 14:05:33.097            94.960               Magadan1         11870.000
       326   08 Jun 2027 14:13:54.773   08 Jun 2027 14:15:12.795            78.022               Magadan1          9752.750
       327   08 Jun 2027 15:00:44.201   08 Jun 2027 15:03:35.449           171.248            RioGallegos         21406.000
       328   08 Jun 2027 15:45:00.243   08 Jun 2027 15:46:48.472           108.229                Irkutsk         13528.625
       329   08 Jun 2027 15:56:46.864   08 Jun 2027 16:00:29.132           222.268                Sumatra         27783.500
       330   08 Jun 2027 17:18:08.206   08 Jun 2027 17:19:18.048            69.842                Novosib          8730.250
       331   08 Jun 2027 17:26:49.468   08 Jun 2027 17:30:10.007           200.539                  Delhi         25067.375
       332   08 Jun 2027 17:32:40.201   08 Jun 2027 17:35:48.634           188.433                  Delhi         23554.125
       333   08 Jun 2027 20:31:33.755   08 Jun 2027 20:34:02.537           148.782                 Moscow         18597.750
       334   08 Jun 2027 22:07:08.404   08 Jun 2027 22:07:32.887            24.483                 Moscow          3060.375
       335   08 Jun 2027 22:31:09.533   08 Jun 2027 22:32:10.932            61.399               CapeTown          7674.875
       336   08 Jun 2027 22:33:57.345   08 Jun 2027 22:35:55.201           117.856               CapeTown         14732.000
       337   09 Jun 2027 04:02:32.335   09 Jun 2027 04:03:52.806            80.471                Sumatra         10058.875
       338   09 Jun 2027 04:05:52.325   09 Jun 2027 04:06:27.854            35.529                Sumatra          4441.125
       339   09 Jun 2027 04:09:36.897   09 Jun 2027 04:09:42.662             5.765                Sumatra           720.625
       340   09 Jun 2027 04:29:13.253   09 Jun 2027 04:29:24.899            11.646                Novosib          1455.750
       341   09 Jun 2027 05:03:58.800   09 Jun 2027 05:04:23.453            24.653            RioGallegos          3081.625
       342   09 Jun 2027 05:39:57.540   09 Jun 2027 05:41:35.359            97.819                Sumatra         12227.375
       343   09 Jun 2027 05:46:05.958   09 Jun 2027 05:50:43.628           277.670                  Delhi         34708.750
       344   09 Jun 2027 06:01:01.093   09 Jun 2027 06:01:05.949             4.856                Irkutsk           607.000
       345   09 Jun 2027 06:01:42.120   09 Jun 2027 06:02:53.342            71.222                Irkutsk          8902.750
       346   09 Jun 2027 07:24:24.338   09 Jun 2027 07:25:03.360            39.022                  Delhi          4877.750
       347   09 Jun 2027 07:37:37.785   09 Jun 2027 07:38:49.110            71.325                Norilsk          8915.625
       348   09 Jun 2027 07:38:57.021   09 Jun 2027 07:39:00.909             3.888                Novosib           486.000
       349   09 Jun 2027 07:39:17.932   09 Jun 2027 07:40:25.638            67.706              Murmansk2          8463.250
       350   09 Jun 2027 07:41:03.113   09 Jun 2027 07:41:47.620            44.507                 Moscow          5563.375
       351   09 Jun 2027 10:19:47.155   09 Jun 2027 10:22:59.744           192.589               CapeTown         24073.625
       352   09 Jun 2027 11:00:22.712   09 Jun 2027 11:01:20.654            57.942                Anadyr2          7242.750
       353   09 Jun 2027 11:04:29.371   09 Jun 2027 11:05:25.030            55.659                Anadyr2          6957.375
       354   09 Jun 2027 11:07:53.078   09 Jun 2027 11:08:28.061            34.983                Anadyr2          4372.875
       355   09 Jun 2027 11:10:37.415   09 Jun 2027 11:11:46.911            69.496                Anadyr1          8687.000
       356   09 Jun 2027 12:38:51.651   09 Jun 2027 12:43:24.426           272.775               Magadan1         34096.875
       357   09 Jun 2027 12:43:59.532   09 Jun 2027 12:45:57.594           118.062               Magadan2         14757.750
       358   09 Jun 2027 15:06:57.372   09 Jun 2027 15:11:01.134           243.762            RioGallegos         30470.250
       359   09 Jun 2027 15:55:23.654   09 Jun 2027 15:58:09.140           165.486                Irkutsk         20685.750
       360   09 Jun 2027 16:10:06.580   09 Jun 2027 16:12:27.966           141.386                Sumatra         17673.250
       361   09 Jun 2027 17:30:01.818   09 Jun 2027 17:31:45.541           103.723                Novosib         12965.375
       362   09 Jun 2027 17:38:16.193   09 Jun 2027 17:42:01.796           225.603                  Delhi         28200.375
       363   09 Jun 2027 19:15:23.457   09 Jun 2027 19:15:58.907            35.450                  Delhi          4431.250
       364   09 Jun 2027 20:41:13.997   09 Jun 2027 20:41:45.628            31.631              Murmansk2          3953.875
       365   09 Jun 2027 20:43:28.733   09 Jun 2027 20:45:17.537           108.804                 Moscow         13600.500
       366   09 Jun 2027 21:15:36.794   09 Jun 2027 21:17:31.188           114.394               CapeTown         14299.250
       367   10 Jun 2027 03:38:42.723   10 Jun 2027 03:41:07.582           144.859            RioGallegos         18107.375
       368   10 Jun 2027 03:42:00.538   10 Jun 2027 03:42:47.546            47.008            RioGallegos          5876.000
       369   10 Jun 2027 04:14:09.653   10 Jun 2027 04:18:29.481           259.828                Sumatra         32478.500
       370   10 Jun 2027 04:36:24.266   10 Jun 2027 04:36:36.124            11.858                Novosib          1482.250
       371   10 Jun 2027 04:36:40.394   10 Jun 2027 04:37:20.967            40.573                Irkutsk          5071.625
       372   10 Jun 2027 04:37:43.960   10 Jun 2027 04:37:44.812             0.852              Murmansk2           106.500
       373   10 Jun 2027 04:37:47.847   10 Jun 2027 04:39:59.264           131.417                Irkutsk         16427.125
       374   10 Jun 2027 05:50:41.893   10 Jun 2027 05:52:46.329           124.436                Sumatra         15554.500
       375   10 Jun 2027 05:57:56.006   10 Jun 2027 05:58:43.923            47.917                  Delhi          5989.625
       376   10 Jun 2027 06:00:58.707   10 Jun 2027 06:01:29.011            30.304                  Delhi          3788.000
       377   10 Jun 2027 06:13:31.764   10 Jun 2027 06:13:45.556            13.792                Novosib          1724.000
       378   10 Jun 2027 06:14:17.274   10 Jun 2027 06:15:00.664            43.390              Murmansk1          5423.750
       379   10 Jun 2027 06:15:08.890   10 Jun 2027 06:15:29.081            20.191              Murmansk1          2523.875
       380   10 Jun 2027 06:16:07.240   10 Jun 2027 06:16:55.318            48.078                 Moscow          6009.750
       381   10 Jun 2027 07:35:59.914   10 Jun 2027 07:36:21.828            21.914                  Delhi          2739.250
       382   10 Jun 2027 07:48:57.304   10 Jun 2027 07:50:20.430            83.126              Murmansk2         10390.750
       383   10 Jun 2027 07:50:47.053   10 Jun 2027 07:52:04.704            77.651              Murmansk2          9706.375
       384   10 Jun 2027 07:52:14.191   10 Jun 2027 07:52:51.754            37.563              Murmansk2          4695.375
       385   10 Jun 2027 08:59:32.577   10 Jun 2027 09:01:25.505           112.928               CapeTown         14116.000
       386   10 Jun 2027 10:31:42.600   10 Jun 2027 10:34:00.498           137.898               CapeTown         17237.250
       387   10 Jun 2027 11:12:21.655   10 Jun 2027 11:13:08.843            47.188                Anadyr1          5898.500
       388   10 Jun 2027 11:13:23.079   10 Jun 2027 11:16:05.309           162.230                Anadyr2         20278.750
       389   10 Jun 2027 12:50:46.449   10 Jun 2027 12:55:23.326           276.877               Magadan1         34609.625
       390   10 Jun 2027 14:28:08.682   10 Jun 2027 14:28:21.419            12.737               Magadan1          1592.125
       391   10 Jun 2027 14:28:48.709   10 Jun 2027 14:29:42.973            54.264               Magadan2          6783.000
       392   10 Jun 2027 15:18:41.640   10 Jun 2027 15:20:59.142           137.502            RioGallegos         17187.750
       393   10 Jun 2027 16:06:12.452   10 Jun 2027 16:09:22.581           190.129                Irkutsk         23766.125
       394   10 Jun 2027 16:20:01.092   10 Jun 2027 16:24:32.411           271.319                Sumatra         33914.875
       395   10 Jun 2027 17:41:57.114   10 Jun 2027 17:44:08.478           131.364                Novosib         16420.500
       396   10 Jun 2027 17:49:52.270   10 Jun 2027 17:53:00.144           187.874                  Delhi         23484.250
       397   10 Jun 2027 20:52:01.353   10 Jun 2027 20:52:18.087            16.734              Murmansk2          2091.750
       398   10 Jun 2027 20:55:25.123   10 Jun 2027 20:56:49.927            84.804                 Moscow         10600.500
       399   10 Jun 2027 21:19:52.476   10 Jun 2027 21:20:31.323            38.847               CapeTown          4855.875
       400   10 Jun 2027 22:57:53.771   10 Jun 2027 22:58:20.818            27.047               CapeTown          3380.875
       401   11 Jun 2027 03:12:11.570   11 Jun 2027 03:12:15.509             3.939               Magadan1           492.375
       402   11 Jun 2027 03:12:49.488   11 Jun 2027 03:13:47.732            58.244               Magadan2          7280.500
       403   11 Jun 2027 03:14:03.492   11 Jun 2027 03:15:26.229            82.737               Magadan2         10342.125
       404   11 Jun 2027 03:16:04.378   11 Jun 2027 03:16:20.268            15.890                Novosib          1986.250
       405   11 Jun 2027 03:16:21.497   11 Jun 2027 03:16:30.200             8.703                Norilsk          1087.875
       406   11 Jun 2027 03:16:39.811   11 Jun 2027 03:16:58.955            19.144              Murmansk2          2393.000
       407   11 Jun 2027 03:50:44.515   11 Jun 2027 03:52:22.294            97.779            RioGallegos         12222.375
       408   11 Jun 2027 04:25:54.187   11 Jun 2027 04:30:36.806           282.619                Sumatra         35327.375
       409   11 Jun 2027 04:47:35.958   11 Jun 2027 04:49:06.764            90.806                Irkutsk         11350.750
       410   11 Jun 2027 04:49:13.651   11 Jun 2027 04:49:43.494            29.843                Novosib          3730.375
       411   11 Jun 2027 04:50:43.811   11 Jun 2027 04:51:07.223            23.412              Murmansk2          2926.500
       412   11 Jun 2027 04:51:16.531   11 Jun 2027 04:51:22.007             5.476              Murmansk1           684.500
       413   11 Jun 2027 04:51:30.719   11 Jun 2027 04:53:05.117            94.398                Novosib         11799.750
       414   11 Jun 2027 04:54:28.002   11 Jun 2027 04:54:49.682            21.680                Norilsk          2710.000
       415   11 Jun 2027 05:29:08.351   11 Jun 2027 05:30:06.887            58.536            RioGallegos          7317.000
       416   11 Jun 2027 06:03:25.307   11 Jun 2027 06:04:54.445            89.138                Sumatra         11142.250
       417   11 Jun 2027 06:09:51.397   11 Jun 2027 06:12:33.814           162.417                  Delhi         20302.125
       418   11 Jun 2027 06:26:54.201   11 Jun 2027 06:28:19.681            85.480                Novosib         10685.000
       419   11 Jun 2027 06:28:46.061   11 Jun 2027 06:29:22.486            36.425                Novosib          4553.125
       420   11 Jun 2027 07:49:07.444   11 Jun 2027 07:51:10.957           123.513                  Delhi         15439.125
       421   11 Jun 2027 07:58:50.870   11 Jun 2027 08:00:18.821            87.951              Murmansk1         10993.875
       422   11 Jun 2027 08:00:28.285   11 Jun 2027 08:01:09.466            41.181                 Moscow          5147.625
       423   11 Jun 2027 08:01:19.090   11 Jun 2027 08:01:40.589            21.499              Murmansk1          2687.375
       424   11 Jun 2027 08:01:44.480   11 Jun 2027 08:02:11.827            27.347                 Moscow          3418.375
       425   11 Jun 2027 08:02:15.163   11 Jun 2027 08:02:34.556            19.393                 Moscow          2424.125
       426   11 Jun 2027 08:02:38.039   11 Jun 2027 08:02:42.225             4.186              Murmansk1           523.250
       427   11 Jun 2027 08:02:48.395   11 Jun 2027 08:03:17.747            29.352                 Moscow          3669.000
       428   11 Jun 2027 08:03:40.601   11 Jun 2027 08:03:54.844            14.243                Norilsk          1780.375
       429   11 Jun 2027 08:03:55.943   11 Jun 2027 08:04:28.052            32.109                 Moscow          4013.625
       430   11 Jun 2027 08:04:38.400   11 Jun 2027 08:04:47.655             9.255                Norilsk          1156.875
       431   11 Jun 2027 08:05:34.435   11 Jun 2027 08:05:47.936            13.501              Murmansk1          1687.625
       432   11 Jun 2027 09:10:15.635   11 Jun 2027 09:13:08.783           173.148               CapeTown         21643.500
       433   11 Jun 2027 10:43:41.009   11 Jun 2027 10:45:22.401           101.392               CapeTown         12674.000
       434   11 Jun 2027 11:24:21.158   11 Jun 2027 11:26:36.424           135.266                Anadyr1         16908.250
       435   11 Jun 2027 11:26:39.612   11 Jun 2027 11:29:09.118           149.506                Anadyr2         18688.250
       436   11 Jun 2027 13:02:42.621   11 Jun 2027 13:07:22.878           280.257               Magadan1         35032.125
       437   11 Jun 2027 15:30:29.846   11 Jun 2027 15:34:12.357           222.511            RioGallegos         27813.875
       438   11 Jun 2027 16:18:06.327   11 Jun 2027 16:20:16.609           130.282                Irkutsk         16285.250
       439   11 Jun 2027 16:31:48.840   11 Jun 2027 16:34:41.509           172.669                Sumatra         21583.625
       440   11 Jun 2027 17:53:53.767   11 Jun 2027 17:55:14.630            80.863                Novosib         10107.875
       441   11 Jun 2027 18:01:34.986   11 Jun 2027 18:05:56.359           261.373                  Delhi         32671.625
       442   11 Jun 2027 21:12:01.551   11 Jun 2027 21:12:42.918            41.367              Murmansk2          5170.875
       443   11 Jun 2027 21:14:06.208   11 Jun 2027 21:15:26.880            80.672                 Moscow         10084.000
       444   11 Jun 2027 21:31:35.043   11 Jun 2027 21:34:00.761           145.718               CapeTown         18214.750
       445   12 Jun 2027 03:25:42.319   12 Jun 2027 03:27:11.549            89.230               Magadan2         11153.750
       446   12 Jun 2027 03:28:08.308   12 Jun 2027 03:28:29.568            21.260                Novosib          2657.500
       447   12 Jun 2027 04:02:49.705   12 Jun 2027 04:04:53.914           124.209            RioGallegos         15526.125
       448   12 Jun 2027 04:37:44.975   12 Jun 2027 04:42:05.211           260.236                Sumatra         32529.500
       449   12 Jun 2027 04:59:35.147   12 Jun 2027 05:00:30.365            55.218                Irkutsk          6902.250
       450   12 Jun 2027 05:01:05.102   12 Jun 2027 05:03:14.872           129.770                Irkutsk         16221.250
       451   12 Jun 2027 06:21:52.079   12 Jun 2027 06:23:10.858            78.779                  Delhi          9847.375
       452   12 Jun 2027 06:23:51.618   12 Jun 2027 06:24:08.843            17.225                  Delhi          2153.125
       453   12 Jun 2027 06:25:03.824   12 Jun 2027 06:26:56.940           113.116                  Delhi         14139.500
       454   12 Jun 2027 06:38:29.647   12 Jun 2027 06:40:54.284           144.637                Novosib         18079.625
       455   12 Jun 2027 08:09:57.112   12 Jun 2027 08:11:13.106            75.994                 Moscow          9499.250
       456   12 Jun 2027 08:11:37.501   12 Jun 2027 08:12:49.404            71.903              Murmansk1          8987.875
       457   12 Jun 2027 08:13:02.555   12 Jun 2027 08:13:26.321            23.766                Novosib          2970.750
       458   12 Jun 2027 08:13:30.870   12 Jun 2027 08:13:59.911            29.041                Norilsk          3630.125
       459   12 Jun 2027 08:14:06.488   12 Jun 2027 08:14:13.774             7.286              Murmansk2           910.750
       460   12 Jun 2027 08:14:15.453   12 Jun 2027 08:14:19.042             3.589                Norilsk           448.625
       461   12 Jun 2027 08:14:19.091   12 Jun 2027 08:14:19.555             0.464                 Moscow            58.000
       462   12 Jun 2027 08:14:23.378   12 Jun 2027 08:15:50.858            87.480              Murmansk1         10935.000
       463   12 Jun 2027 08:16:09.593   12 Jun 2027 08:16:12.096             2.503                Norilsk           312.875
       464   12 Jun 2027 08:16:38.246   12 Jun 2027 08:18:47.517           129.271                Norilsk         16158.875
       465   12 Jun 2027 09:21:30.728   12 Jun 2027 09:24:56.821           206.093               CapeTown         25761.625
       466   12 Jun 2027 10:03:00.721   12 Jun 2027 10:05:11.317           130.596                Anadyr2         16324.500
       467   12 Jun 2027 11:36:21.117   12 Jun 2027 11:38:53.486           152.369                Anadyr2         19046.125
       468   12 Jun 2027 13:14:39.898   12 Jun 2027 13:19:45.770           305.872               Magadan1         38234.000
       469   12 Jun 2027 15:42:20.987   12 Jun 2027 15:45:55.146           214.159            RioGallegos         26769.875
       470   12 Jun 2027 16:30:01.936   12 Jun 2027 16:31:41.398            99.462                Irkutsk         12432.750
       471   12 Jun 2027 16:38:00.775   12 Jun 2027 16:39:20.906            80.131                Irkutsk         10016.375
       472   12 Jun 2027 16:43:42.543   12 Jun 2027 16:46:49.173           186.630                Sumatra         23328.750
       473   12 Jun 2027 18:08:07.177   12 Jun 2027 18:08:42.473            35.296                Novosib          4412.000
       474   12 Jun 2027 18:13:22.854   12 Jun 2027 18:17:58.656           275.802                  Delhi         34475.250
       475   12 Jun 2027 19:44:32.024   12 Jun 2027 19:45:29.367            57.343                 Moscow          7167.875
       476   12 Jun 2027 21:27:27.208   12 Jun 2027 21:28:55.285            88.077                 Moscow         11009.625
       477   12 Jun 2027 21:43:22.909   12 Jun 2027 21:46:19.511           176.602               CapeTown         22075.250
       478   13 Jun 2027 03:18:59.770   13 Jun 2027 03:19:35.495            35.725                Sumatra          4465.625
       479   13 Jun 2027 03:20:51.644   13 Jun 2027 03:22:12.856            81.212                Sumatra         10151.500
       480   13 Jun 2027 03:37:42.593   13 Jun 2027 03:38:26.575            43.982               Magadan2          5497.750
       481   13 Jun 2027 03:39:33.460   13 Jun 2027 03:40:22.912            49.452                Norilsk          6181.500
       482   13 Jun 2027 03:40:23.789   13 Jun 2027 03:40:28.306             4.517                Norilsk           564.625
