uniorb/output/strategy_1/Drop/Drop_KinoSat_111109.txt

KinoSat_111109
-------------------------
    Access    *     Start Time (UTCG)     *     Stop Time (UTCG)  *   Duration (s)        *       Station  *  Data (Mbytes)
         1   01 Jun 2027 03:00:02.111   01 Jun 2027 03:00:47.489            45.378                 Moscow          1055.500
         2   01 Jun 2027 03:01:08.841   01 Jun 2027 03:01:21.229            12.388                 Moscow           387.125
         3   01 Jun 2027 03:01:36.061   01 Jun 2027 03:01:51.327            15.266                 Moscow           477.062
         4   01 Jun 2027 03:02:16.045   01 Jun 2027 03:03:14.715            58.670                 Moscow          1833.438
         5   01 Jun 2027 03:18:10.072   01 Jun 2027 03:20:35.886           145.814               CapeTown          4556.687
         6   01 Jun 2027 04:22:04.633   01 Jun 2027 04:22:37.746            33.113               Magadan2          1034.781
         7   01 Jun 2027 04:22:43.954   01 Jun 2027 04:24:22.622            98.668                Anadyr1          3083.375
         8   01 Jun 2027 04:24:22.622   01 Jun 2027 04:24:23.920             1.298                Anadyr2            40.563
         9   01 Jun 2027 04:24:28.411   01 Jun 2027 04:25:48.191            79.780               Magadan1          2493.125
        10   01 Jun 2027 04:26:27.120   01 Jun 2027 04:26:28.654             1.534                Anadyr2            47.937
        11   01 Jun 2027 05:58:38.593   01 Jun 2027 05:59:21.899            43.306                Irkutsk          1353.313
        12   01 Jun 2027 06:00:16.963   01 Jun 2027 06:01:56.497            99.534                Anadyr2          3110.437
        13   01 Jun 2027 06:01:56.497   01 Jun 2027 06:02:12.813            16.316                Anadyr1           509.875
        14   01 Jun 2027 06:42:24.710   01 Jun 2027 06:43:27.791            63.081            RioGallegos          1971.281
        15   01 Jun 2027 07:33:39.679   01 Jun 2027 07:34:34.633            54.954                Norilsk          1717.312
        16   01 Jun 2027 07:34:34.810   01 Jun 2027 07:37:28.246           173.436                Anadyr1          5419.875
        17   01 Jun 2027 07:37:28.334   01 Jun 2027 07:38:18.255            49.921                Irkutsk          1560.031
        18   01 Jun 2027 07:38:28.861   01 Jun 2027 07:38:51.985            23.124                Irkutsk           722.625
        19   01 Jun 2027 07:38:57.762   01 Jun 2027 07:39:01.379             3.617               Magadan1           113.031
        20   01 Jun 2027 07:39:58.051   01 Jun 2027 07:41:35.807            97.756              Murmansk1          3054.875
        21   01 Jun 2027 07:45:11.503   01 Jun 2027 07:45:49.858            38.355              Murmansk2          1198.594
        22   01 Jun 2027 08:13:58.860   01 Jun 2027 08:15:22.735            83.875            RioGallegos          2621.094
        23   01 Jun 2027 08:15:54.272   01 Jun 2027 08:16:53.116            58.844            RioGallegos          1838.875
        24   01 Jun 2027 08:50:17.449   01 Jun 2027 08:51:15.908            58.459                Sumatra          1826.844
        25   01 Jun 2027 09:10:30.427   01 Jun 2027 09:15:37.438           307.011                Norilsk          9594.094
        26   01 Jun 2027 09:15:47.758   01 Jun 2027 09:16:15.747            27.989                Norilsk           874.656
        27   01 Jun 2027 09:17:47.077   01 Jun 2027 09:18:15.251            28.174                Norilsk           880.438
        28   01 Jun 2027 09:22:14.249   01 Jun 2027 09:22:27.787            13.538              Murmansk1           423.063
        29   01 Jun 2027 09:50:39.282   01 Jun 2027 09:51:35.484            56.202            RioGallegos          1756.313
        30   01 Jun 2027 09:53:10.946   01 Jun 2027 09:53:57.845            46.899            RioGallegos          1465.594
        31   01 Jun 2027 09:58:45.287   01 Jun 2027 09:58:52.716             7.429            RioGallegos           232.156
        32   01 Jun 2027 10:00:04.973   01 Jun 2027 10:00:12.967             7.994            RioGallegos           249.812
        33   01 Jun 2027 10:00:50.029   01 Jun 2027 10:01:25.926            35.897            RioGallegos          1121.781
        34   01 Jun 2027 10:24:57.556   01 Jun 2027 10:26:28.670            91.114                Sumatra          2847.312
        35   01 Jun 2027 10:46:54.866   01 Jun 2027 10:47:30.207            35.341                Irkutsk          1104.406
        36   01 Jun 2027 10:47:58.794   01 Jun 2027 10:48:47.110            48.316                Novosib          1509.875
        37   01 Jun 2027 10:48:49.807   01 Jun 2027 10:52:15.006           205.199              Murmansk2          6412.469
        38   01 Jun 2027 12:09:44.016   01 Jun 2027 12:11:27.773           103.757                  Delhi          3242.406
        39   01 Jun 2027 12:14:01.224   01 Jun 2027 12:14:54.363            53.139                  Delhi          1660.594
        40   01 Jun 2027 12:18:02.995   01 Jun 2027 12:19:15.828            72.833                Novosib          2276.031
        41   01 Jun 2027 12:20:57.832   01 Jun 2027 12:22:59.838           122.006              Murmansk1          3812.687
        42   01 Jun 2027 12:23:07.127   01 Jun 2027 12:23:50.018            42.891              Murmansk1          1340.344
        43   01 Jun 2027 13:53:20.713   01 Jun 2027 13:56:32.511           191.798                 Moscow          5993.687
        44   01 Jun 2027 13:56:52.268   01 Jun 2027 14:00:56.878           244.610              Murmansk2          7644.063
        45   01 Jun 2027 14:02:55.287   01 Jun 2027 14:03:50.661            55.374                Norilsk          1730.437
        46   01 Jun 2027 14:05:07.883   01 Jun 2027 14:06:08.788            60.905                Norilsk          1903.281
        47   01 Jun 2027 14:13:29.648   01 Jun 2027 14:14:03.921            34.273                Anadyr2          1071.031
        48   01 Jun 2027 14:14:36.843   01 Jun 2027 14:15:24.047            47.204                Anadyr1          1475.125
        49   01 Jun 2027 15:07:05.104   01 Jun 2027 15:08:14.915            69.811               CapeTown          2181.594
        50   01 Jun 2027 15:32:48.054   01 Jun 2027 15:33:19.481            31.427                 Moscow           982.094
        51   01 Jun 2027 15:34:36.582   01 Jun 2027 15:35:22.634            46.052              Murmansk2          1439.125
        52   01 Jun 2027 15:36:17.209   01 Jun 2027 15:36:50.980            33.771              Murmansk1          1055.344
        53   01 Jun 2027 15:38:44.959   01 Jun 2027 15:39:35.898            50.939              Murmansk2          1591.844
        54   01 Jun 2027 15:47:33.419   01 Jun 2027 15:49:45.667           132.248                Anadyr2          4132.750
        55   01 Jun 2027 16:43:08.346   01 Jun 2027 16:43:39.467            31.121               CapeTown           972.531
        56   01 Jun 2027 16:47:33.992   01 Jun 2027 16:48:36.191            62.199               CapeTown          1943.719
        57   01 Jun 2027 17:15:00.277   01 Jun 2027 17:17:26.996           146.719              Murmansk1          4584.969
        58   01 Jun 2027 17:18:05.531   01 Jun 2027 17:19:42.481            96.950              Murmansk1          3029.688
        59   01 Jun 2027 17:23:18.047   01 Jun 2027 17:23:38.993            20.946                Anadyr1           654.563
        60   01 Jun 2027 17:26:08.176   01 Jun 2027 17:26:50.692            42.516               Magadan1          1328.625
        61   01 Jun 2027 17:28:18.520   01 Jun 2027 17:29:18.527            60.007               Magadan1          1875.219
        62   01 Jun 2027 17:35:05.921   01 Jun 2027 17:35:27.814            21.893               Magadan2           684.156
        63   01 Jun 2027 18:59:13.711   01 Jun 2027 19:03:16.260           242.549                Anadyr1          7579.656
        64   01 Jun 2027 19:03:40.161   01 Jun 2027 19:05:48.145           127.984               Magadan2          3999.500
        65   01 Jun 2027 19:54:30.267   01 Jun 2027 19:57:35.793           185.526            RioGallegos          5797.687
        66   01 Jun 2027 20:01:11.664   01 Jun 2027 20:01:21.280             9.616            RioGallegos           300.500
        67   01 Jun 2027 20:34:58.841   01 Jun 2027 20:35:28.332            29.491                Anadyr2           921.594
        68   01 Jun 2027 20:37:08.010   01 Jun 2027 20:40:21.868           193.858                Norilsk          6058.063
        69   01 Jun 2027 20:40:34.326   01 Jun 2027 20:40:58.301            23.975                Norilsk           749.219
        70   01 Jun 2027 20:41:41.879   01 Jun 2027 20:42:03.061            21.182                Irkutsk           661.938
        71   01 Jun 2027 20:42:10.530   01 Jun 2027 20:42:16.980             6.450                Irkutsk           201.563
        72   01 Jun 2027 20:43:19.167   01 Jun 2027 20:44:34.868            75.701                Irkutsk          2365.656
        73   01 Jun 2027 20:45:04.645   01 Jun 2027 20:45:40.722            36.077                Irkutsk          1127.406
        74   01 Jun 2027 20:55:59.722   01 Jun 2027 20:57:22.650            82.928                Sumatra          2591.500
        75   01 Jun 2027 20:59:58.525   01 Jun 2027 21:00:58.760            60.235                Sumatra          1882.344
        76   01 Jun 2027 22:13:23.986   01 Jun 2027 22:13:29.261             5.275                Norilsk           164.844
        77   01 Jun 2027 22:13:53.767   01 Jun 2027 22:14:37.497            43.730               Magadan2          1366.563
        78   01 Jun 2027 22:16:47.897   01 Jun 2027 22:16:52.312             4.415               Magadan2           137.969
        79   01 Jun 2027 22:17:00.249   01 Jun 2027 22:17:34.708            34.459               Magadan2          1076.844
        80   01 Jun 2027 22:17:39.144   01 Jun 2027 22:18:03.779            24.635                Irkutsk           769.844
        81   01 Jun 2027 22:18:08.319   01 Jun 2027 22:18:59.791            51.472                Novosib          1608.500
        82   01 Jun 2027 22:20:19.731   01 Jun 2027 22:20:52.396            32.665                Novosib          1020.781
        83   01 Jun 2027 22:26:02.978   01 Jun 2027 22:28:43.738           160.760                  Delhi          5023.750
        84   01 Jun 2027 22:33:28.469   01 Jun 2027 22:33:35.398             6.929                  Delhi           216.531
        85   01 Jun 2027 23:45:02.844   01 Jun 2027 23:45:22.807            19.963                Anadyr2           623.844
        86   01 Jun 2027 23:45:33.190   01 Jun 2027 23:46:13.470            40.280                Anadyr1          1258.750
        87   01 Jun 2027 23:48:59.122   01 Jun 2027 23:49:40.733            41.611                Norilsk          1300.344
        88   01 Jun 2027 23:49:48.431   01 Jun 2027 23:51:30.021           101.590               Magadan2          3174.687
        89   01 Jun 2027 23:51:37.806   01 Jun 2027 23:56:21.625           283.819              Murmansk1          8869.344
        90   02 Jun 2027 01:17:15.400   02 Jun 2027 01:17:36.248            20.848                Anadyr1           651.500
        91   02 Jun 2027 01:17:49.315   02 Jun 2027 01:18:17.772            28.457                Anadyr2           889.281
        92   02 Jun 2027 01:18:30.241   02 Jun 2027 01:18:58.520            28.279                Anadyr1           883.719
        93   02 Jun 2027 01:19:39.606   02 Jun 2027 01:20:04.315            24.709                Anadyr2           772.156
        94   02 Jun 2027 01:23:01.407   02 Jun 2027 01:25:13.025           131.618               Magadan2          4113.063
        95   02 Jun 2027 01:25:13.025   02 Jun 2027 01:25:31.111            18.086               Magadan1           565.188
        96   02 Jun 2027 01:27:07.884   02 Jun 2027 01:29:09.036           121.152              Murmansk2          3786.000
        97   02 Jun 2027 01:30:38.292   02 Jun 2027 01:32:10.793            92.501                Novosib          2890.656
        98   02 Jun 2027 01:55:58.622   02 Jun 2027 01:56:30.675            32.053               CapeTown          1001.656
        99   02 Jun 2027 02:03:36.489   02 Jun 2027 02:05:08.201            91.712               CapeTown          2866.000
       100   02 Jun 2027 02:51:19.651   02 Jun 2027 02:52:27.142            67.491                Anadyr2          2109.094
       101   02 Jun 2027 02:54:39.274   02 Jun 2027 02:55:16.487            37.213               Magadan1          1162.906
       102   02 Jun 2027 02:55:41.090   02 Jun 2027 02:55:52.087            10.997               Magadan1           343.656
       103   02 Jun 2027 02:55:52.087   02 Jun 2027 02:56:17.848            25.761               Magadan2           805.031
       104   02 Jun 2027 02:59:28.429   02 Jun 2027 02:59:41.526            13.097               Magadan1           409.281
       105   02 Jun 2027 03:11:17.772   02 Jun 2027 03:11:58.482            40.710                 Moscow          1272.187
       106   02 Jun 2027 03:12:15.888   02 Jun 2027 03:12:31.938            16.050              Murmansk1           501.562
       107   02 Jun 2027 03:12:31.938   02 Jun 2027 03:12:38.920             6.982              Murmansk2           218.187
       108   02 Jun 2027 03:12:40.810   02 Jun 2027 03:14:21.597           100.787              Murmansk2          3149.594
       109   02 Jun 2027 03:15:07.190   02 Jun 2027 03:15:41.506            34.316              Murmansk2          1072.375
       110   02 Jun 2027 03:30:17.447   02 Jun 2027 03:32:22.635           125.188               CapeTown          3912.125
       111   02 Jun 2027 04:29:00.083   02 Jun 2027 04:29:40.609            40.526               Magadan1          1266.437
       112   02 Jun 2027 04:33:19.445   02 Jun 2027 04:36:00.075           160.630                Anadyr2          5019.688
       113   02 Jun 2027 04:36:12.788   02 Jun 2027 04:36:40.020            27.232                Norilsk           851.000
       114   02 Jun 2027 06:11:07.860   02 Jun 2027 06:14:14.377           186.517                Anadyr1          5828.656
       115   02 Jun 2027 06:14:14.377   02 Jun 2027 06:14:51.001            36.624                Anadyr2          1144.500
       116   02 Jun 2027 07:46:30.649   02 Jun 2027 07:47:55.029            84.380               Magadan1          2636.875
       117   02 Jun 2027 07:47:55.255   02 Jun 2027 07:48:51.074            55.819                Novosib          1744.344
       118   02 Jun 2027 07:48:59.093   02 Jun 2027 07:50:31.776            92.683                Norilsk          2896.344
       119   02 Jun 2027 07:50:32.420   02 Jun 2027 07:51:49.985            77.565              Murmansk2          2423.906
       120   02 Jun 2027 07:53:28.760   02 Jun 2027 07:53:37.377             8.617              Murmansk2           269.281
       121   02 Jun 2027 07:54:11.666   02 Jun 2027 07:54:16.393             4.727              Murmansk2           147.719
       122   02 Jun 2027 07:55:01.003   02 Jun 2027 07:55:37.664            36.661              Murmansk2          1145.656
       123   02 Jun 2027 08:26:52.923   02 Jun 2027 08:27:21.313            28.390            RioGallegos           887.188
       124   02 Jun 2027 08:28:14.202   02 Jun 2027 08:28:32.637            18.435            RioGallegos           576.094
       125   02 Jun 2027 09:01:44.641   02 Jun 2027 09:02:58.186            73.545                Sumatra          2298.281
       126   02 Jun 2027 09:22:53.321   02 Jun 2027 09:22:59.590             6.269                Novosib           195.906
       127   02 Jun 2027 09:23:06.142   02 Jun 2027 09:23:42.926            36.784                Novosib          1149.500
       128   02 Jun 2027 09:23:53.011   02 Jun 2027 09:28:05.747           252.736                Norilsk          7898.000
       129   02 Jun 2027 09:28:21.113   02 Jun 2027 09:28:51.424            30.311              Murmansk1           947.219
       130   02 Jun 2027 10:03:04.461   02 Jun 2027 10:03:53.470            49.009            RioGallegos          1531.531
       131   02 Jun 2027 10:37:17.939   02 Jun 2027 10:38:39.187            81.248                Sumatra          2539.000
       132   02 Jun 2027 10:47:58.156   02 Jun 2027 10:48:21.379            23.223                  Delhi           725.719
       133   02 Jun 2027 10:59:34.788   02 Jun 2027 11:00:07.798            33.010                Irkutsk          1031.563
       134   02 Jun 2027 11:00:36.976   02 Jun 2027 11:01:51.375            74.399              Murmansk2          2324.969
       135   02 Jun 2027 11:02:12.488   02 Jun 2027 11:04:35.861           143.373                Novosib          4480.406
       136   02 Jun 2027 11:04:40.384   02 Jun 2027 11:05:40.679            60.295                 Moscow          1884.219
       137   02 Jun 2027 12:22:17.428   02 Jun 2027 12:22:53.742            36.314                  Delhi          1134.812
       138   02 Jun 2027 12:23:40.937   02 Jun 2027 12:25:15.766            94.829                  Delhi          2963.406
       139   02 Jun 2027 12:29:55.423   02 Jun 2027 12:31:51.377           115.954                 Moscow          3623.562
       140   02 Jun 2027 12:32:54.105   02 Jun 2027 12:36:08.788           194.683              Murmansk2          6083.844
       141   02 Jun 2027 14:05:29.628   02 Jun 2027 14:07:15.810           106.182                 Moscow          3318.187
       142   02 Jun 2027 14:09:00.612   02 Jun 2027 14:10:40.510            99.898              Murmansk1          3121.812
       143   02 Jun 2027 14:10:48.528   02 Jun 2027 14:12:53.242           124.714              Murmansk2          3897.313
       144   02 Jun 2027 14:17:53.903   02 Jun 2027 14:18:08.276            14.373                Norilsk           449.156
       145   02 Jun 2027 14:24:52.118   02 Jun 2027 14:26:01.483            69.365                Anadyr1          2167.656
       146   02 Jun 2027 14:26:26.716   02 Jun 2027 14:28:37.842           131.126                Anadyr2          4097.687
       147   02 Jun 2027 15:18:56.961   02 Jun 2027 15:21:40.951           163.990               CapeTown          5124.688
       148   02 Jun 2027 15:47:01.178   02 Jun 2027 15:47:38.341            37.163              Murmansk2          1161.344
       149   02 Jun 2027 15:59:31.709   02 Jun 2027 16:01:48.203           136.494                Anadyr1          4265.437
       150   02 Jun 2027 16:55:25.304   02 Jun 2027 16:56:42.585            77.281               CapeTown          2415.031
       151   02 Jun 2027 17:27:55.964   02 Jun 2027 17:28:56.062            60.098              Murmansk1          1878.062
       152   02 Jun 2027 17:29:22.063   02 Jun 2027 17:30:07.451            45.388              Murmansk1          1418.375
       153   02 Jun 2027 17:31:42.221   02 Jun 2027 17:32:13.883            31.662              Murmansk2           989.438
       154   02 Jun 2027 17:35:19.337   02 Jun 2027 17:37:18.409           119.072                Anadyr1          3721.000
       155   02 Jun 2027 17:37:21.924   02 Jun 2027 17:38:08.555            46.631                Anadyr2          1457.219
       156   02 Jun 2027 17:38:15.929   02 Jun 2027 17:40:52.103           156.174               Magadan2          4880.438
       157   02 Jun 2027 19:11:14.798   02 Jun 2027 19:13:13.011           118.213                Anadyr1          3694.156
       158   02 Jun 2027 19:13:31.504   02 Jun 2027 19:17:59.274           267.770               Magadan2          8367.813
       159   02 Jun 2027 20:06:08.184   02 Jun 2027 20:09:25.514           197.330            RioGallegos          6166.562
       160   02 Jun 2027 20:46:56.926   02 Jun 2027 20:49:07.812           130.886                Anadyr1          4090.187
       161   02 Jun 2027 20:49:26.917   02 Jun 2027 20:52:58.930           212.013                Norilsk          6625.406
       162   02 Jun 2027 20:53:30.668   02 Jun 2027 20:55:19.639           108.971                Irkutsk          3405.344
       163   02 Jun 2027 21:07:31.839   02 Jun 2027 21:10:45.473           193.634                Sumatra          6051.062
       164   02 Jun 2027 22:25:00.828   02 Jun 2027 22:25:26.180            25.352                Norilsk           792.250
       165   02 Jun 2027 22:25:38.269   02 Jun 2027 22:27:04.570            86.301               Magadan2          2696.906
       166   02 Jun 2027 22:27:34.065   02 Jun 2027 22:27:52.915            18.850               Magadan1           589.062
       167   02 Jun 2027 22:28:52.321   02 Jun 2027 22:29:11.554            19.233                Irkutsk           601.031
       168   02 Jun 2027 22:29:18.873   02 Jun 2027 22:29:51.567            32.694                Irkutsk          1021.687
       169   02 Jun 2027 22:30:01.157   02 Jun 2027 22:30:18.867            17.710                Novosib           553.437
       170   02 Jun 2027 22:30:21.850   02 Jun 2027 22:30:51.954            30.104                Novosib           940.750
       171   02 Jun 2027 22:31:34.512   02 Jun 2027 22:32:12.774            38.262                Novosib          1195.688
       172   02 Jun 2027 22:32:42.776   02 Jun 2027 22:33:20.901            38.125                Novosib          1191.406
       173   02 Jun 2027 22:37:28.414   02 Jun 2027 22:40:29.008           180.594                  Delhi          5643.563
       174   03 Jun 2027 00:01:00.826   03 Jun 2027 00:01:13.391            12.565                Norilsk           392.656
       175   03 Jun 2027 00:01:23.127   03 Jun 2027 00:02:15.097            51.970               Magadan2          1624.062
       176   03 Jun 2027 00:03:07.972   03 Jun 2027 00:03:52.417            44.445               Magadan2          1388.906
       177   03 Jun 2027 00:03:52.505   03 Jun 2027 00:05:36.760           104.255              Murmansk1          3257.969
       178   03 Jun 2027 00:05:42.268   03 Jun 2027 00:06:51.838            69.570                Novosib          2174.063
       179   03 Jun 2027 00:09:47.388   03 Jun 2027 00:09:56.627             9.239                 Moscow           288.719
       180   03 Jun 2027 00:10:53.067   03 Jun 2027 00:11:42.881            49.814                 Moscow          1556.688
       181   03 Jun 2027 00:55:12.679   03 Jun 2027 00:55:29.892            17.213            RioGallegos           537.906
       182   03 Jun 2027 00:56:09.120   03 Jun 2027 00:57:06.172            57.052            RioGallegos          1782.875
       183   03 Jun 2027 01:28:58.807   03 Jun 2027 01:29:35.514            36.707                Anadyr1          1147.094
       184   03 Jun 2027 01:30:25.762   03 Jun 2027 01:30:52.576            26.814                Anadyr1           837.937
       185   03 Jun 2027 01:31:40.920   03 Jun 2027 01:32:11.485            30.565                Anadyr2           955.156
       186   03 Jun 2027 01:34:30.698   03 Jun 2027 01:35:20.179            49.481               Magadan1          1546.281
       187   03 Jun 2027 01:35:21.709   03 Jun 2027 01:36:28.994            67.285               Magadan2          2102.656
       188   03 Jun 2027 01:38:18.212   03 Jun 2027 01:39:00.755            42.543               Magadan2          1329.469
       189   03 Jun 2027 01:39:08.933   03 Jun 2027 01:40:05.507            56.574              Murmansk2          1767.937
       190   03 Jun 2027 01:40:20.764   03 Jun 2027 01:42:28.670           127.906              Murmansk1          3997.063
       191   03 Jun 2027 02:07:28.117   03 Jun 2027 02:07:47.459            19.342               CapeTown           604.437
       192   03 Jun 2027 02:08:14.536   03 Jun 2027 02:08:48.949            34.413               CapeTown          1075.406
       193   03 Jun 2027 03:04:36.506   03 Jun 2027 03:05:37.426            60.920                Anadyr1          1903.750
       194   03 Jun 2027 03:06:18.456   03 Jun 2027 03:06:20.386             1.930                Anadyr1            60.312
       195   03 Jun 2027 03:06:22.002   03 Jun 2027 03:06:52.040            30.038                Anadyr1           938.688
       196   03 Jun 2027 03:22:52.175   03 Jun 2027 03:23:59.461            67.286              Murmansk2          2102.688
       197   03 Jun 2027 03:23:59.461   03 Jun 2027 03:24:24.250            24.789              Murmansk1           774.656
       198   03 Jun 2027 03:24:41.094   03 Jun 2027 03:25:05.184            24.090                 Moscow           752.812
       199   03 Jun 2027 03:25:17.343   03 Jun 2027 03:25:20.365             3.022              Murmansk1            94.438
       200   03 Jun 2027 03:25:20.365   03 Jun 2027 03:26:08.702            48.337              Murmansk2          1510.531
       201   03 Jun 2027 03:26:26.993   03 Jun 2027 03:26:38.527            11.534              Murmansk2           360.438
       202   03 Jun 2027 03:27:03.655   03 Jun 2027 03:27:05.601             1.946              Murmansk2            60.813
       203   03 Jun 2027 03:27:29.495   03 Jun 2027 03:28:01.941            32.446              Murmansk2          1013.938
       204   03 Jun 2027 04:39:12.594   03 Jun 2027 04:39:31.270            18.676                Anadyr2           583.625
       205   03 Jun 2027 04:39:31.270   03 Jun 2027 04:39:48.568            17.298                Anadyr1           540.563
       206   03 Jun 2027 04:40:17.794   03 Jun 2027 04:40:53.777            35.983               Magadan2          1124.469
       207   03 Jun 2027 04:45:23.515   03 Jun 2027 04:46:32.508            68.993               Magadan1          2156.031
       208   03 Jun 2027 04:46:32.508   03 Jun 2027 04:46:41.230             8.722               Magadan2           272.562
       209   03 Jun 2027 04:46:45.553   03 Jun 2027 04:48:01.453            75.900                Anadyr2          2371.875
       210   03 Jun 2027 06:22:37.309   03 Jun 2027 06:25:04.644           147.335               Magadan2          4604.219
       211   03 Jun 2027 06:25:32.610   03 Jun 2027 06:25:34.368             1.758               Magadan1            54.938
       212   03 Jun 2027 06:25:58.112   03 Jun 2027 06:26:16.075            17.963                Anadyr1           561.344
       213   03 Jun 2027 07:58:35.735   03 Jun 2027 08:01:33.855           178.120               Magadan1          5566.250
       214   03 Jun 2027 08:01:48.661   03 Jun 2027 08:03:13.136            84.475                Norilsk          2639.844
       215   03 Jun 2027 08:03:42.677   03 Jun 2027 08:03:48.884             6.207              Murmansk1           193.969
       216   03 Jun 2027 08:04:30.399   03 Jun 2027 08:05:18.281            47.882              Murmansk1          1496.312
       217   03 Jun 2027 08:05:32.517   03 Jun 2027 08:05:38.609             6.092              Murmansk1           190.375
       218   03 Jun 2027 08:37:51.989   03 Jun 2027 08:39:01.330            69.341            RioGallegos          2166.906
       219   03 Jun 2027 09:13:21.070   03 Jun 2027 09:15:24.737           123.667                Sumatra          3864.594
       220   03 Jun 2027 09:34:27.974   03 Jun 2027 09:35:36.677            68.703                Novosib          2146.969
       221   03 Jun 2027 09:35:44.189   03 Jun 2027 09:38:28.591           164.402                Novosib          5137.563
       222   03 Jun 2027 09:38:33.895   03 Jun 2027 09:39:08.781            34.886                Irkutsk          1090.188
       223   03 Jun 2027 09:39:23.874   03 Jun 2027 09:39:44.679            20.805              Murmansk1           650.156
       224   03 Jun 2027 09:40:04.042   03 Jun 2027 09:40:40.646            36.604                Novosib          1143.875
       225   03 Jun 2027 09:41:24.223   03 Jun 2027 09:41:56.705            32.482                Norilsk          1015.062
       226   03 Jun 2027 10:15:35.198   03 Jun 2027 10:16:05.228            30.030            RioGallegos           938.438
       227   03 Jun 2027 10:17:51.144   03 Jun 2027 10:18:23.729            32.585            RioGallegos          1018.281
       228   03 Jun 2027 10:20:13.199   03 Jun 2027 10:20:27.099            13.900            RioGallegos           434.375
       229   03 Jun 2027 10:49:47.189   03 Jun 2027 10:50:40.271            53.082                Sumatra          1658.812
       230   03 Jun 2027 10:54:08.115   03 Jun 2027 10:54:50.819            42.704                Sumatra          1334.500
       231   03 Jun 2027 10:57:06.159   03 Jun 2027 10:57:49.429            43.270                  Delhi          1352.188
       232   03 Jun 2027 11:11:21.360   03 Jun 2027 11:12:24.774            63.414              Murmansk2          1981.687
       233   03 Jun 2027 11:12:34.045   03 Jun 2027 11:12:36.628             2.583                Norilsk            80.719
       234   03 Jun 2027 11:12:37.287   03 Jun 2027 11:13:08.480            31.193              Murmansk1           974.781
       235   03 Jun 2027 11:13:11.960   03 Jun 2027 11:13:20.726             8.766                Irkutsk           273.937
       236   03 Jun 2027 11:13:24.197   03 Jun 2027 11:13:25.853             1.656                Norilsk            51.750
       237   03 Jun 2027 11:13:30.484   03 Jun 2027 11:14:37.328            66.844              Murmansk1          2088.875
       238   03 Jun 2027 11:14:49.355   03 Jun 2027 11:15:48.607            59.252                Norilsk          1851.625
       239   03 Jun 2027 12:35:02.763   03 Jun 2027 12:37:05.308           122.545                  Delhi          3829.531
       240   03 Jun 2027 12:38:34.874   03 Jun 2027 12:39:41.183            66.309                  Delhi          2072.156
       241   03 Jun 2027 12:42:58.952   03 Jun 2027 12:44:01.192            62.240                 Moscow          1945.000
       242   03 Jun 2027 12:44:51.681   03 Jun 2027 12:47:35.830           164.149              Murmansk1          5129.656
       243   03 Jun 2027 12:47:51.630   03 Jun 2027 12:47:59.788             8.158                Norilsk           254.938
       244   03 Jun 2027 13:58:54.818   03 Jun 2027 14:00:15.323            80.505               CapeTown          2515.781
       245   03 Jun 2027 14:01:27.091   03 Jun 2027 14:01:58.920            31.829               CapeTown           994.656
       246   03 Jun 2027 14:17:41.841   03 Jun 2027 14:19:15.512            93.671                 Moscow          2927.219
       247   03 Jun 2027 14:21:10.743   03 Jun 2027 14:24:07.347           176.604              Murmansk2          5518.875
       248   03 Jun 2027 14:24:17.825   03 Jun 2027 14:24:25.264             7.439              Murmansk2           232.469
       249   03 Jun 2027 14:25:06.104   03 Jun 2027 14:25:36.247            30.143              Murmansk2           941.969
       250   03 Jun 2027 14:36:31.041   03 Jun 2027 14:38:44.899           133.858                Anadyr1          4183.063
       251   03 Jun 2027 14:39:23.872   03 Jun 2027 14:39:48.564            24.692                Anadyr1           771.625
       252   03 Jun 2027 15:30:52.162   03 Jun 2027 15:31:08.251            16.089               CapeTown           502.781
       253   03 Jun 2027 15:57:54.023   03 Jun 2027 15:58:51.263            57.240                 Moscow          1788.750
       254   03 Jun 2027 15:59:28.258   03 Jun 2027 16:01:05.555            97.297              Murmansk1          3040.531
       255   03 Jun 2027 16:01:05.555   03 Jun 2027 16:01:42.117            36.562              Murmansk2          1142.562
       256   03 Jun 2027 16:11:30.705   03 Jun 2027 16:13:43.030           132.325                Anadyr2          4135.156
       257   03 Jun 2027 17:07:47.562   03 Jun 2027 17:08:48.955            61.393               CapeTown          1918.531
       258   03 Jun 2027 17:09:46.819   03 Jun 2027 17:10:51.153            64.334               CapeTown          2010.437
       259   03 Jun 2027 17:41:05.136   03 Jun 2027 17:43:41.251           156.115              Murmansk2          4878.594
       260   03 Jun 2027 17:43:41.251   03 Jun 2027 17:44:04.269            23.018              Murmansk1           719.312
       261   03 Jun 2027 17:47:20.733   03 Jun 2027 17:49:11.343           110.610                Anadyr1          3456.562
       262   03 Jun 2027 17:49:55.883   03 Jun 2027 17:51:42.256           106.373               Magadan1          3324.156
       263   03 Jun 2027 17:55:23.008   03 Jun 2027 17:56:03.932            40.924               Magadan1          1278.875
       264   03 Jun 2027 19:23:15.685   03 Jun 2027 19:27:19.867           244.182                Anadyr2          7630.688
       265   03 Jun 2027 19:27:29.674   03 Jun 2027 19:28:51.973            82.299               Magadan2          2571.844
       266   03 Jun 2027 19:28:52.440   03 Jun 2027 19:29:27.062            34.622                Norilsk          1081.937
       267   03 Jun 2027 19:35:46.106   03 Jun 2027 19:35:55.675             9.569               Magadan2           299.031
       268   03 Jun 2027 20:17:52.052   03 Jun 2027 20:21:09.236           197.184            RioGallegos          6162.000
       269   03 Jun 2027 21:01:00.043   03 Jun 2027 21:01:04.796             4.753                Anadyr1           148.531
       270   03 Jun 2027 21:01:07.057   03 Jun 2027 21:03:15.753           128.696                Norilsk          4021.750
       271   03 Jun 2027 21:03:18.986   03 Jun 2027 21:03:44.657            25.671               Magadan1           802.219
       272   03 Jun 2027 21:03:44.657   03 Jun 2027 21:04:05.534            20.877               Magadan2           652.406
       273   03 Jun 2027 21:04:06.448   03 Jun 2027 21:04:25.745            19.297               Magadan2           603.031
       274   03 Jun 2027 21:05:22.256   03 Jun 2027 21:06:25.900            63.644                Irkutsk          1988.875
       275   03 Jun 2027 21:07:56.366   03 Jun 2027 21:09:27.426            91.060                Novosib          2845.625
       276   03 Jun 2027 21:10:28.015   03 Jun 2027 21:11:16.835            48.820                Novosib          1525.625
       277   03 Jun 2027 21:19:12.139   03 Jun 2027 21:20:06.380            54.241                Sumatra          1695.031
       278   03 Jun 2027 21:21:34.795   03 Jun 2027 21:22:41.831            67.036                Sumatra          2094.875
       279   03 Jun 2027 22:36:09.335   03 Jun 2027 22:36:20.998            11.663                Anadyr2           364.469
       280   03 Jun 2027 22:37:02.818   03 Jun 2027 22:37:24.472            21.654                Norilsk           676.688
       281   03 Jun 2027 22:37:40.569   03 Jun 2027 22:37:46.568             5.999               Magadan2           187.469
       282   03 Jun 2027 22:37:47.320   03 Jun 2027 22:39:04.139            76.819               Magadan1          2400.594
       283   03 Jun 2027 22:40:18.851   03 Jun 2027 22:40:31.853            13.002               Magadan1           406.313
       284   03 Jun 2027 22:40:49.996   03 Jun 2027 22:40:58.891             8.895                Norilsk           277.969
       285   03 Jun 2027 22:41:06.609   03 Jun 2027 22:42:09.326            62.717                Novosib          1959.906
       286   03 Jun 2027 22:43:15.477   03 Jun 2027 22:43:29.050            13.573                Novosib           424.156
       287   03 Jun 2027 22:46:31.865   03 Jun 2027 22:46:57.105            25.240                Novosib           788.750
       288   03 Jun 2027 22:49:03.681   03 Jun 2027 22:52:18.979           195.298                  Delhi          6103.063
       289   04 Jun 2027 00:08:35.347   04 Jun 2027 00:09:20.147            44.800                Anadyr2          1400.000
       290   04 Jun 2027 00:10:10.361   04 Jun 2027 00:10:18.320             7.959                Anadyr1           248.719
       291   04 Jun 2027 00:12:52.302   04 Jun 2027 00:12:59.773             7.471                Anadyr1           233.469
       292   04 Jun 2027 00:13:02.397   04 Jun 2027 00:14:58.614           116.217                Norilsk          3631.781
       293   04 Jun 2027 00:15:20.572   04 Jun 2027 00:16:11.251            50.679               Magadan1          1583.719
       294   04 Jun 2027 00:16:31.875   04 Jun 2027 00:17:37.769            65.894              Murmansk1          2059.187
       295   04 Jun 2027 00:19:02.983   04 Jun 2027 00:19:32.512            29.529                Novosib           922.781
       296   04 Jun 2027 00:20:18.516   04 Jun 2027 00:20:57.535            39.019              Murmansk2          1219.344
       297   04 Jun 2027 00:21:20.791   04 Jun 2027 00:21:44.702            23.911                 Moscow           747.219
       298   04 Jun 2027 00:22:19.052   04 Jun 2027 00:23:03.004            43.952                 Moscow          1373.500
       299   04 Jun 2027 00:24:10.822   04 Jun 2027 00:24:59.431            48.609                 Moscow          1519.031
       300   04 Jun 2027 01:40:43.148   04 Jun 2027 01:42:31.256           108.108                Anadyr2          3378.375
       301   04 Jun 2027 01:42:31.256   04 Jun 2027 01:42:58.724            27.468                Anadyr1           858.375
       302   04 Jun 2027 01:43:27.169   04 Jun 2027 01:43:42.176            15.007                Anadyr1           468.969
       303   04 Jun 2027 01:43:42.176   04 Jun 2027 01:43:58.734            16.558                Anadyr2           517.437
       304   04 Jun 2027 01:45:58.973   04 Jun 2027 01:47:08.282            69.309               Magadan1          2165.906
       305   04 Jun 2027 01:47:13.157   04 Jun 2027 01:47:28.128            14.971               Magadan2           467.844
       306   04 Jun 2027 01:48:03.700   04 Jun 2027 01:48:31.663            27.963               Magadan2           873.844
       307   04 Jun 2027 01:49:45.491   04 Jun 2027 01:50:45.969            60.478               Magadan1          1889.938
       308   04 Jun 2027 01:51:10.221   04 Jun 2027 01:52:28.535            78.314              Murmansk1          2447.313
       309   04 Jun 2027 01:52:31.493   04 Jun 2027 01:52:39.599             8.106              Murmansk1           253.312
       310   04 Jun 2027 01:53:19.461   04 Jun 2027 01:53:46.388            26.927                Novosib           841.469
       311   04 Jun 2027 01:54:34.552   04 Jun 2027 01:55:28.398            53.846                 Moscow          1682.688
       312   04 Jun 2027 02:19:04.226   04 Jun 2027 02:19:49.115            44.889               CapeTown          1402.781
       313   04 Jun 2027 02:23:34.008   04 Jun 2027 02:25:22.547           108.539               CapeTown          3391.844
       314   04 Jun 2027 03:22:29.840   04 Jun 2027 03:23:00.500            30.660                Anadyr2           958.125
       315   04 Jun 2027 03:34:44.675   04 Jun 2027 03:35:27.250            42.575                Norilsk          1330.469
       316   04 Jun 2027 03:35:34.450   04 Jun 2027 03:36:05.519            31.069                 Moscow           970.906
       317   04 Jun 2027 03:36:07.014   04 Jun 2027 03:37:55.786           108.772              Murmansk2          3399.125
       318   04 Jun 2027 03:38:09.509   04 Jun 2027 03:38:38.979            29.470              Murmansk1           920.937
       319   04 Jun 2027 03:54:49.257   04 Jun 2027 03:55:30.209            40.952               CapeTown          1279.750
       320   04 Jun 2027 04:05:36.003   04 Jun 2027 04:06:28.949            52.946               CapeTown          1654.563
       321   04 Jun 2027 04:57:46.131   04 Jun 2027 04:58:20.872            34.741                Anadyr2          1085.656
       322   04 Jun 2027 04:58:36.858   04 Jun 2027 05:02:05.634           208.776                Anadyr1          6524.250
       323   04 Jun 2027 05:02:30.494   04 Jun 2027 05:02:50.863            20.369               Magadan1           636.531
       324   04 Jun 2027 06:35:03.365   04 Jun 2027 06:35:40.138            36.773               Magadan2          1149.156
       325   04 Jun 2027 06:35:40.138   04 Jun 2027 06:36:30.098            49.960               Magadan1          1561.250
       326   04 Jun 2027 06:36:32.235   04 Jun 2027 06:37:11.351            39.116                Norilsk          1222.375
       327   04 Jun 2027 06:37:15.563   04 Jun 2027 06:38:11.913            56.350                Irkutsk          1760.937
       328   04 Jun 2027 06:38:17.886   04 Jun 2027 06:38:48.996            31.110                Anadyr1           972.188
       329   04 Jun 2027 06:40:46.790   04 Jun 2027 06:41:03.517            16.727              Murmansk1           522.719
       330   04 Jun 2027 07:15:26.898   04 Jun 2027 07:16:20.191            53.293            RioGallegos          1665.406
       331   04 Jun 2027 08:08:59.698   04 Jun 2027 08:09:13.413            13.715                Norilsk           428.594
       332   04 Jun 2027 08:09:53.035   04 Jun 2027 08:10:57.249            64.214               Magadan2          2006.687
       333   04 Jun 2027 08:10:57.249   04 Jun 2027 08:11:05.123             7.874               Magadan1           246.062
       334   04 Jun 2027 08:11:11.580   04 Jun 2027 08:11:59.069            47.489                Irkutsk          1484.031
       335   04 Jun 2027 08:11:59.544   04 Jun 2027 08:13:33.091            93.547               Magadan1          2923.344
       336   04 Jun 2027 08:13:33.091   04 Jun 2027 08:13:52.211            19.120               Magadan2           597.500
       337   04 Jun 2027 08:13:59.160   04 Jun 2027 08:14:07.754             8.594              Murmansk2           268.563
       338   04 Jun 2027 08:14:07.754   04 Jun 2027 08:14:23.964            16.210              Murmansk1           506.562
       339   04 Jun 2027 08:14:26.991   04 Jun 2027 08:14:29.549             2.558              Murmansk2            79.938
       340   04 Jun 2027 08:14:34.411   04 Jun 2027 08:15:11.842            37.431                Norilsk          1169.719
       341   04 Jun 2027 08:15:36.115   04 Jun 2027 08:17:19.719           103.604              Murmansk1          3237.625
       342   04 Jun 2027 08:49:53.454   04 Jun 2027 08:50:24.390            30.936            RioGallegos           966.750
       343   04 Jun 2027 08:51:14.462   04 Jun 2027 08:52:11.461            56.999            RioGallegos          1781.219
       344   04 Jun 2027 09:25:04.899   04 Jun 2027 09:25:17.284            12.385                Sumatra           387.031
       345   04 Jun 2027 09:27:22.267   04 Jun 2027 09:28:26.052            63.785                Sumatra          1993.281
       346   04 Jun 2027 09:38:37.113   04 Jun 2027 09:38:44.833             7.720                  Delhi           241.250
       347   04 Jun 2027 09:44:52.411   04 Jun 2027 09:45:28.841            36.430                Novosib          1138.438
       348   04 Jun 2027 09:46:33.780   04 Jun 2027 09:46:34.874             1.094                Norilsk            34.187
       349   04 Jun 2027 09:46:37.052   04 Jun 2027 09:47:04.470            27.418                Novosib           856.812
       350   04 Jun 2027 09:47:11.915   04 Jun 2027 09:47:22.347            10.432                Irkutsk           326.000
       351   04 Jun 2027 09:47:31.950   04 Jun 2027 09:47:48.391            16.441                Novosib           513.781
       352   04 Jun 2027 09:48:01.582   04 Jun 2027 09:48:48.022            46.440                Novosib          1451.250
       353   04 Jun 2027 09:48:52.525   04 Jun 2027 09:49:22.393            29.868                Irkutsk           933.375
       354   04 Jun 2027 09:49:26.952   04 Jun 2027 09:49:53.433            26.481                Irkutsk           827.531
       355   04 Jun 2027 09:50:19.430   04 Jun 2027 09:51:03.335            43.905                Novosib          1372.031
       356   04 Jun 2027 09:51:06.104   04 Jun 2027 09:51:37.270            31.166                 Moscow           973.937
       357   04 Jun 2027 10:28:12.588   04 Jun 2027 10:28:20.965             8.377            RioGallegos           261.781
       358   04 Jun 2027 10:29:03.760   04 Jun 2027 10:29:52.734            48.974            RioGallegos          1530.438
       359   04 Jun 2027 11:02:28.955   04 Jun 2027 11:02:47.058            18.103                Sumatra           565.719
       360   04 Jun 2027 11:05:43.251   04 Jun 2027 11:07:13.881            90.630                Sumatra          2832.188
       361   04 Jun 2027 11:23:01.248   04 Jun 2027 11:24:23.607            82.359              Murmansk1          2573.719
       362   04 Jun 2027 11:24:35.397   04 Jun 2027 11:24:54.273            18.876              Murmansk2           589.875
       363   04 Jun 2027 11:24:56.733   04 Jun 2027 11:25:17.843            21.110              Murmansk1           659.688
       364   04 Jun 2027 11:25:21.788   04 Jun 2027 11:26:30.127            68.339                Norilsk          2135.594
       365   04 Jun 2027 11:26:34.709   04 Jun 2027 11:27:10.488            35.779              Murmansk2          1118.094
       366   04 Jun 2027 11:32:39.368   04 Jun 2027 11:33:57.436            78.068              Murmansk2          2439.625
       367   04 Jun 2027 12:48:51.730   04 Jun 2027 12:49:41.266            49.536                  Delhi          1548.000
       368   04 Jun 2027 12:52:02.420   04 Jun 2027 12:52:18.055            15.635                  Delhi           488.594
       369   04 Jun 2027 12:54:15.297   04 Jun 2027 12:54:31.683            16.386                 Moscow           512.062
       370   04 Jun 2027 12:54:59.583   04 Jun 2027 12:56:14.353            74.770                 Moscow          2336.563
       371   04 Jun 2027 12:56:38.024   04 Jun 2027 12:57:21.346            43.322                Novosib          1353.813
       372   04 Jun 2027 12:58:11.850   04 Jun 2027 12:59:42.343            90.493              Murmansk1          2827.906
       373   04 Jun 2027 13:02:11.985   04 Jun 2027 13:02:34.859            22.874                Norilsk           714.813
       374   04 Jun 2027 13:04:15.513   04 Jun 2027 13:04:37.606            22.093                Norilsk           690.406
       375   04 Jun 2027 14:09:30.860   04 Jun 2027 14:11:48.848           137.988               CapeTown          4312.125
       376   04 Jun 2027 14:15:04.254   04 Jun 2027 14:16:27.735            83.481               CapeTown          2608.781
       377   04 Jun 2027 14:33:22.715   04 Jun 2027 14:36:09.116           166.401              Murmansk2          5200.031
       378   04 Jun 2027 14:48:17.083   04 Jun 2027 14:50:02.374           105.291                Anadyr2          3290.344
       379   04 Jun 2027 14:51:21.062   04 Jun 2027 14:51:57.396            36.334                Anadyr2          1135.438
       380   04 Jun 2027 14:53:11.191   04 Jun 2027 14:53:47.819            36.628                Anadyr2          1144.625
       381   04 Jun 2027 15:51:37.468   04 Jun 2027 15:51:43.277             5.809               CapeTown           181.531
       382   04 Jun 2027 15:55:17.826   04 Jun 2027 15:55:38.830            21.004               CapeTown           656.375
       383   04 Jun 2027 16:11:16.974   04 Jun 2027 16:11:25.352             8.378                 Moscow           261.812
       384   04 Jun 2027 16:11:57.982   04 Jun 2027 16:13:22.733            84.751              Murmansk1          2648.469
       385   04 Jun 2027 16:14:03.396   04 Jun 2027 16:14:23.466            20.070              Murmansk1           627.188
       386   04 Jun 2027 16:16:08.841   04 Jun 2027 16:16:57.029            48.188              Murmansk2          1505.875
       387   04 Jun 2027 16:23:30.272   04 Jun 2027 16:25:39.337           129.065                Anadyr1          4033.281
       388   04 Jun 2027 16:28:11.365   04 Jun 2027 16:30:43.166           151.801               Magadan1          4743.781
       389   04 Jun 2027 16:31:22.908   04 Jun 2027 16:32:04.552            41.644               Magadan2          1301.375
       390   04 Jun 2027 17:59:22.194   04 Jun 2027 18:02:39.532           197.338                Anadyr1          6166.813
       391   04 Jun 2027 18:02:42.968   04 Jun 2027 18:03:16.720            33.752                Anadyr1          1054.750
       392   04 Jun 2027 18:03:21.324   04 Jun 2027 18:05:44.375           143.051               Magadan1          4470.344
       393   04 Jun 2027 19:35:16.338   04 Jun 2027 19:39:07.227           230.889                Anadyr1          7215.281
       394   04 Jun 2027 19:39:35.771   04 Jun 2027 19:41:21.167           105.396                Norilsk          3293.625
       395   04 Jun 2027 19:42:28.881   04 Jun 2027 19:42:33.362             4.481                Norilsk           140.031
       396   04 Jun 2027 19:42:50.764   04 Jun 2027 19:43:30.421            39.657               Magadan2          1239.281
       397   04 Jun 2027 20:29:40.006   04 Jun 2027 20:32:55.724           195.718            RioGallegos          6116.188
       398   04 Jun 2027 20:40:07.737   04 Jun 2027 20:40:25.344            17.607            RioGallegos           550.219
       399   04 Jun 2027 21:11:16.464   04 Jun 2027 21:13:04.128           107.664                Anadyr2          3364.500
       400   04 Jun 2027 21:13:37.249   04 Jun 2027 21:14:50.553            73.304               Magadan2          2290.750
       401   04 Jun 2027 21:14:55.609   04 Jun 2027 21:15:28.521            32.912               Magadan1          1028.500
       402   04 Jun 2027 21:17:16.040   04 Jun 2027 21:18:33.697            77.657                Irkutsk          2426.781
       403   04 Jun 2027 21:19:00.800   04 Jun 2027 21:20:11.127            70.327                Novosib          2197.719
       404   04 Jun 2027 21:21:32.783   04 Jun 2027 21:21:49.596            16.813                Novosib           525.406
       405   04 Jun 2027 21:22:33.639   04 Jun 2027 21:23:32.227            58.588                Novosib          1830.875
       406   04 Jun 2027 21:30:59.243   04 Jun 2027 21:31:54.916            55.673                Sumatra          1739.781
       407   04 Jun 2027 21:41:15.606   04 Jun 2027 21:42:17.734            62.128                Sumatra          1941.500
       408   04 Jun 2027 22:49:04.842   04 Jun 2027 22:49:23.754            18.912                Norilsk           591.000
       409   04 Jun 2027 22:49:42.569   04 Jun 2027 22:51:14.669            92.100               Magadan2          2878.125
       410   04 Jun 2027 22:52:57.161   04 Jun 2027 22:53:50.899            53.738                Irkutsk          1679.312
       411   04 Jun 2027 22:54:18.699   04 Jun 2027 22:54:30.492            11.793                Novosib           368.531
       412   04 Jun 2027 22:54:39.874   04 Jun 2027 22:55:34.865            54.991                Novosib          1718.469
       413   04 Jun 2027 23:00:37.742   04 Jun 2027 23:00:47.663             9.921                Novosib           310.031
       414   04 Jun 2027 23:00:47.702   04 Jun 2027 23:04:12.938           205.236                  Delhi          6413.625
       415   05 Jun 2027 00:20:44.408   05 Jun 2027 00:21:17.802            33.394                Anadyr1          1043.563
       416   05 Jun 2027 00:21:52.071   05 Jun 2027 00:22:04.216            12.145                Anadyr2           379.531
       417   05 Jun 2027 00:24:12.251   05 Jun 2027 00:24:36.907            24.656                Anadyr1           770.500
       418   05 Jun 2027 00:25:03.794   05 Jun 2027 00:25:17.601            13.807                Norilsk           431.469
       419   05 Jun 2027 00:25:24.137   05 Jun 2027 00:26:29.328            65.191               Magadan2          2037.219
       420   05 Jun 2027 00:26:29.328   05 Jun 2027 00:26:49.249            19.921               Magadan1           622.531
       421   05 Jun 2027 00:27:24.800   05 Jun 2027 00:29:50.423           145.623              Murmansk2          4550.719
       422   05 Jun 2027 00:31:05.461   05 Jun 2027 00:31:14.075             8.614              Murmansk1           269.188
       423   05 Jun 2027 00:31:50.192   05 Jun 2027 00:32:16.214            26.022              Murmansk1           813.187
       424   05 Jun 2027 00:32:33.485   05 Jun 2027 00:35:03.664           150.179                 Moscow          4693.094
       425   05 Jun 2027 01:52:28.545   05 Jun 2027 01:53:35.629            67.084                Anadyr2          2096.375
       426   05 Jun 2027 01:54:11.162   05 Jun 2027 01:54:58.179            47.017                Anadyr1          1469.281
       427   05 Jun 2027 01:55:07.690   05 Jun 2027 01:55:10.973             3.283                Anadyr1           102.594
       428   05 Jun 2027 01:55:35.750   05 Jun 2027 01:55:47.302            11.552                Anadyr1           361.000
       429   05 Jun 2027 01:57:09.999   05 Jun 2027 01:57:24.569            14.570                Anadyr2           455.312
       430   05 Jun 2027 01:57:26.850   05 Jun 2027 01:58:44.602            77.752               Magadan2          2429.750
       431   05 Jun 2027 01:59:23.376   05 Jun 2027 01:59:35.782            12.406               Magadan1           387.688
       432   05 Jun 2027 02:00:50.403   05 Jun 2027 02:00:50.537             0.134                Norilsk             4.187
       433   05 Jun 2027 02:01:16.540   05 Jun 2027 02:01:36.825            20.285               Magadan2           633.906
       434   05 Jun 2027 02:03:11.702   05 Jun 2027 02:03:49.052            37.350              Murmansk1          1167.187
       435   05 Jun 2027 02:04:31.054   05 Jun 2027 02:05:10.273            39.219              Murmansk2          1225.594
       436   05 Jun 2027 02:05:34.435   05 Jun 2027 02:05:37.031             2.596              Murmansk1            81.125
       437   05 Jun 2027 02:05:42.438   05 Jun 2027 02:06:55.564            73.126                Novosib          2285.187
       438   05 Jun 2027 02:10:53.760   05 Jun 2027 02:11:50.541            56.781                Novosib          1774.406
       439   05 Jun 2027 02:30:46.181   05 Jun 2027 02:31:03.447            17.266               CapeTown           539.563
       440   05 Jun 2027 02:34:03.498   05 Jun 2027 02:34:14.577            11.079               CapeTown           346.219
       441   05 Jun 2027 02:37:07.290   05 Jun 2027 02:37:26.675            19.385               CapeTown           605.781
       442   05 Jun 2027 02:38:34.574   05 Jun 2027 02:38:43.197             8.623               CapeTown           269.469
       443   05 Jun 2027 02:38:44.535   05 Jun 2027 02:39:25.159            40.624               CapeTown          1269.500
       444   05 Jun 2027 03:34:17.772   05 Jun 2027 03:35:23.625            65.853                Anadyr1          2057.906
       445   05 Jun 2027 03:35:57.755   05 Jun 2027 03:36:08.330            10.575                Anadyr2           330.469
       446   05 Jun 2027 03:46:44.595   05 Jun 2027 03:47:15.695            31.100                Norilsk           971.875
       447   05 Jun 2027 03:49:01.264   05 Jun 2027 03:50:10.268            69.004              Murmansk1          2156.375
       448   05 Jun 2027 03:50:10.268   05 Jun 2027 03:50:42.345            32.077              Murmansk2          1002.406
       449   05 Jun 2027 03:50:59.996   05 Jun 2027 03:51:45.251            45.255              Murmansk2          1414.219
       450   05 Jun 2027 05:08:40.673   05 Jun 2027 05:10:22.538           101.865                Anadyr2          3183.281
       451   05 Jun 2027 05:10:35.850   05 Jun 2027 05:13:17.740           161.890                Anadyr2          5059.062
       452   05 Jun 2027 05:13:17.740   05 Jun 2027 05:14:26.599            68.859                Anadyr1          2151.844
       453   05 Jun 2027 06:45:07.748   05 Jun 2027 06:47:36.259           148.511                Anadyr1          4640.969
       454   05 Jun 2027 06:47:41.781   05 Jun 2027 06:47:58.444            16.663                Anadyr1           520.719
       455   05 Jun 2027 06:48:20.096   05 Jun 2027 06:50:10.373           110.277                Irkutsk          3446.156
       456   05 Jun 2027 06:50:10.987   05 Jun 2027 06:51:27.356            76.369               Magadan1          2386.531
       457   05 Jun 2027 06:52:51.432   05 Jun 2027 06:53:22.655            31.223              Murmansk1           975.719
       458   05 Jun 2027 07:27:05.804   05 Jun 2027 07:28:22.600            76.796            RioGallegos          2399.875
       459   05 Jun 2027 08:20:38.775   05 Jun 2027 08:21:06.007            27.232                Irkutsk           851.000
       460   05 Jun 2027 08:21:10.762   05 Jun 2027 08:22:10.305            59.543                Norilsk          1860.719
       461   05 Jun 2027 08:22:17.550   05 Jun 2027 08:22:31.443            13.893                Novosib           434.156
       462   05 Jun 2027 08:22:39.734   05 Jun 2027 08:22:42.917             3.183                Norilsk            99.469
       463   05 Jun 2027 08:22:54.420   05 Jun 2027 08:23:05.164            10.744               Magadan1           335.750
       464   05 Jun 2027 08:23:05.164   05 Jun 2027 08:24:01.388            56.224               Magadan2          1757.000
       465   05 Jun 2027 08:24:19.962   05 Jun 2027 08:24:47.855            27.893                Irkutsk           871.656
       466   05 Jun 2027 08:24:51.192   05 Jun 2027 08:25:11.106            19.914                Irkutsk           622.313
       467   05 Jun 2027 08:25:13.458   05 Jun 2027 08:25:35.597            22.139                Novosib           691.844
       468   05 Jun 2027 08:25:36.985   05 Jun 2027 08:26:07.281            30.296                Norilsk           946.750
       469   05 Jun 2027 08:26:16.022   05 Jun 2027 08:27:29.505            73.483              Murmansk2          2296.344
       470   05 Jun 2027 09:01:58.320   05 Jun 2027 09:03:08.564            70.244            RioGallegos          2195.125
       471   05 Jun 2027 09:36:55.090   05 Jun 2027 09:37:46.777            51.687                Sumatra          1615.219
       472   05 Jun 2027 09:50:12.304   05 Jun 2027 09:50:40.714            28.410                  Delhi           887.813
       473   05 Jun 2027 09:54:38.694   05 Jun 2027 09:55:28.718            50.024                  Delhi          1563.250
       474   05 Jun 2027 09:57:05.216   05 Jun 2027 09:57:11.597             6.381                Irkutsk           199.406
       475   05 Jun 2027 09:58:15.128   05 Jun 2027 09:59:21.191            66.063                Irkutsk          2064.469
       476   05 Jun 2027 09:59:26.703   05 Jun 2027 09:59:37.249            10.546                Norilsk           329.562
       477   05 Jun 2027 09:59:38.355   05 Jun 2027 09:59:55.869            17.514                Norilsk           547.312
       478   05 Jun 2027 09:59:57.574   05 Jun 2027 10:00:17.001            19.427                Novosib           607.094
       479   05 Jun 2027 10:00:30.684   05 Jun 2027 10:00:49.747            19.063                Irkutsk           595.719
       480   05 Jun 2027 10:00:51.986   05 Jun 2027 10:01:18.822            26.836                Novosib           838.625
       481   05 Jun 2027 10:01:21.394   05 Jun 2027 10:01:34.221            12.827                Novosib           400.844
       482   05 Jun 2027 10:01:37.671   05 Jun 2027 10:02:20.899            43.228              Murmansk1          1350.875
