uniorb/output/strategy_1/Drop/Drop_KinoSat_110207.txt

KinoSat_110207
-------------------------
    Access    *     Start Time (UTCG)     *     Stop Time (UTCG)  *   Duration (s)        *       Station  *  Data (Mbytes)
         1   01 Jun 2027 03:43:19.873   01 Jun 2027 03:44:04.111            44.238               Magadan1          5529.750
         2   01 Jun 2027 03:44:08.954   01 Jun 2027 03:44:27.866            18.912               Magadan2          2364.000
         3   01 Jun 2027 03:44:46.766   01 Jun 2027 03:45:35.443            48.677               Magadan2          6084.625
         4   01 Jun 2027 03:45:56.590   01 Jun 2027 03:47:02.080            65.490               Magadan2          8186.250
         5   01 Jun 2027 03:47:11.439   01 Jun 2027 03:47:22.828            11.389               Magadan1          1423.625
         6   01 Jun 2027 03:48:06.603   01 Jun 2027 03:48:12.319             5.716                Norilsk           714.500
         7   01 Jun 2027 03:48:35.030   01 Jun 2027 03:49:23.518            48.488                Irkutsk          6061.000
         8   01 Jun 2027 03:49:27.077   01 Jun 2027 03:49:36.889             9.812                Norilsk          1226.500
         9   01 Jun 2027 03:49:39.835   01 Jun 2027 03:50:34.305            54.470              Murmansk1          6808.750
        10   01 Jun 2027 03:50:44.730   01 Jun 2027 03:51:21.780            37.050              Murmansk2          4631.250
        11   01 Jun 2027 04:24:20.021   01 Jun 2027 04:24:47.755            27.734            RioGallegos          3466.750
        12   01 Jun 2027 04:30:09.702   01 Jun 2027 04:30:25.803            16.101            RioGallegos          2012.625
        13   01 Jun 2027 04:31:56.948   01 Jun 2027 04:32:20.424            23.476            RioGallegos          2934.500
        14   01 Jun 2027 04:58:54.938   01 Jun 2027 05:01:10.218           135.280                Sumatra         16910.000
        15   01 Jun 2027 05:09:25.057   01 Jun 2027 05:11:54.914           149.857                  Delhi         18732.125
        16   01 Jun 2027 05:22:04.191   01 Jun 2027 05:23:33.957            89.766                Novosib         11220.750
        17   01 Jun 2027 05:23:51.255   01 Jun 2027 05:24:57.087            65.832                Irkutsk          8229.000
        18   01 Jun 2027 05:25:07.053   01 Jun 2027 05:26:44.663            97.610                Novosib         12201.250
        19   01 Jun 2027 06:43:19.087   01 Jun 2027 06:44:10.978            51.891                  Delhi          6486.375
        20   01 Jun 2027 06:46:00.999   01 Jun 2027 06:47:58.545           117.546                  Delhi         14693.250
        21   01 Jun 2027 06:59:40.294   01 Jun 2027 07:00:29.869            49.575                 Moscow          6196.875
        22   01 Jun 2027 07:00:39.106   01 Jun 2027 07:01:30.647            51.541                 Moscow          6442.625
        23   01 Jun 2027 08:33:08.726   01 Jun 2027 08:34:03.808            55.082              Murmansk1          6885.250
        24   01 Jun 2027 08:34:18.168   01 Jun 2027 08:34:31.637            13.469              Murmansk1          1683.625
        25   01 Jun 2027 08:34:32.599   01 Jun 2027 08:34:44.390            11.791                 Moscow          1473.875
        26   01 Jun 2027 08:34:57.344   01 Jun 2027 08:35:22.310            24.966              Murmansk1          3120.750
        27   01 Jun 2027 08:35:24.416   01 Jun 2027 08:35:27.606             3.190                Norilsk           398.750
        28   01 Jun 2027 08:35:32.491   01 Jun 2027 08:35:43.924            11.433                 Moscow          1429.125
        29   01 Jun 2027 08:35:47.983   01 Jun 2027 08:36:12.703            24.720              Murmansk1          3090.000
        30   01 Jun 2027 09:41:54.279   01 Jun 2027 09:48:33.319           399.040               CapeTown         49880.000
        31   01 Jun 2027 10:24:34.064   01 Jun 2027 10:26:35.046           120.982                Anadyr1         15122.750
        32   01 Jun 2027 12:01:45.907   01 Jun 2027 12:02:42.610            56.703               Magadan2          7087.875
        33   01 Jun 2027 12:04:50.963   01 Jun 2027 12:05:01.008            10.045               Magadan1          1255.625
        34   01 Jun 2027 13:35:49.491   01 Jun 2027 13:38:36.702           167.211               Magadan2         20901.375
        35   01 Jun 2027 15:21:31.015   01 Jun 2027 15:24:46.960           195.945                Irkutsk         24493.125
        36   01 Jun 2027 15:31:57.124   01 Jun 2027 15:34:19.351           142.227                Sumatra         17778.375
        37   01 Jun 2027 16:51:57.888   01 Jun 2027 16:54:17.047           139.159                Novosib         17394.875
        38   01 Jun 2027 17:01:22.591   01 Jun 2027 17:01:31.728             9.137                Novosib          1142.125
        39   01 Jun 2027 17:03:01.891   01 Jun 2027 17:06:02.267           180.376                  Delhi         22547.000
        40   01 Jun 2027 18:31:52.669   01 Jun 2027 18:33:31.906            99.237                Novosib         12404.625
        41   01 Jun 2027 18:34:23.759   01 Jun 2027 18:36:59.130           155.371                  Delhi         19421.375
        42   01 Jun 2027 20:05:18.896   01 Jun 2027 20:07:46.813           147.917                 Moscow          1348.125
        43   02 Jun 2027 04:00:54.429   02 Jun 2027 04:01:50.984            56.555              Murmansk2          7069.375
        44   02 Jun 2027 04:36:35.577   02 Jun 2027 04:37:22.302            46.725            RioGallegos          5840.625
        45   02 Jun 2027 04:43:01.323   02 Jun 2027 04:43:08.944             7.621            RioGallegos           952.625
        46   02 Jun 2027 04:44:08.285   02 Jun 2027 04:44:26.137            17.852            RioGallegos          2231.500
        47   02 Jun 2027 04:44:39.322   02 Jun 2027 04:45:06.067            26.745            RioGallegos          3343.125
        48   02 Jun 2027 05:11:01.454   02 Jun 2027 05:12:29.411            87.957                Sumatra         10994.625
        49   02 Jun 2027 05:13:39.355   02 Jun 2027 05:13:57.798            18.443                Sumatra          2305.375
        50   02 Jun 2027 05:18:51.245   02 Jun 2027 05:20:10.602            79.357                Sumatra          9919.625
        51   02 Jun 2027 05:34:07.174   02 Jun 2027 05:36:03.343           116.169                Novosib         14521.125
        52   02 Jun 2027 05:36:36.150   02 Jun 2027 05:36:49.018            12.868                Irkutsk          1608.500
        53   02 Jun 2027 05:36:53.383   02 Jun 2027 05:36:54.249             0.866              Murmansk1           108.250
        54   02 Jun 2027 05:36:58.838   02 Jun 2027 05:37:38.349            39.511                Norilsk          4938.875
        55   02 Jun 2027 05:41:07.845   02 Jun 2027 05:41:22.413            14.568                Norilsk          1821.000
        56   02 Jun 2027 05:43:19.731   02 Jun 2027 05:43:58.868            39.137              Murmansk1          4892.125
        57   02 Jun 2027 06:55:35.760   02 Jun 2027 06:58:00.428           144.668                  Delhi         18083.500
        58   02 Jun 2027 07:10:29.723   02 Jun 2027 07:10:52.000            22.277              Murmansk2          2784.625
        59   02 Jun 2027 07:11:12.714   02 Jun 2027 07:13:03.206           110.492                Novosib         13811.500
        60   02 Jun 2027 08:47:07.628   02 Jun 2027 08:47:32.904            25.276                 Moscow          3159.500
        61   02 Jun 2027 08:47:39.958   02 Jun 2027 08:49:11.285            91.327                 Moscow         11415.875
        62   02 Jun 2027 09:53:36.786   02 Jun 2027 09:57:54.413           257.627               CapeTown         32203.375
        63   02 Jun 2027 09:57:59.733   02 Jun 2027 09:59:44.582           104.849               CapeTown         13106.125
        64   02 Jun 2027 10:41:39.088   02 Jun 2027 10:44:18.757           159.669                Anadyr2         19958.625
        65   02 Jun 2027 12:13:32.846   02 Jun 2027 12:15:32.315           119.469               Magadan2         14933.625
        66   02 Jun 2027 13:50:49.053   02 Jun 2027 13:51:57.964            68.911               Magadan2          8613.875
        67   02 Jun 2027 13:57:23.405   02 Jun 2027 13:57:59.249            35.844               Magadan2          4480.500
        68   02 Jun 2027 14:45:38.224   02 Jun 2027 14:47:50.029           131.805            RioGallegos         16475.625
        69   02 Jun 2027 15:28:17.081   02 Jun 2027 15:29:36.678            79.597                Irkutsk          9949.625
        70   02 Jun 2027 15:32:16.146   02 Jun 2027 15:32:21.175             5.029                Irkutsk           628.625
        71   02 Jun 2027 15:34:23.043   02 Jun 2027 15:34:50.580            27.537                Irkutsk          3442.125
        72   02 Jun 2027 15:43:00.589   02 Jun 2027 15:46:05.165           184.576                Sumatra         23072.000
        73   02 Jun 2027 17:03:45.928   02 Jun 2027 17:06:30.914           164.986                Novosib         20623.250
        74   02 Jun 2027 17:13:18.577   02 Jun 2027 17:17:39.034           260.457                  Delhi         32557.125
        75   02 Jun 2027 18:47:14.518   02 Jun 2027 18:48:14.573            60.055                  Delhi          7506.875
        76   02 Jun 2027 20:17:09.338   02 Jun 2027 20:20:51.203           221.865                 Moscow         27733.125
        77   02 Jun 2027 22:04:42.493   02 Jun 2027 22:05:27.898            45.405                 Moscow          5675.625
        78   02 Jun 2027 22:19:39.781   02 Jun 2027 22:21:31.448           111.667               CapeTown         13958.375
        79   03 Jun 2027 03:48:39.079   03 Jun 2027 03:52:00.408           201.329                Sumatra         25166.125
        80   03 Jun 2027 05:31:52.624   03 Jun 2027 05:34:04.012           131.388                  Delhi         16423.500
        81   03 Jun 2027 05:36:04.549   03 Jun 2027 05:37:50.669           106.120                  Delhi         13265.000
        82   03 Jun 2027 05:46:07.776   03 Jun 2027 05:46:11.009             3.233                Irkutsk           404.125
        83   03 Jun 2027 05:46:39.254   03 Jun 2027 05:47:41.905            62.651                Novosib          7831.375
        84   03 Jun 2027 05:48:04.166   03 Jun 2027 05:49:24.277            80.111                Novosib         10013.875
        85   03 Jun 2027 07:23:27.619   03 Jun 2027 07:23:50.449            22.830                Norilsk          2853.750
        86   03 Jun 2027 07:23:54.647   03 Jun 2027 07:24:05.831            11.184              Murmansk2          1398.000
        87   03 Jun 2027 07:24:15.972   03 Jun 2027 07:26:00.888           104.916                Novosib         13114.500
        88   03 Jun 2027 10:07:44.284   03 Jun 2027 10:09:54.794           130.510               CapeTown         16313.750
        89   03 Jun 2027 10:10:59.208   03 Jun 2027 10:11:11.598            12.390               CapeTown          1548.750
        90   03 Jun 2027 10:45:52.046   03 Jun 2027 10:47:09.561            77.515                Anadyr2          9689.375
        91   03 Jun 2027 10:50:12.914   03 Jun 2027 10:50:58.587            45.673                Anadyr1          5709.125
        92   03 Jun 2027 10:52:48.951   03 Jun 2027 10:53:10.323            21.372                Anadyr2          2671.500
        93   03 Jun 2027 12:24:27.448   03 Jun 2027 12:28:53.815           266.367               Magadan1         33295.875
        94   03 Jun 2027 13:59:48.931   03 Jun 2027 14:01:19.162            90.231               Magadan1         11278.875
        95   03 Jun 2027 14:56:56.647   03 Jun 2027 15:00:51.530           234.883            RioGallegos         29360.375
        96   03 Jun 2027 15:54:20.817   03 Jun 2027 15:57:57.112           216.295                Sumatra         27036.875
        97   03 Jun 2027 16:01:00.692   03 Jun 2027 16:02:18.516            77.824                Sumatra          9728.000
        98   03 Jun 2027 17:15:36.908   03 Jun 2027 17:16:38.732            61.824                Novosib          7728.000
        99   03 Jun 2027 17:19:31.812   03 Jun 2027 17:20:05.338            33.526                Novosib          4190.750
       100   03 Jun 2027 17:24:25.212   03 Jun 2027 17:27:39.300           194.088                  Delhi         24261.000
       101   03 Jun 2027 17:30:03.064   03 Jun 2027 17:33:04.841           181.777                  Delhi         22722.125
       102   03 Jun 2027 20:29:02.133   03 Jun 2027 20:31:43.849           161.716                 Moscow         20214.500
       103   03 Jun 2027 22:28:34.532   03 Jun 2027 22:29:43.191            68.659               CapeTown          8582.375
       104   03 Jun 2027 22:31:21.261   03 Jun 2027 22:33:23.421           122.160               CapeTown         15270.000
       105   04 Jun 2027 04:01:13.369   04 Jun 2027 04:03:55.236           161.867                Sumatra         20233.375
       106   04 Jun 2027 05:35:33.569   04 Jun 2027 05:35:38.817             5.248                Sumatra           656.000
       107   04 Jun 2027 05:37:29.246   04 Jun 2027 05:37:55.332            26.086                Sumatra          3260.750
       108   04 Jun 2027 05:39:22.536   04 Jun 2027 05:39:49.465            26.929                Sumatra          3366.125
       109   04 Jun 2027 05:43:35.855   04 Jun 2027 05:46:16.165           160.310                  Delhi         20038.750
       110   04 Jun 2027 06:00:14.562   04 Jun 2027 06:01:37.276            82.714                Norilsk         10339.250
       111   04 Jun 2027 06:01:41.811   04 Jun 2027 06:02:01.504            19.693                Norilsk          2461.625
       112   04 Jun 2027 07:20:31.928   04 Jun 2027 07:21:28.045            56.117                  Delhi          7014.625
       113   04 Jun 2027 07:22:32.834   04 Jun 2027 07:22:40.614             7.780                  Delhi           972.500
       114   04 Jun 2027 07:27:14.165   04 Jun 2027 07:28:58.844           104.679                  Delhi         13084.875
       115   04 Jun 2027 07:35:20.937   04 Jun 2027 07:35:35.559            14.622                Novosib          1827.750
       116   04 Jun 2027 07:35:48.392   04 Jun 2027 07:36:50.073            61.681                 Moscow          7710.125
       117   04 Jun 2027 09:23:14.037   04 Jun 2027 09:24:53.569            99.532                Anadyr2         12441.500
       118   04 Jun 2027 09:24:53.569   04 Jun 2027 09:25:07.198            13.629                Anadyr1          1703.625
       119   04 Jun 2027 10:17:15.624   04 Jun 2027 10:20:02.148           166.524               CapeTown         20815.500
       120   04 Jun 2027 10:57:50.129   04 Jun 2027 10:59:16.160            86.031                Anadyr1         10753.875
       121   04 Jun 2027 11:01:59.181   04 Jun 2027 11:02:53.144            53.963                Anadyr1          6745.375
       122   04 Jun 2027 11:05:17.143   04 Jun 2027 11:05:26.947             9.804                Anadyr2          1225.500
       123   04 Jun 2027 12:36:20.065   04 Jun 2027 12:40:51.769           271.704               Magadan1         33963.000
       124   04 Jun 2027 12:45:43.993   04 Jun 2027 12:46:59.033            75.040               Magadan1          9380.000
       125   04 Jun 2027 14:11:49.404   04 Jun 2027 14:13:47.290           117.886               Magadan2         14735.750
       126   04 Jun 2027 15:04:28.437   04 Jun 2027 15:05:43.886            75.449            RioGallegos          9431.125
       127   04 Jun 2027 15:07:18.915   04 Jun 2027 15:08:29.409            70.494            RioGallegos          8811.750
       128   04 Jun 2027 15:52:43.906   04 Jun 2027 15:55:23.623           159.717                Irkutsk         19964.625
       129   04 Jun 2027 16:07:28.188   04 Jun 2027 16:09:54.759           146.571                Sumatra         18321.375
       130   04 Jun 2027 17:27:30.120   04 Jun 2027 17:29:07.261            97.141                Novosib         12142.625
       131   04 Jun 2027 17:35:04.212   04 Jun 2027 17:37:00.496           116.284                Novosib         14535.500
       132   04 Jun 2027 17:42:19.966   04 Jun 2027 17:43:49.418            89.452                  Delhi         11181.500
       133   04 Jun 2027 19:10:29.223   04 Jun 2027 19:11:21.172            51.949                  Delhi          6493.625
       134   04 Jun 2027 19:13:27.965   04 Jun 2027 19:15:18.012           110.047                  Delhi         13755.875
       135   04 Jun 2027 20:40:56.767   04 Jun 2027 20:42:52.126           115.359                 Moscow         14419.875
       136   04 Jun 2027 22:14:07.387   04 Jun 2027 22:14:19.501            12.114              Murmansk2          1514.250
       137   04 Jun 2027 22:40:46.783   04 Jun 2027 22:41:21.271            34.488               CapeTown          4311.000
       138   04 Jun 2027 22:43:32.016   04 Jun 2027 22:45:20.345           108.329               CapeTown         13541.125
       139   05 Jun 2027 04:11:40.886   05 Jun 2027 04:15:55.676           254.790                Sumatra         31848.750
       140   05 Jun 2027 04:36:42.586   05 Jun 2027 04:37:34.376            51.790              Murmansk2          6473.750
       141   05 Jun 2027 05:14:47.026   05 Jun 2027 05:15:34.530            47.504            RioGallegos          5938.000
       142   05 Jun 2027 05:48:01.718   05 Jun 2027 05:48:39.763            38.045                Sumatra          4755.625
       143   05 Jun 2027 05:49:04.094   05 Jun 2027 05:50:11.107            67.013                Sumatra          8376.625
       144   05 Jun 2027 05:55:24.755   05 Jun 2027 05:58:24.505           179.750                  Delhi         22468.750
       145   05 Jun 2027 06:12:01.190   05 Jun 2027 06:13:49.068           107.878                Novosib         13484.750
       146   05 Jun 2027 07:33:15.850   05 Jun 2027 07:33:56.830            40.980                  Delhi          5122.500
       147   05 Jun 2027 07:39:27.185   05 Jun 2027 07:40:59.549            92.364                  Delhi         11545.500
       148   05 Jun 2027 07:46:47.150   05 Jun 2027 07:47:48.472            61.322              Murmansk2          7665.250
       149   05 Jun 2027 07:47:59.217   05 Jun 2027 07:48:15.384            16.167              Murmansk2          2020.875
       150   05 Jun 2027 07:48:17.647   05 Jun 2027 07:48:24.513             6.866              Murmansk2           858.250
       151   05 Jun 2027 07:48:28.700   05 Jun 2027 07:49:24.740            56.040                Novosib          7005.000
       152   05 Jun 2027 07:50:32.736   05 Jun 2027 07:50:45.049            12.313                 Moscow          1539.125
       153   05 Jun 2027 08:57:27.177   05 Jun 2027 08:58:56.818            89.641               CapeTown         11205.125
       154   05 Jun 2027 10:29:10.412   05 Jun 2027 10:31:37.697           147.285               CapeTown         18410.625
       155   05 Jun 2027 11:10:29.467   05 Jun 2027 11:10:38.192             8.725                Anadyr1          1090.625
       156   05 Jun 2027 11:11:39.311   05 Jun 2027 11:13:38.054           118.743                Anadyr1         14842.875
       157   05 Jun 2027 11:13:38.054   05 Jun 2027 11:14:35.098            57.044                Anadyr2          7130.500
       158   05 Jun 2027 12:48:14.530   05 Jun 2027 12:52:50.516           275.986               Magadan1         34498.250
       159   05 Jun 2027 14:23:50.295   05 Jun 2027 14:26:11.391           141.096               Magadan2         17637.000
       160   05 Jun 2027 15:16:11.689   05 Jun 2027 15:18:06.849           115.160            RioGallegos         14395.000
       161   05 Jun 2027 16:03:41.105   05 Jun 2027 16:07:16.365           215.260                Irkutsk         26907.500
       162   05 Jun 2027 16:17:31.589   05 Jun 2027 16:19:50.967           139.378                Sumatra         17422.250
       163   05 Jun 2027 17:39:25.091   05 Jun 2027 17:41:31.111           126.020                Novosib         15752.500
       164   05 Jun 2027 17:47:23.792   05 Jun 2027 17:51:25.012           241.220                  Delhi         30152.500
       165   05 Jun 2027 20:49:28.195   05 Jun 2027 20:49:31.461             3.266              Murmansk1           408.250
       166   05 Jun 2027 20:52:52.885   05 Jun 2027 20:54:22.026            89.141                 Moscow         11142.625
       167   05 Jun 2027 21:02:02.610   05 Jun 2027 21:02:25.194            22.584                 Moscow          2823.000
       168   05 Jun 2027 21:17:23.961   05 Jun 2027 21:17:42.782            18.821               CapeTown          2352.625
       169   05 Jun 2027 21:24:40.191   05 Jun 2027 21:26:43.189           122.998               CapeTown         15374.750
       170   06 Jun 2027 03:10:16.202   06 Jun 2027 03:11:11.673            55.471               Magadan2          6933.875
       171   06 Jun 2027 03:11:29.897   06 Jun 2027 03:11:48.589            18.692               Magadan2          2336.500
       172   06 Jun 2027 03:12:20.593   06 Jun 2027 03:12:55.876            35.283               Magadan2          4410.375
       173   06 Jun 2027 03:12:55.965   06 Jun 2027 03:13:13.555            17.590                Irkutsk          2198.750
       174   06 Jun 2027 03:13:24.253   06 Jun 2027 03:13:48.481            24.228                Novosib          3028.500
       175   06 Jun 2027 03:48:10.965   06 Jun 2027 03:51:07.521           176.556            RioGallegos         22069.500
       176   06 Jun 2027 04:23:24.002   06 Jun 2027 04:28:01.765           277.763                Sumatra         34720.375
       177   06 Jun 2027 04:45:45.857   06 Jun 2027 04:45:59.229            13.372                Norilsk          1671.500
       178   06 Jun 2027 04:45:59.464   06 Jun 2027 04:46:06.217             6.753                Novosib           844.125
       179   06 Jun 2027 04:46:07.146   06 Jun 2027 04:46:47.215            40.069                Novosib          5008.625
       180   06 Jun 2027 04:47:01.225   06 Jun 2027 04:47:11.123             9.898              Murmansk2          1237.250
       181   06 Jun 2027 04:47:17.798   06 Jun 2027 04:47:27.945            10.147                Novosib          1268.375
       182   06 Jun 2027 04:47:32.256   06 Jun 2027 04:47:57.171            24.915                Norilsk          3114.375
       183   06 Jun 2027 04:48:36.612   06 Jun 2027 04:49:02.301            25.689              Murmansk2          3211.125
       184   06 Jun 2027 04:49:02.301   06 Jun 2027 04:51:02.392           120.091              Murmansk1         15011.375
       185   06 Jun 2027 05:26:26.788   06 Jun 2027 05:27:34.287            67.499            RioGallegos          8437.375
       186   06 Jun 2027 06:00:41.852   06 Jun 2027 06:02:50.403           128.551                Sumatra         16068.875
       187   06 Jun 2027 06:07:19.034   06 Jun 2027 06:08:53.269            94.235                  Delhi         11779.375
       188   06 Jun 2027 06:23:56.424   06 Jun 2027 06:24:17.623            21.199                Novosib          2649.875
       189   06 Jun 2027 06:24:32.387   06 Jun 2027 06:25:03.628            31.241                 Moscow          3905.125
       190   06 Jun 2027 06:25:18.165   06 Jun 2027 06:25:47.629            29.464                Norilsk          3683.000
       191   06 Jun 2027 06:25:50.825   06 Jun 2027 06:26:06.258            15.433                Novosib          1929.125
       192   06 Jun 2027 07:46:17.732   06 Jun 2027 07:48:40.062           142.330                  Delhi         17791.250
       193   06 Jun 2027 07:57:47.745   06 Jun 2027 07:58:20.829            33.084              Murmansk2          4135.500
       194   06 Jun 2027 07:58:28.765   06 Jun 2027 07:58:46.412            17.647              Murmansk1          2205.875
       195   06 Jun 2027 07:58:51.257   06 Jun 2027 07:59:27.254            35.997                Novosib          4499.625
       196   06 Jun 2027 07:59:36.813   06 Jun 2027 08:00:07.381            30.568                Norilsk          3821.000
       197   06 Jun 2027 08:00:15.962   06 Jun 2027 08:00:55.498            39.536                Norilsk          4942.000
       198   06 Jun 2027 08:01:02.039   06 Jun 2027 08:01:17.810            15.771                Norilsk          1971.375
       199   06 Jun 2027 08:01:24.064   06 Jun 2027 08:02:04.321            40.257                 Moscow          5032.125
       200   06 Jun 2027 09:07:55.073   06 Jun 2027 09:10:38.917           163.844               CapeTown         20480.500
       201   06 Jun 2027 10:41:08.218   06 Jun 2027 10:42:56.420           108.202               CapeTown         13525.250
       202   06 Jun 2027 11:21:48.331   06 Jun 2027 11:22:29.124            40.793                Anadyr1          5099.125
       203   06 Jun 2027 11:23:53.006   06 Jun 2027 11:26:35.929           162.923                Anadyr2         20365.375
       204   06 Jun 2027 11:29:58.072   06 Jun 2027 11:30:10.699            12.627               Magadan1          1578.375
       205   06 Jun 2027 11:31:13.649   06 Jun 2027 11:31:22.715             9.066                Anadyr2          1133.250
       206   06 Jun 2027 13:00:10.440   06 Jun 2027 13:04:49.938           279.498               Magadan2         34937.250
       207   06 Jun 2027 15:27:59.166   06 Jun 2027 15:32:20.589           261.423            RioGallegos         32677.875
       208   06 Jun 2027 16:15:34.569   06 Jun 2027 16:17:39.087           124.518                Irkutsk         15564.750
       209   06 Jun 2027 16:29:18.014   06 Jun 2027 16:32:06.241           168.227                Sumatra         21028.375
       210   06 Jun 2027 17:51:21.477   06 Jun 2027 17:52:46.384            84.907                Novosib         10613.375
       211   06 Jun 2027 17:59:05.262   06 Jun 2027 18:00:55.579           110.317                  Delhi         13789.625
       212   06 Jun 2027 18:06:35.694   06 Jun 2027 18:08:28.919           113.225                  Delhi         14153.125
       213   06 Jun 2027 21:01:29.542   06 Jun 2027 21:01:47.042            17.500              Murmansk2          2187.500
       214   06 Jun 2027 21:02:10.222   06 Jun 2027 21:03:08.147            57.925              Murmansk1          7240.625
       215   06 Jun 2027 21:04:50.229   06 Jun 2027 21:06:01.395            71.166                 Moscow          8895.750
       216   06 Jun 2027 21:29:05.365   06 Jun 2027 21:30:53.096           107.731               CapeTown         13466.375
       217   07 Jun 2027 03:22:11.623   07 Jun 2027 03:23:15.704            64.081               Magadan2          8010.125
       218   07 Jun 2027 03:23:28.727   07 Jun 2027 03:23:48.698            19.971               Magadan2          2496.375
       219   07 Jun 2027 03:24:31.553   07 Jun 2027 03:24:35.149             3.596              Murmansk2           449.500
       220   07 Jun 2027 03:24:50.295   07 Jun 2027 03:25:28.864            38.569              Murmansk1          4821.125
       221   07 Jun 2027 03:25:37.185   07 Jun 2027 03:25:52.467            15.282                Novosib          1910.250
       222   07 Jun 2027 04:00:15.435   07 Jun 2027 04:02:33.151           137.716            RioGallegos         17214.500
       223   07 Jun 2027 04:35:13.529   07 Jun 2027 04:39:58.593           285.064                Sumatra         35633.000
       224   07 Jun 2027 04:58:04.788   07 Jun 2027 05:00:46.973           162.185                Irkutsk         20273.125
       225   07 Jun 2027 05:39:32.955   07 Jun 2027 05:39:58.455            25.500            RioGallegos          3187.500
       226   07 Jun 2027 05:45:52.932   07 Jun 2027 05:46:05.647            12.715            RioGallegos          1589.375
       227   07 Jun 2027 06:13:42.275   07 Jun 2027 06:13:53.823            11.548                Sumatra          1443.500
       228   07 Jun 2027 06:18:22.721   07 Jun 2027 06:19:09.171            46.450                Sumatra          5806.250
       229   07 Jun 2027 06:19:18.597   07 Jun 2027 06:21:11.392           112.795                  Delhi         14099.375
       230   07 Jun 2027 06:35:28.372   07 Jun 2027 06:35:47.534            19.162                 Moscow          2395.250
       231   07 Jun 2027 06:35:53.986   07 Jun 2027 06:37:32.958            98.972                Novosib         12371.500
       232   07 Jun 2027 08:00:01.693   07 Jun 2027 08:00:33.130            31.437                  Delhi          3929.625
       233   07 Jun 2027 08:07:39.841   07 Jun 2027 08:09:03.417            83.576              Murmansk1         10447.000
       234   07 Jun 2027 08:09:08.177   07 Jun 2027 08:09:23.089            14.912                 Moscow          1864.000
       235   07 Jun 2027 08:09:38.949   07 Jun 2027 08:10:28.569            49.620              Murmansk2          6202.500
       236   07 Jun 2027 08:10:28.569   07 Jun 2027 08:10:46.044            17.475              Murmansk1          2184.375
       237   07 Jun 2027 08:10:59.604   07 Jun 2027 08:11:41.248            41.644                Norilsk          5205.500
       238   07 Jun 2027 08:11:41.570   07 Jun 2027 08:11:52.560            10.990              Murmansk1          1373.750
       239   07 Jun 2027 08:11:59.102   07 Jun 2027 08:12:16.387            17.285                Norilsk          2160.625
       240   07 Jun 2027 08:12:30.172   07 Jun 2027 08:14:39.313           129.141                 Moscow         16142.625
       241   07 Jun 2027 09:19:05.838   07 Jun 2027 09:22:26.031           200.193               CapeTown         25024.125
       242   07 Jun 2027 11:33:48.204   07 Jun 2027 11:36:17.217           149.013                Anadyr2         18626.625
       243   07 Jun 2027 11:36:54.176   07 Jun 2027 11:37:55.196            61.020                Anadyr1          7627.500
       244   07 Jun 2027 11:38:18.851   07 Jun 2027 11:39:53.349            94.498                Anadyr2         11812.250
       245   07 Jun 2027 13:12:07.498   07 Jun 2027 13:17:55.746           348.248               Magadan1         43531.000
       246   07 Jun 2027 15:39:49.747   07 Jun 2027 15:44:15.311           265.564            RioGallegos         33195.500
       247   07 Jun 2027 16:41:10.499   07 Jun 2027 16:44:15.155           184.656                Sumatra         23082.000
       248   07 Jun 2027 18:06:06.690   07 Jun 2027 18:08:04.236           117.546                Novosib         14693.250
       249   07 Jun 2027 18:10:52.134   07 Jun 2027 18:13:18.834           146.700                  Delhi         18337.500
       250   07 Jun 2027 19:42:03.176   07 Jun 2027 19:42:37.360            34.184                 Moscow          4273.000
       251   07 Jun 2027 21:13:31.032   07 Jun 2027 21:13:46.295            15.263              Murmansk1          1907.875
       252   07 Jun 2027 21:40:52.139   07 Jun 2027 21:44:43.450           231.311               CapeTown         28913.875
       253   08 Jun 2027 03:17:25.713   08 Jun 2027 03:18:11.844            46.131                Sumatra          5766.375
       254   08 Jun 2027 03:34:43.393   08 Jun 2027 03:35:35.306            51.913               Magadan1          6489.125
       255   08 Jun 2027 03:35:49.115   08 Jun 2027 03:36:22.984            33.869               Magadan1          4233.625
       256   08 Jun 2027 03:37:17.530   08 Jun 2027 03:37:31.777            14.247                Irkutsk          1780.875
       257   08 Jun 2027 03:37:43.951   08 Jun 2027 03:38:10.720            26.769                Novosib          3346.125
       258   08 Jun 2027 03:38:24.558   08 Jun 2027 03:38:47.482            22.924                Norilsk          2865.500
       259   08 Jun 2027 03:41:13.923   08 Jun 2027 03:42:08.088            54.165                Norilsk          6770.625
       260   08 Jun 2027 04:12:23.408   08 Jun 2027 04:12:44.021            20.613            RioGallegos          2576.625
       261   08 Jun 2027 04:47:08.881   08 Jun 2027 04:50:17.420           188.539                Sumatra         23567.375
       262   08 Jun 2027 04:58:55.769   08 Jun 2027 05:00:38.014           102.245                  Delhi         12780.625
       263   08 Jun 2027 05:10:10.061   08 Jun 2027 05:11:50.748           100.687                Novosib         12585.875
       264   08 Jun 2027 05:11:56.168   08 Jun 2027 05:12:19.353            23.185                Norilsk          2898.125
       265   08 Jun 2027 05:12:38.773   08 Jun 2027 05:13:33.557            54.784                 Moscow          6848.000
       266   08 Jun 2027 05:52:08.206   08 Jun 2027 05:53:02.925            54.719            RioGallegos          6839.875
       267   08 Jun 2027 06:27:47.151   08 Jun 2027 06:28:28.633            41.482                Sumatra          5185.250
       268   08 Jun 2027 06:31:23.544   08 Jun 2027 06:32:52.135            88.591                  Delhi         11073.875
       269   08 Jun 2027 06:47:17.293   08 Jun 2027 06:47:55.253            37.960                Novosib          4745.000
       270   08 Jun 2027 06:48:12.287   08 Jun 2027 06:48:32.081            19.794              Murmansk1          2474.250
       271   08 Jun 2027 06:48:34.436   08 Jun 2027 06:49:11.078            36.642              Murmansk1          4580.250
       272   08 Jun 2027 06:50:55.075   08 Jun 2027 06:50:57.221             2.146                 Moscow           268.250
       273   08 Jun 2027 08:19:05.163   08 Jun 2027 08:20:06.529            61.366                 Moscow          7670.750
       274   08 Jun 2027 08:20:20.682   08 Jun 2027 08:20:45.433            24.751                 Moscow          3093.875
       275   08 Jun 2027 08:20:57.000   08 Jun 2027 08:22:36.400            99.400                 Moscow         12425.000
       276   08 Jun 2027 08:22:56.073   08 Jun 2027 08:23:20.588            24.515                Norilsk          3064.375
       277   08 Jun 2027 08:23:23.795   08 Jun 2027 08:23:49.043            25.248                 Moscow          3156.000
       278   08 Jun 2027 08:23:59.990   08 Jun 2027 08:24:17.076            17.086                Norilsk          2135.750
       279   08 Jun 2027 08:24:18.137   08 Jun 2027 08:24:39.706            21.569              Murmansk1          2696.125
       280   08 Jun 2027 08:24:51.570   08 Jun 2027 08:25:39.236            47.666                Norilsk          5958.250
       281   08 Jun 2027 08:26:01.524   08 Jun 2027 08:26:24.067            22.543                Norilsk          2817.875
       282   08 Jun 2027 08:26:28.565   08 Jun 2027 08:28:19.641           111.076                 Moscow         13884.500
       283   08 Jun 2027 09:30:32.605   08 Jun 2027 09:34:17.183           224.578               CapeTown         28072.250
       284   08 Jun 2027 10:12:13.807   08 Jun 2027 10:14:51.206           157.399                Anadyr1         19674.875
       285   08 Jun 2027 11:45:48.456   08 Jun 2027 11:46:17.696            29.240                Anadyr1          3655.000
       286   08 Jun 2027 11:50:12.525   08 Jun 2027 11:50:22.155             9.630               Magadan2          1203.750
       287   08 Jun 2027 13:24:05.504   08 Jun 2027 13:29:08.732           303.228               Magadan1         37903.500
       288   08 Jun 2027 15:21:41.926   08 Jun 2027 15:24:27.097           165.171                Sumatra         20646.375
       289   08 Jun 2027 15:51:42.734   08 Jun 2027 15:53:47.031           124.297            RioGallegos         15537.125
       290   08 Jun 2027 16:39:26.597   08 Jun 2027 16:40:48.961            82.364                Irkutsk         10295.500
       291   08 Jun 2027 16:44:11.030   08 Jun 2027 16:44:35.188            24.158                Irkutsk          3019.750
       292   08 Jun 2027 16:46:09.503   08 Jun 2027 16:47:29.199            79.696                Irkutsk          9962.000
       293   08 Jun 2027 16:53:08.657   08 Jun 2027 16:55:50.430           161.773                Sumatra         20221.625
       294   08 Jun 2027 18:11:26.418   08 Jun 2027 18:11:35.143             8.725                Norilsk          1090.625
       295   08 Jun 2027 18:20:05.684   08 Jun 2027 18:22:10.392           124.708                Novosib         15588.500
       296   08 Jun 2027 18:22:43.424   08 Jun 2027 18:25:35.080           171.656                  Delhi         21457.000
       297   08 Jun 2027 19:53:46.150   08 Jun 2027 19:54:28.307            42.157                 Moscow          5269.625
       298   08 Jun 2027 21:28:47.875   08 Jun 2027 21:29:35.111            47.236                 Moscow          5904.500
       299   08 Jun 2027 21:33:37.987   08 Jun 2027 21:33:47.113             9.126                 Moscow          1140.750
       300   08 Jun 2027 21:36:12.803   08 Jun 2027 21:36:52.486            39.683                 Moscow          4960.375
       301   08 Jun 2027 21:52:44.003   08 Jun 2027 21:54:18.828            94.825               CapeTown         11853.125
       302   08 Jun 2027 22:00:33.664   08 Jun 2027 22:02:15.588           101.924               CapeTown         12740.500
       303   09 Jun 2027 03:26:49.374   09 Jun 2027 03:28:43.529           114.155                Sumatra         14269.375
       304   09 Jun 2027 03:47:18.521   09 Jun 2027 03:47:37.897            19.376               Magadan1          2422.000
       305   09 Jun 2027 03:48:50.039   09 Jun 2027 03:49:22.685            32.646                Irkutsk          4080.750
       306   09 Jun 2027 03:49:50.200   09 Jun 2027 03:50:50.383            60.183              Murmansk1          7522.875
       307   09 Jun 2027 03:52:12.949   09 Jun 2027 03:52:19.768             6.819                Norilsk           852.375
       308   09 Jun 2027 03:53:05.090   09 Jun 2027 03:53:30.145            25.055                Norilsk          3131.875
       309   09 Jun 2027 04:24:35.075   09 Jun 2027 04:25:08.206            33.131            RioGallegos          4141.375
       310   09 Jun 2027 04:30:38.344   09 Jun 2027 04:31:49.018            70.674            RioGallegos          8834.250
       311   09 Jun 2027 04:33:56.222   09 Jun 2027 04:35:09.337            73.115            RioGallegos          9139.375
       312   09 Jun 2027 04:59:09.831   09 Jun 2027 05:00:25.730            75.899                Sumatra          9487.375
       313   09 Jun 2027 05:06:54.350   09 Jun 2027 05:08:49.151           114.801                Sumatra         14350.125
       314   09 Jun 2027 05:21:44.331   09 Jun 2027 05:24:05.675           141.344                Irkutsk         17668.000
       315   09 Jun 2027 05:25:22.257   09 Jun 2027 05:27:00.469            98.212                Novosib         12276.500
       316   09 Jun 2027 06:43:34.138   09 Jun 2027 06:46:15.852           161.714                  Delhi         20214.250
       317   09 Jun 2027 06:59:22.665   09 Jun 2027 06:59:59.005            36.340                Novosib          4542.500
       318   09 Jun 2027 07:00:10.905   09 Jun 2027 07:01:01.036            50.131              Murmansk1          6266.375
       319   09 Jun 2027 07:01:13.715   09 Jun 2027 07:01:34.564            20.849                Norilsk          2606.125
       320   09 Jun 2027 07:02:33.973   09 Jun 2027 07:02:37.538             3.565                 Moscow           445.625
       321   09 Jun 2027 07:04:00.791   09 Jun 2027 07:04:04.407             3.616                 Moscow           452.000
       322   09 Jun 2027 08:31:13.418   09 Jun 2027 08:31:31.551            18.133              Murmansk2          2266.625
       323   09 Jun 2027 08:31:39.422   09 Jun 2027 08:31:54.250            14.828              Murmansk2          1853.500
       324   09 Jun 2027 08:32:11.028   09 Jun 2027 08:32:48.487            37.459                 Moscow          4682.375
       325   09 Jun 2027 08:32:58.521   09 Jun 2027 08:34:51.118           112.597                 Moscow         14074.625
       326   09 Jun 2027 08:35:07.570   09 Jun 2027 08:35:26.934            19.364              Murmansk1          2420.500
       327   09 Jun 2027 08:35:36.936   09 Jun 2027 08:36:27.904            50.968              Murmansk1          6371.000
       328   09 Jun 2027 08:37:21.329   09 Jun 2027 08:37:48.332            27.003                 Moscow          3375.375
       329   09 Jun 2027 09:42:08.747   09 Jun 2027 09:46:11.756           243.009               CapeTown         30376.125
       330   09 Jun 2027 10:26:46.432   09 Jun 2027 10:27:30.870            44.438                Anadyr1          5554.750
       331   09 Jun 2027 11:57:49.025   09 Jun 2027 11:59:55.050           126.025                Anadyr2         15753.125
       332   09 Jun 2027 12:02:02.726   09 Jun 2027 12:05:06.033           183.307               Magadan2         22913.375
       333   09 Jun 2027 13:36:04.295   09 Jun 2027 13:36:53.382            49.087               Magadan2          6135.875
       334   09 Jun 2027 13:38:51.765   09 Jun 2027 13:40:51.292           119.527               Magadan1         14940.875
       335   09 Jun 2027 15:21:44.247   09 Jun 2027 15:25:02.679           198.432                Irkutsk         24804.000
       336   09 Jun 2027 15:32:10.782   09 Jun 2027 15:34:33.966           143.184                Sumatra         17898.000
       337   09 Jun 2027 16:52:12.463   09 Jun 2027 16:54:44.584           152.121                Novosib         19015.125
       338   09 Jun 2027 17:01:37.218   09 Jun 2027 17:01:47.214             9.996                Novosib          1249.500
       339   09 Jun 2027 17:03:13.601   09 Jun 2027 17:06:20.447           186.846                  Delhi         23355.750
       340   09 Jun 2027 18:31:51.557   09 Jun 2027 18:32:15.701            24.144                Novosib          3018.000
       341   09 Jun 2027 18:34:38.529   09 Jun 2027 18:37:13.085           154.556                  Delhi         19319.500
       342   09 Jun 2027 18:39:38.145   09 Jun 2027 18:39:59.003            20.858                  Delhi          2607.250
       343   09 Jun 2027 18:42:18.663   09 Jun 2027 18:44:11.645           112.982                  Delhi         14122.750
       344   09 Jun 2027 20:08:02.594   09 Jun 2027 20:09:54.160           111.566                 Moscow         13945.750
       345   09 Jun 2027 21:42:51.601   09 Jun 2027 21:42:54.165             2.564              Murmansk2           320.500
       346   09 Jun 2027 21:45:44.477   09 Jun 2027 21:46:03.772            19.295                 Moscow          2411.875
       347   09 Jun 2027 21:48:47.812   09 Jun 2027 21:50:22.971            95.159                 Moscow         11894.875
       348   09 Jun 2027 22:09:36.495   09 Jun 2027 22:09:59.039            22.544               CapeTown          2818.000
       349   09 Jun 2027 22:14:16.360   09 Jun 2027 22:14:39.273            22.913               CapeTown          2864.125
       350   10 Jun 2027 03:37:40.023   10 Jun 2027 03:40:26.135           166.112                Sumatra         20764.000
       351   10 Jun 2027 03:42:59.343   10 Jun 2027 03:46:15.018           195.675                Sumatra         24459.375
       352   10 Jun 2027 04:07:43.958   10 Jun 2027 04:08:00.603            16.645              Murmansk2          2080.625
       353   10 Jun 2027 04:09:08.742   10 Jun 2027 04:09:28.775            20.033              Murmansk1          2504.125
       354   10 Jun 2027 04:36:50.700   10 Jun 2027 04:37:44.406            53.706            RioGallegos          6713.250
       355   10 Jun 2027 04:41:30.648   10 Jun 2027 04:42:08.530            37.882            RioGallegos          4735.250
       356   10 Jun 2027 04:43:15.251   10 Jun 2027 04:43:24.745             9.494            RioGallegos          1186.750
       357   10 Jun 2027 04:44:40.819   10 Jun 2027 04:44:54.241            13.422            RioGallegos          1677.750
       358   10 Jun 2027 04:45:20.288   10 Jun 2027 04:46:06.285            45.997            RioGallegos          5749.625
       359   10 Jun 2027 05:11:16.442   10 Jun 2027 05:12:43.623            87.181                Sumatra         10897.625
       360   10 Jun 2027 05:20:29.961   10 Jun 2027 05:24:20.386           230.425                  Delhi         28803.125
       361   10 Jun 2027 05:35:26.464   10 Jun 2027 05:35:56.509            30.045                Norilsk          3755.625
       362   10 Jun 2027 05:35:58.175   10 Jun 2027 05:37:03.696            65.521                Irkutsk          8190.125
       363   10 Jun 2027 05:37:17.843   10 Jun 2027 05:37:33.023            15.180                Novosib          1897.500
       364   10 Jun 2027 06:55:50.927   10 Jun 2027 06:58:15.069           144.142                  Delhi         18017.750
       365   10 Jun 2027 07:10:35.311   10 Jun 2027 07:11:34.984            59.673                 Moscow          7459.125
       366   10 Jun 2027 07:11:45.283   10 Jun 2027 07:12:05.782            20.499                Novosib          2562.375
       367   10 Jun 2027 07:12:09.571   10 Jun 2027 07:12:27.779            18.208              Murmansk1          2276.000
       368   10 Jun 2027 07:12:32.465   10 Jun 2027 07:12:32.803             0.338                Norilsk            42.250
       369   10 Jun 2027 07:12:45.047   10 Jun 2027 07:14:26.922           101.875                Novosib         12734.375
       370   10 Jun 2027 08:46:15.769   10 Jun 2027 08:49:47.552           211.783              Murmansk1         26472.875
       371   10 Jun 2027 08:50:06.511   10 Jun 2027 08:50:18.151            11.640                 Moscow          1455.000
       372   10 Jun 2027 09:53:51.356   10 Jun 2027 09:58:09.374           258.018               CapeTown         32252.250
       373   10 Jun 2027 10:34:09.627   10 Jun 2027 10:35:54.545           104.918                Anadyr1         13114.750
       374   10 Jun 2027 10:38:39.505   10 Jun 2027 10:38:49.382             9.877                Anadyr1          1234.625
       375   10 Jun 2027 12:09:49.846   10 Jun 2027 12:11:36.962           107.116                Anadyr2         13389.500
       376   10 Jun 2027 12:12:51.886   10 Jun 2027 12:13:49.250            57.364               Magadan1          7170.500
       377   10 Jun 2027 12:13:49.250   10 Jun 2027 12:15:55.403           126.153               Magadan2         15769.125
       378   10 Jun 2027 12:16:26.018   10 Jun 2027 12:17:11.715            45.697               Magadan1          5712.125
       379   10 Jun 2027 13:48:03.746   10 Jun 2027 13:51:04.065           180.319               Magadan2         22539.875
       380   10 Jun 2027 15:28:31.583   10 Jun 2027 15:30:12.330           100.747                Irkutsk         12593.375
       381   10 Jun 2027 15:32:19.691   10 Jun 2027 15:34:38.511           138.820                Irkutsk         17352.500
       382   10 Jun 2027 15:43:14.615   10 Jun 2027 15:46:19.916           185.301                Sumatra         23162.625
       383   10 Jun 2027 15:49:06.404   10 Jun 2027 15:52:16.561           190.157                Sumatra         23769.625
       384   10 Jun 2027 17:06:46.623   10 Jun 2027 17:08:22.751            96.128                Novosib         12016.000
       385   10 Jun 2027 17:13:32.241   10 Jun 2027 17:16:07.512           155.271                  Delhi         19408.875
       386   10 Jun 2027 18:47:29.926   10 Jun 2027 18:48:28.754            58.828                  Delhi          7353.500
       387   10 Jun 2027 20:17:24.011   10 Jun 2027 20:21:06.721           222.710                 Moscow         27838.750
       388   10 Jun 2027 22:16:42.608   10 Jun 2027 22:16:48.304             5.696               CapeTown           712.000
       389   10 Jun 2027 22:19:17.396   10 Jun 2027 22:19:54.590            37.194               CapeTown          4649.250
       390   10 Jun 2027 22:24:12.705   10 Jun 2027 22:24:39.713            27.008               CapeTown          3376.000
       391   11 Jun 2027 03:48:53.230   11 Jun 2027 03:52:15.222           201.992                Sumatra         25249.000
       392   11 Jun 2027 04:13:06.004   11 Jun 2027 04:13:30.867            24.863                Novosib          3107.875
       393   11 Jun 2027 04:17:07.073   11 Jun 2027 04:18:13.381            66.308                Norilsk          8288.500
       394   11 Jun 2027 04:49:10.630   11 Jun 2027 04:50:28.525            77.895            RioGallegos          9736.875
       395   11 Jun 2027 04:52:06.079   11 Jun 2027 04:52:15.842             9.763            RioGallegos          1220.375
       396   11 Jun 2027 04:56:08.923   11 Jun 2027 04:56:22.103            13.180            RioGallegos          1647.500
       397   11 Jun 2027 05:23:29.131   11 Jun 2027 05:24:14.209            45.078                Sumatra          5634.750
       398   11 Jun 2027 05:25:46.923   11 Jun 2027 05:28:03.095           136.172                Sumatra         17021.500
       399   11 Jun 2027 05:34:19.074   11 Jun 2027 05:38:05.869           226.795                  Delhi         28349.375
       400   11 Jun 2027 05:46:34.624   11 Jun 2027 05:46:54.146            19.522                Novosib          2440.250
       401   11 Jun 2027 05:47:36.819   11 Jun 2027 05:48:08.017            31.198                Irkutsk          3899.750
       402   11 Jun 2027 05:48:18.845   11 Jun 2027 05:49:42.835            83.990                Novosib         10498.750
       403   11 Jun 2027 07:10:01.538   11 Jun 2027 07:10:40.767            39.229                  Delhi          4903.625
       404   11 Jun 2027 07:23:04.524   11 Jun 2027 07:24:09.647            65.123              Murmansk1          8140.375
       405   11 Jun 2027 07:24:31.146   11 Jun 2027 07:25:35.563            64.417                Novosib          8052.125
       406   11 Jun 2027 08:58:55.130   11 Jun 2027 08:59:06.236            11.106                 Moscow          1388.250
       407   11 Jun 2027 08:59:07.030   11 Jun 2027 08:59:08.049             1.019              Murmansk2           127.375
       408   11 Jun 2027 08:59:30.875   11 Jun 2027 09:00:52.985            82.110              Murmansk1         10263.750
       409   11 Jun 2027 09:00:59.576   11 Jun 2027 09:01:38.374            38.798              Murmansk2          4849.750
       410   11 Jun 2027 09:12:09.178   11 Jun 2027 09:13:00.074            50.896                Anadyr1          6362.000
       411   11 Jun 2027 10:05:38.858   11 Jun 2027 10:07:59.468           140.610               CapeTown         17576.250
       412   11 Jun 2027 10:10:09.814   11 Jun 2027 10:11:14.628            64.814               CapeTown          8101.750
       413   11 Jun 2027 10:46:06.819   11 Jun 2027 10:47:05.235            58.416                Anadyr2          7302.000
       414   11 Jun 2027 10:50:29.693   11 Jun 2027 10:50:49.255            19.562                Anadyr1          2445.250
       415   11 Jun 2027 10:53:17.144   11 Jun 2027 10:55:39.757           142.613                Anadyr1         17826.625
       416   11 Jun 2027 12:24:42.115   11 Jun 2027 12:25:30.153            48.038               Magadan1          6004.750
       417   11 Jun 2027 12:25:30.153   11 Jun 2027 12:29:08.736           218.583               Magadan2         27322.875
       418   11 Jun 2027 14:00:03.758   11 Jun 2027 14:01:34.181            90.423               Magadan2         11302.875
       419   11 Jun 2027 14:57:09.231   11 Jun 2027 15:01:07.280           238.049            RioGallegos         29756.125
       420   11 Jun 2027 15:54:35.066   11 Jun 2027 15:58:11.987           216.921                Sumatra         27115.125
       421   11 Jun 2027 16:01:15.810   11 Jun 2027 16:02:31.452            75.642                Sumatra          9455.250
       422   11 Jun 2027 17:15:51.590   11 Jun 2027 17:16:54.094            62.504                Novosib          7813.000
       423   11 Jun 2027 17:19:47.292   11 Jun 2027 17:20:20.274            32.982                Novosib          4122.750
       424   11 Jun 2027 17:24:39.299   11 Jun 2027 17:27:54.040           194.741                  Delhi         24342.625
       425   11 Jun 2027 18:58:38.984   11 Jun 2027 18:58:57.429            18.445                  Delhi          2305.625
       426   11 Jun 2027 19:01:53.718   11 Jun 2027 19:03:37.461           103.743                  Delhi         12967.875
       427   11 Jun 2027 20:29:16.844   11 Jun 2027 20:31:57.552           160.708                 Moscow         20088.500
       428   11 Jun 2027 22:08:08.100   11 Jun 2027 22:09:42.146            94.046                 Moscow         11755.750
       429   11 Jun 2027 22:28:49.515   11 Jun 2027 22:29:57.518            68.003               CapeTown          8500.375
       430   12 Jun 2027 04:00:19.603   12 Jun 2027 04:01:28.734            69.131                Sumatra          8641.375
       431   12 Jun 2027 04:03:05.044   12 Jun 2027 04:04:10.171            65.127                Sumatra          8140.875
       432   12 Jun 2027 04:07:18.305   12 Jun 2027 04:07:40.393            22.088                Sumatra          2761.000
       433   12 Jun 2027 04:25:17.840   12 Jun 2027 04:25:39.320            21.480                Norilsk          2685.000
       434   12 Jun 2027 04:27:18.291   12 Jun 2027 04:27:49.334            31.043                Norilsk          3880.375
       435   12 Jun 2027 05:01:35.348   12 Jun 2027 05:02:08.775            33.427            RioGallegos          4178.375
       436   12 Jun 2027 05:04:13.063   12 Jun 2027 05:04:33.476            20.413            RioGallegos          2551.625
       437   12 Jun 2027 05:35:48.796   12 Jun 2027 05:35:53.238             4.442                Sumatra           555.250
       438   12 Jun 2027 05:37:43.709   12 Jun 2027 05:39:35.659           111.950                Sumatra         13993.750
       439   12 Jun 2027 05:43:50.445   12 Jun 2027 05:48:24.119           273.674                  Delhi         34209.250
       440   12 Jun 2027 06:00:23.196   12 Jun 2027 06:01:50.066            86.870                Novosib         10858.750
       441   12 Jun 2027 07:22:47.542   12 Jun 2027 07:22:54.625             7.083                  Delhi           885.375
       442   12 Jun 2027 07:35:02.928   12 Jun 2027 07:36:07.465            64.537              Murmansk1          8067.125
       443   12 Jun 2027 07:36:27.147   12 Jun 2027 07:37:16.830            49.683                Norilsk          6210.375
       444   12 Jun 2027 09:23:28.342   12 Jun 2027 09:25:10.591           102.249                Anadyr2         12781.125
       445   12 Jun 2027 10:17:30.329   12 Jun 2027 10:20:17.225           166.896               CapeTown         20862.000
       446   12 Jun 2027 10:58:04.919   12 Jun 2027 10:59:05.344            60.425                Anadyr2          7553.125
       447   12 Jun 2027 10:59:31.412   12 Jun 2027 11:02:15.431           164.019                Anadyr1         20502.375
       448   12 Jun 2027 11:05:32.425   12 Jun 2027 11:06:00.125            27.700                Anadyr2          3462.500
       449   12 Jun 2027 12:36:34.771   12 Jun 2027 12:40:15.509           220.738               Magadan2         27592.250
       450   12 Jun 2027 12:40:51.156   12 Jun 2027 12:41:58.879            67.723               Magadan2          8465.375
       451   12 Jun 2027 12:45:55.589   12 Jun 2027 12:46:04.768             9.179               Magadan1          1147.375
       452   12 Jun 2027 14:17:45.145   12 Jun 2027 14:17:57.462            12.317               Magadan1          1539.625
       453   12 Jun 2027 14:21:39.445   12 Jun 2027 14:22:04.760            25.315               Magadan2          3164.375
       454   12 Jun 2027 15:04:42.918   12 Jun 2027 15:08:44.254           241.336            RioGallegos         30167.000
       455   12 Jun 2027 15:55:39.227   12 Jun 2027 15:56:27.893            48.666                Irkutsk          6083.250
       456   12 Jun 2027 16:06:06.453   12 Jun 2027 16:10:08.457           242.004                Sumatra         30250.500
       457   12 Jun 2027 17:27:44.838   12 Jun 2027 17:29:22.533            97.695                Novosib         12211.875
       458   12 Jun 2027 17:36:03.702   12 Jun 2027 17:39:45.058           221.356                  Delhi         27669.500
       459   12 Jun 2027 19:10:44.166   12 Jun 2027 19:11:35.574            51.408                  Delhi          6426.000
       460   12 Jun 2027 19:12:59.202   12 Jun 2027 19:13:42.640            43.438                  Delhi          5429.750
       461   12 Jun 2027 20:38:58.673   12 Jun 2027 20:39:12.187            13.514              Murmansk1          1689.250
       462   12 Jun 2027 20:41:11.508   12 Jun 2027 20:45:49.026           277.518                 Moscow         34689.750
       463   12 Jun 2027 22:43:46.725   12 Jun 2027 22:45:35.046           108.321               CapeTown         13540.125
       464   13 Jun 2027 04:11:55.362   13 Jun 2027 04:16:10.730           255.368                Sumatra         31921.000
       465   13 Jun 2027 04:36:58.038   13 Jun 2027 04:37:17.255            19.217              Murmansk2          2402.125
       466   13 Jun 2027 04:37:27.798   13 Jun 2027 04:37:45.800            18.002                Norilsk          2250.250
       467   13 Jun 2027 04:37:58.412   13 Jun 2027 04:38:37.101            38.689                Novosib          4836.125
       468   13 Jun 2027 05:48:17.117   13 Jun 2027 05:50:25.901           128.784                Sumatra         16098.000
       469   13 Jun 2027 05:55:39.438   13 Jun 2027 05:58:39.440           180.002                  Delhi         22500.250
       470   13 Jun 2027 06:11:51.671   13 Jun 2027 06:12:27.635            35.964                Norilsk          4495.500
       471   13 Jun 2027 06:12:28.763   13 Jun 2027 06:12:34.824             6.061                 Moscow           757.625
       472   13 Jun 2027 06:12:43.957   13 Jun 2027 06:13:15.480            31.523              Murmansk2          3940.375
       473   13 Jun 2027 06:13:51.679   13 Jun 2027 06:14:38.097            46.418                 Moscow          5802.250
       474   13 Jun 2027 07:33:31.551   13 Jun 2027 07:34:10.984            39.433                  Delhi          4929.125
       475   13 Jun 2027 07:39:41.935   13 Jun 2027 07:41:14.230            92.295                  Delhi         11536.875
       476   13 Jun 2027 07:47:14.636   13 Jun 2027 07:47:29.106            14.470                Norilsk          1808.750
       477   13 Jun 2027 07:47:38.382   13 Jun 2027 07:48:31.052            52.670                Norilsk          6583.750
       478   13 Jun 2027 07:48:33.008   13 Jun 2027 07:48:51.009            18.001                Norilsk          2250.125
       479   13 Jun 2027 07:49:01.744   13 Jun 2027 07:49:48.141            46.397              Murmansk1          5799.625
       480   13 Jun 2027 08:57:39.396   13 Jun 2027 08:59:11.355            91.959               CapeTown         11494.875
       481   13 Jun 2027 10:29:25.170   13 Jun 2027 10:31:51.708           146.538               CapeTown         18317.250
       482   13 Jun 2027 11:10:03.740   13 Jun 2027 11:10:52.700            48.960                Anadyr2          6120.000
