uniorb/output/strategy_1/Drop/Drop_KinoSat_111902.txt

KinoSat_111902
-------------------------
    Access    *     Start Time (UTCG)     *     Stop Time (UTCG)  *   Duration (s)        *       Station  *  Data (Mbytes)
         1   01 Jun 2027 03:31:39.081   01 Jun 2027 03:32:01.655            22.574                Norilsk           705.437
         2   01 Jun 2027 03:32:26.875   01 Jun 2027 03:38:37.592           370.717                Norilsk         11584.906
         3   01 Jun 2027 03:38:42.536   01 Jun 2027 03:39:41.163            58.627                Irkutsk          1832.094
         4   01 Jun 2027 03:39:46.803   01 Jun 2027 03:39:57.736            10.933                Irkutsk           341.656
         5   01 Jun 2027 04:20:29.094   01 Jun 2027 04:22:21.053           111.959            RioGallegos          3498.719
         6   01 Jun 2027 05:10:16.616   01 Jun 2027 05:11:05.331            48.715                Norilsk          1522.344
         7   01 Jun 2027 05:11:10.040   01 Jun 2027 05:13:16.677           126.637                Norilsk          3957.406
         8   01 Jun 2027 05:13:21.184   01 Jun 2027 05:13:50.645            29.461                Norilsk           920.656
         9   01 Jun 2027 05:13:56.376   01 Jun 2027 05:14:38.962            42.586                 Moscow          1330.812
        10   01 Jun 2027 05:14:53.571   01 Jun 2027 05:15:11.946            18.375              Murmansk1           574.219
        11   01 Jun 2027 05:15:25.687   01 Jun 2027 05:15:54.450            28.763                Novosib           898.844
        12   01 Jun 2027 05:16:29.061   01 Jun 2027 05:17:50.073            81.012                 Moscow          2531.625
        13   01 Jun 2027 05:31:58.136   01 Jun 2027 05:35:02.067           183.931               CapeTown          5747.844
        14   01 Jun 2027 05:37:50.922   01 Jun 2027 05:38:35.022            44.100               CapeTown          1378.125
        15   01 Jun 2027 06:47:37.307   01 Jun 2027 06:48:38.296            60.989                 Moscow          1905.906
        16   01 Jun 2027 06:48:45.139   01 Jun 2027 06:50:23.524            98.385              Murmansk1          3074.531
        17   01 Jun 2027 07:07:15.206   01 Jun 2027 07:12:10.208           295.002               CapeTown          9218.812
        18   01 Jun 2027 08:12:07.964   01 Jun 2027 08:12:35.055            27.091                Anadyr1           846.594
        19   01 Jun 2027 08:12:35.055   01 Jun 2027 08:13:38.579            63.524                Anadyr2          1985.125
        20   01 Jun 2027 08:14:29.263   01 Jun 2027 08:15:31.178            61.915                Anadyr2          1934.844
        21   01 Jun 2027 08:15:31.178   01 Jun 2027 08:16:30.985            59.807                Anadyr1          1868.969
        22   01 Jun 2027 09:46:08.220   01 Jun 2027 09:49:20.026           191.806                Anadyr2          5993.937
        23   01 Jun 2027 09:49:20.026   01 Jun 2027 09:52:06.065           166.039                Anadyr1          5188.719
        24   01 Jun 2027 11:21:18.093   01 Jun 2027 11:23:23.992           125.899               Magadan1          3934.344
        25   01 Jun 2027 11:23:56.460   01 Jun 2027 11:27:08.572           192.112               Magadan1          6003.500
        26   01 Jun 2027 16:09:25.114   01 Jun 2027 16:12:46.021           200.907                Novosib          6278.344
        27   01 Jun 2027 19:22:55.752   01 Jun 2027 19:26:52.175           236.423                 Moscow          7388.219
        28   01 Jun 2027 19:28:00.453   01 Jun 2027 19:28:42.026            41.573                 Moscow          1299.156
        29   01 Jun 2027 20:32:38.387   01 Jun 2027 20:33:59.994            81.607               CapeTown          2550.219
        30   01 Jun 2027 20:36:08.771   01 Jun 2027 20:37:40.678            91.907               CapeTown          2872.094
        31   01 Jun 2027 21:06:05.071   01 Jun 2027 21:08:51.279           166.208              Murmansk2          5194.000
        32   01 Jun 2027 22:50:12.109   01 Jun 2027 22:52:44.374           152.265               Magadan1          4758.281
        33   01 Jun 2027 22:55:52.647   01 Jun 2027 22:56:10.323            17.676               Magadan1           552.375
        34   01 Jun 2027 23:42:24.605   01 Jun 2027 23:45:51.181           206.576            RioGallegos          6455.500
        35   01 Jun 2027 23:48:09.628   01 Jun 2027 23:48:35.584            25.956            RioGallegos           811.125
        36   02 Jun 2027 00:23:34.280   02 Jun 2027 00:24:50.710            76.430                Anadyr2          2388.437
        37   02 Jun 2027 00:25:44.154   02 Jun 2027 00:27:35.226           111.072                Norilsk          3471.000
        38   02 Jun 2027 00:27:36.671   02 Jun 2027 00:28:26.881            50.210               Magadan1          1569.063
        39   02 Jun 2027 00:28:44.109   02 Jun 2027 00:29:01.368            17.259               Magadan1           539.344
        40   02 Jun 2027 00:29:57.687   02 Jun 2027 00:31:27.440            89.753                Irkutsk          2804.781
        41   02 Jun 2027 00:32:04.155   02 Jun 2027 00:33:23.970            79.815                Novosib          2494.219
        42   02 Jun 2027 00:43:45.587   02 Jun 2027 00:46:02.800           137.213                Sumatra          4287.906
        43   02 Jun 2027 00:49:52.295   02 Jun 2027 00:50:03.788            11.493                Sumatra           359.156
        44   02 Jun 2027 01:18:47.614   02 Jun 2027 01:19:45.673            58.059            RioGallegos          1814.344
        45   02 Jun 2027 01:24:37.862   02 Jun 2027 01:25:27.732            49.870            RioGallegos          1558.438
        46   02 Jun 2027 01:29:38.031   02 Jun 2027 01:29:56.667            18.636            RioGallegos           582.375
        47   02 Jun 2027 01:58:21.184   02 Jun 2027 01:58:55.292            34.108                Anadyr1          1065.875
        48   02 Jun 2027 01:58:59.327   02 Jun 2027 01:59:08.658             9.331                Anadyr2           291.594
        49   02 Jun 2027 01:59:45.541   02 Jun 2027 02:00:38.138            52.597                Anadyr2          1643.656
        50   02 Jun 2027 02:01:41.909   02 Jun 2027 02:02:51.250            69.341                Norilsk          2166.906
        51   02 Jun 2027 02:03:20.201   02 Jun 2027 02:03:28.220             8.019               Magadan2           250.594
        52   02 Jun 2027 02:04:06.060   02 Jun 2027 02:04:41.477            35.417               Magadan2          1106.781
        53   02 Jun 2027 02:05:34.747   02 Jun 2027 02:07:50.346           135.599                Irkutsk          4237.469
        54   02 Jun 2027 02:13:34.604   02 Jun 2027 02:14:08.272            33.668                  Delhi          1052.125
        55   02 Jun 2027 02:17:45.857   02 Jun 2027 02:18:45.793            59.936                  Delhi          1873.000
        56   02 Jun 2027 02:21:02.336   02 Jun 2027 02:27:30.009           387.673                Sumatra         12114.781
        57   02 Jun 2027 03:44:35.976   02 Jun 2027 03:48:40.933           244.957              Murmansk2          7654.906
        58   02 Jun 2027 03:48:41.027   02 Jun 2027 03:50:19.711            98.684                Norilsk          3083.875
        59   02 Jun 2027 03:50:22.299   02 Jun 2027 03:51:14.105            51.806                Irkutsk          1618.937
        60   02 Jun 2027 03:54:04.252   02 Jun 2027 03:54:07.881             3.629                Novosib           113.406
        61   02 Jun 2027 03:57:34.454   02 Jun 2027 03:58:51.219            76.765                  Delhi          2398.906
        62   02 Jun 2027 05:22:23.075   02 Jun 2027 05:24:31.021           127.946              Murmansk1          3998.312
        63   02 Jun 2027 05:24:34.938   02 Jun 2027 05:27:09.201           154.263                Novosib          4820.719
        64   02 Jun 2027 05:27:17.534   02 Jun 2027 05:27:51.483            33.949              Murmansk2          1060.906
        65   02 Jun 2027 05:28:33.570   02 Jun 2027 05:31:34.611           181.041                 Moscow          5657.531
        66   02 Jun 2027 05:43:36.454   02 Jun 2027 05:49:37.546           361.092               CapeTown         11284.125
        67   02 Jun 2027 05:51:03.838   02 Jun 2027 05:51:45.093            41.255               CapeTown          1289.219
        68   02 Jun 2027 05:53:48.732   02 Jun 2027 05:54:51.638            62.906               CapeTown          1965.812
        69   02 Jun 2027 06:58:45.374   02 Jun 2027 07:00:32.993           107.619              Murmansk1          3363.094
        70   02 Jun 2027 07:00:36.811   02 Jun 2027 07:00:56.003            19.192                 Moscow           599.750
        71   02 Jun 2027 07:01:04.690   02 Jun 2027 07:02:17.008            72.318              Murmansk2          2259.938
        72   02 Jun 2027 07:02:17.008   02 Jun 2027 07:02:34.356            17.348              Murmansk1           542.125
        73   02 Jun 2027 07:02:56.794   02 Jun 2027 07:04:27.864            91.070                 Moscow          2845.938
        74   02 Jun 2027 07:19:36.919   02 Jun 2027 07:21:40.479           123.560               CapeTown          3861.250
        75   02 Jun 2027 07:24:40.945   02 Jun 2027 07:24:46.059             5.114               CapeTown           159.812
        76   02 Jun 2027 08:22:45.624   02 Jun 2027 08:24:02.113            76.489                Anadyr1          2390.281
        77   02 Jun 2027 08:24:13.715   02 Jun 2027 08:25:12.124            58.409               Magadan1          1825.281
        78   02 Jun 2027 08:25:14.426   02 Jun 2027 08:25:52.658            38.232                Anadyr1          1194.750
        79   02 Jun 2027 08:27:18.085   02 Jun 2027 08:28:31.978            73.893                Anadyr2          2309.156
        80   02 Jun 2027 09:57:58.321   02 Jun 2027 10:01:40.939           222.618                Anadyr2          6956.812
        81   02 Jun 2027 10:01:40.939   02 Jun 2027 10:04:00.572           139.633                Anadyr1          4363.531
        82   02 Jun 2027 11:32:58.956   02 Jun 2027 11:38:42.378           343.422               Magadan2         10731.938
        83   02 Jun 2027 13:53:06.299   02 Jun 2027 13:59:26.007           379.708            RioGallegos         11865.875
        84   02 Jun 2027 14:27:29.199   02 Jun 2027 14:35:21.234           472.035                Sumatra         14751.094
        85   02 Jun 2027 14:43:17.966   02 Jun 2027 14:44:11.880            53.914                Irkutsk          1684.812
        86   02 Jun 2027 14:45:12.070   02 Jun 2027 14:47:21.583           129.513                Irkutsk          4047.281
        87   02 Jun 2027 16:13:17.288   02 Jun 2027 16:17:03.867           226.579                  Delhi          7080.594
        88   02 Jun 2027 16:17:17.339   02 Jun 2027 16:19:10.056           112.717                  Delhi          3522.406
        89   02 Jun 2027 16:23:01.694   02 Jun 2027 16:27:02.108           240.414                Novosib          7512.938
        90   02 Jun 2027 19:36:33.375   02 Jun 2027 19:39:40.671           187.296                 Moscow          5853.000
        91   02 Jun 2027 19:40:26.199   02 Jun 2027 19:41:12.223            46.024              Murmansk2          1438.250
        92   02 Jun 2027 20:45:13.335   02 Jun 2027 20:48:21.330           187.995               CapeTown          5874.844
        93   02 Jun 2027 20:50:40.863   02 Jun 2027 20:52:34.784           113.921               CapeTown          3560.031
        94   03 Jun 2027 00:03:09.881   03 Jun 2027 00:03:42.326            32.445            RioGallegos          1013.906
        95   03 Jun 2027 00:05:07.896   03 Jun 2027 00:05:26.130            18.234            RioGallegos           569.812
        96   03 Jun 2027 00:35:31.010   03 Jun 2027 00:36:00.491            29.481                Anadyr1           921.281
        97   03 Jun 2027 00:36:17.729   03 Jun 2027 00:36:40.484            22.755                Anadyr2           711.094
        98   03 Jun 2027 00:36:40.484   03 Jun 2027 00:36:59.418            18.934                Anadyr1           591.687
        99   03 Jun 2027 00:37:45.268   03 Jun 2027 00:39:37.482           112.214                Norilsk          3506.687
       100   03 Jun 2027 00:40:28.038   03 Jun 2027 00:41:40.235            72.197               Magadan2          2256.156
       101   03 Jun 2027 00:41:52.639   03 Jun 2027 00:42:56.949            64.310                Irkutsk          2009.687
       102   03 Jun 2027 00:45:48.312   03 Jun 2027 00:46:20.198            31.886                Novosib           996.438
       103   03 Jun 2027 00:48:17.471   03 Jun 2027 00:49:19.065            61.594                Novosib          1924.812
       104   03 Jun 2027 00:51:24.056   03 Jun 2027 00:52:00.578            36.522                Irkutsk          1141.313
       105   03 Jun 2027 00:58:32.702   03 Jun 2027 00:59:07.917            35.215                Sumatra          1100.469
       106   03 Jun 2027 01:00:46.063   03 Jun 2027 01:01:41.128            55.065                Sumatra          1720.781
       107   03 Jun 2027 01:03:40.920   03 Jun 2027 01:05:05.617            84.697                Sumatra          2646.781
       108   03 Jun 2027 01:39:12.397   03 Jun 2027 01:39:42.095            29.698            RioGallegos           928.063
       109   03 Jun 2027 01:41:35.067   03 Jun 2027 01:42:13.344            38.277            RioGallegos          1196.156
       110   03 Jun 2027 02:10:53.756   03 Jun 2027 02:11:10.021            16.265                Anadyr1           508.281
       111   03 Jun 2027 02:11:38.020   03 Jun 2027 02:12:01.470            23.450                Anadyr2           732.812
       112   03 Jun 2027 02:12:57.231   03 Jun 2027 02:13:14.425            17.194                Anadyr2           537.312
       113   03 Jun 2027 02:13:44.374   03 Jun 2027 02:14:44.769            60.395                Norilsk          1887.344
       114   03 Jun 2027 02:15:45.012   03 Jun 2027 02:16:19.748            34.736                Norilsk          1085.500
       115   03 Jun 2027 02:17:38.334   03 Jun 2027 02:18:40.808            62.474                Irkutsk          1952.312
       116   03 Jun 2027 02:18:53.236   03 Jun 2027 02:18:56.355             3.119                Novosib            97.469
       117   03 Jun 2027 02:19:43.650   03 Jun 2027 02:19:50.061             6.411                Novosib           200.344
       118   03 Jun 2027 02:20:21.002   03 Jun 2027 02:21:20.341            59.339                Novosib          1854.344
       119   03 Jun 2027 02:25:38.125   03 Jun 2027 02:25:55.913            17.788                Irkutsk           555.875
       120   03 Jun 2027 02:27:00.103   03 Jun 2027 02:27:28.962            28.859                Irkutsk           901.844
       121   03 Jun 2027 02:29:39.855   03 Jun 2027 02:30:00.193            20.338                Irkutsk           635.563
       122   03 Jun 2027 02:32:16.189   03 Jun 2027 02:32:25.335             9.146                  Delhi           285.813
       123   03 Jun 2027 02:32:27.032   03 Jun 2027 02:34:36.408           129.376                  Delhi          4043.000
       124   03 Jun 2027 02:39:03.584   03 Jun 2027 02:39:37.115            33.531                Sumatra          1047.844
       125   03 Jun 2027 03:07:22.889   03 Jun 2027 03:08:25.887            62.998            RioGallegos          1968.688
       126   03 Jun 2027 03:09:09.403   03 Jun 2027 03:09:43.078            33.675            RioGallegos          1052.344
       127   03 Jun 2027 03:10:23.326   03 Jun 2027 03:10:32.753             9.427            RioGallegos           294.594
       128   03 Jun 2027 03:14:33.293   03 Jun 2027 03:15:00.517            27.224            RioGallegos           850.750
       129   03 Jun 2027 03:56:00.847   03 Jun 2027 03:56:15.170            14.323                Irkutsk           447.594
       130   03 Jun 2027 03:56:24.088   03 Jun 2027 03:58:39.310           135.222              Murmansk2          4225.687
       131   03 Jun 2027 03:58:39.310   03 Jun 2027 03:59:14.571            35.261              Murmansk1          1101.906
       132   03 Jun 2027 03:59:19.349   03 Jun 2027 04:00:18.290            58.941                Norilsk          1841.906
       133   03 Jun 2027 04:00:22.361   03 Jun 2027 04:02:51.803           149.442                Irkutsk          4670.063
       134   03 Jun 2027 04:03:50.174   03 Jun 2027 04:04:21.728            31.554                 Moscow           986.062
       135   03 Jun 2027 04:04:48.528   03 Jun 2027 04:05:12.559            24.031                Novosib           750.969
       136   03 Jun 2027 04:06:11.435   03 Jun 2027 04:09:25.003           193.568                  Delhi          6049.000
       137   03 Jun 2027 05:34:57.451   03 Jun 2027 05:35:52.285            54.834                 Moscow          1713.562
       138   03 Jun 2027 05:36:04.102   03 Jun 2027 05:38:13.622           129.520                 Moscow          4047.500
       139   03 Jun 2027 05:38:33.324   03 Jun 2027 05:38:56.270            22.946                Novosib           717.062
       140   03 Jun 2027 05:39:16.863   03 Jun 2027 05:43:47.150           270.287                 Moscow          8446.469
       141   03 Jun 2027 05:55:20.519   03 Jun 2027 06:01:35.865           375.346               CapeTown         11729.563
       142   03 Jun 2027 06:02:03.891   03 Jun 2027 06:02:14.160            10.269               CapeTown           320.906
       143   03 Jun 2027 06:02:46.698   03 Jun 2027 06:03:22.427            35.729               CapeTown          1116.531
       144   03 Jun 2027 06:04:45.943   03 Jun 2027 06:05:07.446            21.503               CapeTown           671.969
       145   03 Jun 2027 06:05:45.716   03 Jun 2027 06:07:15.262            89.546               CapeTown          2798.313
       146   03 Jun 2027 07:00:19.631   03 Jun 2027 07:00:44.403            24.772               Magadan2           774.125
       147   03 Jun 2027 07:02:42.944   03 Jun 2027 07:03:41.895            58.951                Anadyr1          1842.219
       148   03 Jun 2027 07:10:36.683   03 Jun 2027 07:10:59.262            22.579              Murmansk2           705.594
       149   03 Jun 2027 07:11:03.514   03 Jun 2027 07:11:28.562            25.048              Murmansk2           782.750
       150   03 Jun 2027 07:11:28.562   03 Jun 2027 07:12:20.498            51.936              Murmansk1          1623.000
       151   03 Jun 2027 07:12:43.563   03 Jun 2027 07:13:09.610            26.047                 Moscow           813.969
       152   03 Jun 2027 07:13:17.624   03 Jun 2027 07:13:46.954            29.330                 Moscow           916.562
       153   03 Jun 2027 07:16:01.644   03 Jun 2027 07:16:28.289            26.645                 Moscow           832.656
       154   03 Jun 2027 07:16:44.216   03 Jun 2027 07:17:31.083            46.867                 Moscow          1464.594
       155   03 Jun 2027 07:32:06.202   03 Jun 2027 07:36:07.941           241.739               CapeTown          7554.344
       156   03 Jun 2027 08:34:45.475   03 Jun 2027 08:38:00.350           194.875                Anadyr1          6089.844
       157   03 Jun 2027 08:38:09.228   03 Jun 2027 08:38:58.450            49.222                Anadyr2          1538.187
       158   03 Jun 2027 10:07:44.515   03 Jun 2027 10:07:47.541             3.026                Anadyr2            94.563
       159   03 Jun 2027 10:07:49.921   03 Jun 2027 10:09:05.736            75.815               Magadan2          2369.219
       160   03 Jun 2027 10:09:43.975   03 Jun 2027 10:15:52.815           368.840                Anadyr1         11526.250
       161   03 Jun 2027 11:43:11.834   03 Jun 2027 11:43:27.001            15.167               Magadan2           473.969
       162   03 Jun 2027 11:44:29.785   03 Jun 2027 11:51:00.090           390.305               Magadan1         12197.031
       163   03 Jun 2027 14:05:56.197   03 Jun 2027 14:13:49.556           473.359            RioGallegos         14792.469
       164   03 Jun 2027 14:40:48.592   03 Jun 2027 14:45:56.506           307.914                Sumatra          9622.313
       165   03 Jun 2027 14:56:44.412   03 Jun 2027 15:00:54.090           249.678                Irkutsk          7802.437
       166   03 Jun 2027 16:35:37.103   03 Jun 2027 16:37:44.033           126.930                Novosib          3966.563
       167   03 Jun 2027 16:42:00.184   03 Jun 2027 16:42:31.555            31.371                Norilsk           980.344
       168   03 Jun 2027 18:27:40.722   03 Jun 2027 18:27:45.895             5.173                Anadyr1           161.656
       169   03 Jun 2027 18:28:58.443   03 Jun 2027 18:29:14.570            16.127                Anadyr2           503.969
       170   03 Jun 2027 19:19:32.297   03 Jun 2027 19:22:05.776           153.479               CapeTown          4796.219
       171   03 Jun 2027 19:49:21.123   03 Jun 2027 19:57:29.975           488.852              Murmansk1         15276.625
       172   03 Jun 2027 19:58:00.982   03 Jun 2027 19:58:15.180            14.198              Murmansk2           443.687
       173   03 Jun 2027 20:58:06.444   03 Jun 2027 21:03:18.740           312.296               CapeTown          9759.250
       174   03 Jun 2027 21:46:50.531   03 Jun 2027 21:47:05.295            14.764               Magadan2           461.375
       175   03 Jun 2027 21:47:24.758   03 Jun 2027 21:47:32.667             7.909               Magadan1           247.156
       176   03 Jun 2027 21:50:21.260   03 Jun 2027 21:50:29.026             7.766               Magadan2           242.688
       177   03 Jun 2027 23:11:57.633   03 Jun 2027 23:15:44.512           226.879                Anadyr1          7089.969
       178   03 Jun 2027 23:15:55.972   03 Jun 2027 23:18:52.084           176.112                Norilsk          5503.500
       179   03 Jun 2027 23:19:18.022   03 Jun 2027 23:19:50.770            32.748               Magadan1          1023.375
       180   03 Jun 2027 23:20:23.154   03 Jun 2027 23:20:28.509             5.355               Magadan2           167.344
       181   03 Jun 2027 23:20:41.240   03 Jun 2027 23:21:13.823            32.583                Irkutsk          1018.219
       182   03 Jun 2027 23:21:48.544   03 Jun 2027 23:22:39.576            51.032                Irkutsk          1594.750
       183   03 Jun 2027 23:23:24.891   03 Jun 2027 23:24:31.559            66.668                Irkutsk          2083.375
       184   03 Jun 2027 23:38:05.699   03 Jun 2027 23:38:44.711            39.012                Sumatra          1219.125
       185   04 Jun 2027 00:06:06.702   04 Jun 2027 00:07:01.311            54.609            RioGallegos          1706.531
       186   04 Jun 2027 00:09:50.214   04 Jun 2027 00:10:53.095            62.881            RioGallegos          1965.031
       187   04 Jun 2027 00:13:36.328   04 Jun 2027 00:14:07.104            30.776            RioGallegos           961.750
       188   04 Jun 2027 00:16:31.163   04 Jun 2027 00:16:41.034             9.871            RioGallegos           308.469
       189   04 Jun 2027 00:47:26.833   04 Jun 2027 00:47:42.950            16.117                Anadyr1           503.656
       190   04 Jun 2027 00:47:59.425   04 Jun 2027 00:48:31.727            32.302                Anadyr2          1009.437
       191   04 Jun 2027 00:48:57.549   04 Jun 2027 00:49:44.368            46.819                Anadyr1          1463.094
       192   04 Jun 2027 00:49:46.751   04 Jun 2027 00:51:39.780           113.029                Norilsk          3532.156
       193   04 Jun 2027 00:52:01.718   04 Jun 2027 00:52:13.981            12.263               Magadan1           383.219
       194   04 Jun 2027 00:53:08.635   04 Jun 2027 00:53:31.138            22.503               Magadan1           703.219
       195   04 Jun 2027 00:53:49.243   04 Jun 2027 00:55:03.061            73.818                Irkutsk          2306.813
       196   04 Jun 2027 00:55:58.636   04 Jun 2027 00:56:23.381            24.745                Irkutsk           773.281
       197   04 Jun 2027 00:58:08.446   04 Jun 2027 00:58:30.486            22.040                Novosib           688.750
       198   04 Jun 2027 00:59:36.585   04 Jun 2027 01:00:25.383            48.798                Novosib          1524.937
       199   04 Jun 2027 01:05:02.630   04 Jun 2027 01:06:13.457            70.827                Irkutsk          2213.344
       200   04 Jun 2027 01:13:25.877   04 Jun 2027 01:14:18.438            52.561                Sumatra          1642.531
       201   04 Jun 2027 01:42:04.148   04 Jun 2027 01:42:09.117             4.969            RioGallegos           155.281
       202   04 Jun 2027 01:44:02.762   04 Jun 2027 01:44:34.859            32.097            RioGallegos          1003.031
       203   04 Jun 2027 01:47:21.752   04 Jun 2027 01:47:42.419            20.667            RioGallegos           645.844
       204   04 Jun 2027 01:49:41.464   04 Jun 2027 01:50:39.752            58.288            RioGallegos          1821.500
       205   04 Jun 2027 02:22:52.781   04 Jun 2027 02:24:15.862            83.081                Anadyr2          2596.281
       206   04 Jun 2027 02:25:55.256   04 Jun 2027 02:26:04.066             8.810                Norilsk           275.312
       207   04 Jun 2027 02:26:28.204   04 Jun 2027 02:26:49.858            21.654               Magadan2           676.688
       208   04 Jun 2027 02:26:51.087   04 Jun 2027 02:27:04.701            13.614                Norilsk           425.438
       209   04 Jun 2027 02:27:38.227   04 Jun 2027 02:28:10.160            31.933                Norilsk           997.906
       210   04 Jun 2027 02:29:39.596   04 Jun 2027 02:30:54.250            74.654                Novosib          2332.937
       211   04 Jun 2027 02:31:59.089   04 Jun 2027 02:32:23.217            24.128                Irkutsk           754.000
       212   04 Jun 2027 02:34:32.182   04 Jun 2027 02:34:48.929            16.747                Novosib           523.344
       213   04 Jun 2027 02:37:08.878   04 Jun 2027 02:38:06.306            57.428                  Delhi          1794.625
       214   04 Jun 2027 02:43:54.091   04 Jun 2027 02:43:59.733             5.642                  Delhi           176.312
       215   04 Jun 2027 02:44:51.689   04 Jun 2027 02:45:34.783            43.094                  Delhi          1346.688
       216   04 Jun 2027 02:48:06.118   04 Jun 2027 02:50:35.770           149.652                Sumatra          4676.625
       217   04 Jun 2027 03:20:27.767   04 Jun 2027 03:21:55.822            88.055            RioGallegos          2751.719
       218   04 Jun 2027 04:08:22.780   04 Jun 2027 04:09:33.235            70.455                Novosib          2201.719
       219   04 Jun 2027 04:09:45.129   04 Jun 2027 04:10:45.552            60.423              Murmansk1          1888.219
       220   04 Jun 2027 04:10:46.966   04 Jun 2027 04:13:08.815           141.849                Norilsk          4432.781
       221   04 Jun 2027 04:13:41.013   04 Jun 2027 04:16:46.268           185.255                  Delhi          5789.219
       222   04 Jun 2027 04:16:57.800   04 Jun 2027 04:17:47.733            49.933                Novosib          1560.406
       223   04 Jun 2027 04:18:57.101   04 Jun 2027 04:21:09.838           132.737                  Delhi          4148.031
       224   04 Jun 2027 04:23:31.031   04 Jun 2027 04:23:51.651            20.620                  Delhi           644.375
       225   04 Jun 2027 05:47:21.720   04 Jun 2027 05:47:41.707            19.987                Norilsk           624.594
       226   04 Jun 2027 05:47:51.556   04 Jun 2027 05:50:08.861           137.305                Novosib          4290.781
       227   04 Jun 2027 05:50:35.550   04 Jun 2027 05:52:20.410           104.860              Murmansk2          3276.875
       228   04 Jun 2027 05:52:33.610   04 Jun 2027 05:55:56.346           202.736                 Moscow          6335.500
       229   04 Jun 2027 06:07:09.923   04 Jun 2027 06:10:10.069           180.146               CapeTown          5629.562
       230   04 Jun 2027 07:11:43.137   04 Jun 2027 07:16:40.796           297.659                Anadyr2          9301.844
       231   04 Jun 2027 07:22:11.644   04 Jun 2027 07:22:37.559            25.915                Norilsk           809.844
       232   04 Jun 2027 07:22:52.461   04 Jun 2027 07:23:48.272            55.811              Murmansk1          1744.094
       233   04 Jun 2027 07:24:40.158   04 Jun 2027 07:25:30.781            50.623                 Moscow          1581.969
       234   04 Jun 2027 07:26:22.342   04 Jun 2027 07:26:52.843            30.501              Murmansk1           953.156
       235   04 Jun 2027 07:27:23.053   04 Jun 2027 07:28:14.205            51.152              Murmansk1          1598.500
       236   04 Jun 2027 07:28:29.753   04 Jun 2027 07:28:48.878            19.125                 Moscow           597.656
       237   04 Jun 2027 07:44:45.010   04 Jun 2027 07:49:26.144           281.134               CapeTown          8785.437
       238   04 Jun 2027 08:44:23.556   04 Jun 2027 08:45:04.088            40.532                Anadyr1          1266.625
       239   04 Jun 2027 08:45:20.385   04 Jun 2027 08:45:25.575             5.190               Magadan2           162.187
       240   04 Jun 2027 08:45:25.575   04 Jun 2027 08:45:48.911            23.336               Magadan1           729.250
       241   04 Jun 2027 08:46:33.988   04 Jun 2027 08:46:45.386            11.398               Magadan1           356.188
       242   04 Jun 2027 08:47:09.033   04 Jun 2027 08:48:59.334           110.301               Magadan2          3446.906
       243   04 Jun 2027 08:48:59.334   04 Jun 2027 08:50:21.304            81.970               Magadan1          2561.563
       244   04 Jun 2027 08:50:23.420   04 Jun 2027 08:50:24.622             1.202                Anadyr2            37.562
       245   04 Jun 2027 10:19:39.811   04 Jun 2027 10:20:35.710            55.899               Magadan2          1746.844
       246   04 Jun 2027 10:20:35.710   04 Jun 2027 10:22:15.096            99.386               Magadan1          3105.813
       247   04 Jun 2027 10:22:38.739   04 Jun 2027 10:24:16.750            98.011               Magadan2          3062.844
       248   04 Jun 2027 10:24:16.750   04 Jun 2027 10:25:32.943            76.193               Magadan1          2381.031
       249   04 Jun 2027 10:25:45.539   04 Jun 2027 10:26:42.771            57.232               Magadan1          1788.500
       250   04 Jun 2027 10:27:08.628   04 Jun 2027 10:27:19.625            10.997              Murmansk2           343.656
       251   04 Jun 2027 10:27:24.926   04 Jun 2027 10:27:26.264             1.338                Norilsk            41.813
       252   04 Jun 2027 10:27:27.451   04 Jun 2027 10:28:17.653            50.202                Norilsk          1568.812
       253   04 Jun 2027 11:03:22.499   04 Jun 2027 11:04:01.844            39.345            RioGallegos          1229.531
       254   04 Jun 2027 11:05:25.678   04 Jun 2027 11:05:47.094            21.416            RioGallegos           669.250
       255   04 Jun 2027 11:42:06.166   04 Jun 2027 11:42:12.544             6.378                Sumatra           199.313
       256   04 Jun 2027 11:42:29.026   04 Jun 2027 11:42:58.043            29.017                Sumatra           906.781
       257   04 Jun 2027 11:54:58.520   04 Jun 2027 11:56:08.764            70.244                Irkutsk          2195.125
       258   04 Jun 2027 11:56:28.296   04 Jun 2027 12:02:38.515           370.219               Magadan2         11569.344
       259   04 Jun 2027 13:32:38.343   04 Jun 2027 13:33:39.629            61.286                Irkutsk          1915.188
       260   04 Jun 2027 13:39:20.029   04 Jun 2027 13:39:38.901            18.872                Irkutsk           589.750
       261   04 Jun 2027 13:42:30.652   04 Jun 2027 13:43:02.178            31.526                Norilsk           985.188
       262   04 Jun 2027 14:19:00.354   04 Jun 2027 14:25:15.107           374.753            RioGallegos         11711.031
       263   04 Jun 2027 15:10:45.690   04 Jun 2027 15:12:26.112           100.422                Novosib          3138.187
       264   04 Jun 2027 16:42:07.299   04 Jun 2027 16:43:25.421            78.122                 Moscow          2441.312
       265   04 Jun 2027 16:44:21.782   04 Jun 2027 16:44:49.628            27.846                 Moscow           870.187
       266   04 Jun 2027 16:45:25.522   04 Jun 2027 16:46:02.980            37.458                 Moscow          1170.563
       267   04 Jun 2027 16:46:31.915   04 Jun 2027 16:46:51.594            19.679              Murmansk1           614.969
       268   04 Jun 2027 16:47:29.193   04 Jun 2027 16:48:10.036            40.843              Murmansk2          1276.344
       269   04 Jun 2027 16:49:34.776   04 Jun 2027 16:52:21.829           167.053                Norilsk          5220.406
       270   04 Jun 2027 16:53:20.294   04 Jun 2027 16:55:26.524           126.230                Norilsk          3944.687
       271   04 Jun 2027 18:19:30.044   04 Jun 2027 18:20:14.058            44.014                 Moscow          1375.438
       272   04 Jun 2027 18:20:59.560   04 Jun 2027 18:24:25.043           205.483                 Moscow          6421.344
       273   04 Jun 2027 18:37:11.379   04 Jun 2027 18:37:44.675            33.296                Anadyr1          1040.500
       274   04 Jun 2027 18:43:57.390   04 Jun 2027 18:44:27.700            30.310                Anadyr2           947.187
       275   04 Jun 2027 18:44:48.191   04 Jun 2027 18:45:11.284            23.093                Anadyr2           721.656
       276   04 Jun 2027 19:31:37.640   04 Jun 2027 19:33:15.376            97.736               CapeTown          3054.250
       277   04 Jun 2027 19:38:01.839   04 Jun 2027 19:40:20.906           139.067               CapeTown          4345.844
       278   04 Jun 2027 20:01:58.273   04 Jun 2027 20:03:16.747            78.474              Murmansk1          2452.312
       279   04 Jun 2027 20:03:55.861   04 Jun 2027 20:10:12.687           376.826              Murmansk2         11775.812
       280   04 Jun 2027 21:48:06.004   04 Jun 2027 21:48:34.021            28.017                Anadyr1           875.531
       281   04 Jun 2027 21:49:40.782   04 Jun 2027 21:49:53.228            12.446                Anadyr2           388.937
       282   04 Jun 2027 21:50:10.995   04 Jun 2027 21:51:15.812            64.817                Anadyr1          2025.531
       283   04 Jun 2027 21:51:30.834   04 Jun 2027 21:53:07.292            96.458               Magadan1          3014.312
       284   04 Jun 2027 21:53:07.292   04 Jun 2027 21:54:03.841            56.549               Magadan2          1767.156
       285   04 Jun 2027 21:59:25.049   04 Jun 2027 22:00:02.230            37.181               Magadan2          1161.906
       286   04 Jun 2027 22:45:46.394   04 Jun 2027 22:47:13.475            87.081            RioGallegos          2721.281
       287   04 Jun 2027 23:23:57.932   04 Jun 2027 23:26:12.074           134.142                Anadyr2          4191.938
       288   04 Jun 2027 23:26:15.241   04 Jun 2027 23:26:39.743            24.502                Anadyr2           765.687
       289   04 Jun 2027 23:26:44.711   04 Jun 2027 23:29:07.358           142.647               Magadan1          4457.719
       290   04 Jun 2027 23:29:48.203   04 Jun 2027 23:30:35.173            46.970               Magadan1          1467.812
       291   04 Jun 2027 23:31:24.985   04 Jun 2027 23:32:33.842            68.857                Irkutsk          2151.781
       292   04 Jun 2027 23:36:29.724   04 Jun 2027 23:36:46.013            16.289                Irkutsk           509.031
       293   04 Jun 2027 23:47:12.431   04 Jun 2027 23:48:32.359            79.928                Sumatra          2497.750
       294   05 Jun 2027 00:18:01.273   05 Jun 2027 00:18:48.656            47.383            RioGallegos          1480.719
       295   05 Jun 2027 00:20:03.107   05 Jun 2027 00:20:20.564            17.457            RioGallegos           545.531
       296   05 Jun 2027 00:22:51.589   05 Jun 2027 00:22:59.372             7.783            RioGallegos           243.219
       297   05 Jun 2027 00:23:27.499   05 Jun 2027 00:23:55.454            27.955            RioGallegos           873.594
       298   05 Jun 2027 00:29:24.074   05 Jun 2027 00:30:09.837            45.763            RioGallegos          1430.094
       299   05 Jun 2027 00:59:21.649   05 Jun 2027 00:59:26.179             4.530                Anadyr2           141.562
       300   05 Jun 2027 00:59:30.043   05 Jun 2027 00:59:47.012            16.969                Anadyr1           530.281
       301   05 Jun 2027 01:01:38.035   05 Jun 2027 01:02:34.620            56.585                Anadyr1          1768.281
       302   05 Jun 2027 01:02:35.356   05 Jun 2027 01:03:42.094            66.738                Norilsk          2085.562
       303   05 Jun 2027 01:04:01.984   05 Jun 2027 01:05:00.804            58.820               Magadan1          1838.125
       304   05 Jun 2027 01:05:47.225   05 Jun 2027 01:07:36.455           109.230                Irkutsk          3413.437
       305   05 Jun 2027 01:08:15.791   05 Jun 2027 01:08:43.298            27.507                Novosib           859.594
       306   05 Jun 2027 01:10:23.109   05 Jun 2027 01:10:49.416            26.307                Novosib           822.094
       307   05 Jun 2027 01:18:22.196   05 Jun 2027 01:18:27.546             5.350                Irkutsk           167.188
       308   05 Jun 2027 01:19:32.322   05 Jun 2027 01:21:29.747           117.425                Sumatra          3669.531
       309   05 Jun 2027 01:22:40.370   05 Jun 2027 01:23:48.342            67.972                Sumatra          2124.125
       310   05 Jun 2027 02:01:49.992   05 Jun 2027 02:02:11.497            21.505            RioGallegos           672.031
       311   05 Jun 2027 02:03:00.261   05 Jun 2027 02:03:25.063            24.802            RioGallegos           775.062
       312   05 Jun 2027 02:34:52.299   05 Jun 2027 02:35:12.755            20.456                Anadyr1           639.250
       313   05 Jun 2027 02:36:06.714   05 Jun 2027 02:36:14.168             7.454                Anadyr2           232.938
       314   05 Jun 2027 02:37:49.252   05 Jun 2027 02:39:32.411           103.159                Norilsk          3223.719
       315   05 Jun 2027 02:40:59.082   05 Jun 2027 02:41:12.783            13.701                Norilsk           428.156
       316   05 Jun 2027 02:41:32.195   05 Jun 2027 02:42:08.282            36.087              Murmansk1          1127.719
       317   05 Jun 2027 02:42:55.933   05 Jun 2027 02:44:03.586            67.653                Novosib          2114.156
       318   05 Jun 2027 02:44:12.804   05 Jun 2027 02:45:30.644            77.840                Irkutsk          2432.500
       319   05 Jun 2027 02:52:03.269   05 Jun 2027 02:52:49.491            46.222                  Delhi          1444.438
       320   05 Jun 2027 02:59:20.291   05 Jun 2027 03:01:17.932           117.641                  Delhi          3676.281
       321   05 Jun 2027 03:30:38.355   05 Jun 2027 03:31:00.114            21.759            RioGallegos           679.969
       322   05 Jun 2027 03:32:13.593   05 Jun 2027 03:32:53.814            40.221            RioGallegos          1256.906
       323   05 Jun 2027 04:21:11.116   05 Jun 2027 04:21:24.972            13.856              Murmansk2           433.000
       324   05 Jun 2027 04:21:34.072   05 Jun 2027 04:22:14.695            40.623              Murmansk1          1269.469
       325   05 Jun 2027 04:22:27.707   05 Jun 2027 04:22:46.881            19.174                Norilsk           599.187
       326   05 Jun 2027 04:22:48.985   05 Jun 2027 04:25:27.010           158.025                Irkutsk          4938.281
       327   05 Jun 2027 04:25:34.981   05 Jun 2027 04:26:21.777            46.796              Murmansk2          1462.375
       328   05 Jun 2027 04:26:23.894   05 Jun 2027 04:31:08.127           284.233                  Delhi          8882.281
       329   05 Jun 2027 05:59:35.513   05 Jun 2027 06:00:04.663            29.150                Norilsk           910.938
       330   05 Jun 2027 06:00:07.609   05 Jun 2027 06:00:48.509            40.900              Murmansk2          1278.125
       331   05 Jun 2027 06:00:51.379   05 Jun 2027 06:01:16.173            24.794                Novosib           774.813
       332   05 Jun 2027 06:01:24.264   05 Jun 2027 06:01:45.721            21.457                Novosib           670.531
       333   05 Jun 2027 06:01:55.841   05 Jun 2027 06:02:57.421            61.580              Murmansk2          1924.375
       334   05 Jun 2027 06:03:22.971   05 Jun 2027 06:04:31.975            69.004              Murmansk2          2156.375
       335   05 Jun 2027 06:04:42.593   05 Jun 2027 06:05:22.431            39.838                 Moscow          1244.937
       336   05 Jun 2027 07:22:58.293   05 Jun 2027 07:23:55.121            56.828                Anadyr1          1775.875
       337   05 Jun 2027 07:26:24.669   05 Jun 2027 07:26:31.419             6.750               Magadan2           210.937
       338   05 Jun 2027 08:58:06.028   05 Jun 2027 08:58:08.602             2.574                Anadyr1            80.437
       339   05 Jun 2027 08:58:35.634   05 Jun 2027 08:59:18.042            42.408               Magadan2          1325.250
       340   05 Jun 2027 08:59:18.042   05 Jun 2027 09:00:06.317            48.275               Magadan1          1508.594
       341   05 Jun 2027 09:00:22.676   05 Jun 2027 09:00:34.932            12.256               Magadan2           383.000
       342   05 Jun 2027 09:00:41.436   05 Jun 2027 09:02:19.212            97.776                Anadyr1          3055.500
       343   05 Jun 2027 09:02:21.900   05 Jun 2027 09:02:33.809            11.909               Magadan2           372.156
       344   05 Jun 2027 09:12:07.368   05 Jun 2027 09:12:28.311            20.943                 Moscow           654.469
       345   05 Jun 2027 10:30:31.732   05 Jun 2027 10:31:25.985            54.253               Magadan2          1695.406
       346   05 Jun 2027 10:32:15.953   05 Jun 2027 10:32:29.946            13.993                Irkutsk           437.281
       347   05 Jun 2027 10:33:03.085   05 Jun 2027 10:34:11.151            68.066               Magadan1          2127.063
       348   05 Jun 2027 10:34:55.862   05 Jun 2027 10:38:22.189           206.327                Anadyr1          6447.719
       349   05 Jun 2027 10:38:22.189   05 Jun 2027 10:39:25.554            63.365                Anadyr2          1980.156
       350   05 Jun 2027 10:39:52.969   05 Jun 2027 10:40:15.599            22.630                Novosib           707.188
       351   05 Jun 2027 10:40:24.734   05 Jun 2027 10:40:41.953            17.219              Murmansk1           538.094
       352   05 Jun 2027 11:15:09.293   05 Jun 2027 11:15:37.055            27.762            RioGallegos           867.562
       353   05 Jun 2027 11:16:08.605   05 Jun 2027 11:16:08.967             0.362            RioGallegos            11.312
       354   05 Jun 2027 11:17:19.515   05 Jun 2027 11:17:52.866            33.351            RioGallegos          1042.219
       355   05 Jun 2027 11:52:33.374   05 Jun 2027 11:54:24.486           111.112                Sumatra          3472.250
       356   05 Jun 2027 12:05:25.717   05 Jun 2027 12:05:33.188             7.471                Irkutsk           233.469
       357   05 Jun 2027 12:06:17.922   05 Jun 2027 12:06:35.556            17.634                Novosib           551.062
       358   05 Jun 2027 12:08:25.445   05 Jun 2027 12:09:10.670            45.225                Irkutsk          1413.281
       359   05 Jun 2027 12:09:19.220   05 Jun 2027 12:14:04.170           284.950               Magadan1          8904.688
       360   05 Jun 2027 13:29:59.368   05 Jun 2027 13:31:14.821            75.453                Sumatra          2357.906
       361   05 Jun 2027 13:40:09.036   05 Jun 2027 13:40:39.896            30.860                Irkutsk           964.375
       362   05 Jun 2027 13:41:34.184   05 Jun 2027 13:42:03.509            29.325                Irkutsk           916.406
       363   05 Jun 2027 13:45:15.514   05 Jun 2027 13:47:54.306           158.792                Irkutsk          4962.250
       364   05 Jun 2027 14:32:35.083   05 Jun 2027 14:35:52.544           197.461            RioGallegos          6170.656
       365   05 Jun 2027 15:18:05.585   05 Jun 2027 15:18:56.474            50.889                Novosib          1590.281
       366   05 Jun 2027 15:19:27.756   05 Jun 2027 15:22:51.791           204.035                Novosib          6376.094
       367   05 Jun 2027 16:54:08.595   05 Jun 2027 16:55:24.050            75.455                 Moscow          2357.969
       368   05 Jun 2027 16:57:38.091   05 Jun 2027 16:58:30.467            52.376              Murmansk1          1636.750
       369   05 Jun 2027 17:00:25.815   05 Jun 2027 17:00:41.193            15.378              Murmansk2           480.563
       370   05 Jun 2027 17:02:20.780   05 Jun 2027 17:06:45.281           264.501                Norilsk          8265.656
       371   05 Jun 2027 18:32:00.575   05 Jun 2027 18:33:22.897            82.322                 Moscow          2572.562
       372   05 Jun 2027 18:34:57.286   05 Jun 2027 18:36:55.870           118.584              Murmansk1          3705.750
       373   05 Jun 2027 18:38:52.104   05 Jun 2027 18:38:55.438             3.334              Murmansk2           104.187
       374   05 Jun 2027 18:42:35.905   05 Jun 2027 18:44:30.867           114.962              Murmansk1          3592.563
       375   05 Jun 2027 19:43:45.901   05 Jun 2027 19:46:26.419           160.518               CapeTown          5016.188
       376   05 Jun 2027 20:14:39.091   05 Jun 2027 20:20:42.330           363.239              Murmansk1         11351.219
       377   05 Jun 2027 22:00:07.824   05 Jun 2027 22:03:35.405           207.581                Anadyr2          6486.906
       378   05 Jun 2027 22:03:46.659   05 Jun 2027 22:06:31.472           164.813               Magadan1          5150.406
       379   05 Jun 2027 22:06:45.584   05 Jun 2027 22:07:00.839            15.255               Magadan1           476.719
       380   05 Jun 2027 22:07:25.750   05 Jun 2027 22:07:47.829            22.079               Magadan1           689.969
       381   05 Jun 2027 22:10:29.713   05 Jun 2027 22:10:37.606             7.893               Magadan2           246.656
       382   05 Jun 2027 22:11:19.997   05 Jun 2027 22:11:27.809             7.812               Magadan1           244.125
       383   05 Jun 2027 22:56:19.576   05 Jun 2027 22:58:51.302           151.726            RioGallegos          4741.437
       384   05 Jun 2027 23:01:09.691   05 Jun 2027 23:01:53.969            44.278            RioGallegos          1383.688
       385   05 Jun 2027 23:35:57.806   05 Jun 2027 23:37:35.489            97.683                Anadyr1          3052.594
       386   05 Jun 2027 23:37:48.725   05 Jun 2027 23:37:59.055            10.330                Anadyr1           322.812
       387   05 Jun 2027 23:38:03.662   05 Jun 2027 23:39:30.971            87.309                Norilsk          2728.406
       388   05 Jun 2027 23:40:00.985   05 Jun 2027 23:40:42.868            41.883               Magadan1          1308.844
       389   05 Jun 2027 23:42:21.503   05 Jun 2027 23:43:17.255            55.752               Magadan1          1742.250
       390   05 Jun 2027 23:44:49.597   05 Jun 2027 23:45:19.065            29.468                Irkutsk           920.875
       391   05 Jun 2027 23:46:33.694   05 Jun 2027 23:47:10.476            36.782                Irkutsk          1149.437
       392   05 Jun 2027 23:48:20.174   05 Jun 2027 23:49:34.169            73.995                Irkutsk          2312.344
       393   05 Jun 2027 23:58:02.426   06 Jun 2027 00:00:00.668           118.242                Sumatra          3695.063
       394   06 Jun 2027 00:39:00.923   06 Jun 2027 00:39:29.140            28.217            RioGallegos           881.781
       395   06 Jun 2027 01:11:15.375   06 Jun 2027 01:12:06.237            50.862                Anadyr1          1589.437
       396   06 Jun 2027 01:12:18.925   06 Jun 2027 01:12:55.488            36.563                Anadyr2          1142.594
       397   06 Jun 2027 01:13:50.534   06 Jun 2027 01:14:29.941            39.407                Norilsk          1231.469
       398   06 Jun 2027 01:14:42.537   06 Jun 2027 01:15:44.387            61.850                Norilsk          1932.812
       399   06 Jun 2027 01:15:52.102   06 Jun 2027 01:16:14.678            22.576               Magadan1           705.500
       400   06 Jun 2027 01:16:14.678   06 Jun 2027 01:17:42.853            88.175               Magadan2          2755.469
       401   06 Jun 2027 01:17:46.409   06 Jun 2027 01:19:00.220            73.811                Irkutsk          2306.594
       402   06 Jun 2027 01:25:26.603   06 Jun 2027 01:25:26.630             0.027                Irkutsk             0.844
       403   06 Jun 2027 01:26:35.289   06 Jun 2027 01:26:54.346            19.057                Novosib           595.531
       404   06 Jun 2027 01:28:30.759   06 Jun 2027 01:28:57.515            26.756                  Delhi           836.125
       405   06 Jun 2027 01:30:06.724   06 Jun 2027 01:30:13.336             6.612                  Delhi           206.625
       406   06 Jun 2027 01:31:39.460   06 Jun 2027 01:34:35.617           176.157                Sumatra          5504.906
       407   06 Jun 2027 02:15:09.079   06 Jun 2027 02:15:30.535            21.456            RioGallegos           670.500
       408   06 Jun 2027 02:17:00.356   06 Jun 2027 02:17:27.824            27.468            RioGallegos           858.375
       409   06 Jun 2027 02:47:58.841   06 Jun 2027 02:48:02.687             3.846                Anadyr1           120.188
       410   06 Jun 2027 02:48:26.748   06 Jun 2027 02:49:05.419            38.671                Anadyr2          1208.469
       411   06 Jun 2027 02:49:51.622   06 Jun 2027 02:50:59.373            67.751                Norilsk          2117.219
       412   06 Jun 2027 02:52:44.821   06 Jun 2027 02:53:40.276            55.455              Murmansk1          1732.969
       413   06 Jun 2027 02:53:41.575   06 Jun 2027 02:54:52.244            70.669                Novosib          2208.406
       414   06 Jun 2027 02:55:36.185   06 Jun 2027 02:56:05.134            28.949                Irkutsk           904.656
       415   06 Jun 2027 02:56:38.229   06 Jun 2027 02:56:38.376             0.147                Irkutsk             4.594
       416   06 Jun 2027 02:57:08.233   06 Jun 2027 02:57:59.338            51.105                Irkutsk          1597.031
       417   06 Jun 2027 03:00:29.206   06 Jun 2027 03:02:11.026           101.820                Novosib          3181.875
       418   06 Jun 2027 03:02:12.804   06 Jun 2027 03:03:01.809            49.005                Irkutsk          1531.406
       419   06 Jun 2027 03:06:15.749   06 Jun 2027 03:07:53.527            97.778                  Delhi          3055.563
       420   06 Jun 2027 03:42:55.693   06 Jun 2027 03:43:43.438            47.745            RioGallegos          1492.031
       421   06 Jun 2027 04:33:36.091   06 Jun 2027 04:33:39.673             3.582              Murmansk1           111.938
       422   06 Jun 2027 04:33:42.655   06 Jun 2027 04:36:34.079           171.424                Irkutsk          5357.000
       423   06 Jun 2027 04:36:43.881   06 Jun 2027 04:37:37.202            53.321                Novosib          1666.281
       424   06 Jun 2027 04:38:46.588   06 Jun 2027 04:43:30.061           283.473                  Delhi          8858.531
       425   06 Jun 2027 06:12:45.675   06 Jun 2027 06:16:41.699           236.024              Murmansk2          7375.750
       426   06 Jun 2027 06:16:46.394   06 Jun 2027 06:17:20.291            33.897                 Moscow          1059.281
       427   06 Jun 2027 06:31:04.003   06 Jun 2027 06:31:52.778            48.775               CapeTown          1524.219
       428   06 Jun 2027 07:35:10.489   06 Jun 2027 07:35:25.373            14.884               Magadan1           465.125
       429   06 Jun 2027 07:35:25.373   06 Jun 2027 07:36:18.586            53.213               Magadan2          1662.906
       430   06 Jun 2027 07:36:33.388   06 Jun 2027 07:36:48.798            15.410                Anadyr2           481.562
       431   06 Jun 2027 07:37:24.385   06 Jun 2027 07:38:46.273            81.888                Anadyr2          2559.000
       432   06 Jun 2027 07:39:44.087   06 Jun 2027 07:40:44.410            60.323                Anadyr1          1885.094
       433   06 Jun 2027 08:10:52.478   06 Jun 2027 08:14:38.923           226.445               CapeTown          7076.406
       434   06 Jun 2027 09:10:34.433   06 Jun 2027 09:12:03.033            88.600               Magadan2          2768.750
       435   06 Jun 2027 09:12:13.434   06 Jun 2027 09:12:57.080            43.646                Anadyr2          1363.937
       436   06 Jun 2027 09:12:57.080   06 Jun 2027 09:14:13.269            76.189                Anadyr1          2380.906
       437   06 Jun 2027 09:57:23.976   06 Jun 2027 09:57:32.596             8.620            RioGallegos           269.375
       438   06 Jun 2027 10:43:06.445   06 Jun 2027 10:43:36.675            30.230               Magadan1           944.687
       439   06 Jun 2027 10:44:17.824   06 Jun 2027 10:46:37.462           139.638               Magadan1          4363.687
       440   06 Jun 2027 10:46:55.136   06 Jun 2027 10:48:16.162            81.026               Magadan1          2532.062
       441   06 Jun 2027 10:48:16.162   06 Jun 2027 10:49:26.827            70.665               Magadan2          2208.281
       442   06 Jun 2027 10:50:18.537   06 Jun 2027 10:50:59.403            40.866                Anadyr1          1277.062
       443   06 Jun 2027 10:51:01.301   06 Jun 2027 10:51:09.843             8.542              Murmansk1           266.938
       444   06 Jun 2027 10:51:09.843   06 Jun 2027 10:51:22.929            13.086              Murmansk2           408.938
       445   06 Jun 2027 10:51:26.224   06 Jun 2027 10:51:27.279             1.055                Norilsk            32.969
       446   06 Jun 2027 10:51:40.792   06 Jun 2027 10:52:58.476            77.684                Norilsk          2427.625
       447   06 Jun 2027 11:26:59.335   06 Jun 2027 11:28:04.984            65.649            RioGallegos          2051.531
       448   06 Jun 2027 12:03:36.959   06 Jun 2027 12:05:32.030           115.071                Sumatra          3595.969
       449   06 Jun 2027 12:15:11.714   06 Jun 2027 12:16:27.460            75.746                Irkutsk          2367.063
       450   06 Jun 2027 12:21:10.845   06 Jun 2027 12:21:29.670            18.825                Norilsk           588.281
       451   06 Jun 2027 12:23:08.837   06 Jun 2027 12:23:12.399             3.562                Norilsk           111.312
       452   06 Jun 2027 12:23:25.455   06 Jun 2027 12:23:54.966            29.511                Norilsk           922.219
       453   06 Jun 2027 12:24:23.893   06 Jun 2027 12:24:36.630            12.737               Magadan1           398.031
       454   06 Jun 2027 12:34:37.683   06 Jun 2027 12:34:45.080             7.397              Murmansk2           231.156
       455   06 Jun 2027 13:03:22.519   06 Jun 2027 13:03:27.798             5.279            RioGallegos           164.969
       456   06 Jun 2027 13:05:44.556   06 Jun 2027 13:08:14.950           150.394            RioGallegos          4699.812
       457   06 Jun 2027 13:37:45.308   06 Jun 2027 13:37:52.568             7.260                Sumatra           226.875
       458   06 Jun 2027 13:40:31.023   06 Jun 2027 13:42:28.254           117.231                Sumatra          3663.469
       459   06 Jun 2027 13:45:25.685   06 Jun 2027 13:46:23.979            58.294                Sumatra          1821.688
       460   06 Jun 2027 13:52:36.502   06 Jun 2027 13:53:43.827            67.325                Irkutsk          2103.906
       461   06 Jun 2027 13:57:14.442   06 Jun 2027 13:57:34.591            20.149                Irkutsk           629.656
       462   06 Jun 2027 14:03:17.310   06 Jun 2027 14:04:26.675            69.365                Norilsk          2167.656
       463   06 Jun 2027 15:22:24.847   06 Jun 2027 15:23:47.104            82.257                  Delhi          2570.531
       464   06 Jun 2027 15:27:29.294   06 Jun 2027 15:27:41.330            12.036                  Delhi           376.125
       465   06 Jun 2027 15:30:32.256   06 Jun 2027 15:32:20.927           108.671                  Delhi          3395.969
       466   06 Jun 2027 15:34:29.814   06 Jun 2027 15:36:58.939           149.125                Norilsk          4660.156
       467   06 Jun 2027 15:38:33.614   06 Jun 2027 15:39:13.504            39.890                Norilsk          1246.563
       468   06 Jun 2027 15:39:57.035   06 Jun 2027 15:40:47.198            50.163                Novosib          1567.594
       469   06 Jun 2027 15:43:59.636   06 Jun 2027 15:44:25.681            26.045                Norilsk           813.906
       470   06 Jun 2027 17:06:12.871   06 Jun 2027 17:06:39.849            26.978                 Moscow           843.063
       471   06 Jun 2027 17:07:48.235   06 Jun 2027 17:09:28.594           100.359                 Moscow          3136.219
       472   06 Jun 2027 17:11:04.439   06 Jun 2027 17:12:00.566            56.127              Murmansk2          1753.969
       473   06 Jun 2027 17:15:12.276   06 Jun 2027 17:19:27.993           255.717                Norilsk          7991.156
       474   06 Jun 2027 18:44:36.845   06 Jun 2027 18:47:50.627           193.782                 Moscow          6055.687
       475   06 Jun 2027 18:50:34.324   06 Jun 2027 18:51:31.770            57.446              Murmansk1          1795.188
       476   06 Jun 2027 18:52:09.973   06 Jun 2027 18:52:14.765             4.792              Murmansk2           149.750
       477   06 Jun 2027 19:01:15.737   06 Jun 2027 19:02:03.629            47.892                Anadyr2          1496.625
       478   06 Jun 2027 19:55:57.377   06 Jun 2027 19:58:10.281           132.904               CapeTown          4153.250
       479   06 Jun 2027 20:27:24.267   06 Jun 2027 20:33:34.200           369.933              Murmansk2         11560.406
       480   06 Jun 2027 22:12:09.557   06 Jun 2027 22:16:15.716           246.159                Anadyr2          7692.469
       481   06 Jun 2027 22:16:22.530   06 Jun 2027 22:19:18.922           176.392               Magadan1          5512.250
       482   06 Jun 2027 23:07:39.456   06 Jun 2027 23:10:35.256           175.800            RioGallegos          5493.750
