uniorb/output/strategy_1/Drop/Drop_KinoSat_112005.txt

KinoSat_112005
-------------------------
    Access    *     Start Time (UTCG)     *     Stop Time (UTCG)  *   Duration (s)        *       Station  *  Data (Mbytes)
         1   01 Jun 2027 03:00:01.643   01 Jun 2027 03:00:09.650             8.007                Norilsk           250.219
         2   01 Jun 2027 03:00:44.932   01 Jun 2027 03:01:52.018            67.086                Norilsk          2096.437
         3   01 Jun 2027 03:02:13.812   01 Jun 2027 03:03:48.677            94.865                Irkutsk          2964.531
         4   01 Jun 2027 03:03:51.308   01 Jun 2027 03:04:06.675            15.367                Norilsk           480.219
         5   01 Jun 2027 03:04:17.559   01 Jun 2027 03:06:17.542           119.983                  Delhi          3749.469
         6   01 Jun 2027 03:15:08.872   01 Jun 2027 03:17:50.447           161.575                Sumatra          5049.219
         7   01 Jun 2027 03:45:32.661   01 Jun 2027 03:45:37.567             4.906            RioGallegos           153.312
         8   01 Jun 2027 03:49:02.510   01 Jun 2027 03:49:25.985            23.475            RioGallegos           733.594
         9   01 Jun 2027 04:35:17.263   01 Jun 2027 04:36:48.528            91.265                Irkutsk          2852.031
        10   01 Jun 2027 04:37:19.215   01 Jun 2027 04:40:05.360           166.145                Irkutsk          5192.031
        11   01 Jun 2027 04:40:49.094   01 Jun 2027 04:46:14.206           325.112                  Delhi         10159.750
        12   01 Jun 2027 06:14:50.738   01 Jun 2027 06:15:36.845            46.107              Murmansk1          1440.844
        13   01 Jun 2027 06:15:52.386   01 Jun 2027 06:16:32.459            40.073                Norilsk          1252.281
        14   01 Jun 2027 06:16:33.877   01 Jun 2027 06:19:28.685           174.808              Murmansk2          5462.750
        15   01 Jun 2027 06:21:57.066   01 Jun 2027 06:22:32.041            34.975                 Moscow          1092.969
        16   01 Jun 2027 06:34:18.673   01 Jun 2027 06:38:05.492           226.819               CapeTown          7088.094
        17   01 Jun 2027 06:41:17.514   01 Jun 2027 06:42:21.451            63.937               CapeTown          1998.031
        18   01 Jun 2027 07:38:09.367   01 Jun 2027 07:38:15.024             5.657                Anadyr2           176.781
        19   01 Jun 2027 07:38:57.762   01 Jun 2027 07:39:01.379             3.617               Magadan2           113.031
        20   01 Jun 2027 07:39:01.379   01 Jun 2027 07:41:15.511           134.132               Magadan1          4191.625
        21   01 Jun 2027 07:49:26.066   01 Jun 2027 07:50:09.253            43.187              Murmansk2          1349.594
        22   01 Jun 2027 07:52:04.309   01 Jun 2027 07:52:22.800            18.491                 Moscow           577.844
        23   01 Jun 2027 07:52:55.619   01 Jun 2027 07:53:59.670            64.051                 Moscow          2001.594
        24   01 Jun 2027 07:55:57.398   01 Jun 2027 07:56:17.008            19.610                 Moscow           612.812
        25   01 Jun 2027 08:11:52.391   01 Jun 2027 08:18:54.491           422.100               CapeTown         13190.625
        26   01 Jun 2027 09:12:46.709   01 Jun 2027 09:13:12.688            25.979               Magadan2           811.844
        27   01 Jun 2027 09:13:46.674   01 Jun 2027 09:15:27.548           100.874               Magadan1          3152.313
        28   01 Jun 2027 09:15:27.548   01 Jun 2027 09:16:10.896            43.348               Magadan2          1354.625
        29   01 Jun 2027 09:16:18.630   01 Jun 2027 09:18:25.550           126.920                Anadyr2          3966.250
        30   01 Jun 2027 10:46:55.714   01 Jun 2027 10:52:53.540           357.826               Magadan1         11182.062
        31   01 Jun 2027 10:53:01.719   01 Jun 2027 10:54:20.651            78.932               Magadan1          2466.625
        32   01 Jun 2027 12:23:14.353   01 Jun 2027 12:29:48.154           393.801               Magadan1         12306.281
        33   01 Jun 2027 14:46:06.771   01 Jun 2027 14:52:25.150           378.379            RioGallegos         11824.344
        34   01 Jun 2027 17:17:50.632   01 Jun 2027 17:19:15.673            85.041                Norilsk          2657.531
        35   01 Jun 2027 18:47:27.608   01 Jun 2027 18:47:38.609            11.001                 Moscow           343.781
        36   01 Jun 2027 18:49:46.273   01 Jun 2027 18:50:33.224            46.951              Murmansk2          1467.219
        37   01 Jun 2027 19:58:46.066   01 Jun 2027 20:00:21.108            95.042               CapeTown          2970.063
        38   01 Jun 2027 20:01:45.957   01 Jun 2027 20:03:00.746            74.789               CapeTown          2337.156
        39   01 Jun 2027 20:07:30.588   01 Jun 2027 20:07:45.434            14.846               CapeTown           463.937
        40   01 Jun 2027 20:29:05.611   01 Jun 2027 20:34:50.365           344.754              Murmansk1         10773.562
        41   01 Jun 2027 20:35:01.104   01 Jun 2027 20:37:21.649           140.545              Murmansk2          4392.031
        42   01 Jun 2027 22:15:14.546   01 Jun 2027 22:15:46.052            31.506                Anadyr1           984.562
        43   01 Jun 2027 22:15:55.241   01 Jun 2027 22:16:03.913             8.672                Anadyr1           271.000
        44   01 Jun 2027 22:16:05.730   01 Jun 2027 22:16:09.278             3.548                Anadyr1           110.875
        45   01 Jun 2027 22:16:32.104   01 Jun 2027 22:17:11.505            39.401                Anadyr1          1231.281
        46   01 Jun 2027 22:17:34.708   01 Jun 2027 22:19:47.269           132.561               Magadan2          4142.531
        47   01 Jun 2027 22:19:47.269   01 Jun 2027 22:20:09.517            22.248               Magadan1           695.250
        48   01 Jun 2027 22:20:48.476   01 Jun 2027 22:21:26.198            37.722               Magadan1          1178.812
        49   01 Jun 2027 23:12:58.149   01 Jun 2027 23:14:23.790            85.641            RioGallegos          2676.281
        50   01 Jun 2027 23:51:06.620   01 Jun 2027 23:52:42.006            95.386                Anadyr2          2980.813
        51   01 Jun 2027 23:52:48.716   01 Jun 2027 23:54:01.843            73.127                Anadyr1          2285.219
        52   01 Jun 2027 23:54:07.775   01 Jun 2027 23:56:13.512           125.737               Magadan2          3929.281
        53   01 Jun 2027 23:56:35.812   01 Jun 2027 23:56:53.654            17.842               Magadan1           557.562
        54   01 Jun 2027 23:56:53.654   01 Jun 2027 23:56:56.811             3.157               Magadan2            98.656
        55   01 Jun 2027 23:57:00.879   01 Jun 2027 23:57:11.206            10.327               Magadan2           322.719
        56   01 Jun 2027 23:57:43.758   01 Jun 2027 23:58:05.450            21.692               Magadan1           677.875
        57   01 Jun 2027 23:58:31.017   01 Jun 2027 23:58:46.504            15.487               Magadan1           483.969
        58   01 Jun 2027 23:59:43.992   02 Jun 2027 00:00:35.484            51.492                Irkutsk          1609.125
        59   02 Jun 2027 00:00:59.037   02 Jun 2027 00:01:17.260            18.223                Irkutsk           569.469
        60   02 Jun 2027 00:03:47.693   02 Jun 2027 00:05:51.716           124.023                Irkutsk          3875.719
        61   02 Jun 2027 00:14:23.134   02 Jun 2027 00:15:52.293            89.159                Sumatra          2786.219
        62   02 Jun 2027 00:45:09.840   02 Jun 2027 00:45:58.458            48.618            RioGallegos          1519.312
        63   02 Jun 2027 01:26:30.584   02 Jun 2027 01:26:36.568             5.984                Anadyr2           187.000
        64   02 Jun 2027 01:26:47.245   02 Jun 2027 01:26:55.668             8.423                Anadyr2           263.219
        65   02 Jun 2027 01:27:21.585   02 Jun 2027 01:28:01.297            39.712                Anadyr2          1241.000
        66   02 Jun 2027 01:28:06.529   02 Jun 2027 01:28:19.735            13.206                Anadyr1           412.687
        67   02 Jun 2027 01:28:56.884   02 Jun 2027 01:31:00.504           123.620                Norilsk          3863.125
        68   02 Jun 2027 01:31:19.992   02 Jun 2027 01:32:45.542            85.550               Magadan1          2673.438
        69   02 Jun 2027 01:32:55.763   02 Jun 2027 01:34:18.730            82.967                Irkutsk          2592.719
        70   02 Jun 2027 01:36:21.377   02 Jun 2027 01:36:46.776            25.399                Irkutsk           793.719
        71   02 Jun 2027 01:39:01.729   02 Jun 2027 01:39:39.925            38.196                Novosib          1193.625
        72   02 Jun 2027 01:46:40.786   02 Jun 2027 01:48:32.637           111.851                Sumatra          3495.344
        73   02 Jun 2027 01:49:48.983   02 Jun 2027 01:51:02.459            73.476                Sumatra          2296.125
        74   02 Jun 2027 02:26:55.216   02 Jun 2027 02:27:15.803            20.587            RioGallegos           643.344
        75   02 Jun 2027 02:27:40.252   02 Jun 2027 02:27:51.420            11.168            RioGallegos           349.000
        76   02 Jun 2027 02:30:12.624   02 Jun 2027 02:30:33.573            20.949            RioGallegos           654.656
        77   02 Jun 2027 03:09:04.438   02 Jun 2027 03:09:28.906            24.468               Magadan1           764.625
        78   02 Jun 2027 03:09:28.906   02 Jun 2027 03:11:04.252            95.346               Magadan2          2979.563
        79   02 Jun 2027 03:12:14.750   02 Jun 2027 03:13:40.814            86.064                Norilsk          2689.500
        80   02 Jun 2027 03:14:25.595   02 Jun 2027 03:17:47.834           202.239                Norilsk          6319.969
        81   02 Jun 2027 03:17:57.006   02 Jun 2027 03:19:39.615           102.609                Irkutsk          3206.531
        82   02 Jun 2027 03:19:46.282   02 Jun 2027 03:23:43.653           237.371                  Delhi          7417.844
        83   02 Jun 2027 03:57:46.822   02 Jun 2027 04:00:12.960           146.138            RioGallegos          4566.812
        84   02 Jun 2027 04:00:48.038   02 Jun 2027 04:02:33.251           105.213            RioGallegos          3287.906
        85   02 Jun 2027 04:47:48.576   02 Jun 2027 04:48:33.241            44.665                Norilsk          1395.781
        86   02 Jun 2027 04:48:53.173   02 Jun 2027 04:51:36.435           163.262                Norilsk          5101.937
        87   02 Jun 2027 04:51:40.336   02 Jun 2027 04:51:56.351            16.015              Murmansk2           500.469
        88   02 Jun 2027 04:52:10.937   02 Jun 2027 04:52:53.729            42.792                Norilsk          1337.250
        89   02 Jun 2027 04:53:16.415   02 Jun 2027 05:01:58.429           522.014                  Delhi         16312.937
        90   02 Jun 2027 06:26:42.809   02 Jun 2027 06:27:03.508            20.699                Novosib           646.844
        91   02 Jun 2027 06:27:11.110   02 Jun 2027 06:28:06.073            54.963                 Moscow          1717.594
        92   02 Jun 2027 06:28:07.256   02 Jun 2027 06:28:34.670            27.414              Murmansk2           856.688
        93   02 Jun 2027 06:28:34.670   02 Jun 2027 06:30:13.719            99.049              Murmansk1          3095.281
        94   02 Jun 2027 06:30:25.500   02 Jun 2027 06:30:41.345            15.845              Murmansk2           495.156
        95   02 Jun 2027 06:46:13.086   02 Jun 2027 06:49:23.757           190.671               CapeTown          5958.469
        96   02 Jun 2027 07:50:23.151   02 Jun 2027 07:51:42.278            79.127               Magadan1          2472.719
        97   02 Jun 2027 08:24:44.184   02 Jun 2027 08:32:51.530           487.346               CapeTown         15229.562
        98   02 Jun 2027 09:24:49.497   02 Jun 2027 09:26:35.375           105.878               Magadan1          3308.688
        99   02 Jun 2027 09:26:40.416   02 Jun 2027 09:31:41.324           300.908                Anadyr2          9403.375
       100   02 Jun 2027 11:00:32.227   02 Jun 2027 11:06:35.109           362.882                Anadyr2         11340.062
       101   02 Jun 2027 12:30:23.291   02 Jun 2027 12:32:54.931           151.640                Irkutsk          4738.750
       102   02 Jun 2027 12:36:25.250   02 Jun 2027 12:41:14.466           289.216               Magadan1          9038.000
       103   02 Jun 2027 13:53:47.172   02 Jun 2027 13:55:47.421           120.249                Sumatra          3757.781
       104   02 Jun 2027 13:57:13.819   02 Jun 2027 13:59:06.310           112.491                Sumatra          3515.344
       105   02 Jun 2027 14:01:30.974   02 Jun 2027 14:02:25.213            54.239                Sumatra          1694.969
       106   02 Jun 2027 14:07:16.948   02 Jun 2027 14:08:03.988            47.040                Irkutsk          1470.000
       107   02 Jun 2027 14:08:56.194   02 Jun 2027 14:09:12.347            16.153                Irkutsk           504.781
       108   02 Jun 2027 14:12:30.001   02 Jun 2027 14:17:12.354           282.353                Irkutsk          8823.531
       109   02 Jun 2027 14:59:39.982   02 Jun 2027 15:03:24.871           224.889            RioGallegos          7027.781
       110   02 Jun 2027 15:45:26.356   02 Jun 2027 15:47:02.184            95.828                  Delhi          2994.625
       111   02 Jun 2027 15:50:03.672   02 Jun 2027 15:56:05.370           361.698                Novosib         11303.062
       112   02 Jun 2027 17:33:23.805   02 Jun 2027 17:34:33.397            69.592                Norilsk          2174.750
       113   02 Jun 2027 18:59:08.252   02 Jun 2027 19:00:50.719           102.467                 Moscow          3202.094
       114   02 Jun 2027 20:10:54.314   02 Jun 2027 20:11:08.246            13.932               CapeTown           435.375
       115   02 Jun 2027 20:13:35.308   02 Jun 2027 20:15:22.262           106.954               CapeTown          3342.313
       116   02 Jun 2027 20:19:07.337   02 Jun 2027 20:20:21.406            74.069               CapeTown          2314.656
       117   02 Jun 2027 20:41:46.340   02 Jun 2027 20:44:07.986           141.646              Murmansk2          4426.437
       118   02 Jun 2027 20:44:33.471   02 Jun 2027 20:49:17.720           284.249              Murmansk1          8882.781
       119   02 Jun 2027 22:29:34.438   02 Jun 2027 22:30:59.768            85.330               Magadan2          2666.563
       120   02 Jun 2027 22:31:57.519   02 Jun 2027 22:32:29.777            32.258               Magadan2          1008.062
       121   02 Jun 2027 22:32:50.436   02 Jun 2027 22:32:59.744             9.308               Magadan2           290.875
       122   02 Jun 2027 23:23:28.907   02 Jun 2027 23:24:40.901            71.994            RioGallegos          2249.813
       123   02 Jun 2027 23:25:11.508   02 Jun 2027 23:25:53.624            42.116            RioGallegos          1316.125
       124   03 Jun 2027 00:03:06.547   03 Jun 2027 00:04:37.059            90.512                Anadyr1          2828.500
       125   03 Jun 2027 00:04:40.666   03 Jun 2027 00:06:08.315            87.649                Anadyr2          2739.031
       126   03 Jun 2027 00:06:08.910   03 Jun 2027 00:06:45.341            36.431                Norilsk          1138.469
       127   03 Jun 2027 00:07:24.950   03 Jun 2027 00:08:26.135            61.185                Norilsk          1912.031
       128   03 Jun 2027 00:08:29.585   03 Jun 2027 00:08:56.281            26.696               Magadan2           834.250
       129   03 Jun 2027 00:10:09.715   03 Jun 2027 00:11:02.078            52.363                Irkutsk          1636.344
       130   03 Jun 2027 00:12:09.330   03 Jun 2027 00:12:38.734            29.404                Irkutsk           918.875
       131   03 Jun 2027 00:25:12.281   03 Jun 2027 00:27:27.955           135.674                Sumatra          4239.812
       132   03 Jun 2027 00:57:06.172   03 Jun 2027 00:58:59.975           113.803            RioGallegos          3556.344
       133   03 Jun 2027 01:38:24.372   03 Jun 2027 01:38:36.706            12.334                Anadyr2           385.438
       134   03 Jun 2027 01:39:55.524   03 Jun 2027 01:40:05.801            10.277                Anadyr1           321.156
       135   03 Jun 2027 01:40:05.801   03 Jun 2027 01:40:33.310            27.509                Anadyr2           859.656
       136   03 Jun 2027 01:40:58.931   03 Jun 2027 01:43:02.845           123.914                Norilsk          3872.312
       137   03 Jun 2027 01:43:03.328   03 Jun 2027 01:44:42.385            99.057               Magadan2          3095.531
       138   03 Jun 2027 01:44:54.958   03 Jun 2027 01:48:31.045           216.087                Irkutsk          6752.719
       139   03 Jun 2027 01:58:47.828   03 Jun 2027 02:01:44.407           176.579                Sumatra          5518.094
       140   03 Jun 2027 02:33:00.435   03 Jun 2027 02:34:37.782            97.347            RioGallegos          3042.094
       141   03 Jun 2027 03:21:22.022   03 Jun 2027 03:23:07.510           105.488               Magadan2          3296.500
       142   03 Jun 2027 03:24:02.964   03 Jun 2027 03:24:43.264            40.300                Novosib          1259.375
       143   03 Jun 2027 03:24:58.609   03 Jun 2027 03:25:17.343            18.734              Murmansk1           585.437
       144   03 Jun 2027 03:25:24.538   03 Jun 2027 03:29:26.474           241.936                Irkutsk          7560.500
       145   03 Jun 2027 03:29:45.396   03 Jun 2027 03:29:54.178             8.782                Norilsk           274.438
       146   03 Jun 2027 03:33:18.991   03 Jun 2027 03:35:05.483           106.492                  Delhi          3327.875
       147   03 Jun 2027 04:11:17.100   03 Jun 2027 04:13:01.938           104.838            RioGallegos          3276.188
       148   03 Jun 2027 04:13:22.730   03 Jun 2027 04:15:16.351           113.621            RioGallegos          3550.656
       149   03 Jun 2027 05:00:53.969   03 Jun 2027 05:01:07.139            13.170              Murmansk1           411.562
       150   03 Jun 2027 05:01:07.961   03 Jun 2027 05:01:31.924            23.963                 Moscow           748.844
       151   03 Jun 2027 05:01:33.005   03 Jun 2027 05:02:56.644            83.639                Novosib          2613.719
       152   03 Jun 2027 05:03:00.313   03 Jun 2027 05:03:43.594            43.281                Irkutsk          1352.531
       153   03 Jun 2027 05:04:00.590   03 Jun 2027 05:05:35.924            95.334                Norilsk          2979.187
       154   03 Jun 2027 05:05:54.344   03 Jun 2027 05:13:23.206           448.862                  Delhi         14026.937
       155   03 Jun 2027 06:38:48.907   03 Jun 2027 06:39:12.345            23.438                 Moscow           732.438
       156   03 Jun 2027 06:39:19.463   03 Jun 2027 06:40:04.142            44.679              Murmansk1          1396.219
       157   03 Jun 2027 06:40:12.434   03 Jun 2027 06:42:43.329           150.895                 Moscow          4715.469
       158   03 Jun 2027 06:43:54.943   03 Jun 2027 06:44:18.688            23.745                 Moscow           742.031
       159   03 Jun 2027 06:58:12.549   03 Jun 2027 07:01:26.313           193.764               CapeTown          6055.125
       160   03 Jun 2027 08:02:12.557   03 Jun 2027 08:03:52.603           100.046                Anadyr2          3126.438
       161   03 Jun 2027 08:37:58.690   03 Jun 2027 08:43:54.460           355.770               CapeTown         11117.812
       162   03 Jun 2027 09:38:09.227   03 Jun 2027 09:38:22.850            13.623                Anadyr2           425.719
       163   03 Jun 2027 09:39:27.689   03 Jun 2027 09:43:30.307           242.618               Magadan1          7581.812
       164   03 Jun 2027 11:12:49.903   03 Jun 2027 11:18:21.222           331.319               Magadan1         10353.719
       165   03 Jun 2027 11:18:21.222   03 Jun 2027 11:19:10.126            48.904               Magadan2          1528.250
       166   03 Jun 2027 12:42:20.355   03 Jun 2027 12:43:43.102            82.747                Irkutsk          2585.844
       167   03 Jun 2027 12:47:15.882   03 Jun 2027 12:47:51.630            35.748                Norilsk          1117.125
       168   03 Jun 2027 12:50:26.916   03 Jun 2027 12:51:53.040            86.124               Magadan1          2691.375
       169   03 Jun 2027 13:30:30.599   03 Jun 2027 13:30:50.527            19.928            RioGallegos           622.750
       170   03 Jun 2027 13:32:53.359   03 Jun 2027 13:35:29.985           156.626            RioGallegos          4894.562
       171   03 Jun 2027 14:04:53.629   03 Jun 2027 14:05:18.568            24.939                Sumatra           779.344
       172   03 Jun 2027 14:12:30.683   03 Jun 2027 14:14:40.391           129.708                Sumatra          4053.375
       173   03 Jun 2027 14:19:44.321   03 Jun 2027 14:21:10.784            86.463                Irkutsk          2701.969
       174   03 Jun 2027 14:24:26.070   03 Jun 2027 14:25:14.732            48.662                Irkutsk          1520.687
       175   03 Jun 2027 15:49:32.875   03 Jun 2027 15:51:19.871           106.996                  Delhi          3343.625
       176   03 Jun 2027 15:54:39.807   03 Jun 2027 15:54:57.832            18.025                  Delhi           563.281
       177   03 Jun 2027 15:56:12.129   03 Jun 2027 15:59:28.794           196.665                  Delhi          6145.781
       178   03 Jun 2027 16:01:37.662   03 Jun 2027 16:02:49.696            72.034                Norilsk          2251.062
       179   03 Jun 2027 16:03:12.036   03 Jun 2027 16:03:27.752            15.716                Novosib           491.125
       180   03 Jun 2027 16:06:26.435   03 Jun 2027 16:07:21.216            54.781                Norilsk          1711.906
       181   03 Jun 2027 16:11:33.466   03 Jun 2027 16:12:08.278            34.812                Norilsk          1087.875
       182   03 Jun 2027 17:34:37.065   03 Jun 2027 17:35:02.596            25.531                 Moscow           797.844
       183   03 Jun 2027 17:36:37.203   03 Jun 2027 17:37:37.566            60.363                 Moscow          1886.344
       184   03 Jun 2027 17:37:44.882   03 Jun 2027 17:40:01.733           136.851              Murmansk1          4276.594
       185   03 Jun 2027 17:42:19.057   03 Jun 2027 17:47:31.910           312.853                Norilsk          9776.656
       186   03 Jun 2027 19:11:44.398   03 Jun 2027 19:14:34.410           170.012                 Moscow          5312.875
       187   03 Jun 2027 19:15:01.843   03 Jun 2027 19:17:46.326           164.483                 Moscow          5140.094
       188   03 Jun 2027 20:24:33.831   03 Jun 2027 20:25:19.302            45.471               CapeTown          1420.969
       189   03 Jun 2027 20:27:28.458   03 Jun 2027 20:27:45.270            16.812               CapeTown           525.375
       190   03 Jun 2027 20:31:19.267   03 Jun 2027 20:32:51.647            92.380               CapeTown          2886.875
       191   03 Jun 2027 20:54:31.394   03 Jun 2027 21:01:11.566           400.172              Murmansk2         12505.375
       192   03 Jun 2027 22:39:18.187   03 Jun 2027 22:40:11.850            53.663                Anadyr2          1676.969
       193   03 Jun 2027 22:40:34.816   03 Jun 2027 22:40:48.181            13.365                Anadyr2           417.656
       194   03 Jun 2027 22:41:34.776   03 Jun 2027 22:43:20.744           105.968               Magadan2          3311.500
       195   03 Jun 2027 22:43:43.429   03 Jun 2027 22:44:09.283            25.854               Magadan1           807.937
       196   03 Jun 2027 22:44:41.067   03 Jun 2027 22:44:52.670            11.603               Magadan1           362.594
       197   03 Jun 2027 22:45:17.771   03 Jun 2027 22:45:41.657            23.886               Magadan1           746.437
       198   03 Jun 2027 22:46:37.266   03 Jun 2027 22:46:43.977             6.711               Magadan1           209.719
       199   03 Jun 2027 22:50:43.115   03 Jun 2027 22:51:10.227            27.112               Magadan2           847.250
       200   03 Jun 2027 23:34:48.447   03 Jun 2027 23:37:46.642           178.195            RioGallegos          5568.594
       201   03 Jun 2027 23:39:54.253   03 Jun 2027 23:40:34.988            40.735            RioGallegos          1272.969
       202   04 Jun 2027 00:15:05.990   04 Jun 2027 00:16:31.046            85.056                Anadyr1          2658.000
       203   04 Jun 2027 00:16:39.651   04 Jun 2027 00:16:40.297             0.646                Anadyr2            20.188
       204   04 Jun 2027 00:17:10.240   04 Jun 2027 00:19:04.378           114.138                Norilsk          3566.812
       205   04 Jun 2027 00:20:13.468   04 Jun 2027 00:20:43.317            29.849                Norilsk           932.781
       206   04 Jun 2027 00:20:52.584   04 Jun 2027 00:20:58.827             6.243               Magadan2           195.094
       207   04 Jun 2027 00:21:16.081   04 Jun 2027 00:21:27.004            10.923               Magadan2           341.344
       208   04 Jun 2027 00:21:52.484   04 Jun 2027 00:23:00.805            68.321                Irkutsk          2135.031
       209   04 Jun 2027 00:24:07.880   04 Jun 2027 00:26:06.450           118.570                Irkutsk          3705.313
       210   04 Jun 2027 00:36:25.073   04 Jun 2027 00:37:56.949            91.876                Sumatra          2871.125
       211   04 Jun 2027 00:43:02.673   04 Jun 2027 00:45:28.316           145.643                Sumatra          4551.344
       212   04 Jun 2027 01:50:16.968   04 Jun 2027 01:50:33.929            16.961                Anadyr2           530.031
       213   04 Jun 2027 01:50:37.627   04 Jun 2027 01:50:42.122             4.495                Anadyr2           140.469
       214   04 Jun 2027 01:51:47.609   04 Jun 2027 01:52:05.522            17.913                Anadyr2           559.781
       215   04 Jun 2027 01:52:16.506   04 Jun 2027 01:52:32.866            16.360                Anadyr2           511.250
       216   04 Jun 2027 01:53:01.143   04 Jun 2027 01:55:04.270           123.127                Norilsk          3847.719
       217   04 Jun 2027 01:56:55.212   04 Jun 2027 01:59:07.254           132.042                Irkutsk          4126.312
       218   04 Jun 2027 02:00:10.870   04 Jun 2027 02:00:49.486            38.616                Irkutsk          1206.750
       219   04 Jun 2027 02:04:57.060   04 Jun 2027 02:06:02.334            65.274                Irkutsk          2039.812
       220   04 Jun 2027 02:11:01.059   04 Jun 2027 02:13:33.846           152.787                Sumatra          4774.594
       221   04 Jun 2027 02:17:47.943   04 Jun 2027 02:20:50.692           182.749                Sumatra          5710.906
       222   04 Jun 2027 03:33:20.157   04 Jun 2027 03:33:30.883            10.726               Magadan2           335.187
       223   04 Jun 2027 03:33:51.682   04 Jun 2027 03:34:35.899            44.217               Magadan2          1381.781
       224   04 Jun 2027 03:35:27.250   04 Jun 2027 03:36:22.761            55.511                Norilsk          1734.719
       225   04 Jun 2027 03:36:32.924   04 Jun 2027 03:36:59.801            26.877              Murmansk1           839.906
       226   04 Jun 2027 03:37:08.506   04 Jun 2027 03:37:36.732            28.226                Novosib           882.062
       227   04 Jun 2027 03:37:42.125   04 Jun 2027 03:37:48.257             6.132                Norilsk           191.625
       228   04 Jun 2027 03:37:55.786   04 Jun 2027 03:38:09.509            13.723              Murmansk1           428.844
       229   04 Jun 2027 03:38:16.804   04 Jun 2027 03:41:58.948           222.144                Norilsk          6942.000
       230   04 Jun 2027 03:42:06.455   04 Jun 2027 03:44:13.554           127.099                Irkutsk          3971.844
       231   04 Jun 2027 03:45:26.304   04 Jun 2027 03:45:43.695            17.391                Novosib           543.469
       232   04 Jun 2027 03:46:53.786   04 Jun 2027 03:49:45.682           171.896                  Delhi          5371.750
       233   04 Jun 2027 04:22:26.544   04 Jun 2027 04:26:32.025           245.481            RioGallegos          7671.281
       234   04 Jun 2027 04:28:08.863   04 Jun 2027 04:28:18.210             9.347            RioGallegos           292.094
       235   04 Jun 2027 05:12:31.088   04 Jun 2027 05:12:33.299             2.211                Norilsk            69.094
       236   04 Jun 2027 05:12:41.983   04 Jun 2027 05:13:07.543            25.560                Novosib           798.750
       237   04 Jun 2027 05:13:13.968   04 Jun 2027 05:14:13.616            59.648              Murmansk1          1864.000
       238   04 Jun 2027 05:14:29.331   04 Jun 2027 05:14:37.160             7.829                Irkutsk           244.656
       239   04 Jun 2027 05:14:37.500   04 Jun 2027 05:16:23.382           105.882              Murmansk1          3308.812
       240   04 Jun 2027 05:16:26.037   04 Jun 2027 05:18:03.646            97.609                 Moscow          3050.281
       241   04 Jun 2027 05:18:53.235   04 Jun 2027 05:24:03.607           310.372                  Delhi          9699.125
       242   04 Jun 2027 06:50:49.985   04 Jun 2027 06:51:45.322            55.337                 Moscow          1729.281
       243   04 Jun 2027 06:51:59.760   04 Jun 2027 06:52:24.056            24.296              Murmansk1           759.250
       244   04 Jun 2027 06:52:35.374   04 Jun 2027 06:52:44.059             8.685              Murmansk1           271.406
       245   04 Jun 2027 06:53:04.072   04 Jun 2027 06:55:58.130           174.058              Murmansk2          5439.313
       246   04 Jun 2027 06:56:00.444   04 Jun 2027 06:57:21.621            81.177                 Moscow          2536.781
       247   04 Jun 2027 06:58:11.752   04 Jun 2027 06:58:28.394            16.642                 Moscow           520.063
       248   04 Jun 2027 07:10:17.139   04 Jun 2027 07:14:45.299           268.160               CapeTown          8380.000
       249   04 Jun 2027 08:13:15.546   04 Jun 2027 08:15:13.095           117.549                Anadyr2          3673.406
       250   04 Jun 2027 08:15:44.944   04 Jun 2027 08:15:50.495             5.551                Anadyr2           173.469
       251   04 Jun 2027 08:17:39.208   04 Jun 2027 08:18:15.460            36.252               Magadan2          1132.875
       252   04 Jun 2027 09:44:54.651   04 Jun 2027 09:48:57.166           242.515                Anadyr1          7578.594
       253   04 Jun 2027 09:49:49.862   04 Jun 2027 09:54:51.379           301.517                Anadyr1          9422.406
       254   04 Jun 2027 11:20:10.593   04 Jun 2027 11:20:57.886            47.293               Magadan2          1477.906
       255   04 Jun 2027 11:23:32.786   04 Jun 2027 11:25:10.455            97.669               Magadan2          3052.156
       256   04 Jun 2027 11:25:10.455   04 Jun 2027 11:25:27.247            16.792               Magadan1           524.750
       257   04 Jun 2027 11:26:15.439   04 Jun 2027 11:26:21.526             6.087                Novosib           190.219
       258   04 Jun 2027 11:26:24.270   04 Jun 2027 11:27:27.421            63.151                Irkutsk          1973.469
       259   04 Jun 2027 11:28:02.852   04 Jun 2027 11:28:19.324            16.472                Norilsk           514.750
       260   04 Jun 2027 11:28:24.201   04 Jun 2027 11:31:05.857           161.656               Magadan2          5051.750
       261   04 Jun 2027 12:42:06.873   04 Jun 2027 12:42:28.991            22.118                Sumatra           691.188
       262   04 Jun 2027 12:54:20.620   04 Jun 2027 12:57:41.750           201.130                Irkutsk          6285.312
       263   04 Jun 2027 12:59:15.182   04 Jun 2027 13:00:15.853            60.671                Norilsk          1895.969
       264   04 Jun 2027 13:14:06.723   04 Jun 2027 13:14:21.077            14.354              Murmansk1           448.562
       265   04 Jun 2027 13:42:53.174   04 Jun 2027 13:43:44.001            50.827            RioGallegos          1588.344
       266   04 Jun 2027 13:44:48.222   04 Jun 2027 13:48:07.542           199.320            RioGallegos          6228.750
       267   04 Jun 2027 14:17:10.257   04 Jun 2027 14:18:57.565           107.308                Sumatra          3353.375
       268   04 Jun 2027 14:32:17.425   04 Jun 2027 14:34:53.617           156.192                Irkutsk          4881.000
       269   04 Jun 2027 14:37:55.601   04 Jun 2027 14:39:07.581            71.980                Irkutsk          2249.375
       270   04 Jun 2027 14:40:36.284   04 Jun 2027 14:42:21.228           104.944                Irkutsk          3279.500
       271   04 Jun 2027 16:02:01.263   04 Jun 2027 16:08:02.178           360.915                  Delhi         11278.594
       272   04 Jun 2027 16:10:22.449   04 Jun 2027 16:12:51.619           149.170                Novosib          4661.563
       273   04 Jun 2027 16:13:25.908   04 Jun 2027 16:16:30.659           184.751                Novosib          5773.469
       274   04 Jun 2027 17:55:18.658   04 Jun 2027 17:57:17.542           118.884                Norilsk          3715.125
       275   04 Jun 2027 17:57:35.388   04 Jun 2027 17:59:16.609           101.221                Norilsk          3163.156
       276   04 Jun 2027 19:24:27.539   04 Jun 2027 19:25:48.688            81.149                 Moscow          2535.906
       277   04 Jun 2027 19:26:31.596   04 Jun 2027 19:31:07.398           275.802                 Moscow          8618.812
       278   04 Jun 2027 20:37:21.150   04 Jun 2027 20:38:33.346            72.196               CapeTown          2256.125
       279   04 Jun 2027 20:43:33.307   04 Jun 2027 20:45:10.399            97.092               CapeTown          3034.125
       280   04 Jun 2027 21:07:21.991   04 Jun 2027 21:13:01.984           339.993              Murmansk2         10624.781
       281   04 Jun 2027 22:51:19.822   04 Jun 2027 22:51:54.014            34.192                Anadyr1          1068.500
       282   04 Jun 2027 22:52:11.914   04 Jun 2027 22:52:36.192            24.278                Anadyr1           758.688
       283   04 Jun 2027 22:52:48.867   04 Jun 2027 22:53:11.195            22.328                Anadyr1           697.750
       284   04 Jun 2027 22:53:35.631   04 Jun 2027 22:55:26.876           111.245               Magadan2          3476.406
       285   04 Jun 2027 22:56:49.540   04 Jun 2027 22:57:26.812            37.272               Magadan1          1164.750
       286   04 Jun 2027 22:58:23.363   04 Jun 2027 22:59:18.338            54.975               Magadan1          1717.969
       287   04 Jun 2027 23:00:09.303   04 Jun 2027 23:00:27.634            18.331               Magadan2           572.844
       288   04 Jun 2027 23:46:22.212   04 Jun 2027 23:49:35.102           192.890            RioGallegos          6027.812
       289   04 Jun 2027 23:52:40.516   04 Jun 2027 23:53:05.327            24.811            RioGallegos           775.344
       290   04 Jun 2027 23:54:35.549   04 Jun 2027 23:55:02.462            26.913            RioGallegos           841.031
       291   05 Jun 2027 00:27:04.875   05 Jun 2027 00:28:21.309            76.434                Anadyr1          2388.563
       292   05 Jun 2027 00:29:09.572   05 Jun 2027 00:30:48.886            99.314                Norilsk          3103.563
       293   05 Jun 2027 00:31:56.311   05 Jun 2027 00:32:10.412            14.101               Magadan2           440.656
       294   05 Jun 2027 00:32:10.634   05 Jun 2027 00:32:38.747            28.113                Norilsk           878.531
       295   05 Jun 2027 00:32:54.811   05 Jun 2027 00:33:01.260             6.449               Magadan1           201.531
       296   05 Jun 2027 00:33:04.402   05 Jun 2027 00:33:18.695            14.293               Magadan1           446.656
       297   05 Jun 2027 00:33:39.821   05 Jun 2027 00:35:00.613            80.792                Irkutsk          2524.750
       298   05 Jun 2027 00:35:55.861   05 Jun 2027 00:37:11.628            75.767                Irkutsk          2367.719
       299   05 Jun 2027 00:42:23.645   05 Jun 2027 00:43:06.391            42.746                Irkutsk          1335.813
       300   05 Jun 2027 00:47:51.446   05 Jun 2027 00:48:57.276            65.830                Sumatra          2057.188
       301   05 Jun 2027 00:53:39.282   05 Jun 2027 00:54:37.078            57.796                Sumatra          1806.125
       302   05 Jun 2027 00:56:31.868   05 Jun 2027 00:57:05.992            34.124                Sumatra          1066.375
       303   05 Jun 2027 01:28:21.634   05 Jun 2027 01:28:44.400            22.766            RioGallegos           711.438
       304   05 Jun 2027 01:31:26.519   05 Jun 2027 01:31:50.550            24.031            RioGallegos           750.969
       305   05 Jun 2027 02:02:08.308   05 Jun 2027 02:02:21.206            12.898                Anadyr1           403.063
       306   05 Jun 2027 02:03:36.619   05 Jun 2027 02:04:05.620            29.001                Anadyr1           906.281
       307   05 Jun 2027 02:04:31.889   05 Jun 2027 02:04:58.514            26.625                Anadyr1           832.031
       308   05 Jun 2027 02:05:03.486   05 Jun 2027 02:06:29.902            86.416                Norilsk          2700.500
       309   05 Jun 2027 02:08:56.418   05 Jun 2027 02:11:12.243           135.825                Irkutsk          4244.531
       310   05 Jun 2027 02:12:14.686   05 Jun 2027 02:12:40.669            25.983                Irkutsk           811.969
       311   05 Jun 2027 02:15:59.318   05 Jun 2027 02:16:00.562             1.244                Irkutsk            38.875
       312   05 Jun 2027 02:17:16.594   05 Jun 2027 02:18:10.496            53.902                Irkutsk          1684.438
       313   05 Jun 2027 02:22:46.793   05 Jun 2027 02:24:06.639            79.846                  Delhi          2495.187
       314   05 Jun 2027 02:25:16.658   05 Jun 2027 02:28:54.261           217.603                Sumatra          6800.094
       315   05 Jun 2027 03:47:15.695   05 Jun 2027 03:48:02.726            47.031                Norilsk          1469.719
       316   05 Jun 2027 03:48:06.053   05 Jun 2027 03:49:01.264            55.211              Murmansk1          1725.344
       317   05 Jun 2027 03:49:14.925   05 Jun 2027 03:51:31.227           136.302                Novosib          4259.437
       318   05 Jun 2027 03:51:36.401   05 Jun 2027 03:55:49.548           253.147                Irkutsk          7910.844
       319   05 Jun 2027 03:55:51.591   05 Jun 2027 03:56:42.396            50.805                Novosib          1587.656
       320   05 Jun 2027 04:01:10.224   05 Jun 2027 04:04:46.542           216.318                  Delhi          6759.937
       321   05 Jun 2027 04:34:58.523   05 Jun 2027 04:39:15.325           256.802            RioGallegos          8025.062
       322   05 Jun 2027 05:25:11.765   05 Jun 2027 05:27:18.939           127.174              Murmansk2          3974.188
       323   05 Jun 2027 05:27:18.939   05 Jun 2027 05:27:36.657            17.718              Murmansk1           553.688
       324   05 Jun 2027 05:27:41.442   05 Jun 2027 05:28:53.431            71.989                Norilsk          2249.656
       325   05 Jun 2027 05:29:15.284   05 Jun 2027 05:32:53.746           218.462                 Moscow          6826.938
       326   05 Jun 2027 05:33:28.582   05 Jun 2027 05:34:26.451            57.869                 Moscow          1808.406
       327   05 Jun 2027 05:47:50.569   05 Jun 2027 05:48:58.230            67.661               CapeTown          2114.406
       328   05 Jun 2027 05:51:31.810   05 Jun 2027 05:52:31.010            59.200               CapeTown          1850.000
       329   05 Jun 2027 05:58:01.143   05 Jun 2027 05:58:11.714            10.571               CapeTown           330.344
       330   05 Jun 2027 07:00:48.114   05 Jun 2027 07:00:57.866             9.752                Novosib           304.750
       331   05 Jun 2027 07:03:21.124   05 Jun 2027 07:03:54.173            33.049              Murmansk2          1032.781
       332   05 Jun 2027 07:03:54.173   05 Jun 2027 07:04:19.170            24.997              Murmansk1           781.156
       333   05 Jun 2027 07:04:23.330   05 Jun 2027 07:05:01.828            38.498                 Moscow          1203.063
       334   05 Jun 2027 07:05:16.390   05 Jun 2027 07:08:26.451           190.061                 Moscow          5939.406
       335   05 Jun 2027 07:09:24.909   05 Jun 2027 07:09:49.109            24.200                 Moscow           756.250
       336   05 Jun 2027 07:22:27.072   05 Jun 2027 07:25:22.831           175.759               CapeTown          5492.469
       337   05 Jun 2027 07:28:49.323   05 Jun 2027 07:29:34.796            45.473               CapeTown          1421.031
       338   05 Jun 2027 07:31:38.964   05 Jun 2027 07:32:13.201            34.237               CapeTown          1069.906
       339   05 Jun 2027 08:25:31.573   05 Jun 2027 08:25:55.102            23.529               Magadan1           735.281
       340   05 Jun 2027 08:25:55.102   05 Jun 2027 08:26:23.625            28.523               Magadan2           891.344
       341   05 Jun 2027 08:26:31.698   05 Jun 2027 08:27:46.208            74.510               Magadan2          2328.437
       342   05 Jun 2027 08:27:47.329   05 Jun 2027 08:28:53.897            66.568                Anadyr1          2080.250
       343   05 Jun 2027 08:30:02.818   05 Jun 2027 08:31:14.349            71.531                Anadyr1          2235.344
       344   05 Jun 2027 09:58:04.173   05 Jun 2027 09:59:29.355            85.182                Anadyr2          2661.937
       345   05 Jun 2027 10:01:43.414   05 Jun 2027 10:07:23.039           339.625                Anadyr1         10613.281
       346   05 Jun 2027 11:32:40.213   05 Jun 2027 11:33:57.497            77.284               Magadan1          2415.125
       347   05 Jun 2027 11:36:41.716   05 Jun 2027 11:38:10.882            89.166               Magadan1          2786.438
       348   05 Jun 2027 11:38:14.214   05 Jun 2027 11:39:59.635           105.421               Magadan1          3294.406
       349   05 Jun 2027 11:39:59.635   05 Jun 2027 11:42:41.167           161.532               Magadan2          5047.875
       350   05 Jun 2027 12:20:00.222   05 Jun 2027 12:20:51.816            51.594            RioGallegos          1612.312
       351   05 Jun 2027 12:53:38.390   05 Jun 2027 12:54:10.733            32.343                Sumatra          1010.719
       352   05 Jun 2027 12:55:15.021   05 Jun 2027 12:55:33.359            18.338                Sumatra           573.062
       353   05 Jun 2027 13:02:56.165   05 Jun 2027 13:03:42.581            46.416                Sumatra          1450.500
       354   05 Jun 2027 13:06:24.176   05 Jun 2027 13:09:40.194           196.018                Irkutsk          6125.562
       355   05 Jun 2027 13:22:06.033   05 Jun 2027 13:22:07.792             1.759                Norilsk            54.969
       356   05 Jun 2027 13:24:12.844   05 Jun 2027 13:24:13.223             0.379                Norilsk            11.844
       357   05 Jun 2027 13:24:31.656   05 Jun 2027 13:25:00.201            28.545              Murmansk1           892.031
       358   05 Jun 2027 13:55:20.890   05 Jun 2027 13:56:54.460            93.570            RioGallegos          2924.063
       359   05 Jun 2027 13:59:59.001   05 Jun 2027 14:00:53.543            54.542            RioGallegos          1704.438
       360   05 Jun 2027 14:05:15.584   05 Jun 2027 14:05:21.193             5.609            RioGallegos           175.281
       361   05 Jun 2027 14:29:34.720   05 Jun 2027 14:35:30.389           355.669                Sumatra         11114.656
       362   05 Jun 2027 14:44:57.464   05 Jun 2027 14:51:24.689           387.225                Irkutsk         12100.781
       363   05 Jun 2027 16:14:39.617   05 Jun 2027 16:21:53.426           433.809                  Delhi         13556.531
       364   05 Jun 2027 16:24:52.520   05 Jun 2027 16:29:59.931           307.411                Novosib          9606.594
       365   05 Jun 2027 19:37:20.008   05 Jun 2027 19:44:39.574           439.566                 Moscow         13736.437
       366   05 Jun 2027 20:48:29.301   05 Jun 2027 20:49:43.929            74.628               CapeTown          2332.125
       367   05 Jun 2027 20:50:27.999   05 Jun 2027 20:53:00.597           152.598               CapeTown          4768.687
       368   05 Jun 2027 21:20:20.788   05 Jun 2027 21:24:46.295           265.507              Murmansk2          8297.094
       369   05 Jun 2027 23:03:21.292   05 Jun 2027 23:03:35.607            14.315                Anadyr1           447.344
       370   05 Jun 2027 23:03:55.657   05 Jun 2027 23:04:37.527            41.870                Anadyr2          1308.438
       371   05 Jun 2027 23:05:35.575   05 Jun 2027 23:06:02.277            26.702                Anadyr2           834.438
       372   05 Jun 2027 23:06:08.415   05 Jun 2027 23:07:17.995            69.580               Magadan1          2174.375
       373   05 Jun 2027 23:08:27.406   05 Jun 2027 23:09:07.547            40.141               Magadan2          1254.406
       374   05 Jun 2027 23:09:19.478   05 Jun 2027 23:10:00.941            41.463               Magadan2          1295.719
       375   05 Jun 2027 23:16:27.786   05 Jun 2027 23:17:43.652            75.866               Magadan1          2370.812
       376   05 Jun 2027 23:58:03.653   06 Jun 2027 00:00:14.710           131.057            RioGallegos          4095.531
       377   06 Jun 2027 00:02:56.452   06 Jun 2027 00:03:04.708             8.256            RioGallegos           258.000
       378   06 Jun 2027 00:03:38.449   06 Jun 2027 00:04:46.997            68.548            RioGallegos          2142.125
       379   06 Jun 2027 00:39:03.124   06 Jun 2027 00:40:16.163            73.039                Anadyr2          2282.469
       380   06 Jun 2027 00:41:39.209   06 Jun 2027 00:43:30.880           111.671               Magadan2          3489.719
       381   06 Jun 2027 00:44:23.146   06 Jun 2027 00:44:53.382            30.236               Magadan2           944.875
       382   06 Jun 2027 00:45:30.451   06 Jun 2027 00:47:01.398            90.947                Irkutsk          2842.094
       383   06 Jun 2027 00:49:17.526   06 Jun 2027 00:49:55.995            38.469                Novosib          1202.156
       384   06 Jun 2027 00:53:20.780   06 Jun 2027 00:54:01.321            40.541                Irkutsk          1266.906
       385   06 Jun 2027 00:59:27.440   06 Jun 2027 01:01:19.962           112.522                Sumatra          3516.313
       386   06 Jun 2027 01:06:44.701   06 Jun 2027 01:06:59.357            14.656                Sumatra           458.000
       387   06 Jun 2027 01:33:03.349   06 Jun 2027 01:33:38.447            35.098            RioGallegos          1096.813
       388   06 Jun 2027 01:40:11.016   06 Jun 2027 01:40:56.617            45.601            RioGallegos          1425.031
       389   06 Jun 2027 01:44:55.694   06 Jun 2027 01:45:04.277             8.583            RioGallegos           268.219
       390   06 Jun 2027 02:13:58.323   06 Jun 2027 02:15:20.842            82.519                Anadyr2          2578.719
       391   06 Jun 2027 02:16:58.287   06 Jun 2027 02:17:04.823             6.536                Anadyr1           204.250
       392   06 Jun 2027 02:17:05.914   06 Jun 2027 02:18:22.415            76.501                Norilsk          2390.656
       393   06 Jun 2027 02:20:58.491   06 Jun 2027 02:23:19.620           141.129                Irkutsk          4410.281
       394   06 Jun 2027 02:25:09.272   06 Jun 2027 02:26:11.776            62.504                Irkutsk          1953.250
       395   06 Jun 2027 02:33:25.475   06 Jun 2027 02:33:42.965            17.490                  Delhi           546.563
       396   06 Jun 2027 02:35:50.563   06 Jun 2027 02:42:20.671           390.108                Sumatra         12190.875
       397   06 Jun 2027 03:58:54.144   06 Jun 2027 03:58:57.848             3.704              Murmansk2           115.750
       398   06 Jun 2027 03:59:04.272   06 Jun 2027 04:01:27.533           143.261                Norilsk          4476.906
       399   06 Jun 2027 04:01:29.568   06 Jun 2027 04:03:06.601            97.033                Novosib          3032.281
       400   06 Jun 2027 04:03:10.713   06 Jun 2027 04:03:31.149            20.436                Norilsk           638.625
       401   06 Jun 2027 04:03:35.266   06 Jun 2027 04:06:00.411           145.145                Irkutsk          4535.781
       402   06 Jun 2027 04:06:18.813   06 Jun 2027 04:07:22.054            63.241                Irkutsk          1976.281
       403   06 Jun 2027 04:48:05.176   06 Jun 2027 04:49:35.491            90.315            RioGallegos          2822.344
       404   06 Jun 2027 05:38:30.309   06 Jun 2027 05:41:44.299           193.990              Murmansk2          6062.187
       405   06 Jun 2027 05:42:05.114   06 Jun 2027 05:42:23.629            18.515              Murmansk1           578.594
       406   06 Jun 2027 05:42:23.629   06 Jun 2027 05:42:51.112            27.483              Murmansk2           858.844
       407   06 Jun 2027 05:42:52.721   06 Jun 2027 05:43:18.961            26.240                Novosib           820.000
       408   06 Jun 2027 05:43:49.301   06 Jun 2027 05:46:46.120           176.819                 Moscow          5525.594
       409   06 Jun 2027 05:59:22.905   06 Jun 2027 06:03:29.309           246.404               CapeTown          7700.125
       410   06 Jun 2027 06:05:24.685   06 Jun 2027 06:05:48.611            23.926               CapeTown           747.687
       411   06 Jun 2027 06:06:52.176   06 Jun 2027 06:08:39.798           107.622               CapeTown          3363.187
       412   06 Jun 2027 07:15:22.267   06 Jun 2027 07:16:34.659            72.392              Murmansk2          2262.250
       413   06 Jun 2027 07:16:34.659   06 Jun 2027 07:16:38.723             4.064              Murmansk1           127.000
       414   06 Jun 2027 07:16:48.435   06 Jun 2027 07:17:48.207            59.772              Murmansk1          1867.875
       415   06 Jun 2027 07:18:18.143   06 Jun 2027 07:19:44.263            86.120                 Moscow          2691.250
       416   06 Jun 2027 07:21:27.714   06 Jun 2027 07:22:24.306            56.592                 Moscow          1768.500
       417   06 Jun 2027 07:34:42.796   06 Jun 2027 07:37:16.360           153.564               CapeTown          4798.875
       418   06 Jun 2027 08:37:57.806   06 Jun 2027 08:38:31.002            33.196               Magadan1          1037.375
       419   06 Jun 2027 08:39:42.781   06 Jun 2027 08:40:22.256            39.475                Anadyr1          1233.594
       420   06 Jun 2027 08:40:22.256   06 Jun 2027 08:41:05.771            43.515                Anadyr2          1359.844
       421   06 Jun 2027 08:43:04.276   06 Jun 2027 08:43:57.494            53.218                Anadyr2          1663.062
       422   06 Jun 2027 10:08:46.716   06 Jun 2027 10:09:59.168            72.452               Magadan2          2264.125
       423   06 Jun 2027 10:10:00.900   06 Jun 2027 10:11:02.201            61.301                Anadyr2          1915.656
       424   06 Jun 2027 10:11:14.062   06 Jun 2027 10:16:48.618           334.556                Anadyr1         10454.875
       425   06 Jun 2027 10:16:48.618   06 Jun 2027 10:19:32.338           163.720                Anadyr2          5116.250
       426   06 Jun 2027 11:45:24.237   06 Jun 2027 11:48:33.284           189.047               Magadan1          5907.719
       427   06 Jun 2027 11:48:45.978   06 Jun 2027 11:51:02.774           136.796               Magadan2          4274.875
       428   06 Jun 2027 11:51:18.096   06 Jun 2027 11:54:51.868           213.772               Magadan1          6680.375
       429   06 Jun 2027 13:23:17.870   06 Jun 2027 13:24:20.332            62.462                Norilsk          1951.937
       430   06 Jun 2027 13:34:06.454   06 Jun 2027 13:34:28.832            22.378                Norilsk           699.313
       431   06 Jun 2027 13:37:44.786   06 Jun 2027 13:37:50.830             6.044              Murmansk1           188.875
       432   06 Jun 2027 13:37:56.223   06 Jun 2027 13:38:27.801            31.578              Murmansk1           986.813
       433   06 Jun 2027 14:07:54.593   06 Jun 2027 14:10:53.489           178.896            RioGallegos          5590.500
       434   06 Jun 2027 14:13:05.366   06 Jun 2027 14:13:51.499            46.133            RioGallegos          1441.656
       435   06 Jun 2027 14:42:09.438   06 Jun 2027 14:50:09.570           480.132                Sumatra         15004.125
       436   06 Jun 2027 14:51:06.057   06 Jun 2027 14:51:38.395            32.338                Sumatra          1010.562
       437   06 Jun 2027 14:58:48.778   06 Jun 2027 15:05:43.622           414.844                Irkutsk         12963.875
       438   06 Jun 2027 16:27:32.155   06 Jun 2027 16:35:35.216           483.061                  Delhi         15095.656
       439   06 Jun 2027 16:36:02.291   06 Jun 2027 16:43:03.143           420.852                Novosib         13151.625
       440   06 Jun 2027 19:50:26.949   06 Jun 2027 19:56:06.021           339.072                 Moscow         10596.000
       441   06 Jun 2027 21:01:16.690   06 Jun 2027 21:06:22.982           306.292               CapeTown          9571.625
       442   06 Jun 2027 21:33:36.656   06 Jun 2027 21:35:06.701            90.045              Murmansk2          2813.906
       443   06 Jun 2027 21:35:06.701   06 Jun 2027 21:36:15.601            68.900              Murmansk1          2153.125
       444   07 Jun 2027 00:09:50.050   07 Jun 2027 00:11:08.554            78.504            RioGallegos          2453.250
       445   07 Jun 2027 00:11:18.312   07 Jun 2027 00:11:30.726            12.414            RioGallegos           387.937
       446   07 Jun 2027 00:12:56.790   07 Jun 2027 00:13:20.387            23.597            RioGallegos           737.406
       447   07 Jun 2027 00:15:25.739   07 Jun 2027 00:15:36.303            10.564            RioGallegos           330.125
       448   07 Jun 2027 00:16:13.171   07 Jun 2027 00:16:54.530            41.359            RioGallegos          1292.469
       449   07 Jun 2027 00:20:17.184   07 Jun 2027 00:20:25.146             7.962            RioGallegos           248.812
       450   07 Jun 2027 00:51:00.643   07 Jun 2027 00:51:43.835            43.192                Anadyr1          1349.750
       451   07 Jun 2027 00:52:04.073   07 Jun 2027 00:52:06.014             1.941                Anadyr2            60.656
       452   07 Jun 2027 00:52:25.344   07 Jun 2027 00:52:46.098            20.754                Anadyr2           648.563
       453   07 Jun 2027 00:53:10.421   07 Jun 2027 00:55:10.815           120.394                Norilsk          3762.312
       454   07 Jun 2027 00:55:42.647   07 Jun 2027 00:55:52.655            10.008               Magadan2           312.750
       455   07 Jun 2027 00:56:21.935   07 Jun 2027 00:57:04.711            42.776               Magadan1          1336.750
       456   07 Jun 2027 00:57:23.576   07 Jun 2027 00:58:56.764            93.188                Irkutsk          2912.125
       457   07 Jun 2027 01:00:02.552   07 Jun 2027 01:00:33.002            30.450                Novosib           951.563
       458   07 Jun 2027 01:01:06.333   07 Jun 2027 01:01:12.365             6.032                Novosib           188.500
       459   07 Jun 2027 01:02:48.702   07 Jun 2027 01:03:56.896            68.194                Irkutsk          2131.062
       460   07 Jun 2027 01:11:11.068   07 Jun 2027 01:12:03.090            52.022                Sumatra          1625.688
       461   07 Jun 2027 01:20:36.987   07 Jun 2027 01:21:27.859            50.872                Sumatra          1589.750
       462   07 Jun 2027 01:45:04.619   07 Jun 2027 01:45:14.300             9.681            RioGallegos           302.531
       463   07 Jun 2027 01:47:20.305   07 Jun 2027 01:47:22.989             2.684            RioGallegos            83.875
       464   07 Jun 2027 01:48:27.869   07 Jun 2027 01:48:39.597            11.728            RioGallegos           366.500
       465   07 Jun 2027 01:51:40.210   07 Jun 2027 01:51:54.757            14.547            RioGallegos           454.594
       466   07 Jun 2027 01:53:49.469   07 Jun 2027 01:54:18.681            29.212            RioGallegos           912.875
       467   07 Jun 2027 01:57:03.766   07 Jun 2027 01:57:38.749            34.983            RioGallegos          1093.219
       468   07 Jun 2027 02:25:46.999   07 Jun 2027 02:25:49.300             2.301                Anadyr2            71.906
       469   07 Jun 2027 02:26:23.778   07 Jun 2027 02:26:56.320            32.542                Anadyr1          1016.937
       470   07 Jun 2027 02:29:08.395   07 Jun 2027 02:30:34.195            85.800                Norilsk          2681.250
       471   07 Jun 2027 02:32:12.048   07 Jun 2027 02:32:57.086            45.038               Magadan1          1407.438
       472   07 Jun 2027 02:33:01.380   07 Jun 2027 02:35:49.632           168.252                Irkutsk          5257.875
       473   07 Jun 2027 02:45:18.446   07 Jun 2027 02:46:35.579            77.133                  Delhi          2410.406
       474   07 Jun 2027 02:48:32.083   07 Jun 2027 02:57:13.573           521.490                Sumatra         16296.563
       475   07 Jun 2027 04:10:16.370   07 Jun 2027 04:11:27.053            70.683                Irkutsk          2208.844
       476   07 Jun 2027 04:12:17.325   07 Jun 2027 04:12:39.245            21.920                Novosib           685.000
       477   07 Jun 2027 04:12:56.972   07 Jun 2027 04:13:23.841            26.869                Novosib           839.656
       478   07 Jun 2027 04:13:34.249   07 Jun 2027 04:17:32.442           238.193                Irkutsk          7443.531
       479   07 Jun 2027 04:18:22.602   07 Jun 2027 04:18:50.833            28.231                Irkutsk           882.219
       480   07 Jun 2027 04:19:37.540   07 Jun 2027 04:19:57.477            19.937                Novosib           623.031
       481   07 Jun 2027 05:50:22.519   07 Jun 2027 05:52:36.005           133.486                Novosib          4171.438
       482   07 Jun 2027 05:52:51.074   07 Jun 2027 05:53:13.878            22.804              Murmansk2           712.625
