uniorb/output/strategy_1/Drop/Drop_KinoSat_110303.txt

KinoSat_110303
-------------------------
    Access    *     Start Time (UTCG)     *     Stop Time (UTCG)  *   Duration (s)        *       Station  *  Data (Mbytes)
         1   01 Jun 2027 04:17:48.430   01 Jun 2027 04:20:03.572           135.142               Magadan1         16892.750
         2   01 Jun 2027 04:20:18.386   01 Jun 2027 04:21:35.416            77.030               Magadan1          9628.750
         3   01 Jun 2027 04:22:20.287   01 Jun 2027 04:22:27.516             7.229                Norilsk           903.625
         4   01 Jun 2027 04:22:37.954   01 Jun 2027 04:23:55.760            77.806                Norilsk          9725.750
         5   01 Jun 2027 04:24:24.191   01 Jun 2027 04:24:44.748            20.557                Norilsk          2569.625
         6   01 Jun 2027 04:24:50.438   01 Jun 2027 04:25:58.548            68.110                Norilsk          8513.750
         7   01 Jun 2027 04:57:50.993   01 Jun 2027 04:58:21.215            30.222            RioGallegos          3777.750
         8   01 Jun 2027 05:32:31.748   01 Jun 2027 05:35:13.745           161.997                Sumatra         20249.625
         9   01 Jun 2027 05:42:44.116   01 Jun 2027 05:43:01.302            17.186                  Delhi          2148.250
        10   01 Jun 2027 05:44:00.517   01 Jun 2027 05:45:51.349           110.832                  Delhi         13854.000
        11   01 Jun 2027 05:56:03.864   01 Jun 2027 05:56:38.359            34.495                Irkutsk          4311.875
        12   01 Jun 2027 05:56:49.776   01 Jun 2027 05:57:49.865            60.089                Norilsk          7511.125
        13   01 Jun 2027 05:57:54.489   01 Jun 2027 05:58:38.593            44.104                Irkutsk          5513.000
        14   01 Jun 2027 05:58:50.997   01 Jun 2027 05:59:28.088            37.091              Murmansk1          4636.375
        15   01 Jun 2027 06:39:14.630   01 Jun 2027 06:39:16.899             2.269            RioGallegos           283.625
        16   01 Jun 2027 07:16:50.419   01 Jun 2027 07:19:47.723           177.304                  Delhi         22163.000
        17   01 Jun 2027 07:33:21.775   01 Jun 2027 07:34:41.235            79.460                 Moscow          9932.500
        18   01 Jun 2027 07:35:27.512   01 Jun 2027 07:36:02.591            35.079                Novosib          4384.875
        19   01 Jun 2027 09:06:39.029   01 Jun 2027 09:07:27.504            48.475              Murmansk2          6059.375
        20   01 Jun 2027 09:07:27.504   01 Jun 2027 09:07:55.255            27.751              Murmansk1          3468.875
        21   01 Jun 2027 09:08:22.620   01 Jun 2027 09:09:26.668            64.048              Murmansk1          8006.000
        22   01 Jun 2027 09:09:27.393   01 Jun 2027 09:09:52.754            25.361                Norilsk          3170.125
        23   01 Jun 2027 09:10:09.623   01 Jun 2027 09:12:00.151           110.528                 Moscow         13816.000
        24   01 Jun 2027 10:15:44.897   01 Jun 2027 10:22:46.090           421.193               CapeTown         52649.125
        25   01 Jun 2027 10:55:39.816   01 Jun 2027 10:57:54.323           134.507                Anadyr1         16813.375
        26   01 Jun 2027 10:57:55.965   01 Jun 2027 11:00:07.921           131.956                Anadyr2         16494.500
        27   01 Jun 2027 12:35:53.492   01 Jun 2027 12:38:36.942           163.450               Magadan1         20431.250
        28   01 Jun 2027 15:05:31.220   01 Jun 2027 15:06:09.365            38.145            RioGallegos          4768.125
        29   01 Jun 2027 15:50:32.041   01 Jun 2027 15:57:53.578           441.537                Irkutsk         55192.125
        30   01 Jun 2027 16:06:19.831   01 Jun 2027 16:08:05.576           105.745                Sumatra         13218.125
        31   01 Jun 2027 17:25:54.328   01 Jun 2027 17:27:40.404           106.076                Novosib         13259.500
        32   01 Jun 2027 17:31:30.281   01 Jun 2027 17:34:21.684           171.403                Novosib         21425.375
        33   01 Jun 2027 19:08:04.090   01 Jun 2027 19:09:57.311           113.221                  Delhi         14152.625
        34   01 Jun 2027 20:39:03.670   01 Jun 2027 20:40:58.105           114.435                 Moscow          1205.250
        35   02 Jun 2027 04:34:23.336   02 Jun 2027 04:34:36.610            13.274                Norilsk          1659.250
        36   02 Jun 2027 04:34:36.719   02 Jun 2027 04:35:02.476            25.757                Irkutsk          3219.625
        37   02 Jun 2027 04:35:11.169   02 Jun 2027 04:35:30.899            19.730              Murmansk1          2466.250
        38   02 Jun 2027 04:36:09.514   02 Jun 2027 04:36:21.347            11.833                Novosib          1479.125
        39   02 Jun 2027 05:10:04.276   02 Jun 2027 05:11:18.275            73.999            RioGallegos          9249.875
        40   02 Jun 2027 05:44:35.019   02 Jun 2027 05:46:29.405           114.386                Sumatra         14298.250
        41   02 Jun 2027 05:47:39.364   02 Jun 2027 05:49:40.825           121.461                Sumatra         15182.625
        42   02 Jun 2027 06:07:36.884   02 Jun 2027 06:07:50.399            13.515                Novosib          1689.375
        43   02 Jun 2027 06:07:57.848   02 Jun 2027 06:08:38.517            40.669                Norilsk          5083.625
        44   02 Jun 2027 06:08:41.405   02 Jun 2027 06:09:13.268            31.863                Novosib          3982.875
        45   02 Jun 2027 06:09:24.602   02 Jun 2027 06:10:03.703            39.101              Murmansk1          4887.625
        46   02 Jun 2027 06:10:26.260   02 Jun 2027 06:11:05.758            39.498                Novosib          4937.250
        47   02 Jun 2027 06:11:08.923   02 Jun 2027 06:11:17.407             8.484                Norilsk          1060.500
        48   02 Jun 2027 06:11:30.006   02 Jun 2027 06:11:34.269             4.263              Murmansk2           532.875
        49   02 Jun 2027 06:12:37.486   02 Jun 2027 06:13:00.780            23.294              Murmansk1          2911.750
        50   02 Jun 2027 07:29:03.511   02 Jun 2027 07:31:43.921           160.410                  Delhi         20051.250
        51   02 Jun 2027 07:44:11.741   02 Jun 2027 07:44:16.694             4.953                Novosib           619.125
        52   02 Jun 2027 07:44:27.880   02 Jun 2027 07:45:40.141            72.261                Novosib          9032.625
        53   02 Jun 2027 07:45:57.549   02 Jun 2027 07:47:28.993            91.444                 Moscow         11430.500
        54   02 Jun 2027 09:19:56.807   02 Jun 2027 09:20:23.087            26.280              Murmansk1          3285.000
        55   02 Jun 2027 09:21:06.422   02 Jun 2027 09:24:06.634           180.212                 Moscow         22526.500
        56   02 Jun 2027 10:27:23.975   02 Jun 2027 10:33:46.439           382.464               CapeTown         47808.000
        57   02 Jun 2027 11:07:35.012   02 Jun 2027 11:12:06.852           271.840                Anadyr2         33980.000
        58   02 Jun 2027 11:14:01.517   02 Jun 2027 11:15:50.345           108.828                Anadyr1         13603.500
        59   02 Jun 2027 12:46:22.314   02 Jun 2027 12:47:22.762            60.448               Magadan1          7556.000
        60   02 Jun 2027 12:48:11.047   02 Jun 2027 12:51:53.567           222.520               Magadan2         27815.000
        61   02 Jun 2027 15:15:30.442   02 Jun 2027 15:18:27.059           176.617            RioGallegos         22077.125
        62   02 Jun 2027 16:02:06.252   02 Jun 2027 16:03:49.063           102.811                Irkutsk         12851.375
        63   02 Jun 2027 16:17:07.765   02 Jun 2027 16:19:46.536           158.771                Sumatra         19846.375
        64   02 Jun 2027 16:22:12.525   02 Jun 2027 16:24:17.276           124.751                Sumatra         15593.875
        65   02 Jun 2027 17:43:53.293   02 Jun 2027 17:46:21.224           147.931                Novosib         18491.375
        66   02 Jun 2027 17:47:42.656   02 Jun 2027 17:49:37.800           115.144                  Delhi         14393.000
        67   02 Jun 2027 20:47:07.773   02 Jun 2027 20:47:45.112            37.339              Murmansk2          4667.375
        68   02 Jun 2027 20:50:52.435   02 Jun 2027 20:51:21.743            29.308                 Moscow          3663.500
        69   02 Jun 2027 20:53:29.275   02 Jun 2027 20:55:10.356           101.081                 Moscow         12635.125
        70   02 Jun 2027 22:50:04.083   02 Jun 2027 22:50:39.338            35.255               CapeTown          4406.875
        71   03 Jun 2027 03:06:52.040   03 Jun 2027 03:07:30.638            38.598                Anadyr2          4824.750
        72   03 Jun 2027 03:07:56.113   03 Jun 2027 03:08:58.448            62.335                Anadyr2          7791.875
        73   03 Jun 2027 03:09:12.378   03 Jun 2027 03:09:53.296            40.918                Anadyr2          5114.750
        74   03 Jun 2027 03:10:15.494   03 Jun 2027 03:10:59.863            44.369               Magadan1          5546.125
        75   03 Jun 2027 03:45:59.792   03 Jun 2027 03:46:08.977             9.185            RioGallegos          1148.125
        76   03 Jun 2027 03:48:31.602   03 Jun 2027 03:50:01.006            89.404            RioGallegos         11175.500
        77   03 Jun 2027 04:22:41.599   03 Jun 2027 04:25:39.578           177.979                Sumatra         22247.375
        78   03 Jun 2027 04:42:20.713   03 Jun 2027 04:43:45.946            85.233                Irkutsk         10654.125
        79   03 Jun 2027 04:44:34.218   03 Jun 2027 04:45:08.408            34.190                Norilsk          4273.750
        80   03 Jun 2027 04:45:25.423   03 Jun 2027 04:45:45.717            20.294              Murmansk2          2536.750
        81   03 Jun 2027 04:45:55.019   03 Jun 2027 04:47:04.163            69.144                Irkutsk          8643.000
        82   03 Jun 2027 04:47:10.837   03 Jun 2027 04:47:14.211             3.374                Norilsk           421.750
        83   03 Jun 2027 04:47:16.681   03 Jun 2027 04:48:19.432            62.751                Novosib          7843.875
        84   03 Jun 2027 05:56:44.076   03 Jun 2027 05:57:57.418            73.342                Sumatra          9167.750
        85   03 Jun 2027 06:07:33.222   03 Jun 2027 06:09:36.607           123.385                  Delhi         15423.125
        86   03 Jun 2027 06:19:15.823   03 Jun 2027 06:19:34.035            18.212                 Moscow          2276.500
        87   03 Jun 2027 06:19:35.237   03 Jun 2027 06:19:53.077            17.840                Novosib          2230.000
        88   03 Jun 2027 06:20:02.639   03 Jun 2027 06:20:42.154            39.515                Norilsk          4939.375
        89   03 Jun 2027 06:20:59.840   03 Jun 2027 06:21:25.549            25.709              Murmansk1          3213.625
        90   03 Jun 2027 06:21:25.549   03 Jun 2027 06:21:55.291            29.742              Murmansk2          3717.750
        91   03 Jun 2027 06:22:04.479   03 Jun 2027 06:22:13.422             8.943                 Moscow          1117.875
        92   03 Jun 2027 06:22:21.249   03 Jun 2027 06:22:45.617            24.368                Norilsk          3046.000
        93   03 Jun 2027 06:22:55.710   03 Jun 2027 06:23:02.958             7.248              Murmansk1           906.000
        94   03 Jun 2027 06:24:17.441   03 Jun 2027 06:24:44.417            26.976                 Moscow          3372.000
        95   03 Jun 2027 07:41:23.117   03 Jun 2027 07:42:43.463            80.346                  Delhi         10043.250
        96   03 Jun 2027 07:43:33.067   03 Jun 2027 07:44:14.850            41.783                  Delhi          5222.875
        97   03 Jun 2027 07:56:13.275   03 Jun 2027 07:56:45.634            32.359                 Moscow          4044.875
        98   03 Jun 2027 07:57:01.441   03 Jun 2027 07:57:16.306            14.865                 Moscow          1858.125
        99   03 Jun 2027 07:57:26.406   03 Jun 2027 07:58:02.042            35.636              Murmansk2          4454.500
       100   03 Jun 2027 07:58:02.042   03 Jun 2027 07:58:16.559            14.517              Murmansk1          1814.625
       101   03 Jun 2027 07:58:33.963   03 Jun 2027 07:59:07.783            33.820              Murmansk1          4227.500
       102   03 Jun 2027 07:59:39.360   03 Jun 2027 07:59:45.531             6.171                Novosib           771.375
       103   03 Jun 2027 10:39:08.755   03 Jun 2027 10:45:08.160           359.405               CapeTown         44925.625
       104   03 Jun 2027 11:19:31.545   03 Jun 2027 11:21:06.785            95.240                Anadyr1         11905.000
       105   03 Jun 2027 11:22:17.997   03 Jun 2027 11:24:45.815           147.818                Anadyr2         18477.250
       106   03 Jun 2027 11:27:05.695   03 Jun 2027 11:28:54.120           108.425                Anadyr1         13553.125
       107   03 Jun 2027 12:58:10.695   03 Jun 2027 13:02:27.860           257.165               Magadan1         32145.625
       108   03 Jun 2027 15:26:46.631   03 Jun 2027 15:30:15.206           208.575            RioGallegos         26071.875
       109   03 Jun 2027 16:15:12.494   03 Jun 2027 16:17:51.603           159.109                Irkutsk         19888.625
       110   03 Jun 2027 16:28:19.622   03 Jun 2027 16:31:34.174           194.552                Sumatra         24319.000
       111   03 Jun 2027 17:52:53.012   03 Jun 2027 17:53:38.994            45.982                Novosib          5747.750
       112   03 Jun 2027 17:58:30.368   03 Jun 2027 18:01:20.415           170.047                  Delhi         21255.875
       113   03 Jun 2027 19:32:00.603   03 Jun 2027 19:32:42.060            41.457                  Delhi          5182.125
       114   03 Jun 2027 21:02:43.957   03 Jun 2027 21:05:34.966           171.009                 Moscow         21376.125
       115   03 Jun 2027 21:30:21.529   03 Jun 2027 21:31:20.469            58.940               CapeTown          7367.500
       116   04 Jun 2027 03:20:05.372   04 Jun 2027 03:20:35.483            30.111               Magadan1          3763.875
       117   04 Jun 2027 03:20:37.637   04 Jun 2027 03:20:53.726            16.089               Magadan1          2011.125
       118   04 Jun 2027 03:21:26.239   04 Jun 2027 03:22:54.978            88.739               Magadan2         11092.375
       119   04 Jun 2027 04:34:31.154   04 Jun 2027 04:35:39.521            68.367                Sumatra          8545.875
       120   04 Jun 2027 04:54:07.550   04 Jun 2027 04:55:48.292           100.742                Irkutsk         12592.750
       121   04 Jun 2027 04:56:22.791   04 Jun 2027 04:56:35.402            12.611                Norilsk          1576.375
       122   04 Jun 2027 04:56:51.742   04 Jun 2027 04:57:31.732            39.990              Murmansk2          4998.750
       123   04 Jun 2027 04:57:37.517   04 Jun 2027 04:58:30.599            53.082                Irkutsk          6635.250
       124   04 Jun 2027 04:58:52.858   04 Jun 2027 04:59:34.950            42.092              Murmansk2          5261.500
       125   04 Jun 2027 05:34:43.486   04 Jun 2027 05:35:57.570            74.084            RioGallegos          9260.500
       126   04 Jun 2027 06:08:59.513   04 Jun 2027 06:09:34.419            34.906                Sumatra          4363.250
       127   04 Jun 2027 06:15:30.665   04 Jun 2027 06:16:03.140            32.475                Sumatra          4059.375
       128   04 Jun 2027 06:17:22.521   04 Jun 2027 06:17:26.967             4.446                  Delhi           555.750
       129   04 Jun 2027 06:19:41.295   04 Jun 2027 06:19:47.761             6.466                  Delhi           808.250
       130   04 Jun 2027 06:23:53.844   04 Jun 2027 06:24:49.010            55.166                  Delhi          6895.750
       131   04 Jun 2027 06:32:10.150   04 Jun 2027 06:32:23.971            13.821              Murmansk2          1727.625
       132   04 Jun 2027 06:32:40.127   04 Jun 2027 06:33:12.477            32.350                Norilsk          4043.750
       133   04 Jun 2027 06:33:13.138   04 Jun 2027 06:33:15.263             2.125                Norilsk           265.625
       134   04 Jun 2027 06:33:16.356   04 Jun 2027 06:34:10.398            54.042                Irkutsk          6755.250
       135   04 Jun 2027 06:34:22.074   04 Jun 2027 06:34:51.996            29.922                 Moscow          3740.250
       136   04 Jun 2027 07:53:50.370   04 Jun 2027 07:55:17.366            86.996                  Delhi         10874.500
       137   04 Jun 2027 08:07:32.295   04 Jun 2027 08:07:54.501            22.206                Novosib          2775.750
       138   04 Jun 2027 08:07:55.492   04 Jun 2027 08:08:24.473            28.981              Murmansk2          3622.625
       139   04 Jun 2027 08:08:39.731   04 Jun 2027 08:09:26.855            47.124              Murmansk2          5890.500
       140   04 Jun 2027 08:09:32.711   04 Jun 2027 08:09:45.828            13.117                Novosib          1639.625
       141   04 Jun 2027 08:09:57.029   04 Jun 2027 08:10:55.810            58.781              Murmansk1          7347.625
       142   04 Jun 2027 08:11:23.913   04 Jun 2027 08:11:29.718             5.805                 Moscow           725.625
       143   04 Jun 2027 09:42:55.024   04 Jun 2027 09:43:44.254            49.230                 Moscow          6153.750
       144   04 Jun 2027 09:59:09.116   04 Jun 2027 09:59:20.144            11.028                Anadyr1          1378.500
       145   04 Jun 2027 09:59:20.144   04 Jun 2027 10:00:11.634            51.490                Anadyr2          6436.250
       146   04 Jun 2027 10:50:57.984   04 Jun 2027 10:53:20.896           142.912               CapeTown         17864.000
       147   04 Jun 2027 11:02:39.331   04 Jun 2027 11:03:17.879            38.548               CapeTown          4818.500
       148   04 Jun 2027 11:31:29.114   04 Jun 2027 11:32:45.949            76.835                Anadyr2          9604.375
       149   04 Jun 2027 11:34:27.705   04 Jun 2027 11:36:06.294            98.589                Anadyr1         12323.625
       150   04 Jun 2027 11:39:22.906   04 Jun 2027 11:39:33.475            10.569                Anadyr2          1321.125
       151   04 Jun 2027 13:10:01.993   04 Jun 2027 13:14:25.122           263.129               Magadan1         32891.125
       152   04 Jun 2027 15:38:18.510   04 Jun 2027 15:42:06.295           227.785            RioGallegos         28473.125
       153   04 Jun 2027 16:28:07.655   04 Jun 2027 16:29:47.178            99.523                Irkutsk         12440.375
       154   04 Jun 2027 16:39:45.090   04 Jun 2027 16:40:49.194            64.104                Sumatra          8013.000
       155   04 Jun 2027 16:41:33.827   04 Jun 2027 16:43:27.778           113.951                Sumatra         14243.875
       156   04 Jun 2027 16:46:34.267   04 Jun 2027 16:47:03.650            29.383                Sumatra          3672.875
       157   04 Jun 2027 18:01:11.705   04 Jun 2027 18:02:29.631            77.926                Novosib          9740.750
       158   04 Jun 2027 18:04:05.022   04 Jun 2027 18:04:07.431             2.409                Novosib           301.125
       159   04 Jun 2027 18:09:46.067   04 Jun 2027 18:13:08.202           202.135                  Delhi         25266.875
       160   04 Jun 2027 18:17:43.589   04 Jun 2027 18:18:55.161            71.572                  Delhi          8946.500
       161   04 Jun 2027 21:13:22.824   04 Jun 2027 21:15:49.405           146.581              Murmansk1         18322.625
       162   04 Jun 2027 21:39:43.020   04 Jun 2027 21:40:34.775            51.755               CapeTown          6469.375
       163   04 Jun 2027 21:41:23.915   04 Jun 2027 21:43:08.247           104.332               CapeTown         13041.500
       164   05 Jun 2027 03:32:17.847   05 Jun 2027 03:32:25.423             7.576               Magadan2           947.000
       165   05 Jun 2027 03:32:45.785   05 Jun 2027 03:33:14.407            28.622               Magadan2          3577.750
       166   05 Jun 2027 03:33:22.472   05 Jun 2027 03:34:31.167            68.695               Magadan2          8586.875
       167   05 Jun 2027 04:45:31.580   05 Jun 2027 04:47:04.342            92.762                Sumatra         11595.250
       168   05 Jun 2027 05:06:45.706   05 Jun 2027 05:06:57.369            11.663                Irkutsk          1457.875
       169   05 Jun 2027 05:07:23.050   05 Jun 2027 05:08:47.658            84.608                Norilsk         10576.000
       170   05 Jun 2027 05:09:00.192   05 Jun 2027 05:09:10.080             9.888              Murmansk2          1236.000
       171   05 Jun 2027 05:09:21.798   05 Jun 2027 05:09:33.643            11.845              Murmansk2          1480.625
       172   05 Jun 2027 05:09:36.403   05 Jun 2027 05:10:24.358            47.955              Murmansk2          5994.375
       173   05 Jun 2027 05:10:41.317   05 Jun 2027 05:10:58.260            16.943              Murmansk2          2117.875
       174   05 Jun 2027 05:11:18.242   05 Jun 2027 05:11:25.807             7.565                Norilsk           945.625
       175   05 Jun 2027 05:11:38.346   05 Jun 2027 05:12:11.880            33.534                Norilsk          4191.750
       176   05 Jun 2027 05:12:27.467   05 Jun 2027 05:12:34.312             6.845                Novosib           855.625
       177   05 Jun 2027 05:12:39.666   05 Jun 2027 05:12:42.110             2.444                Norilsk           305.500
       178   05 Jun 2027 05:13:59.150   05 Jun 2027 05:14:34.641            35.491                Norilsk          4436.375
       179   05 Jun 2027 05:47:10.382   05 Jun 2027 05:47:41.295            30.913            RioGallegos          3864.125
       180   05 Jun 2027 05:51:00.772   05 Jun 2027 05:51:02.567             1.795            RioGallegos           224.375
       181   05 Jun 2027 06:21:22.497   05 Jun 2027 06:22:57.227            94.730                Sumatra         11841.250
       182   05 Jun 2027 06:29:08.262   05 Jun 2027 06:29:53.276            45.014                  Delhi          5626.750
       183   05 Jun 2027 06:44:10.720   05 Jun 2027 06:44:21.897            11.177              Murmansk1          1397.125
       184   05 Jun 2027 06:44:27.991   05 Jun 2027 06:45:05.776            37.785                 Moscow          4723.125
       185   05 Jun 2027 06:45:18.227   05 Jun 2027 06:45:26.615             8.388              Murmansk2          1048.500
       186   05 Jun 2027 06:45:26.615   05 Jun 2027 06:45:34.331             7.716              Murmansk1           964.500
       187   05 Jun 2027 06:45:53.178   05 Jun 2027 06:47:41.281           108.103                Novosib         13512.875
       188   05 Jun 2027 08:06:27.285   05 Jun 2027 08:07:58.513            91.228                  Delhi         11403.500
       189   05 Jun 2027 08:19:26.122   05 Jun 2027 08:20:09.927            43.805                Novosib          5475.625
       190   05 Jun 2027 08:20:14.626   05 Jun 2027 08:20:38.467            23.841              Murmansk1          2980.125
       191   05 Jun 2027 08:20:51.345   05 Jun 2027 08:22:27.917            96.572                 Moscow         12071.500
       192   05 Jun 2027 08:22:43.457   05 Jun 2027 08:22:57.059            13.602              Murmansk1          1700.250
       193   05 Jun 2027 09:55:29.513   05 Jun 2027 09:55:59.154            29.641                 Moscow          3705.125
       194   05 Jun 2027 10:08:41.125   05 Jun 2027 10:11:50.622           189.497                Anadyr2         23687.125
       195   05 Jun 2027 11:03:14.108   05 Jun 2027 11:05:00.173           106.065               CapeTown         13258.125
       196   05 Jun 2027 11:43:27.508   05 Jun 2027 11:44:32.041            64.533                Anadyr1          8066.625
       197   05 Jun 2027 11:45:04.451   05 Jun 2027 11:46:35.225            90.774                Anadyr2         11346.750
       198   05 Jun 2027 11:48:06.616   05 Jun 2027 11:48:35.065            28.449                Anadyr2          3556.125
       199   05 Jun 2027 13:21:55.450   05 Jun 2027 13:26:06.488           251.038               Magadan1         31379.750
       200   05 Jun 2027 15:49:58.552   05 Jun 2027 15:53:59.684           241.132            RioGallegos         30141.500
       201   05 Jun 2027 16:37:23.737   05 Jun 2027 16:40:11.794           168.057                Irkutsk         21007.125
       202   05 Jun 2027 16:41:42.126   05 Jun 2027 16:41:44.196             2.070                Irkutsk           258.750
       203   05 Jun 2027 16:51:20.156   05 Jun 2027 16:55:27.014           246.858                Sumatra         30857.250
       204   05 Jun 2027 18:14:56.035   05 Jun 2027 18:15:14.038            18.003                Novosib          2250.375
       205   05 Jun 2027 18:21:15.213   05 Jun 2027 18:25:00.267           225.054                  Delhi         28131.750
       206   05 Jun 2027 18:27:55.562   05 Jun 2027 18:28:25.518            29.956                  Delhi          3744.500
       207   05 Jun 2027 19:53:48.698   05 Jun 2027 19:56:01.494           132.796                 Moscow         16599.500
       208   05 Jun 2027 21:51:14.911   05 Jun 2027 21:52:53.502            98.591               CapeTown         12323.875
       209   05 Jun 2027 21:53:20.649   05 Jun 2027 21:55:01.077           100.428               CapeTown         12553.500
       210   06 Jun 2027 03:44:27.688   06 Jun 2027 03:44:45.531            17.843               Magadan2          2230.375
       211   06 Jun 2027 03:44:45.531   06 Jun 2027 03:44:56.874            11.343               Magadan1          1417.875
       212   06 Jun 2027 03:45:20.995   06 Jun 2027 03:45:51.647            30.652               Magadan1          3831.500
       213   06 Jun 2027 03:45:51.647   06 Jun 2027 03:45:53.610             1.963               Magadan2           245.375
       214   06 Jun 2027 03:46:30.447   06 Jun 2027 03:46:39.771             9.324               Magadan1          1165.500
       215   06 Jun 2027 03:48:32.353   06 Jun 2027 03:48:48.538            16.185                Norilsk          2023.125
       216   06 Jun 2027 03:54:33.008   06 Jun 2027 03:55:12.422            39.414              Murmansk1          4926.750
       217   06 Jun 2027 04:23:13.478   06 Jun 2027 04:24:38.207            84.729            RioGallegos         10591.125
       218   06 Jun 2027 04:25:05.844   06 Jun 2027 04:25:34.665            28.821            RioGallegos          3602.625
       219   06 Jun 2027 04:57:10.620   06 Jun 2027 04:59:06.788           116.168                Sumatra         14521.000
       220   06 Jun 2027 05:02:54.830   06 Jun 2027 05:03:33.389            38.559                Sumatra          4819.875
       221   06 Jun 2027 05:12:03.199   06 Jun 2027 05:14:42.923           159.724                  Delhi         19965.500
       222   06 Jun 2027 05:19:49.575   06 Jun 2027 05:21:38.412           108.837                Novosib         13604.625
       223   06 Jun 2027 05:22:03.283   06 Jun 2027 05:23:03.914            60.631                Irkutsk          7578.875
       224   06 Jun 2027 05:59:43.148   06 Jun 2027 06:00:07.444            24.296            RioGallegos          3037.000
       225   06 Jun 2027 06:33:55.248   06 Jun 2027 06:36:09.753           134.505                Sumatra         16813.125
       226   06 Jun 2027 06:40:59.511   06 Jun 2027 06:42:28.944            89.433                  Delhi         11179.125
       227   06 Jun 2027 06:57:11.274   06 Jun 2027 06:58:08.256            56.982                 Moscow          7122.750
       228   06 Jun 2027 06:58:32.372   06 Jun 2027 06:59:24.592            52.220                Norilsk          6527.500
       229   06 Jun 2027 06:59:55.472   06 Jun 2027 07:00:44.173            48.701                 Moscow          6087.625
       230   06 Jun 2027 08:19:17.813   06 Jun 2027 08:19:25.081             7.268                  Delhi           908.500
       231   06 Jun 2027 08:20:36.382   06 Jun 2027 08:22:28.523           112.141                  Delhi         14017.625
       232   06 Jun 2027 08:30:53.502   06 Jun 2027 08:31:17.896            24.394                Novosib          3049.250
       233   06 Jun 2027 08:31:18.641   06 Jun 2027 08:31:30.131            11.490              Murmansk1          1436.250
       234   06 Jun 2027 08:31:30.131   06 Jun 2027 08:31:36.751             6.620              Murmansk2           827.500
       235   06 Jun 2027 08:31:38.944   06 Jun 2027 08:33:22.289           103.345                 Moscow         12918.125
       236   06 Jun 2027 08:33:56.573   06 Jun 2027 08:34:30.831            34.258              Murmansk1          4282.250
       237   06 Jun 2027 08:34:32.681   06 Jun 2027 08:34:37.256             4.575                Novosib           571.875
       238   06 Jun 2027 08:34:43.269   06 Jun 2027 08:35:17.087            33.818                Norilsk          4227.250
       239   06 Jun 2027 08:35:19.136   06 Jun 2027 08:35:49.636            30.500                 Moscow          3812.500
       240   06 Jun 2027 09:42:15.166   06 Jun 2027 09:44:23.018           127.852               CapeTown         15981.500
       241   06 Jun 2027 09:45:27.257   06 Jun 2027 09:47:23.885           116.628               CapeTown         14578.500
       242   06 Jun 2027 10:24:27.258   06 Jun 2027 10:24:30.792             3.534                Anadyr1           441.750
       243   06 Jun 2027 11:16:33.310   06 Jun 2027 11:16:56.332            23.022               CapeTown          2877.750
       244   06 Jun 2027 11:25:48.249   06 Jun 2027 11:26:04.995            16.746               CapeTown          2093.250
       245   06 Jun 2027 11:55:26.563   06 Jun 2027 11:56:22.200            55.637                Anadyr1          6954.625
       246   06 Jun 2027 11:57:44.984   06 Jun 2027 12:00:07.237           142.253                Anadyr2         17781.625
       247   06 Jun 2027 12:04:54.882   06 Jun 2027 12:04:57.707             2.825                Anadyr2           353.125
       248   06 Jun 2027 13:33:50.558   06 Jun 2027 13:35:41.970           111.412               Magadan2         13926.500
       249   06 Jun 2027 13:36:51.528   06 Jun 2027 13:38:22.213            90.685               Magadan2         11335.625
       250   06 Jun 2027 13:43:09.512   06 Jun 2027 13:45:13.781           124.269               Magadan2         15533.625
       251   06 Jun 2027 16:01:43.791   06 Jun 2027 16:04:15.336           151.545            RioGallegos         18943.125
       252   06 Jun 2027 16:04:41.620   06 Jun 2027 16:07:41.150           179.530            RioGallegos         22441.250
       253   06 Jun 2027 16:51:03.462   06 Jun 2027 16:51:58.793            55.331                Irkutsk          6916.375
       254   06 Jun 2027 16:54:06.355   06 Jun 2027 16:55:59.831           113.476                Novosib         14184.500
       255   06 Jun 2027 17:03:02.809   06 Jun 2027 17:04:53.968           111.159                Sumatra         13894.875
       256   06 Jun 2027 18:25:01.300   06 Jun 2027 18:26:43.375           102.075                Novosib         12759.375
       257   06 Jun 2027 18:32:52.932   06 Jun 2027 18:35:09.511           136.579                  Delhi         17072.375
       258   06 Jun 2027 18:36:49.440   06 Jun 2027 18:36:56.062             6.622                  Delhi           827.750
       259   06 Jun 2027 20:04:54.694   06 Jun 2027 20:07:49.546           174.852                 Moscow         21856.500
       260   06 Jun 2027 21:44:42.333   06 Jun 2027 21:44:45.403             3.070              Murmansk2           383.750
       261   06 Jun 2027 21:44:49.756   06 Jun 2027 21:45:12.163            22.407              Murmansk2          2800.875
       262   06 Jun 2027 21:47:58.949   06 Jun 2027 21:48:31.123            32.174                 Moscow          4021.750
       263   06 Jun 2027 22:02:53.074   06 Jun 2027 22:05:07.757           134.683               CapeTown         16835.375
       264   07 Jun 2027 03:56:17.993   07 Jun 2027 03:57:15.239            57.246               Magadan1          7155.750
       265   07 Jun 2027 03:57:26.243   07 Jun 2027 03:58:55.991            89.748                Irkutsk         11218.500
       266   07 Jun 2027 05:08:56.605   07 Jun 2027 05:09:57.547            60.942                Sumatra          7617.750
       267   07 Jun 2027 05:19:43.618   07 Jun 2027 05:20:06.700            23.082                Sumatra          2885.250
       268   07 Jun 2027 05:22:02.405   07 Jun 2027 05:22:43.101            40.696                  Delhi          5087.000
       269   07 Jun 2027 05:24:24.185   07 Jun 2027 05:26:37.825           133.640                  Delhi         16705.000
       270   07 Jun 2027 05:32:07.878   07 Jun 2027 05:32:15.790             7.912                Irkutsk           989.000
       271   07 Jun 2027 05:32:16.450   07 Jun 2027 05:32:28.963            12.513                Norilsk          1564.125
       272   07 Jun 2027 05:32:45.428   07 Jun 2027 05:34:21.198            95.770                Novosib         11971.250
       273   07 Jun 2027 05:34:49.766   07 Jun 2027 05:35:01.736            11.970                Irkutsk          1496.250
       274   07 Jun 2027 05:35:12.444   07 Jun 2027 05:35:56.185            43.741                Norilsk          5467.625
       275   07 Jun 2027 05:36:36.498   07 Jun 2027 05:36:40.559             4.061                Novosib           507.625
       276   07 Jun 2027 06:12:23.075   07 Jun 2027 06:13:24.436            61.361            RioGallegos          7670.125
       277   07 Jun 2027 06:46:42.551   07 Jun 2027 06:47:10.696            28.145                Sumatra          3518.125
       278   07 Jun 2027 06:52:56.075   07 Jun 2027 06:55:13.040           136.965                  Delhi         17120.625
       279   07 Jun 2027 07:09:13.527   07 Jun 2027 07:09:26.351            12.824              Murmansk2          1603.000
       280   07 Jun 2027 07:09:37.209   07 Jun 2027 07:10:43.987            66.778              Murmansk2          8347.250
       281   07 Jun 2027 07:11:01.218   07 Jun 2027 07:11:36.297            35.079                Novosib          4384.875
       282   07 Jun 2027 08:32:55.214   07 Jun 2027 08:34:31.372            96.158                  Delhi         12019.750
       283   07 Jun 2027 08:40:44.554   07 Jun 2027 08:40:59.427            14.873                 Moscow          1859.125
       284   07 Jun 2027 08:41:01.122   07 Jun 2027 08:41:32.284            31.162                Novosib          3895.250
       285   07 Jun 2027 08:41:45.035   07 Jun 2027 08:42:12.098            27.063              Murmansk2          3382.875
       286   07 Jun 2027 08:42:35.525   07 Jun 2027 08:44:10.038            94.513              Murmansk2         11814.125
       287   07 Jun 2027 08:44:29.194   07 Jun 2027 08:45:41.172            71.978                Novosib          8997.250
       288   07 Jun 2027 08:45:42.462   07 Jun 2027 08:45:51.963             9.501                 Moscow          1187.625
       289   07 Jun 2027 08:45:53.789   07 Jun 2027 08:46:23.483            29.694                Norilsk          3711.750
       290   07 Jun 2027 08:46:34.112   07 Jun 2027 08:47:21.251            47.139              Murmansk1          5892.375
       291   07 Jun 2027 08:47:33.872   07 Jun 2027 08:48:16.386            42.514              Murmansk2          5314.250
       292   07 Jun 2027 09:53:08.972   07 Jun 2027 09:56:06.664           177.692               CapeTown         22211.500
       293   07 Jun 2027 10:32:09.996   07 Jun 2027 10:33:30.706            80.710                Anadyr2         10088.750
       294   07 Jun 2027 10:34:49.711   07 Jun 2027 10:35:39.740            50.029                Anadyr1          6253.625
       295   07 Jun 2027 10:36:47.735   07 Jun 2027 10:38:42.963           115.228                Anadyr1         14403.500
       296   07 Jun 2027 12:09:45.412   07 Jun 2027 12:10:44.050            58.638                Anadyr1          7329.750
       297   07 Jun 2027 12:10:47.337   07 Jun 2027 12:11:36.365            49.028                Anadyr2          6128.500
       298   07 Jun 2027 12:11:50.837   07 Jun 2027 12:14:26.725           155.888               Magadan2         19486.000
       299   07 Jun 2027 13:45:46.972   07 Jun 2027 13:47:16.858            89.886               Magadan2         11235.750
       300   07 Jun 2027 13:48:54.922   07 Jun 2027 13:51:26.451           151.529               Magadan1         18941.125
       301   07 Jun 2027 15:30:05.726   07 Jun 2027 15:30:46.303            40.577                Irkutsk          5072.125
       302   07 Jun 2027 16:13:32.697   07 Jun 2027 16:16:19.122           166.425            RioGallegos         20803.125
       303   07 Jun 2027 16:17:46.234   07 Jun 2027 16:19:14.953            88.719            RioGallegos         11089.875
       304   07 Jun 2027 17:01:10.240   07 Jun 2027 17:03:13.981           123.741                Irkutsk         15467.625
       305   07 Jun 2027 17:03:22.431   07 Jun 2027 17:06:16.701           174.270                Novosib         21783.750
       306   07 Jun 2027 17:17:48.732   07 Jun 2027 17:19:18.567            89.835                Sumatra         11229.375
       307   07 Jun 2027 18:44:36.885   07 Jun 2027 18:46:44.479           127.594                  Delhi         15949.250
       308   07 Jun 2027 18:49:59.575   07 Jun 2027 18:50:40.031            40.456                  Delhi          5057.000
       309   07 Jun 2027 18:54:11.120   07 Jun 2027 18:56:16.079           124.959                  Delhi         15619.875
       310   07 Jun 2027 20:15:53.639   07 Jun 2027 20:17:08.134            74.495                 Moscow          9311.875
       311   07 Jun 2027 22:00:00.781   07 Jun 2027 22:00:01.980             1.199                 Moscow           149.875
       312   07 Jun 2027 22:14:36.849   07 Jun 2027 22:17:04.282           147.433               CapeTown         18429.125
       313   08 Jun 2027 04:09:25.331   08 Jun 2027 04:10:12.344            47.013               Magadan1          5876.625
       314   08 Jun 2027 04:10:33.274   08 Jun 2027 04:10:52.024            18.750                Novosib          2343.750
       315   08 Jun 2027 04:11:08.868   08 Jun 2027 04:11:11.520             2.652                Irkutsk           331.500
       316   08 Jun 2027 04:11:21.500   08 Jun 2027 04:12:40.194            78.694                Norilsk          9836.750
       317   08 Jun 2027 04:12:42.446   08 Jun 2027 04:13:05.080            22.634              Murmansk2          2829.250
       318   08 Jun 2027 04:13:08.698   08 Jun 2027 04:13:16.367             7.669                Norilsk           958.625
       319   08 Jun 2027 04:14:43.812   08 Jun 2027 04:15:18.594            34.782                Norilsk          4347.750
       320   08 Jun 2027 04:45:56.326   08 Jun 2027 04:46:46.856            50.530            RioGallegos          6316.250
       321   08 Jun 2027 04:47:39.506   08 Jun 2027 04:48:15.026            35.520            RioGallegos          4440.000
       322   08 Jun 2027 04:54:37.645   08 Jun 2027 04:55:09.894            32.249            RioGallegos          4031.125
       323   08 Jun 2027 05:20:48.692   08 Jun 2027 05:22:00.259            71.567                Sumatra          8945.875
       324   08 Jun 2027 05:31:42.613   08 Jun 2027 05:34:21.502           158.889                  Delhi         19861.125
       325   08 Jun 2027 05:43:50.203   08 Jun 2027 05:45:11.271            81.068                Irkutsk         10133.500
       326   08 Jun 2027 05:45:28.452   08 Jun 2027 05:46:07.834            39.382                Novosib          4922.750
       327   08 Jun 2027 05:46:34.763   08 Jun 2027 05:47:15.446            40.683                Novosib          5085.375
       328   08 Jun 2027 05:49:16.357   08 Jun 2027 05:49:31.372            15.015                Norilsk          1876.875
       329   08 Jun 2027 06:25:12.433   08 Jun 2027 06:25:43.209            30.776            RioGallegos          3847.000
       330   08 Jun 2027 06:59:58.666   08 Jun 2027 07:00:14.052            15.386                Sumatra          1923.250
       331   08 Jun 2027 07:03:53.035   08 Jun 2027 07:05:16.206            83.171                Sumatra         10396.375
       332   08 Jun 2027 07:21:01.370   08 Jun 2027 07:21:20.686            19.316                 Moscow          2414.500
       333   08 Jun 2027 07:21:24.758   08 Jun 2027 07:21:40.892            16.134              Murmansk1          2016.750
       334   08 Jun 2027 07:21:45.825   08 Jun 2027 07:22:24.098            38.273                Novosib          4784.125
       335   08 Jun 2027 07:22:32.844   08 Jun 2027 07:23:17.379            44.535                Novosib          5566.875
       336   08 Jun 2027 08:52:39.172   08 Jun 2027 08:52:50.014            10.842                 Moscow          1355.250
       337   08 Jun 2027 08:53:10.436   08 Jun 2027 08:55:57.788           167.352                 Moscow         20919.000
       338   08 Jun 2027 08:56:07.184   08 Jun 2027 08:56:27.017            19.833                Novosib          2479.125
       339   08 Jun 2027 08:56:33.206   08 Jun 2027 08:56:47.637            14.431                Novosib          1803.875
       340   08 Jun 2027 08:56:49.693   08 Jun 2027 08:57:02.687            12.994                Norilsk          1624.250
       341   08 Jun 2027 08:57:05.875   08 Jun 2027 08:57:49.132            43.257                Norilsk          5407.125
       342   08 Jun 2027 08:58:01.403   08 Jun 2027 08:58:16.362            14.959                Norilsk          1869.875
       343   08 Jun 2027 08:58:23.489   08 Jun 2027 08:59:11.730            48.241              Murmansk2          6030.125
       344   08 Jun 2027 08:59:17.000   08 Jun 2027 08:59:23.546             6.546                Norilsk           818.250
       345   08 Jun 2027 08:59:28.194   08 Jun 2027 09:00:09.213            41.019              Murmansk1          5127.375
       346   08 Jun 2027 10:04:27.945   08 Jun 2027 10:07:54.994           207.049               CapeTown         25881.125
       347   08 Jun 2027 10:44:00.993   08 Jun 2027 10:46:28.185           147.192                Anadyr2         18399.000
       348   08 Jun 2027 10:52:44.594   08 Jun 2027 10:52:46.342             1.748                Anadyr2           218.500
       349   08 Jun 2027 12:19:26.177   08 Jun 2027 12:20:09.835            43.658                Anadyr1          5457.250
       350   08 Jun 2027 12:23:15.120   08 Jun 2027 12:27:06.042           230.922               Magadan2         28865.250
       351   08 Jun 2027 12:27:43.140   08 Jun 2027 12:29:41.060           117.920               Magadan1         14740.000
       352   08 Jun 2027 13:59:34.329   08 Jun 2027 14:00:04.218            29.889               Magadan2          3736.125
       353   08 Jun 2027 15:39:25.224   08 Jun 2027 15:45:00.243           335.019                Irkutsk         41877.375
       354   08 Jun 2027 16:27:11.214   08 Jun 2027 16:28:19.561            68.347            RioGallegos          8543.375
       355   08 Jun 2027 17:14:18.030   08 Jun 2027 17:18:08.206           230.176                Novosib         28772.000
       356   08 Jun 2027 17:29:13.657   08 Jun 2027 17:29:56.474            42.817                Sumatra          5352.125
       357   08 Jun 2027 17:37:54.227   08 Jun 2027 17:38:47.478            53.251                Sumatra          6656.375
       358   08 Jun 2027 18:52:37.730   08 Jun 2027 18:53:36.428            58.698                Novosib          7337.250
       359   08 Jun 2027 18:56:01.334   08 Jun 2027 18:56:55.363            54.029                Novosib          6753.625
       360   08 Jun 2027 18:58:37.227   08 Jun 2027 19:00:45.063           127.836                  Delhi         15979.500
       361   08 Jun 2027 19:07:51.917   08 Jun 2027 19:08:50.324            58.407                  Delhi          7300.875
       362   08 Jun 2027 20:27:33.133   08 Jun 2027 20:31:33.755           240.622                 Moscow         30077.750
       363   08 Jun 2027 22:26:25.851   08 Jun 2027 22:27:24.405            58.554               CapeTown          7319.250
       364   08 Jun 2027 22:29:49.679   08 Jun 2027 22:31:09.533            79.854               CapeTown          9981.750
       365   09 Jun 2027 04:01:28.650   09 Jun 2027 04:02:32.335            63.685                Sumatra          7960.625
       366   09 Jun 2027 04:03:52.806   09 Jun 2027 04:05:52.325           119.519                Sumatra         14939.875
       367   09 Jun 2027 04:22:35.127   09 Jun 2027 04:23:22.729            47.602                Norilsk          5950.250
       368   09 Jun 2027 04:58:05.863   09 Jun 2027 04:58:35.722            29.859            RioGallegos          3732.375
       369   09 Jun 2027 04:58:55.335   09 Jun 2027 04:59:57.260            61.925            RioGallegos          7740.625
       370   09 Jun 2027 05:01:05.025   09 Jun 2027 05:01:20.748            15.723            RioGallegos          1965.375
       371   09 Jun 2027 05:32:46.461   09 Jun 2027 05:35:27.736           161.275                Sumatra         20159.375
       372   09 Jun 2027 05:42:58.273   09 Jun 2027 05:43:11.842            13.569                  Delhi          1696.125
       373   09 Jun 2027 05:44:15.476   09 Jun 2027 05:46:05.958           110.482                  Delhi         13810.250
       374   09 Jun 2027 05:56:09.224   09 Jun 2027 05:56:12.707             3.483                Norilsk           435.375
       375   09 Jun 2027 05:56:19.522   09 Jun 2027 05:58:34.526           135.004                Irkutsk         16875.500
       376   09 Jun 2027 05:58:56.757   09 Jun 2027 05:59:30.187            33.430                Novosib          4178.750
       377   09 Jun 2027 07:17:05.273   09 Jun 2027 07:20:02.561           177.288                  Delhi         22161.000
       378   09 Jun 2027 07:33:04.364   09 Jun 2027 07:33:14.122             9.758                Novosib          1219.750
       379   09 Jun 2027 07:33:21.301   09 Jun 2027 07:33:38.115            16.814                 Moscow          2101.750
       380   09 Jun 2027 07:33:40.916   09 Jun 2027 07:35:00.398            79.482                Norilsk          9935.250
       381   09 Jun 2027 09:04:54.935   09 Jun 2027 09:05:19.803            24.868                 Moscow          3108.500
       382   09 Jun 2027 09:05:28.259   09 Jun 2027 09:06:21.767            53.508                 Moscow          6688.500
       383   09 Jun 2027 09:06:35.962   09 Jun 2027 09:07:47.416            71.454                 Moscow          8931.750
       384   09 Jun 2027 09:08:09.530   09 Jun 2027 09:08:58.619            49.089                 Moscow          6136.125
       385   09 Jun 2027 09:09:04.433   09 Jun 2027 09:09:43.118            38.685                Norilsk          4835.625
       386   09 Jun 2027 09:09:47.321   09 Jun 2027 09:09:52.528             5.207              Murmansk1           650.875
       387   09 Jun 2027 09:09:55.957   09 Jun 2027 09:10:24.716            28.759                 Moscow          3594.875
       388   09 Jun 2027 09:10:45.907   09 Jun 2027 09:11:57.208            71.301                Norilsk          8912.625
       389   09 Jun 2027 09:12:14.584   09 Jun 2027 09:12:35.747            21.163                 Moscow          2645.375
       390   09 Jun 2027 10:15:59.255   09 Jun 2027 10:19:47.155           227.900               CapeTown         28487.500
       391   09 Jun 2027 10:55:54.435   09 Jun 2027 10:57:48.333           113.898                Anadyr2         14237.250
       392   09 Jun 2027 11:05:07.609   09 Jun 2027 11:05:22.797            15.188                Anadyr1          1898.500
       393   09 Jun 2027 12:31:26.555   09 Jun 2027 12:32:37.579            71.024                Anadyr2          8878.000
       394   09 Jun 2027 12:34:52.605   09 Jun 2027 12:36:08.882            76.277               Magadan2          9534.625
       395   09 Jun 2027 12:36:08.882   09 Jun 2027 12:38:51.651           162.769               Magadan1         20346.125
       396   09 Jun 2027 14:09:42.784   09 Jun 2027 14:10:47.040            64.256               Magadan1          8032.000
       397   09 Jun 2027 14:16:25.391   09 Jun 2027 14:17:39.324            73.933               Magadan1          9241.625
       398   09 Jun 2027 15:05:38.250   09 Jun 2027 15:06:32.242            53.992            RioGallegos          6749.000
       399   09 Jun 2027 15:50:46.297   09 Jun 2027 15:54:20.714           214.417                Irkutsk         26802.125
       400   09 Jun 2027 16:06:33.227   09 Jun 2027 16:10:06.580           213.353                Sumatra         26669.125
       401   09 Jun 2027 17:25:58.888   09 Jun 2027 17:27:55.663           116.775                Novosib         14596.875
       402   09 Jun 2027 17:31:45.541   09 Jun 2027 17:34:36.640           171.099                Novosib         21387.375
       403   09 Jun 2027 19:08:18.722   09 Jun 2027 19:11:18.465           179.743                  Delhi         22467.875
       404   09 Jun 2027 20:37:39.213   09 Jun 2027 20:37:55.239            16.026              Murmansk2          2003.250
       405   09 Jun 2027 20:39:02.365   09 Jun 2027 20:40:00.161            57.796              Murmansk2          7224.500
       406   09 Jun 2027 20:41:13.848   09 Jun 2027 20:41:35.670            21.822                 Moscow          2727.750
       407   09 Jun 2027 21:07:28.231   09 Jun 2027 21:07:45.332            17.101               CapeTown          2137.625
       408   09 Jun 2027 22:14:25.666   09 Jun 2027 22:15:19.576            53.910                 Moscow          6738.750
       409   09 Jun 2027 22:16:46.803   09 Jun 2027 22:17:23.717            36.914              Murmansk2          4614.250
       410   09 Jun 2027 22:38:19.863   09 Jun 2027 22:40:01.090           101.227               CapeTown         12653.375
       411   10 Jun 2027 04:11:53.279   10 Jun 2027 04:14:09.653           136.374                Sumatra         17046.750
       412   10 Jun 2027 04:34:11.530   10 Jun 2027 04:35:01.187            49.657              Murmansk1          6207.125
       413   10 Jun 2027 04:35:03.095   10 Jun 2027 04:35:30.464            27.369                Novosib          3421.125
       414   10 Jun 2027 05:11:32.676   10 Jun 2027 05:12:54.375            81.699            RioGallegos         10212.375
       415   10 Jun 2027 05:44:49.816   10 Jun 2027 05:46:43.576           113.760                Sumatra         14220.000
       416   10 Jun 2027 05:56:12.724   10 Jun 2027 05:57:56.006           103.282                  Delhi         12910.250
       417   10 Jun 2027 06:07:38.969   10 Jun 2027 06:08:14.822            35.853                 Moscow          4481.625
       418   10 Jun 2027 06:08:24.846   10 Jun 2027 06:08:44.408            19.562              Murmansk1          2445.250
       419   10 Jun 2027 06:08:53.594   10 Jun 2027 06:09:32.308            38.714                Norilsk          4839.250
       420   10 Jun 2027 06:09:41.238   10 Jun 2027 06:09:53.030            11.792              Murmansk1          1474.000
       421   10 Jun 2027 06:09:53.234   10 Jun 2027 06:10:46.343            53.109                Irkutsk          6638.625
       422   10 Jun 2027 06:11:06.193   10 Jun 2027 06:11:23.786            17.593                Norilsk          2199.125
       423   10 Jun 2027 06:12:05.199   10 Jun 2027 06:12:24.906            19.707                Novosib          2463.375
       424   10 Jun 2027 07:29:18.452   10 Jun 2027 07:31:58.508           160.056                  Delhi         20007.000
       425   10 Jun 2027 07:44:14.735   10 Jun 2027 07:44:44.592            29.857                Norilsk          3732.125
       426   10 Jun 2027 07:44:53.089   10 Jun 2027 07:45:28.157            35.068                 Moscow          4383.500
       427   10 Jun 2027 07:45:36.517   10 Jun 2027 07:46:39.631            63.114                Norilsk          7889.250
       428   10 Jun 2027 07:46:49.931   10 Jun 2027 07:47:19.047            29.116                Novosib          3639.500
       429   10 Jun 2027 09:17:26.884   10 Jun 2027 09:19:08.908           102.024              Murmansk1         12753.000
       430   10 Jun 2027 09:19:36.406   10 Jun 2027 09:21:26.086           109.680              Murmansk2         13710.000
       431   10 Jun 2027 09:21:33.037   10 Jun 2027 09:22:02.877            29.840              Murmansk2          3730.000
       432   10 Jun 2027 09:22:36.100   10 Jun 2027 09:23:00.918            24.818                 Moscow          3102.250
       433   10 Jun 2027 10:27:38.431   10 Jun 2027 10:30:00.905           142.474               CapeTown         17809.250
       434   10 Jun 2027 10:31:27.863   10 Jun 2027 10:31:42.600            14.737               CapeTown          1842.125
       435   10 Jun 2027 11:07:49.655   10 Jun 2027 11:09:57.301           127.646                Anadyr2         15955.750
       436   10 Jun 2027 11:10:21.274   10 Jun 2027 11:12:21.655           120.381                Anadyr1         15047.625
       437   10 Jun 2027 11:16:05.309   10 Jun 2027 11:17:21.336            76.027                Anadyr2          9503.375
       438   10 Jun 2027 12:46:36.822   10 Jun 2027 12:50:03.688           206.866               Magadan2         25858.250
       439   10 Jun 2027 12:50:03.688   10 Jun 2027 12:50:46.449            42.761               Magadan1          5345.125
       440   10 Jun 2027 14:26:06.436   10 Jun 2027 14:26:23.423            16.987               Magadan2          2123.375
       441   10 Jun 2027 14:29:42.973   10 Jun 2027 14:31:16.081            93.108               Magadan2         11638.500
       442   10 Jun 2027 15:15:44.315   10 Jun 2027 15:18:41.640           177.325            RioGallegos         22165.625
       443   10 Jun 2027 16:02:20.646   10 Jun 2027 16:04:04.318           103.672                Irkutsk         12959.000
       444   10 Jun 2027 16:17:21.659   10 Jun 2027 16:20:01.092           159.433                Sumatra         19929.125
       445   10 Jun 2027 17:37:44.832   10 Jun 2027 17:40:00.297           135.465                Novosib         16933.125
       446   10 Jun 2027 17:44:08.478   10 Jun 2027 17:46:36.202           147.724                Novosib         18465.500
       447   10 Jun 2027 17:47:55.933   10 Jun 2027 17:49:52.270           116.337                  Delhi         14542.125
       448   10 Jun 2027 19:21:23.551   10 Jun 2027 19:22:29.300            65.749                  Delhi          8218.625
       449   10 Jun 2027 20:48:04.691   10 Jun 2027 20:48:08.059             3.368              Murmansk2           421.000
       450   10 Jun 2027 20:49:35.103   10 Jun 2027 20:50:08.280            33.177              Murmansk2          4147.125
       451   10 Jun 2027 20:51:06.999   10 Jun 2027 20:53:44.410           157.411                 Moscow         19676.375
       452   10 Jun 2027 22:50:18.812   10 Jun 2027 22:50:52.942            34.130               CapeTown          4266.250
       453   11 Jun 2027 03:05:37.483   11 Jun 2027 03:06:49.116            71.633               Magadan2          8954.125
       454   11 Jun 2027 03:06:49.116   11 Jun 2027 03:07:32.913            43.797               Magadan1          5474.625
       455   11 Jun 2027 03:07:34.569   11 Jun 2027 03:07:58.010            23.441               Magadan1          2930.125
       456   11 Jun 2027 03:08:11.306   11 Jun 2027 03:08:58.039            46.733                Anadyr2          5841.625
       457   11 Jun 2027 03:09:14.035   11 Jun 2027 03:10:07.504            53.469                Anadyr1          6683.625
       458   11 Jun 2027 03:10:30.001   11 Jun 2027 03:11:14.518            44.517               Magadan2          5564.625
       459   11 Jun 2027 03:46:14.373   11 Jun 2027 03:46:24.268             9.895            RioGallegos          1236.875
       460   11 Jun 2027 03:48:45.860   11 Jun 2027 03:49:03.720            17.860            RioGallegos          2232.500
       461   11 Jun 2027 03:49:09.729   11 Jun 2027 03:49:12.958             3.229            RioGallegos           403.625
       462   11 Jun 2027 04:22:55.628   11 Jun 2027 04:25:54.187           178.559                Sumatra         22319.875
       463   11 Jun 2027 04:42:27.444   11 Jun 2027 04:42:35.403             7.959                Irkutsk           994.875
       464   11 Jun 2027 04:42:43.271   11 Jun 2027 04:45:22.646           159.375                Irkutsk         19921.875
       465   11 Jun 2027 04:46:19.955   11 Jun 2027 04:46:34.497            14.542                Norilsk          1817.750
       466   11 Jun 2027 04:46:51.622   11 Jun 2027 04:47:31.919            40.297                Norilsk          5037.125
       467   11 Jun 2027 04:47:35.023   11 Jun 2027 04:48:34.165            59.142                Novosib          7392.750
       468   11 Jun 2027 05:22:36.622   11 Jun 2027 05:22:56.171            19.549            RioGallegos          2443.625
       469   11 Jun 2027 05:24:31.517   11 Jun 2027 05:24:58.422            26.905            RioGallegos          3363.125
       470   11 Jun 2027 05:26:11.235   11 Jun 2027 05:26:39.914            28.679            RioGallegos          3584.875
       471   11 Jun 2027 05:59:30.762   11 Jun 2027 06:01:48.540           137.778                Sumatra         17222.250
       472   11 Jun 2027 06:19:58.360   11 Jun 2027 06:19:59.104             0.744                Norilsk            93.000
       473   11 Jun 2027 06:20:00.446   11 Jun 2027 06:20:16.600            16.154                 Moscow          2019.250
       474   11 Jun 2027 06:20:17.348   11 Jun 2027 06:20:39.472            22.124                Norilsk          2765.500
       475   11 Jun 2027 06:20:41.241   11 Jun 2027 06:21:16.604            35.363              Murmansk2          4420.375
       476   11 Jun 2027 06:21:29.965   11 Jun 2027 06:21:36.816             6.851                Norilsk           856.375
       477   11 Jun 2027 06:21:40.574   11 Jun 2027 06:21:50.288             9.714                Irkutsk          1214.250
       478   11 Jun 2027 06:22:10.802   11 Jun 2027 06:23:02.980            52.178                Norilsk          6522.250
       479   11 Jun 2027 06:23:14.816   11 Jun 2027 06:24:16.540            61.724                 Moscow          7715.500
       480   11 Jun 2027 07:41:38.151   11 Jun 2027 07:42:59.188            81.037                  Delhi         10129.625
       481   11 Jun 2027 07:43:47.592   11 Jun 2027 07:44:29.582            41.990                  Delhi          5248.750
       482   11 Jun 2027 07:55:50.657   11 Jun 2027 07:56:44.130            53.473                Novosib          6684.125
