uniorb/output/strategy_1/Drop/Drop_KinoSat_111306.txt

KinoSat_111306
-------------------------
    Access    *     Start Time (UTCG)     *     Stop Time (UTCG)  *   Duration (s)        *       Station  *  Data (Mbytes)
         1   01 Jun 2027 03:19:37.018   01 Jun 2027 03:20:15.707            38.689                 Moscow          1209.031
         2   01 Jun 2027 03:20:22.396   01 Jun 2027 03:21:13.979            51.583              Murmansk2          1611.969
         3   01 Jun 2027 03:21:20.508   01 Jun 2027 03:21:46.557            26.049              Murmansk1           814.031
         4   01 Jun 2027 03:22:12.552   01 Jun 2027 03:24:38.181           145.629              Murmansk1          4550.906
         5   01 Jun 2027 03:24:51.034   01 Jun 2027 03:26:41.913           110.879                 Moscow          3464.969
         6   01 Jun 2027 03:39:26.034   01 Jun 2027 03:42:20.058           174.024               CapeTown          5438.250
         7   01 Jun 2027 04:42:44.381   01 Jun 2027 04:45:39.123           174.742               Magadan2          5460.687
         8   01 Jun 2027 04:46:59.583   01 Jun 2027 04:47:18.315            18.732                Anadyr2           585.375
         9   01 Jun 2027 04:48:26.589   01 Jun 2027 04:48:57.847            31.258                Anadyr1           976.812
        10   01 Jun 2027 06:17:23.410   01 Jun 2027 06:17:58.414            35.004                Anadyr1          1093.875
        11   01 Jun 2027 06:18:20.760   01 Jun 2027 06:21:06.628           165.868                Anadyr1          5183.375
        12   01 Jun 2027 06:21:18.826   01 Jun 2027 06:23:45.434           146.608               Magadan1          4581.500
        13   01 Jun 2027 07:52:55.273   01 Jun 2027 07:54:12.671            77.398                Anadyr1          2418.687
        14   01 Jun 2027 07:54:27.233   01 Jun 2027 07:55:05.014            37.781               Magadan1          1180.656
        15   01 Jun 2027 07:55:16.510   01 Jun 2027 07:56:42.065            85.555                Irkutsk          2673.594
        16   01 Jun 2027 07:56:42.725   01 Jun 2027 07:57:51.624            68.899               Magadan1          2153.094
        17   01 Jun 2027 07:57:52.808   01 Jun 2027 07:58:00.238             7.430               Magadan2           232.188
        18   01 Jun 2027 07:58:04.778   01 Jun 2027 08:00:22.246           137.468               Magadan1          4295.875
        19   01 Jun 2027 08:36:17.751   01 Jun 2027 08:36:39.088            21.337            RioGallegos           666.781
        20   01 Jun 2027 09:14:55.647   01 Jun 2027 09:15:17.065            21.418                Sumatra           669.312
        21   01 Jun 2027 09:30:55.302   01 Jun 2027 09:34:31.888           216.586               Magadan1          6768.313
        22   01 Jun 2027 09:34:31.888   01 Jun 2027 09:34:49.445            17.557               Magadan2           548.656
        23   01 Jun 2027 09:34:52.826   01 Jun 2027 09:35:57.397            64.571              Murmansk1          2017.844
        24   01 Jun 2027 09:35:59.853   01 Jun 2027 09:36:16.333            16.480                Irkutsk           515.000
        25   01 Jun 2027 09:37:35.512   01 Jun 2027 09:37:57.215            21.703              Murmansk2           678.219
        26   01 Jun 2027 09:37:57.215   01 Jun 2027 09:38:07.328            10.113              Murmansk1           316.031
        27   01 Jun 2027 10:11:08.759   01 Jun 2027 10:12:27.648            78.889            RioGallegos          2465.281
        28   01 Jun 2027 10:45:47.950   01 Jun 2027 10:46:15.792            27.842                Sumatra           870.063
        29   01 Jun 2027 10:48:06.844   01 Jun 2027 10:48:37.330            30.486                Sumatra           952.688
        30   01 Jun 2027 10:58:59.698   01 Jun 2027 11:00:27.789            88.091                  Delhi          2752.844
        31   01 Jun 2027 11:05:59.153   01 Jun 2027 11:06:02.525             3.372                  Delhi           105.375
        32   01 Jun 2027 11:07:57.876   01 Jun 2027 11:09:37.812            99.936                Novosib          3123.000
        33   01 Jun 2027 11:09:46.007   01 Jun 2027 11:10:34.992            48.985              Murmansk2          1530.781
        34   01 Jun 2027 11:10:50.050   01 Jun 2027 11:12:03.800            73.750                 Moscow          2304.688
        35   01 Jun 2027 11:12:09.479   01 Jun 2027 11:16:58.208           288.729                Norilsk          9022.781
        36   01 Jun 2027 11:51:26.766   01 Jun 2027 11:52:12.626            45.860            RioGallegos          1433.125
        37   01 Jun 2027 11:52:57.032   01 Jun 2027 11:54:12.306            75.274            RioGallegos          2352.312
        38   01 Jun 2027 12:32:17.629   01 Jun 2027 12:33:06.162            48.533                  Delhi          1516.656
        39   01 Jun 2027 12:34:11.129   01 Jun 2027 12:34:37.914            26.785                  Delhi           837.031
        40   01 Jun 2027 12:37:58.707   01 Jun 2027 12:39:42.253           103.546                Novosib          3235.813
        41   01 Jun 2027 12:42:00.817   01 Jun 2027 12:42:55.974            55.157                Novosib          1723.656
        42   01 Jun 2027 12:43:02.406   01 Jun 2027 12:43:10.264             7.858                Norilsk           245.562
        43   01 Jun 2027 12:43:36.504   01 Jun 2027 12:45:25.161           108.657                Norilsk          3395.531
        44   01 Jun 2027 14:14:24.092   01 Jun 2027 14:15:51.268            87.176                 Moscow          2724.250
        45   01 Jun 2027 14:16:56.613   01 Jun 2027 14:18:16.426            79.813                 Moscow          2494.156
        46   01 Jun 2027 14:19:02.861   01 Jun 2027 14:21:38.053           155.192              Murmansk2          4849.750
        47   01 Jun 2027 14:21:46.598   01 Jun 2027 14:22:16.572            29.974              Murmansk2           936.688
        48   01 Jun 2027 14:22:46.841   01 Jun 2027 14:23:43.555            56.714                Norilsk          1772.313
        49   01 Jun 2027 14:24:30.294   01 Jun 2027 14:24:37.583             7.289                Norilsk           227.781
        50   01 Jun 2027 14:24:58.650   01 Jun 2027 14:25:35.682            37.032                Norilsk          1157.250
        51   01 Jun 2027 15:28:56.401   01 Jun 2027 15:32:02.232           185.831               CapeTown          5807.219
        52   01 Jun 2027 15:51:50.188   01 Jun 2027 15:52:36.666            46.478                 Moscow          1452.437
        53   01 Jun 2027 15:54:57.383   01 Jun 2027 15:56:13.955            76.572              Murmansk1          2392.875
        54   01 Jun 2027 15:56:56.542   01 Jun 2027 15:57:10.203            13.661              Murmansk2           426.906
        55   01 Jun 2027 16:08:53.734   01 Jun 2027 16:08:56.495             2.761                Anadyr1            86.281
        56   01 Jun 2027 16:09:17.127   01 Jun 2027 16:10:30.208            73.081                Anadyr2          2283.781
        57   01 Jun 2027 16:10:39.786   01 Jun 2027 16:10:59.847            20.061                Anadyr1           626.906
        58   01 Jun 2027 16:11:38.277   01 Jun 2027 16:11:43.903             5.626                Anadyr1           175.812
        59   01 Jun 2027 17:03:54.810   01 Jun 2027 17:06:01.335           126.525               CapeTown          3953.906
        60   01 Jun 2027 17:09:38.606   01 Jun 2027 17:09:40.295             1.689               CapeTown            52.781
        61   01 Jun 2027 17:34:20.721   01 Jun 2027 17:35:43.433            82.712              Murmansk2          2584.750
        62   01 Jun 2027 17:36:10.340   01 Jun 2027 17:38:50.499           160.159              Murmansk1          5004.969
        63   01 Jun 2027 17:39:37.702   01 Jun 2027 17:40:29.260            51.558              Murmansk2          1611.188
        64   01 Jun 2027 17:44:27.643   01 Jun 2027 17:46:38.152           130.509                Anadyr1          4078.406
        65   01 Jun 2027 17:47:49.592   01 Jun 2027 17:49:05.599            76.007               Magadan2          2375.219
        66   01 Jun 2027 17:49:33.355   01 Jun 2027 17:50:11.938            38.583               Magadan2          1205.719
        67   01 Jun 2027 19:20:22.737   01 Jun 2027 19:22:16.401           113.664                Anadyr1          3552.000
        68   01 Jun 2027 19:22:27.877   01 Jun 2027 19:23:36.413            68.536                Anadyr2          2141.750
        69   01 Jun 2027 19:23:59.567   01 Jun 2027 19:25:04.831            65.264               Magadan1          2039.500
        70   01 Jun 2027 19:25:09.704   01 Jun 2027 19:26:11.969            62.265               Magadan2          1945.781
        71   01 Jun 2027 19:28:28.468   01 Jun 2027 19:28:57.567            29.099               Magadan1           909.344
        72   01 Jun 2027 19:29:51.024   01 Jun 2027 19:30:17.511            26.487               Magadan1           827.719
        73   01 Jun 2027 19:31:07.607   01 Jun 2027 19:31:08.929             1.322               Magadan1            41.313
        74   01 Jun 2027 19:31:14.966   01 Jun 2027 19:31:32.604            17.638               Magadan1           551.188
        75   01 Jun 2027 20:17:56.593   01 Jun 2027 20:19:28.535            91.942            RioGallegos          2873.187
        76   01 Jun 2027 20:56:13.743   01 Jun 2027 20:59:03.251           169.508                Anadyr1          5297.125
        77   01 Jun 2027 20:59:14.579   01 Jun 2027 21:00:24.489            69.910               Magadan1          2184.687
        78   01 Jun 2027 21:01:01.971   01 Jun 2027 21:01:13.835            11.864                Norilsk           370.750
        79   01 Jun 2027 21:01:20.166   01 Jun 2027 21:01:27.922             7.756               Magadan1           242.375
        80   01 Jun 2027 21:01:31.275   01 Jun 2027 21:01:59.983            28.708                Norilsk           897.125
        81   01 Jun 2027 21:02:50.897   01 Jun 2027 21:03:26.384            35.487                Norilsk          1108.969
        82   01 Jun 2027 21:03:41.574   01 Jun 2027 21:06:39.121           177.547                Irkutsk          5548.344
        83   01 Jun 2027 21:19:21.518   01 Jun 2027 21:20:58.846            97.328                Sumatra          3041.500
        84   01 Jun 2027 21:23:49.272   01 Jun 2027 21:23:49.714             0.442                Sumatra            13.812
        85   01 Jun 2027 22:31:49.202   01 Jun 2027 22:32:35.448            46.246                Anadyr2          1445.187
        86   01 Jun 2027 22:32:44.686   01 Jun 2027 22:33:28.828            44.142                Anadyr1          1379.437
        87   01 Jun 2027 22:34:06.621   01 Jun 2027 22:35:56.925           110.304                Norilsk          3447.000
        88   01 Jun 2027 22:36:27.437   01 Jun 2027 22:36:42.983            15.546               Magadan1           485.812
        89   01 Jun 2027 22:38:04.301   01 Jun 2027 22:39:18.655            74.354                Irkutsk          2323.563
        90   01 Jun 2027 22:39:43.039   01 Jun 2027 22:40:00.609            17.570                Novosib           549.063
        91   01 Jun 2027 22:41:41.640   01 Jun 2027 22:42:03.673            22.033                Novosib           688.531
        92   01 Jun 2027 22:51:49.452   01 Jun 2027 22:51:53.148             3.696                Sumatra           115.500
        93   01 Jun 2027 22:53:30.610   01 Jun 2027 22:54:26.964            56.354                Sumatra          1761.062
        94   01 Jun 2027 22:55:28.117   01 Jun 2027 22:56:01.467            33.350                Sumatra          1042.188
        95   01 Jun 2027 22:58:17.295   01 Jun 2027 22:59:12.358            55.063                Sumatra          1720.719
        96   02 Jun 2027 00:05:53.032   02 Jun 2027 00:07:19.520            86.488                Anadyr2          2702.750
        97   02 Jun 2027 00:08:07.626   02 Jun 2027 00:08:09.889             2.263                Anadyr1            70.719
        98   02 Jun 2027 00:08:15.590   02 Jun 2027 00:08:21.596             6.006                Anadyr2           187.687
        99   02 Jun 2027 00:08:28.210   02 Jun 2027 00:08:45.400            17.190                Anadyr2           537.187
       100   02 Jun 2027 00:10:06.568   02 Jun 2027 00:10:24.010            17.442                Norilsk           545.062
       101   02 Jun 2027 00:10:43.302   02 Jun 2027 00:11:48.688            65.386               Magadan1          2043.312
       102   02 Jun 2027 00:11:48.872   02 Jun 2027 00:12:40.080            51.208               Magadan2          1600.250
       103   02 Jun 2027 00:13:23.041   02 Jun 2027 00:15:39.719           136.678              Murmansk2          4271.188
       104   02 Jun 2027 00:16:05.982   02 Jun 2027 00:16:34.330            28.348              Murmansk2           885.875
       105   02 Jun 2027 00:21:19.259   02 Jun 2027 00:22:03.494            44.235                  Delhi          1382.344
       106   02 Jun 2027 00:23:54.837   02 Jun 2027 00:24:20.033            25.196                  Delhi           787.375
       107   02 Jun 2027 00:29:20.997   02 Jun 2027 00:29:34.358            13.361                  Delhi           417.531
       108   02 Jun 2027 01:02:54.461   02 Jun 2027 01:03:12.808            18.347            RioGallegos           573.344
       109   02 Jun 2027 01:03:54.431   02 Jun 2027 01:04:13.157            18.726            RioGallegos           585.188
       110   02 Jun 2027 01:05:35.211   02 Jun 2027 01:05:57.340            22.129            RioGallegos           691.531
       111   02 Jun 2027 01:09:49.937   02 Jun 2027 01:10:05.851            15.914            RioGallegos           497.312
       112   02 Jun 2027 01:39:12.450   02 Jun 2027 01:39:50.285            37.835                Anadyr2          1182.344
       113   02 Jun 2027 01:40:16.050   02 Jun 2027 01:41:26.001            69.951                Anadyr1          2185.969
       114   02 Jun 2027 01:44:57.060   02 Jun 2027 01:45:04.397             7.337                Anadyr2           229.281
       115   02 Jun 2027 01:45:09.972   02 Jun 2027 01:45:28.642            18.670                Anadyr2           583.438
       116   02 Jun 2027 01:45:59.830   02 Jun 2027 01:46:21.812            21.982               Magadan2           686.938
       117   02 Jun 2027 01:46:38.428   02 Jun 2027 01:48:01.657            83.229               Magadan1          2600.906
       118   02 Jun 2027 01:48:18.616   02 Jun 2027 01:50:39.586           140.970              Murmansk1          4405.312
       119   02 Jun 2027 01:51:29.062   02 Jun 2027 01:52:26.669            57.607                Novosib          1800.219
       120   02 Jun 2027 01:55:39.505   02 Jun 2027 01:55:39.984             0.479                 Moscow            14.969
       121   02 Jun 2027 01:59:49.593   02 Jun 2027 02:00:05.170            15.577                  Delhi           486.781
       122   02 Jun 2027 02:05:06.728   02 Jun 2027 02:05:07.733             1.005                  Delhi            31.406
       123   02 Jun 2027 02:19:07.396   02 Jun 2027 02:20:29.036            81.640               CapeTown          2551.250
       124   02 Jun 2027 03:31:30.550   02 Jun 2027 03:31:52.452            21.902              Murmansk1           684.437
       125   02 Jun 2027 03:32:07.301   02 Jun 2027 03:32:19.409            12.108                 Moscow           378.375
       126   02 Jun 2027 03:32:20.969   02 Jun 2027 03:32:43.849            22.880                 Moscow           715.000
       127   02 Jun 2027 03:32:51.507   02 Jun 2027 03:33:29.978            38.471                Norilsk          1202.219
       128   02 Jun 2027 03:33:36.708   02 Jun 2027 03:35:06.593            89.885                 Moscow          2808.906
       129   02 Jun 2027 03:35:10.550   02 Jun 2027 03:36:49.357            98.807              Murmansk1          3087.719
       130   02 Jun 2027 03:36:56.321   02 Jun 2027 03:37:54.468            58.147                 Moscow          1817.094
       131   02 Jun 2027 03:51:20.881   02 Jun 2027 03:54:21.270           180.389               CapeTown          5637.156
       132   02 Jun 2027 04:54:47.218   02 Jun 2027 04:54:55.971             8.753               Magadan1           273.531
       133   02 Jun 2027 04:55:11.070   02 Jun 2027 04:59:00.355           229.285                Anadyr1          7165.156
       134   02 Jun 2027 04:59:22.677   02 Jun 2027 04:59:39.976            17.299               Magadan1           540.594
       135   02 Jun 2027 04:59:42.757   02 Jun 2027 05:00:32.905            50.148               Magadan2          1567.125
       136   02 Jun 2027 06:31:30.176   02 Jun 2027 06:32:04.974            34.798                Anadyr1          1087.438
       137   02 Jun 2027 06:32:10.959   02 Jun 2027 06:32:13.276             2.317                Norilsk            72.406
       138   02 Jun 2027 06:32:20.606   02 Jun 2027 06:34:05.881           105.275                Norilsk          3289.844
       139   02 Jun 2027 06:34:26.699   02 Jun 2027 06:35:19.890            53.191                Norilsk          1662.219
       140   02 Jun 2027 06:35:56.562   02 Jun 2027 06:36:17.296            20.734              Murmansk2           647.937
       141   02 Jun 2027 07:15:00.567   02 Jun 2027 07:15:49.403            48.836            RioGallegos          1526.125
       142   02 Jun 2027 08:05:50.807   02 Jun 2027 08:10:09.340           258.533                Anadyr1          8079.156
       143   02 Jun 2027 08:10:20.251   02 Jun 2027 08:11:00.112            39.861                Anadyr2          1245.656
       144   02 Jun 2027 08:11:06.361   02 Jun 2027 08:11:51.545            45.184                Irkutsk          1412.000
       145   02 Jun 2027 08:12:13.673   02 Jun 2027 08:12:44.120            30.447                Novosib           951.469
       146   02 Jun 2027 08:12:48.086   02 Jun 2027 08:13:03.963            15.877              Murmansk1           496.156
       147   02 Jun 2027 08:13:03.963   02 Jun 2027 08:14:10.992            67.029              Murmansk2          2094.656
       148   02 Jun 2027 08:17:26.582   02 Jun 2027 08:17:47.740            21.158              Murmansk2           661.187
       149   02 Jun 2027 08:47:24.647   02 Jun 2027 08:49:08.216           103.569            RioGallegos          3236.531
       150   02 Jun 2027 09:25:58.295   02 Jun 2027 09:26:43.352            45.057                Sumatra          1408.031
       151   02 Jun 2027 09:42:53.695   02 Jun 2027 09:45:51.977           178.282               Magadan1          5571.312
       152   02 Jun 2027 09:45:51.977   02 Jun 2027 09:46:04.807            12.830               Magadan2           400.937
       153   02 Jun 2027 09:46:16.863   02 Jun 2027 09:47:31.241            74.378                Irkutsk          2324.312
       154   02 Jun 2027 09:47:44.515   02 Jun 2027 09:48:18.950            34.435                Irkutsk          1076.094
       155   02 Jun 2027 09:48:22.001   02 Jun 2027 09:49:00.439            38.438                Norilsk          1201.187
       156   02 Jun 2027 09:49:08.783   02 Jun 2027 09:50:20.976            72.193              Murmansk2          2256.031
       157   02 Jun 2027 09:51:39.763   02 Jun 2027 09:52:09.648            29.885              Murmansk2           933.906
       158   02 Jun 2027 10:23:22.833   02 Jun 2027 10:25:00.356            97.523            RioGallegos          3047.594
       159   02 Jun 2027 10:57:52.377   02 Jun 2027 10:58:42.645            50.268                Sumatra          1570.875
       160   02 Jun 2027 11:00:54.806   02 Jun 2027 11:02:12.320            77.514                Sumatra          2422.313
       161   02 Jun 2027 11:07:21.036   02 Jun 2027 11:08:07.908            46.872                  Delhi          1464.750
       162   02 Jun 2027 11:18:17.288   02 Jun 2027 11:18:22.791             5.503                  Delhi           171.969
       163   02 Jun 2027 11:19:58.208   02 Jun 2027 11:20:05.325             7.117                Novosib           222.406
       164   02 Jun 2027 11:20:06.289   02 Jun 2027 11:21:27.994            81.705                 Moscow          2553.281
       165   02 Jun 2027 11:21:36.098   02 Jun 2027 11:22:24.453            48.355                Irkutsk          1511.094
       166   02 Jun 2027 11:22:29.247   02 Jun 2027 11:24:44.297           135.050                Novosib          4220.312
       167   02 Jun 2027 11:25:39.122   02 Jun 2027 11:26:26.142            47.020                 Moscow          1469.375
       168   02 Jun 2027 12:05:09.311   02 Jun 2027 12:06:09.778            60.467            RioGallegos          1889.594
       169   02 Jun 2027 12:42:22.437   02 Jun 2027 12:42:46.740            24.303                  Delhi           759.469
       170   02 Jun 2027 12:44:59.010   02 Jun 2027 12:46:53.543           114.533                  Delhi          3579.156
       171   02 Jun 2027 12:50:25.537   02 Jun 2027 12:51:16.169            50.632                Novosib          1582.250
       172   02 Jun 2027 12:52:28.598   02 Jun 2027 12:54:06.469            97.871                Novosib          3058.469
       173   02 Jun 2027 12:54:18.042   02 Jun 2027 12:54:39.822            21.780              Murmansk1           680.625
       174   02 Jun 2027 12:55:40.068   02 Jun 2027 12:55:55.612            15.544                Norilsk           485.750
       175   02 Jun 2027 12:57:42.662   02 Jun 2027 12:58:17.675            35.013                Norilsk          1094.156
       176   02 Jun 2027 13:02:16.725   02 Jun 2027 13:03:10.274            53.549                Norilsk          1673.406
       177   02 Jun 2027 14:26:25.499   02 Jun 2027 14:29:41.175           195.676                 Moscow          6114.875
       178   02 Jun 2027 14:29:55.288   02 Jun 2027 14:32:07.005           131.717              Murmansk1          4116.156
       179   02 Jun 2027 14:32:07.005   02 Jun 2027 14:32:11.930             4.925              Murmansk2           153.906
       180   02 Jun 2027 14:34:45.020   02 Jun 2027 14:37:14.280           149.260                Norilsk          4664.375
       181   02 Jun 2027 15:40:36.768   02 Jun 2027 15:41:55.722            78.954               CapeTown          2467.312
       182   02 Jun 2027 15:44:58.821   02 Jun 2027 15:45:03.906             5.085               CapeTown           158.906
       183   02 Jun 2027 16:04:20.996   02 Jun 2027 16:04:58.443            37.447                 Moscow          1170.219
       184   02 Jun 2027 16:07:16.396   02 Jun 2027 16:08:25.299            68.903              Murmansk2          2153.219
       185   02 Jun 2027 16:09:11.663   02 Jun 2027 16:10:57.703           106.040              Murmansk1          3313.750
       186   02 Jun 2027 16:20:49.489   02 Jun 2027 16:22:53.452           123.963                Anadyr1          3873.844
       187   02 Jun 2027 16:26:45.045   02 Jun 2027 16:26:48.868             3.823                Anadyr2           119.469
       188   02 Jun 2027 17:16:02.914   02 Jun 2027 17:17:58.585           115.671               CapeTown          3614.719
       189   02 Jun 2027 17:19:41.104   02 Jun 2027 17:20:20.207            39.103               CapeTown          1221.969
       190   02 Jun 2027 17:47:01.849   02 Jun 2027 17:50:49.016           227.167              Murmansk2          7098.969
       191   02 Jun 2027 17:51:14.019   02 Jun 2027 17:51:51.697            37.678              Murmansk2          1177.438
       192   02 Jun 2027 17:56:28.589   02 Jun 2027 17:56:52.537            23.948                Anadyr1           748.375
       193   02 Jun 2027 17:59:34.969   02 Jun 2027 18:02:13.231           158.262               Magadan1          4945.687
       194   02 Jun 2027 19:32:24.233   02 Jun 2027 19:35:24.215           179.982                Anadyr1          5624.438
       195   02 Jun 2027 19:35:49.042   02 Jun 2027 19:35:52.573             3.531                Anadyr1           110.344
       196   02 Jun 2027 19:35:57.535   02 Jun 2027 19:37:00.706            63.171               Magadan2          1974.094
       197   02 Jun 2027 19:37:15.855   02 Jun 2027 19:38:27.786            71.931               Magadan1          2247.844
       198   02 Jun 2027 19:41:43.903   02 Jun 2027 19:42:01.227            17.324               Magadan2           541.375
       199   02 Jun 2027 19:42:37.148   02 Jun 2027 19:43:00.676            23.528               Magadan2           735.250
       200   02 Jun 2027 19:45:45.766   02 Jun 2027 19:45:51.077             5.311               Magadan1           165.969
       201   02 Jun 2027 20:28:35.191   02 Jun 2027 20:31:05.895           150.704            RioGallegos          4709.500
       202   02 Jun 2027 20:33:55.082   02 Jun 2027 20:34:15.354            20.272            RioGallegos           633.500
       203   02 Jun 2027 21:08:13.268   02 Jun 2027 21:10:24.541           131.273                Anadyr2          4102.281
       204   02 Jun 2027 21:10:37.855   02 Jun 2027 21:12:49.089           131.234               Magadan2          4101.063
       205   02 Jun 2027 21:12:50.032   02 Jun 2027 21:13:17.002            26.970                Norilsk           842.812
       206   02 Jun 2027 21:13:26.929   02 Jun 2027 21:13:31.104             4.175                Norilsk           130.469
       207   02 Jun 2027 21:13:46.859   02 Jun 2027 21:13:57.672            10.813               Magadan2           337.906
       208   02 Jun 2027 21:14:01.334   02 Jun 2027 21:14:03.311             1.977                Norilsk            61.781
       209   02 Jun 2027 21:15:17.686   02 Jun 2027 21:16:08.041            50.355                Irkutsk          1573.594
       210   02 Jun 2027 21:17:46.209   02 Jun 2027 21:18:27.692            41.483                Irkutsk          1296.344
       211   02 Jun 2027 21:20:54.411   02 Jun 2027 21:21:31.457            37.046                Irkutsk          1157.688
       212   02 Jun 2027 21:30:14.591   02 Jun 2027 21:32:30.193           135.602                Sumatra          4237.563
       213   02 Jun 2027 21:36:32.155   02 Jun 2027 21:38:10.294            98.139                Sumatra          3066.844
       214   02 Jun 2027 22:45:17.840   02 Jun 2027 22:46:01.384            43.544                Anadyr2          1360.750
       215   02 Jun 2027 22:46:08.289   02 Jun 2027 22:47:53.687           105.398                Norilsk          3293.688
       216   02 Jun 2027 22:50:03.230   02 Jun 2027 22:51:14.529            71.299                Irkutsk          2228.094
       217   02 Jun 2027 22:51:26.200   02 Jun 2027 22:53:38.965           132.765                Novosib          4148.906
       218   02 Jun 2027 23:00:41.852   02 Jun 2027 23:02:19.804            97.952                  Delhi          3061.000
       219   03 Jun 2027 00:17:36.692   03 Jun 2027 00:17:43.120             6.428                Anadyr2           200.875
       220   03 Jun 2027 00:17:48.424   03 Jun 2027 00:17:54.842             6.418                Anadyr2           200.562
       221   03 Jun 2027 00:18:44.741   03 Jun 2027 00:19:51.792            67.051                Anadyr2          2095.344
       222   03 Jun 2027 00:20:15.908   03 Jun 2027 00:20:27.921            12.013                Anadyr2           375.406
       223   03 Jun 2027 00:21:44.162   03 Jun 2027 00:23:00.721            76.559                Anadyr2          2392.469
       224   03 Jun 2027 00:23:19.905   03 Jun 2027 00:23:29.457             9.552               Magadan2           298.500
       225   03 Jun 2027 00:23:50.662   03 Jun 2027 00:24:11.600            20.938                Norilsk           654.312
       226   03 Jun 2027 00:24:22.784   03 Jun 2027 00:24:51.369            28.585               Magadan1           893.281
       227   03 Jun 2027 00:25:04.431   03 Jun 2027 00:26:22.296            77.865              Murmansk1          2433.281
       228   03 Jun 2027 00:26:23.601   03 Jun 2027 00:27:40.217            76.616              Murmansk2          2394.250
       229   03 Jun 2027 00:28:07.521   03 Jun 2027 00:28:28.015            20.494              Murmansk2           640.438
       230   03 Jun 2027 00:29:36.627   03 Jun 2027 00:30:27.236            50.609              Murmansk1          1581.531
       231   03 Jun 2027 00:33:16.648   03 Jun 2027 00:33:18.149             1.501                  Delhi            46.906
       232   03 Jun 2027 00:35:30.210   03 Jun 2027 00:35:59.840            29.630                  Delhi           925.937
       233   03 Jun 2027 00:37:07.903   03 Jun 2027 00:37:37.071            29.168                  Delhi           911.500
       234   03 Jun 2027 00:38:07.520   03 Jun 2027 00:39:14.607            67.087                  Delhi          2096.469
       235   03 Jun 2027 01:15:11.361   03 Jun 2027 01:16:11.750            60.389            RioGallegos          1887.156
       236   03 Jun 2027 01:19:16.861   03 Jun 2027 01:20:04.252            47.391            RioGallegos          1480.969
       237   03 Jun 2027 01:50:54.167   03 Jun 2027 01:51:21.155            26.988                Anadyr2           843.375
       238   03 Jun 2027 01:51:58.830   03 Jun 2027 01:52:28.122            29.292                Anadyr2           915.375
       239   03 Jun 2027 01:54:09.639   03 Jun 2027 01:54:13.201             3.562                Anadyr1           111.312
       240   03 Jun 2027 01:54:31.129   03 Jun 2027 01:54:34.864             3.735                Anadyr2           116.719
       241   03 Jun 2027 01:56:09.977   03 Jun 2027 01:56:39.059            29.082                Anadyr1           908.813
       242   03 Jun 2027 01:56:53.645   03 Jun 2027 01:57:06.524            12.879                Anadyr2           402.469
       243   03 Jun 2027 01:57:42.928   03 Jun 2027 01:57:52.972            10.044               Magadan1           313.875
       244   03 Jun 2027 01:58:04.013   03 Jun 2027 01:58:25.258            21.245                Norilsk           663.906
       245   03 Jun 2027 01:58:37.589   03 Jun 2027 01:59:29.873            52.284               Magadan1          1633.875
       246   03 Jun 2027 01:59:58.419   03 Jun 2027 02:00:11.278            12.859                Norilsk           401.844
       247   03 Jun 2027 02:00:18.846   03 Jun 2027 02:00:45.429            26.583              Murmansk1           830.719
       248   03 Jun 2027 02:01:11.094   03 Jun 2027 02:02:15.127            64.033              Murmansk2          2001.031
       249   03 Jun 2027 02:03:31.110   03 Jun 2027 02:04:04.219            33.109                Irkutsk          1034.656
       250   03 Jun 2027 02:04:41.744   03 Jun 2027 02:05:29.942            48.198                 Moscow          1506.188
       251   03 Jun 2027 02:11:05.343   03 Jun 2027 02:11:36.742            31.399                  Delhi           981.219
       252   03 Jun 2027 02:12:26.252   03 Jun 2027 02:13:14.424            48.172                  Delhi          1505.375
       253   03 Jun 2027 02:30:42.634   03 Jun 2027 02:32:24.979           102.345               CapeTown          3198.281
       254   03 Jun 2027 03:44:46.844   03 Jun 2027 03:45:19.168            32.324                Norilsk          1010.125
       255   03 Jun 2027 03:45:19.278   03 Jun 2027 03:47:38.292           139.014                 Moscow          4344.188
       256   03 Jun 2027 03:47:43.759   03 Jun 2027 03:48:58.717            74.958              Murmansk1          2342.438
       257   03 Jun 2027 03:49:44.495   03 Jun 2027 03:51:11.283            86.788                 Moscow          2712.125
       258   03 Jun 2027 04:12:10.920   03 Jun 2027 04:12:22.678            11.758               CapeTown           367.437
       259   03 Jun 2027 04:12:58.584   03 Jun 2027 04:13:28.376            29.792               CapeTown           931.000
       260   03 Jun 2027 04:13:52.914   03 Jun 2027 04:15:23.138            90.224               CapeTown          2819.500
       261   03 Jun 2027 05:06:49.971   03 Jun 2027 05:10:21.600           211.629               Magadan1          6613.406
       262   03 Jun 2027 05:10:21.600   03 Jun 2027 05:10:29.334             7.734               Magadan2           241.687
       263   03 Jun 2027 05:12:46.478   03 Jun 2027 05:12:48.572             2.094                Norilsk            65.438
       264   03 Jun 2027 05:12:50.147   03 Jun 2027 05:12:52.436             2.289                Norilsk            71.531
       265   03 Jun 2027 05:13:02.550   03 Jun 2027 05:13:27.133            24.583                Norilsk           768.219
       266   03 Jun 2027 06:44:03.097   03 Jun 2027 06:44:36.628            33.531                Norilsk          1047.844
       267   03 Jun 2027 06:44:36.871   03 Jun 2027 06:44:52.211            15.340               Magadan1           479.375
       268   03 Jun 2027 06:45:07.154   03 Jun 2027 06:48:46.827           219.673                Anadyr1          6864.781
       269   03 Jun 2027 06:48:54.523   03 Jun 2027 06:49:35.080            40.557              Murmansk2          1267.406
       270   03 Jun 2027 06:53:27.521   03 Jun 2027 06:53:46.049            18.528                 Moscow           579.000
       271   03 Jun 2027 06:57:09.293   03 Jun 2027 06:57:29.397            20.104                 Moscow           628.250
       272   03 Jun 2027 07:27:19.869   03 Jun 2027 07:28:00.880            41.011            RioGallegos          1281.594
       273   03 Jun 2027 08:17:48.957   03 Jun 2027 08:21:02.376           193.419               Magadan2          6044.344
       274   03 Jun 2027 08:21:02.376   03 Jun 2027 08:21:41.208            38.832               Magadan1          1213.500
       275   03 Jun 2027 08:22:18.400   03 Jun 2027 08:22:20.944             2.544                Norilsk            79.500
       276   03 Jun 2027 08:22:21.735   03 Jun 2027 08:24:00.236            98.501                Irkutsk          3078.156
       277   03 Jun 2027 08:24:06.745   03 Jun 2027 08:24:58.169            51.424                Novosib          1607.000
       278   03 Jun 2027 08:25:21.694   03 Jun 2027 08:27:35.728           134.034              Murmansk1          4188.563
       279   03 Jun 2027 08:29:33.999   03 Jun 2027 08:30:07.100            33.101              Murmansk2          1034.406
       280   03 Jun 2027 08:59:14.889   03 Jun 2027 09:01:20.948           126.059            RioGallegos          3939.344
       281   03 Jun 2027 09:35:49.932   03 Jun 2027 09:35:53.220             3.288                Sumatra           102.750
       282   03 Jun 2027 09:38:39.243   03 Jun 2027 09:38:59.130            19.887                Sumatra           621.469
       283   03 Jun 2027 09:54:32.179   03 Jun 2027 09:54:49.346            17.167                Norilsk           536.469
       284   03 Jun 2027 09:54:55.750   03 Jun 2027 09:56:32.959            97.209                Novosib          3037.781
       285   03 Jun 2027 09:56:33.237   03 Jun 2027 09:57:02.489            29.252                Irkutsk           914.125
       286   03 Jun 2027 09:57:34.664   03 Jun 2027 09:59:49.118           134.454              Murmansk2          4201.688
       287   03 Jun 2027 09:59:49.118   03 Jun 2027 10:00:46.031            56.913              Murmansk1          1778.531
       288   03 Jun 2027 10:35:41.070   03 Jun 2027 10:35:47.534             6.464            RioGallegos           202.000
       289   03 Jun 2027 10:39:19.760   03 Jun 2027 10:40:19.272            59.512            RioGallegos          1859.750
       290   03 Jun 2027 11:10:02.704   03 Jun 2027 11:10:11.803             9.099                Sumatra           284.344
       291   03 Jun 2027 11:12:46.330   03 Jun 2027 11:14:40.791           114.461                Sumatra          3576.906
       292   03 Jun 2027 11:19:44.979   03 Jun 2027 11:20:20.126            35.147                  Delhi          1098.344
       293   03 Jun 2027 11:30:46.068   03 Jun 2027 11:31:27.952            41.884                Novosib          1308.875
       294   03 Jun 2027 11:31:35.574   03 Jun 2027 11:33:03.356            87.782                 Moscow          2743.188
       295   03 Jun 2027 11:33:29.049   03 Jun 2027 11:35:31.852           122.803                Irkutsk          3837.594
       296   03 Jun 2027 11:35:42.369   03 Jun 2027 11:36:18.507            36.138                 Moscow          1129.312
       297   03 Jun 2027 11:38:43.422   03 Jun 2027 11:39:13.391            29.969              Murmansk1           936.531
       298   03 Jun 2027 12:54:43.432   03 Jun 2027 12:56:11.541            88.109                  Delhi          2753.406
       299   03 Jun 2027 12:58:57.589   03 Jun 2027 12:59:54.730            57.141                  Delhi          1785.656
       300   03 Jun 2027 13:02:57.482   03 Jun 2027 13:05:02.437           124.955                Novosib          3904.844
       301   03 Jun 2027 13:06:06.966   03 Jun 2027 13:06:46.891            39.925                Novosib          1247.656
       302   03 Jun 2027 13:06:49.553   03 Jun 2027 13:07:34.877            45.324                Norilsk          1416.375
       303   03 Jun 2027 13:08:28.557   03 Jun 2027 13:08:51.471            22.914              Murmansk2           716.063
       304   03 Jun 2027 13:09:18.153   03 Jun 2027 13:09:44.785            26.632                Norilsk           832.250
       305   03 Jun 2027 13:10:21.372   03 Jun 2027 13:11:24.469            63.097                Norilsk          1971.781
       306   03 Jun 2027 14:38:29.868   03 Jun 2027 14:41:44.859           194.991                 Moscow          6093.469
       307   03 Jun 2027 14:42:01.155   03 Jun 2027 14:43:19.046            77.891              Murmansk1          2434.094
       308   03 Jun 2027 14:44:04.444   03 Jun 2027 14:45:15.315            70.871              Murmansk2          2214.719
       309   03 Jun 2027 14:47:37.550   03 Jun 2027 14:49:10.781            93.231                Norilsk          2913.469
       310   03 Jun 2027 14:59:17.230   03 Jun 2027 15:00:21.065            63.835                Anadyr2          1994.844
       311   03 Jun 2027 15:52:22.602   03 Jun 2027 15:53:06.495            43.893               CapeTown          1371.656
       312   03 Jun 2027 15:59:51.555   03 Jun 2027 16:01:48.849           117.294               CapeTown          3665.438
       313   03 Jun 2027 16:19:37.613   03 Jun 2027 16:20:07.814            30.201              Murmansk2           943.781
       314   03 Jun 2027 16:21:26.626   03 Jun 2027 16:21:51.376            24.750                 Moscow           773.438
       315   03 Jun 2027 16:23:55.904   03 Jun 2027 16:24:22.120            26.216              Murmansk2           819.250
       316   03 Jun 2027 16:32:46.511   03 Jun 2027 16:32:59.115            12.604                Anadyr1           393.875
       317   03 Jun 2027 16:33:03.407   03 Jun 2027 16:34:31.338            87.931                Anadyr2          2747.844
       318   03 Jun 2027 16:36:19.733   03 Jun 2027 16:37:10.224            50.491                Anadyr1          1577.844
       319   03 Jun 2027 16:41:27.226   03 Jun 2027 16:41:42.426            15.200                Anadyr2           475.000
       320   03 Jun 2027 17:28:14.217   03 Jun 2027 17:29:16.012            61.795               CapeTown          1931.094
       321   03 Jun 2027 17:33:42.642   03 Jun 2027 17:33:50.578             7.936               CapeTown           248.000
       322   03 Jun 2027 17:36:41.301   03 Jun 2027 17:38:00.231            78.930               CapeTown          2466.562
       323   03 Jun 2027 17:59:47.517   03 Jun 2027 18:02:46.433           178.916              Murmansk2          5591.125
       324   03 Jun 2027 18:02:46.433   03 Jun 2027 18:03:16.179            29.746              Murmansk1           929.563
       325   03 Jun 2027 18:08:42.424   03 Jun 2027 18:08:46.161             3.737                Anadyr2           116.781
       326   03 Jun 2027 18:09:15.010   03 Jun 2027 18:09:52.113            37.103                Anadyr2          1159.469
       327   03 Jun 2027 18:11:24.260   03 Jun 2027 18:12:46.983            82.723               Magadan2          2585.094
       328   03 Jun 2027 18:14:30.509   03 Jun 2027 18:14:36.307             5.798               Magadan1           181.188
       329   03 Jun 2027 18:18:28.702   03 Jun 2027 18:18:46.637            17.935               Magadan1           560.469
       330   03 Jun 2027 18:19:57.903   03 Jun 2027 18:20:06.482             8.579               Magadan1           268.094
       331   03 Jun 2027 19:44:25.635   03 Jun 2027 19:48:12.130           226.495                Anadyr2          7077.969
       332   03 Jun 2027 19:48:12.947   03 Jun 2027 19:50:40.398           147.451               Magadan1          4607.844
       333   03 Jun 2027 19:51:12.432   03 Jun 2027 19:51:24.417            11.985                Anadyr1           374.531
       334   03 Jun 2027 19:51:42.327   03 Jun 2027 19:52:16.309            33.982               Magadan1          1061.937
       335   03 Jun 2027 19:59:23.221   03 Jun 2027 19:59:30.581             7.360               Magadan1           230.000
       336   03 Jun 2027 20:39:55.752   03 Jun 2027 20:42:49.424           173.672            RioGallegos          5427.250
       337   03 Jun 2027 20:45:26.241   03 Jun 2027 20:45:47.034            20.793            RioGallegos           649.781
       338   03 Jun 2027 20:46:11.486   03 Jun 2027 20:47:01.158            49.672            RioGallegos          1552.250
       339   03 Jun 2027 21:20:12.308   03 Jun 2027 21:20:44.372            32.064                Anadyr2          1002.000
       340   03 Jun 2027 21:21:16.470   03 Jun 2027 21:21:46.069            29.599                Anadyr2           924.969
       341   03 Jun 2027 21:22:20.424   03 Jun 2027 21:24:57.828           157.404                Norilsk          4918.875
       342   03 Jun 2027 21:25:49.427   03 Jun 2027 21:26:03.199            13.772                Norilsk           430.375
       343   03 Jun 2027 21:27:00.492   03 Jun 2027 21:28:06.456            65.964                Irkutsk          2061.375
       344   03 Jun 2027 21:30:03.181   03 Jun 2027 21:30:19.133            15.952                Irkutsk           498.500
       345   03 Jun 2027 21:41:29.159   03 Jun 2027 21:44:09.895           160.736                Sumatra          5023.000
       346   03 Jun 2027 22:55:21.722   03 Jun 2027 22:55:29.623             7.901                Anadyr2           246.906
       347   03 Jun 2027 22:55:44.005   03 Jun 2027 22:56:25.577            41.572                Anadyr2          1299.125
       348   03 Jun 2027 22:57:51.881   03 Jun 2027 22:57:57.727             5.846                Anadyr2           182.687
       349   03 Jun 2027 22:58:10.131   03 Jun 2027 23:00:10.946           120.815                Norilsk          3775.469
       350   03 Jun 2027 23:02:03.193   03 Jun 2027 23:03:08.760            65.567                Irkutsk          2048.969
       351   03 Jun 2027 23:03:20.927   03 Jun 2027 23:05:33.537           132.610                Novosib          4144.062
       352   03 Jun 2027 23:11:36.885   03 Jun 2027 23:12:18.873            41.988                  Delhi          1312.125
       353   03 Jun 2027 23:12:57.564   03 Jun 2027 23:14:01.746            64.182                  Delhi          2005.687
       354   04 Jun 2027 00:29:19.457   04 Jun 2027 00:29:37.361            17.904                Anadyr2           559.500
       355   04 Jun 2027 00:29:37.361   04 Jun 2027 00:29:51.882            14.521                Anadyr1           453.781
       356   04 Jun 2027 00:30:12.307   04 Jun 2027 00:30:42.077            29.770                Anadyr1           930.312
       357   04 Jun 2027 00:30:55.601   04 Jun 2027 00:31:22.124            26.523                Anadyr1           828.844
       358   04 Jun 2027 00:31:50.333   04 Jun 2027 00:32:06.575            16.242                Anadyr2           507.563
       359   04 Jun 2027 00:33:25.896   04 Jun 2027 00:33:40.705            14.809                Anadyr2           462.781
       360   04 Jun 2027 00:34:10.591   04 Jun 2027 00:34:27.096            16.505                Norilsk           515.781
       361   04 Jun 2027 00:34:42.105   04 Jun 2027 00:36:24.028           101.923               Magadan2          3185.094
       362   04 Jun 2027 00:36:53.188   04 Jun 2027 00:38:22.188            89.000              Murmansk1          2781.250
       363   04 Jun 2027 00:38:25.950   04 Jun 2027 00:38:59.794            33.844                Novosib          1057.625
       364   04 Jun 2027 00:39:04.789   04 Jun 2027 00:40:08.964            64.175              Murmansk2          2005.469
       365   04 Jun 2027 00:41:00.664   04 Jun 2027 00:41:24.844            24.180              Murmansk1           755.625
       366   04 Jun 2027 00:50:03.060   04 Jun 2027 00:51:10.101            67.041                  Delhi          2095.031
       367   04 Jun 2027 01:27:33.217   04 Jun 2027 01:28:11.538            38.321            RioGallegos          1197.531
       368   04 Jun 2027 01:30:21.680   04 Jun 2027 01:30:52.186            30.506            RioGallegos           953.312
       369   04 Jun 2027 01:32:43.098   04 Jun 2027 01:32:54.403            11.305            RioGallegos           353.281
       370   04 Jun 2027 02:02:36.453   04 Jun 2027 02:03:45.794            69.341                Anadyr1          2166.906
       371   04 Jun 2027 02:04:42.574   04 Jun 2027 02:05:24.558            41.984                Anadyr2          1312.000
       372   04 Jun 2027 02:08:21.780   04 Jun 2027 02:08:44.218            22.438                Anadyr1           701.188
       373   04 Jun 2027 02:08:57.170   04 Jun 2027 02:10:33.309            96.139               Magadan1          3004.344
       374   04 Jun 2027 02:12:19.515   04 Jun 2027 02:13:36.568            77.053              Murmansk1          2407.906
       375   04 Jun 2027 02:13:55.000   04 Jun 2027 02:14:24.131            29.131              Murmansk2           910.344
       376   04 Jun 2027 02:15:28.288   04 Jun 2027 02:15:30.499             2.211                Novosib            69.094
       377   04 Jun 2027 02:15:54.033   04 Jun 2027 02:16:02.249             8.216                Novosib           256.750
       378   04 Jun 2027 02:16:04.785   04 Jun 2027 02:16:05.935             1.150                Irkutsk            35.938
       379   04 Jun 2027 02:16:54.923   04 Jun 2027 02:17:24.132            29.209                Novosib           912.781
       380   04 Jun 2027 02:21:08.808   04 Jun 2027 02:21:20.433            11.625                Novosib           363.281
       381   04 Jun 2027 02:22:03.828   04 Jun 2027 02:22:17.001            13.173                 Moscow           411.656
       382   04 Jun 2027 02:24:06.108   04 Jun 2027 02:24:40.325            34.217                  Delhi          1069.281
       383   04 Jun 2027 02:27:56.336   04 Jun 2027 02:28:35.048            38.712                  Delhi          1209.750
       384   04 Jun 2027 02:46:25.768   04 Jun 2027 02:47:12.929            47.161               CapeTown          1473.781
       385   04 Jun 2027 03:55:49.098   04 Jun 2027 03:56:35.378            46.280                Novosib          1446.250
       386   04 Jun 2027 03:56:39.462   04 Jun 2027 03:57:08.017            28.555                Norilsk           892.344
       387   04 Jun 2027 03:57:16.127   04 Jun 2027 04:00:12.763           176.636              Murmansk1          5519.875
       388   04 Jun 2027 05:18:52.606   04 Jun 2027 05:21:50.161           177.555               Magadan2          5548.594
       389   04 Jun 2027 05:21:53.083   04 Jun 2027 05:23:00.955            67.872                Anadyr1          2121.000
       390   04 Jun 2027 06:56:18.904   04 Jun 2027 06:56:51.940            33.036                Norilsk          1032.375
       391   04 Jun 2027 06:56:54.205   04 Jun 2027 06:58:57.499           123.294               Magadan2          3852.937
       392   04 Jun 2027 06:59:18.514   04 Jun 2027 06:59:57.839            39.325                Anadyr2          1228.906
       393   04 Jun 2027 08:30:00.843   04 Jun 2027 08:30:09.067             8.224               Magadan1           257.000
       394   04 Jun 2027 08:30:09.067   04 Jun 2027 08:30:25.710            16.643               Magadan2           520.094
       395   04 Jun 2027 08:30:26.697   04 Jun 2027 08:30:42.315            15.618                Norilsk           488.062
       396   04 Jun 2027 08:31:10.882   04 Jun 2027 08:31:49.069            38.187               Magadan1          1193.344
       397   04 Jun 2027 08:32:03.707   04 Jun 2027 08:32:55.780            52.073                Novosib          1627.281
       398   04 Jun 2027 08:32:59.823   04 Jun 2027 08:34:13.569            73.746                Novosib          2304.563
       399   04 Jun 2027 08:34:21.930   04 Jun 2027 08:35:35.367            73.437                Norilsk          2294.906
       400   04 Jun 2027 08:35:40.759   04 Jun 2027 08:36:45.543            64.784              Murmansk2          2024.500
       401   04 Jun 2027 08:38:15.302   04 Jun 2027 08:38:17.651             2.349              Murmansk2            73.406
       402   04 Jun 2027 08:38:31.280   04 Jun 2027 08:38:38.303             7.023              Murmansk2           219.469
       403   04 Jun 2027 08:38:48.835   04 Jun 2027 08:39:08.983            20.148              Murmansk2           629.625
       404   04 Jun 2027 09:11:08.325   04 Jun 2027 09:11:32.639            24.314            RioGallegos           759.813
       405   04 Jun 2027 09:12:19.644   04 Jun 2027 09:13:24.095            64.451            RioGallegos          2014.094
       406   04 Jun 2027 09:47:11.532   04 Jun 2027 09:47:53.840            42.308                Sumatra          1322.125
       407   04 Jun 2027 10:06:09.913   04 Jun 2027 10:06:41.267            31.354                Norilsk           979.813
       408   04 Jun 2027 10:06:44.055   04 Jun 2027 10:07:03.998            19.943                Norilsk           623.219
       409   04 Jun 2027 10:07:10.470   04 Jun 2027 10:07:24.233            13.763                Novosib           430.094
       410   04 Jun 2027 10:07:33.107   04 Jun 2027 10:08:02.968            29.861                Novosib           933.156
       411   04 Jun 2027 10:08:08.186   04 Jun 2027 10:08:36.189            28.003                Irkutsk           875.094
       412   04 Jun 2027 10:08:41.113   04 Jun 2027 10:09:43.363            62.250                Novosib          1945.312
       413   04 Jun 2027 10:09:51.058   04 Jun 2027 10:10:13.477            22.419                Norilsk           700.594
       414   04 Jun 2027 10:10:15.196   04 Jun 2027 10:10:32.708            17.512                Irkutsk           547.250
       415   04 Jun 2027 10:11:02.660   04 Jun 2027 10:11:45.924            43.264              Murmansk2          1352.000
       416   04 Jun 2027 10:11:55.783   04 Jun 2027 10:11:56.808             1.025                Novosib            32.031
       417   04 Jun 2027 10:12:00.325   04 Jun 2027 10:12:04.884             4.559                Novosib           142.469
       418   04 Jun 2027 10:12:09.877   04 Jun 2027 10:12:24.629            14.752                Norilsk           461.000
       419   04 Jun 2027 10:12:47.142   04 Jun 2027 10:12:57.435            10.293              Murmansk2           321.656
       420   04 Jun 2027 10:17:33.281   04 Jun 2027 10:17:35.497             2.216              Murmansk1            69.250
       421   04 Jun 2027 10:17:43.756   04 Jun 2027 10:18:22.502            38.746              Murmansk2          1210.812
       422   04 Jun 2027 10:48:03.898   04 Jun 2027 10:48:36.896            32.998            RioGallegos          1031.187
       423   04 Jun 2027 10:56:07.625   04 Jun 2027 10:57:15.024            67.399            RioGallegos          2106.219
       424   04 Jun 2027 11:22:19.615   04 Jun 2027 11:22:57.043            37.428                Sumatra          1169.625
       425   04 Jun 2027 11:43:27.332   04 Jun 2027 11:43:31.523             4.191              Murmansk1           130.969
       426   04 Jun 2027 11:43:33.203   04 Jun 2027 11:44:08.342            35.139                Irkutsk          1098.094
       427   04 Jun 2027 11:44:16.832   04 Jun 2027 11:44:33.732            16.900              Murmansk2           528.125
       428   04 Jun 2027 11:44:43.843   04 Jun 2027 11:45:39.556            55.713              Murmansk2          1741.031
       429   04 Jun 2027 11:45:43.323   04 Jun 2027 11:45:54.207            10.884                Novosib           340.125
       430   04 Jun 2027 11:45:56.153   04 Jun 2027 11:46:28.479            32.326                Norilsk          1010.188
       431   04 Jun 2027 11:46:35.665   04 Jun 2027 11:47:25.623            49.958                Irkutsk          1561.188
       432   04 Jun 2027 11:47:31.411   04 Jun 2027 11:47:50.121            18.710                Norilsk           584.688
       433   04 Jun 2027 11:47:55.345   04 Jun 2027 11:48:02.982             7.637              Murmansk1           238.656
       434   04 Jun 2027 11:48:08.074   04 Jun 2027 11:48:16.904             8.830                Novosib           275.937
       435   04 Jun 2027 11:48:29.595   04 Jun 2027 11:48:40.064            10.469              Murmansk1           327.156
       436   04 Jun 2027 11:49:09.341   04 Jun 2027 11:49:20.028            10.687              Murmansk1           333.969
       437   04 Jun 2027 13:07:12.384   04 Jun 2027 13:11:04.066           231.682                  Delhi          7240.063
       438   04 Jun 2027 13:11:20.912   04 Jun 2027 13:12:23.421            62.509                  Delhi          1953.406
       439   04 Jun 2027 13:15:35.482   04 Jun 2027 13:16:33.805            58.323                Novosib          1822.594
       440   04 Jun 2027 13:18:24.651   04 Jun 2027 13:19:06.355            41.704                Novosib          1303.250
       441   04 Jun 2027 13:19:17.142   04 Jun 2027 13:19:40.293            23.151                Norilsk           723.469
       442   04 Jun 2027 13:23:49.912   04 Jun 2027 13:24:13.829            23.917                Norilsk           747.406
       443   04 Jun 2027 13:26:33.452   04 Jun 2027 13:27:05.643            32.191                Norilsk          1005.969
       444   04 Jun 2027 14:50:37.306   04 Jun 2027 14:52:36.736           119.430                 Moscow          3732.187
       445   04 Jun 2027 14:54:08.719   04 Jun 2027 14:57:17.215           188.496              Murmansk1          5890.500
       446   04 Jun 2027 14:59:21.670   04 Jun 2027 14:59:37.465            15.795              Murmansk2           493.594
       447   04 Jun 2027 15:00:39.874   04 Jun 2027 15:03:30.318           170.444                Norilsk          5326.375
       448   04 Jun 2027 15:10:33.907   04 Jun 2027 15:10:50.765            16.858                Anadyr2           526.813
       449   04 Jun 2027 15:11:36.356   04 Jun 2027 15:11:41.024             4.668                Anadyr1           145.875
       450   04 Jun 2027 15:11:55.153   04 Jun 2027 15:12:22.400            27.247                Anadyr1           851.469
       451   04 Jun 2027 16:08:34.016   04 Jun 2027 16:10:22.198           108.182               CapeTown          3380.687
       452   04 Jun 2027 16:32:01.124   04 Jun 2027 16:32:53.751            52.627              Murmansk1          1644.594
       453   04 Jun 2027 16:33:13.860   04 Jun 2027 16:33:35.159            21.299              Murmansk1           665.594
       454   04 Jun 2027 16:35:57.358   04 Jun 2027 16:36:51.649            54.291              Murmansk1          1696.594
       455   04 Jun 2027 16:41:11.115   04 Jun 2027 16:41:55.946            44.831              Murmansk2          1400.969
       456   04 Jun 2027 16:44:44.514   04 Jun 2027 16:45:46.976            62.462                Anadyr1          1951.937
       457   04 Jun 2027 16:48:14.458   04 Jun 2027 16:49:11.461            57.003                Anadyr2          1781.344
       458   04 Jun 2027 17:40:29.242   04 Jun 2027 17:40:47.286            18.044               CapeTown           563.875
       459   04 Jun 2027 17:41:26.206   04 Jun 2027 17:42:01.633            35.427               CapeTown          1107.094
       460   04 Jun 2027 17:47:00.202   04 Jun 2027 17:47:27.492            27.290               CapeTown           852.812
       461   04 Jun 2027 17:51:04.796   04 Jun 2027 17:51:14.855            10.059               CapeTown           314.344
       462   04 Jun 2027 18:12:39.161   04 Jun 2027 18:17:04.061           264.900              Murmansk1          8278.125
       463   04 Jun 2027 18:23:16.286   04 Jun 2027 18:24:53.681            97.395               Magadan1          3043.594
       464   04 Jun 2027 18:27:32.060   04 Jun 2027 18:27:49.145            17.085               Magadan1           533.906
       465   04 Jun 2027 18:32:02.190   04 Jun 2027 18:33:04.104            61.914               Magadan2          1934.812
       466   04 Jun 2027 19:56:26.901   04 Jun 2027 19:59:39.888           192.987                Anadyr2          6030.844
       467   04 Jun 2027 19:59:48.427   04 Jun 2027 20:00:10.716            22.289                Anadyr2           696.531
       468   04 Jun 2027 20:00:15.303   04 Jun 2027 20:02:41.505           146.202               Magadan2          4568.813
       469   04 Jun 2027 20:08:44.197   04 Jun 2027 20:08:53.111             8.914               Magadan2           278.563
       470   04 Jun 2027 20:09:23.076   04 Jun 2027 20:09:24.740             1.664               Magadan1            52.000
       471   04 Jun 2027 20:09:24.740   04 Jun 2027 20:09:30.734             5.994               Magadan2           187.313
       472   04 Jun 2027 20:10:08.585   04 Jun 2027 20:11:10.954            62.369               Magadan1          1949.031
       473   04 Jun 2027 20:51:29.806   04 Jun 2027 20:53:52.713           142.907            RioGallegos          4465.844
       474   04 Jun 2027 20:57:35.819   04 Jun 2027 20:58:05.585            29.766            RioGallegos           930.187
       475   04 Jun 2027 21:32:10.778   04 Jun 2027 21:32:58.108            47.330                Anadyr1          1479.063
       476   04 Jun 2027 21:34:19.316   04 Jun 2027 21:34:43.810            24.494                Norilsk           765.437
       477   04 Jun 2027 21:35:17.026   04 Jun 2027 21:36:48.485            91.459               Magadan2          2858.094
       478   04 Jun 2027 21:37:58.498   04 Jun 2027 21:38:22.704            24.206               Magadan2           756.437
       479   04 Jun 2027 21:38:47.738   04 Jun 2027 21:38:50.177             2.439                Irkutsk            76.219
       480   04 Jun 2027 21:39:02.235   04 Jun 2027 21:40:05.943            63.708                Irkutsk          1990.875
       481   04 Jun 2027 21:41:27.363   04 Jun 2027 21:42:12.804            45.441                Irkutsk          1420.031
       482   04 Jun 2027 21:52:56.544   04 Jun 2027 21:55:46.103           169.559                Sumatra          5298.719
