uniorb/output/strategy_1/Drop/Drop_KinoSat_111903.txt

KinoSat_111903
-------------------------
    Access    *     Start Time (UTCG)     *     Stop Time (UTCG)  *   Duration (s)        *       Station  *  Data (Mbytes)
         1   01 Jun 2027 03:22:12.552   01 Jun 2027 03:23:45.783            93.231              Murmansk2          2913.469
         2   01 Jun 2027 03:23:49.250   01 Jun 2027 03:24:31.186            41.936              Murmansk2          1310.500
         3   01 Jun 2027 03:24:32.517   01 Jun 2027 03:25:47.434            74.917                Irkutsk          2341.156
         4   01 Jun 2027 03:26:13.193   01 Jun 2027 03:29:21.104           187.911                Novosib          5872.219
         5   01 Jun 2027 03:29:35.371   01 Jun 2027 03:30:45.359            69.988                Irkutsk          2187.125
         6   01 Jun 2027 04:10:03.388   01 Jun 2027 04:14:04.648           241.260            RioGallegos          7539.375
         7   01 Jun 2027 04:59:41.370   01 Jun 2027 05:03:09.118           207.748                Novosib          6492.125
         8   01 Jun 2027 05:03:19.710   01 Jun 2027 05:05:19.188           119.478              Murmansk1          3733.687
         9   01 Jun 2027 05:06:08.098   01 Jun 2027 05:06:18.207            10.109                Novosib           315.906
        10   01 Jun 2027 06:38:17.602   01 Jun 2027 06:38:47.278            29.676                Norilsk           927.375
        11   01 Jun 2027 06:38:54.661   01 Jun 2027 06:40:50.456           115.795              Murmansk2          3618.594
        12   01 Jun 2027 06:40:50.456   01 Jun 2027 06:41:09.728            19.272              Murmansk1           602.250
        13   01 Jun 2027 06:41:12.828   01 Jun 2027 06:42:59.617           106.789                 Moscow          3337.156
        14   01 Jun 2027 06:57:28.384   01 Jun 2027 06:59:25.339           116.955               CapeTown          3654.844
        15   01 Jun 2027 08:02:19.292   01 Jun 2027 08:09:38.466           439.174                Norilsk         13724.187
        16   01 Jun 2027 08:09:42.106   01 Jun 2027 08:11:33.323           111.217                 Moscow          3475.531
        17   01 Jun 2027 09:32:27.452   01 Jun 2027 09:33:03.087            35.635                Anadyr2          1113.594
        18   01 Jun 2027 09:37:20.847   01 Jun 2027 09:42:34.992           314.145                Anadyr2          9817.031
        19   01 Jun 2027 11:13:09.113   01 Jun 2027 11:17:58.175           289.062               Magadan1          9033.187
        20   01 Jun 2027 14:20:03.397   01 Jun 2027 14:24:23.356           259.959                Irkutsk          8123.719
        21   01 Jun 2027 15:49:45.548   01 Jun 2027 15:54:25.057           279.509                  Delhi          8734.656
        22   01 Jun 2027 15:58:14.062   01 Jun 2027 15:59:30.699            76.637                Novosib          2394.906
        23   01 Jun 2027 15:59:45.463   01 Jun 2027 16:05:02.229           316.766                Novosib          9898.938
        24   01 Jun 2027 19:12:28.937   01 Jun 2027 19:16:42.153           253.216                 Moscow          7913.000
        25   01 Jun 2027 20:24:57.196   01 Jun 2027 20:26:21.409            84.213               CapeTown          2631.656
        26   01 Jun 2027 20:27:53.581   01 Jun 2027 20:27:58.663             5.082               CapeTown           158.813
        27   01 Jun 2027 20:31:48.442   01 Jun 2027 20:32:29.806            41.364               CapeTown          1292.625
        28   01 Jun 2027 20:55:30.176   01 Jun 2027 20:59:41.978           251.802              Murmansk2          7868.812
        29   01 Jun 2027 22:38:20.820   01 Jun 2027 22:41:00.333           159.513                Anadyr1          4984.781
        30   01 Jun 2027 22:41:02.535   01 Jun 2027 22:42:22.710            80.175               Magadan2          2505.469
        31   01 Jun 2027 22:43:35.237   01 Jun 2027 22:43:46.311            11.074               Magadan1           346.062
        32   01 Jun 2027 22:43:46.311   01 Jun 2027 22:44:21.537            35.226               Magadan2          1100.813
        33   01 Jun 2027 23:33:01.043   01 Jun 2027 23:36:21.952           200.909            RioGallegos          6278.406
        34   01 Jun 2027 23:38:29.839   01 Jun 2027 23:39:20.130            50.291            RioGallegos          1571.594
        35   02 Jun 2027 00:14:02.063   02 Jun 2027 00:15:14.518            72.455                Anadyr2          2264.219
        36   02 Jun 2027 00:16:09.377   02 Jun 2027 00:17:59.177           109.800                Norilsk          3431.250
        37   02 Jun 2027 00:18:23.544   02 Jun 2027 00:19:23.810            60.266               Magadan2          1883.313
        38   02 Jun 2027 00:19:51.690   02 Jun 2027 00:20:17.796            26.106               Magadan1           815.812
        39   02 Jun 2027 00:20:28.859   02 Jun 2027 00:21:51.969            83.110                Irkutsk          2597.188
        40   02 Jun 2027 00:23:40.292   02 Jun 2027 00:24:18.497            38.205                Novosib          1193.906
        41   02 Jun 2027 00:34:24.110   02 Jun 2027 00:36:09.074           104.964                Sumatra          3280.125
        42   02 Jun 2027 00:37:02.414   02 Jun 2027 00:37:44.652            42.238                Sumatra          1319.938
        43   02 Jun 2027 01:08:02.888   02 Jun 2027 01:08:38.480            35.592            RioGallegos          1112.250
        44   02 Jun 2027 01:09:07.378   02 Jun 2027 01:09:49.937            42.559            RioGallegos          1329.969
        45   02 Jun 2027 01:48:55.966   02 Jun 2027 01:49:22.562            26.596                Anadyr1           831.125
        46   02 Jun 2027 01:49:33.085   02 Jun 2027 01:50:00.040            26.955                Anadyr2           842.344
        47   02 Jun 2027 01:50:23.437   02 Jun 2027 01:51:05.993            42.556                Anadyr2          1329.875
        48   02 Jun 2027 01:52:05.747   02 Jun 2027 01:53:24.018            78.271                Norilsk          2445.969
        49   02 Jun 2027 01:53:39.260   02 Jun 2027 01:54:24.926            45.666                Norilsk          1427.062
        50   02 Jun 2027 01:55:58.239   02 Jun 2027 01:58:09.543           131.304                Irkutsk          4103.250
        51   02 Jun 2027 01:59:34.147   02 Jun 2027 01:59:39.026             4.879                Irkutsk           152.469
        52   02 Jun 2027 01:59:56.389   02 Jun 2027 02:01:00.306            63.917                Irkutsk          1997.406
        53   02 Jun 2027 02:04:16.845   02 Jun 2027 02:04:29.793            12.948                  Delhi           404.625
        54   02 Jun 2027 02:04:57.903   02 Jun 2027 02:05:06.728             8.825                  Delhi           275.781
        55   02 Jun 2027 02:07:21.961   02 Jun 2027 02:07:24.739             2.778                  Delhi            86.812
        56   02 Jun 2027 02:10:54.949   02 Jun 2027 02:15:50.354           295.405                Sumatra          9231.406
        57   02 Jun 2027 03:33:55.620   02 Jun 2027 03:34:31.147            35.527              Murmansk2          1110.219
        58   02 Jun 2027 03:34:51.633   02 Jun 2027 03:37:28.790           157.157                Norilsk          4911.156
        59   02 Jun 2027 03:37:32.487   02 Jun 2027 03:38:39.034            66.547                Novosib          2079.594
        60   02 Jun 2027 03:38:53.421   02 Jun 2027 03:39:27.627            34.206                Norilsk          1068.938
        61   02 Jun 2027 03:39:31.020   02 Jun 2027 03:42:17.358           166.338                Irkutsk          5198.062
        62   02 Jun 2027 03:43:03.394   02 Jun 2027 03:43:28.741            25.347                Novosib           792.094
        63   02 Jun 2027 03:44:23.334   02 Jun 2027 03:44:58.770            35.436                  Delhi          1107.375
        64   02 Jun 2027 03:47:18.172   02 Jun 2027 03:51:30.629           252.457                  Delhi          7889.281
        65   02 Jun 2027 04:23:35.533   02 Jun 2027 04:23:58.968            23.435            RioGallegos           732.344
        66   02 Jun 2027 05:12:19.585   02 Jun 2027 05:13:45.028            85.443                Novosib          2670.094
        67   02 Jun 2027 05:14:28.122   02 Jun 2027 05:16:14.763           106.641                Norilsk          3332.531
        68   02 Jun 2027 05:16:24.522   02 Jun 2027 05:21:47.962           323.440                 Moscow         10107.500
        69   02 Jun 2027 05:34:18.870   02 Jun 2027 05:36:04.763           105.893               CapeTown          3309.156
        70   02 Jun 2027 05:40:54.306   02 Jun 2027 05:41:01.123             6.817               CapeTown           213.031
        71   02 Jun 2027 06:50:18.742   02 Jun 2027 06:50:35.860            17.118                Norilsk           534.938
        72   02 Jun 2027 06:50:37.788   02 Jun 2027 06:51:52.952            75.164              Murmansk1          2348.875
        73   02 Jun 2027 06:51:59.755   02 Jun 2027 06:52:29.156            29.401                 Moscow           918.781
        74   02 Jun 2027 06:52:48.421   02 Jun 2027 06:55:02.926           134.505              Murmansk1          4203.281
        75   02 Jun 2027 06:55:08.995   02 Jun 2027 06:55:25.438            16.443                 Moscow           513.844
        76   02 Jun 2027 06:57:03.822   02 Jun 2027 06:57:12.750             8.928                 Moscow           279.000
        77   02 Jun 2027 07:09:44.943   02 Jun 2027 07:14:44.158           299.215               CapeTown          9350.469
        78   02 Jun 2027 08:14:32.567   02 Jun 2027 08:16:07.087            94.520                Anadyr1          2953.750
        79   02 Jun 2027 08:16:07.087   02 Jun 2027 08:16:54.815            47.728                Anadyr2          1491.500
        80   02 Jun 2027 08:17:54.487   02 Jun 2027 08:18:56.985            62.498                Anadyr1          1953.063
        81   02 Jun 2027 09:45:00.422   02 Jun 2027 09:49:47.603           287.181                Anadyr1          8974.406
        82   02 Jun 2027 09:50:48.058   02 Jun 2027 09:52:40.966           112.908                Anadyr2          3528.375
        83   02 Jun 2027 09:52:56.420   02 Jun 2027 09:54:33.374            96.954               Magadan2          3029.812
        84   02 Jun 2027 11:25:03.719   02 Jun 2027 11:26:01.494            57.775               Magadan2          1805.469
        85   02 Jun 2027 11:26:11.165   02 Jun 2027 11:29:49.684           218.519               Magadan2          6828.719
        86   02 Jun 2027 13:42:59.421   02 Jun 2027 13:43:28.685            29.264            RioGallegos           914.500
        87   02 Jun 2027 13:48:00.307   02 Jun 2027 13:52:52.217           291.910            RioGallegos          9122.188
        88   02 Jun 2027 14:18:47.894   02 Jun 2027 14:22:00.974           193.080                Sumatra          6033.750
        89   02 Jun 2027 14:24:01.891   02 Jun 2027 14:26:31.127           149.236                Sumatra          4663.625
        90   02 Jun 2027 14:35:54.330   02 Jun 2027 14:37:14.045            79.715                Irkutsk          2491.094
        91   02 Jun 2027 14:37:34.944   02 Jun 2027 14:40:38.936           183.992                Irkutsk          5749.750
        92   02 Jun 2027 16:02:40.669   02 Jun 2027 16:10:27.184           466.515                  Delhi         14578.594
        93   02 Jun 2027 16:14:57.996   02 Jun 2027 16:17:57.927           179.931                Novosib          5622.844
        94   02 Jun 2027 19:25:38.023   02 Jun 2027 19:30:58.594           320.571                 Moscow         10017.844
        95   02 Jun 2027 19:31:00.099   02 Jun 2027 19:31:58.982            58.883              Murmansk1          1840.094
        96   02 Jun 2027 20:36:08.238   02 Jun 2027 20:38:37.107           148.869               CapeTown          4652.156
        97   02 Jun 2027 20:40:10.359   02 Jun 2027 20:41:24.930            74.571               CapeTown          2330.344
        98   02 Jun 2027 21:08:51.333   02 Jun 2027 21:11:06.200           134.867              Murmansk1          4214.594
        99   02 Jun 2027 22:50:21.992   02 Jun 2027 22:52:57.823           155.831                Anadyr2          4869.719
       100   02 Jun 2027 22:53:02.349   02 Jun 2027 22:54:09.864            67.515                Norilsk          2109.844
       101   02 Jun 2027 22:54:52.852   02 Jun 2027 22:55:44.142            51.290                Norilsk          1602.812
       102   02 Jun 2027 22:55:49.556   02 Jun 2027 22:56:29.189            39.633               Magadan1          1238.531
       103   02 Jun 2027 22:56:58.046   02 Jun 2027 22:57:33.932            35.886               Magadan1          1121.437
       104   02 Jun 2027 22:58:18.696   02 Jun 2027 22:58:19.223             0.527               Magadan1            16.469
       105   02 Jun 2027 22:58:29.815   02 Jun 2027 22:59:09.299            39.484               Magadan2          1233.875
       106   02 Jun 2027 23:03:08.669   02 Jun 2027 23:03:28.527            19.858               Magadan1           620.562
       107   02 Jun 2027 23:04:12.314   02 Jun 2027 23:04:45.652            33.338               Magadan2          1041.812
       108   02 Jun 2027 23:44:47.961   02 Jun 2027 23:45:59.172            71.211            RioGallegos          2225.344
       109   02 Jun 2027 23:46:14.539   02 Jun 2027 23:46:48.644            34.105            RioGallegos          1065.781
       110   02 Jun 2027 23:47:46.950   02 Jun 2027 23:48:15.822            28.872            RioGallegos           902.250
       111   02 Jun 2027 23:49:13.078   02 Jun 2027 23:49:43.186            30.108            RioGallegos           940.875
       112   02 Jun 2027 23:50:26.386   02 Jun 2027 23:50:38.397            12.011            RioGallegos           375.344
       113   02 Jun 2027 23:50:57.212   02 Jun 2027 23:51:46.978            49.766            RioGallegos          1555.188
       114   03 Jun 2027 00:25:59.434   03 Jun 2027 00:27:40.628           101.194                Anadyr1          3162.312
       115   03 Jun 2027 00:28:10.120   03 Jun 2027 00:30:01.377           111.257                Norilsk          3476.781
       116   03 Jun 2027 00:30:39.812   03 Jun 2027 00:32:30.397           110.585               Magadan1          3455.781
       117   03 Jun 2027 00:33:20.207   03 Jun 2027 00:33:50.516            30.309                Irkutsk           947.156
       118   03 Jun 2027 00:34:51.128   03 Jun 2027 00:35:37.119            45.991                Novosib          1437.219
       119   03 Jun 2027 00:36:39.921   03 Jun 2027 00:38:49.557           129.636                Novosib          4051.125
       120   03 Jun 2027 00:49:44.130   03 Jun 2027 00:52:06.501           142.371                Sumatra          4449.094
       121   03 Jun 2027 01:28:51.619   03 Jun 2027 01:28:58.017             6.398            RioGallegos           199.937
       122   03 Jun 2027 01:29:11.972   03 Jun 2027 01:29:40.234            28.262            RioGallegos           883.188
       123   03 Jun 2027 01:31:53.589   03 Jun 2027 01:32:31.896            38.307            RioGallegos          1197.094
       124   03 Jun 2027 02:01:19.821   03 Jun 2027 02:01:34.412            14.591                Anadyr2           455.969
       125   03 Jun 2027 02:02:14.004   03 Jun 2027 02:02:25.349            11.345                Anadyr2           354.531
       126   03 Jun 2027 02:03:01.320   03 Jun 2027 02:03:18.518            17.198                Anadyr1           537.437
       127   03 Jun 2027 02:04:00.275   03 Jun 2027 02:04:06.298             6.023                Anadyr2           188.219
       128   03 Jun 2027 02:04:08.192   03 Jun 2027 02:05:15.355            67.163                Norilsk          2098.844
       129   03 Jun 2027 02:05:37.143   03 Jun 2027 02:06:01.948            24.805                Norilsk           775.156
       130   03 Jun 2027 02:07:10.935   03 Jun 2027 02:07:34.083            23.148                Norilsk           723.375
       131   03 Jun 2027 02:08:01.199   03 Jun 2027 02:11:11.277           190.078                Irkutsk          5939.937
       132   03 Jun 2027 02:22:05.173   03 Jun 2027 02:22:58.002            52.829                  Delhi          1650.906
       133   03 Jun 2027 02:23:38.647   03 Jun 2027 02:28:13.713           275.066                Sumatra          8595.813
       134   03 Jun 2027 03:46:19.139   03 Jun 2027 03:46:50.857            31.718                Irkutsk           991.188
       135   03 Jun 2027 03:46:55.976   03 Jun 2027 03:51:08.429           252.453                Irkutsk          7889.156
       136   03 Jun 2027 03:52:43.111   03 Jun 2027 03:53:36.186            53.075                Irkutsk          1658.594
       137   03 Jun 2027 03:54:19.396   03 Jun 2027 03:55:05.471            46.075                Novosib          1439.844
       138   03 Jun 2027 05:25:16.523   03 Jun 2027 05:29:46.454           269.931                Novosib          8435.344
       139   03 Jun 2027 05:29:51.191   03 Jun 2027 05:30:20.644            29.453              Murmansk2           920.406
       140   03 Jun 2027 05:31:00.183   03 Jun 2027 05:34:03.283           183.100                 Moscow          5721.875
       141   03 Jun 2027 05:45:58.437   03 Jun 2027 05:50:14.687           256.250               CapeTown          8007.812
       142   03 Jun 2027 05:52:09.930   03 Jun 2027 05:55:20.519           190.589               CapeTown          5955.906
       143   03 Jun 2027 07:01:09.036   03 Jun 2027 07:03:10.414           121.378              Murmansk2          3793.062
       144   03 Jun 2027 07:03:10.414   03 Jun 2027 07:03:44.425            34.011              Murmansk1          1062.844
       145   03 Jun 2027 07:04:32.644   03 Jun 2027 07:05:23.744            51.100                 Moscow          1596.875
       146   03 Jun 2027 07:22:08.129   03 Jun 2027 07:27:00.739           292.610               CapeTown          9144.062
       147   03 Jun 2027 08:25:11.377   03 Jun 2027 08:28:21.674           190.297                Anadyr1          5946.781
       148   03 Jun 2027 08:28:21.674   03 Jun 2027 08:28:53.589            31.915                Anadyr2           997.344
       149   03 Jun 2027 09:57:37.529   03 Jun 2027 09:58:19.190            41.661                Anadyr2          1301.906
       150   03 Jun 2027 09:58:21.723   03 Jun 2027 09:58:22.019             0.296               Magadan2             9.250
       151   03 Jun 2027 10:00:21.510   03 Jun 2027 10:06:24.925           363.415                Anadyr2         11356.719
       152   03 Jun 2027 11:33:00.253   03 Jun 2027 11:39:06.794           366.541               Magadan1         11454.406
       153   03 Jun 2027 11:40:27.260   03 Jun 2027 11:41:06.045            38.785              Murmansk1          1212.031
       154   03 Jun 2027 11:41:15.697   03 Jun 2027 11:41:38.109            22.412               Magadan2           700.375
       155   03 Jun 2027 11:41:39.490   03 Jun 2027 11:41:52.418            12.928              Murmansk1           404.000
       156   03 Jun 2027 11:42:03.402   03 Jun 2027 11:42:13.839            10.437                Norilsk           326.156
       157   03 Jun 2027 11:42:18.043   03 Jun 2027 11:43:14.385            56.342              Murmansk1          1760.688
       158   03 Jun 2027 12:17:00.896   03 Jun 2027 12:17:57.851            56.955            RioGallegos          1779.844
       159   03 Jun 2027 12:20:16.466   03 Jun 2027 12:20:37.883            21.417            RioGallegos           669.281
       160   03 Jun 2027 12:24:35.586   03 Jun 2027 12:25:43.886            68.300            RioGallegos          2134.375
       161   03 Jun 2027 12:52:03.428   03 Jun 2027 12:52:50.423            46.995                Sumatra          1468.594
       162   03 Jun 2027 12:58:52.809   03 Jun 2027 13:00:00.212            67.403                Sumatra          2106.344
       163   03 Jun 2027 13:05:42.837   03 Jun 2027 13:06:16.723            33.886                Irkutsk          1058.937
       164   03 Jun 2027 13:07:12.384   03 Jun 2027 13:08:02.447            50.063                Novosib          1564.469
       165   03 Jun 2027 13:08:38.914   03 Jun 2027 13:10:14.132            95.218                Irkutsk          2975.562
       166   03 Jun 2027 13:15:59.043   03 Jun 2027 13:16:45.703            46.660                Norilsk          1458.125
       167   03 Jun 2027 13:55:41.602   03 Jun 2027 14:02:11.625           390.023            RioGallegos         12188.219
       168   03 Jun 2027 14:30:08.048   03 Jun 2027 14:35:37.998           329.950                Sumatra         10310.938
       169   03 Jun 2027 14:36:49.216   03 Jun 2027 14:37:33.072            43.856                Sumatra          1370.500
       170   03 Jun 2027 14:45:58.937   03 Jun 2027 14:49:57.124           238.187                Irkutsk          7443.344
       171   03 Jun 2027 16:16:04.627   03 Jun 2027 16:21:17.378           312.751                  Delhi          9773.469
       172   03 Jun 2027 16:24:25.827   03 Jun 2027 16:29:17.332           291.505                Novosib          9109.531
       173   03 Jun 2027 19:39:19.803   03 Jun 2027 19:40:01.116            41.313              Murmansk1          1291.031
       174   03 Jun 2027 19:40:02.510   03 Jun 2027 19:41:40.965            98.455                 Moscow          3076.719
       175   03 Jun 2027 19:42:19.550   03 Jun 2027 19:44:51.571           152.021              Murmansk2          4750.656
       176   03 Jun 2027 20:47:48.172   03 Jun 2027 20:54:46.952           418.780               CapeTown         13086.875
       177   03 Jun 2027 21:33:53.396   03 Jun 2027 21:34:22.425            29.029               Magadan2           907.156
       178   03 Jun 2027 21:40:02.347   03 Jun 2027 21:40:49.983            47.636               Magadan2          1488.625
       179   03 Jun 2027 23:02:22.903   03 Jun 2027 23:06:10.599           227.696                Anadyr2          7115.500
       180   03 Jun 2027 23:06:31.337   03 Jun 2027 23:09:03.621           152.284               Magadan1          4758.875
       181   03 Jun 2027 23:09:45.166   03 Jun 2027 23:10:00.835            15.669               Magadan2           489.656
       182   03 Jun 2027 23:11:00.869   03 Jun 2027 23:11:10.773             9.904               Magadan2           309.500
       183   03 Jun 2027 23:11:16.271   03 Jun 2027 23:12:08.874            52.603                Irkutsk          1643.844
       184   03 Jun 2027 23:14:12.097   03 Jun 2027 23:14:56.350            44.253                Irkutsk          1382.906
       185   03 Jun 2027 23:56:38.279   03 Jun 2027 23:58:15.481            97.202            RioGallegos          3037.563
       186   03 Jun 2027 23:58:25.704   03 Jun 2027 23:58:51.482            25.778            RioGallegos           805.563
       187   04 Jun 2027 00:01:17.612   04 Jun 2027 00:01:45.976            28.364            RioGallegos           886.375
       188   04 Jun 2027 00:05:36.556   04 Jun 2027 00:06:06.702            30.146            RioGallegos           942.062
       189   04 Jun 2027 00:37:55.978   04 Jun 2027 00:38:39.623            43.645                Anadyr2          1363.906
       190   04 Jun 2027 00:39:04.070   04 Jun 2027 00:39:24.512            20.442                Anadyr1           638.813
       191   04 Jun 2027 00:39:24.512   04 Jun 2027 00:40:12.722            48.210                Anadyr2          1506.562
       192   04 Jun 2027 00:40:23.907   04 Jun 2027 00:42:03.644            99.737                Norilsk          3116.781
       193   04 Jun 2027 00:42:17.944   04 Jun 2027 00:43:59.448           101.504               Magadan2          3172.000
       194   04 Jun 2027 00:45:14.912   04 Jun 2027 00:45:55.905            40.993                Irkutsk          1281.031
       195   04 Jun 2027 00:47:00.293   04 Jun 2027 00:48:10.998            70.705                Novosib          2209.531
       196   04 Jun 2027 00:52:20.436   04 Jun 2027 00:52:38.432            17.996                Novosib           562.375
       197   04 Jun 2027 00:55:43.276   04 Jun 2027 00:55:58.636            15.360                Irkutsk           480.000
       198   04 Jun 2027 00:56:23.381   04 Jun 2027 00:56:30.058             6.677                Irkutsk           208.656
       199   04 Jun 2027 00:58:43.345   04 Jun 2027 01:01:00.363           137.018                Sumatra          4281.813
       200   04 Jun 2027 01:10:34.405   04 Jun 2027 01:10:39.414             5.009                Sumatra           156.531
       201   04 Jun 2027 01:37:46.332   04 Jun 2027 01:38:17.035            30.703            RioGallegos           959.469
       202   04 Jun 2027 01:40:01.242   04 Jun 2027 01:40:31.373            30.131            RioGallegos           941.594
       203   04 Jun 2027 01:42:09.117   04 Jun 2027 01:42:43.434            34.317            RioGallegos          1072.406
       204   04 Jun 2027 02:13:19.114   04 Jun 2027 02:13:35.785            16.671                Anadyr2           520.969
       205   04 Jun 2027 02:14:15.627   04 Jun 2027 02:14:30.442            14.815                Anadyr2           462.969
       206   04 Jun 2027 02:15:07.613   04 Jun 2027 02:15:18.993            11.380                Anadyr1           355.625
       207   04 Jun 2027 02:16:10.655   04 Jun 2027 02:17:21.469            70.814                Norilsk          2212.937
       208   04 Jun 2027 02:18:34.496   04 Jun 2027 02:18:39.010             4.514               Magadan1           141.062
       209   04 Jun 2027 02:18:43.239   04 Jun 2027 02:19:07.140            23.901                Norilsk           746.906
       210   04 Jun 2027 02:20:04.948   04 Jun 2027 02:22:48.680           163.732                Irkutsk          5116.625
       211   04 Jun 2027 02:29:56.081   04 Jun 2027 02:31:59.089           123.008                Irkutsk          3844.000
       212   04 Jun 2027 02:36:45.882   04 Jun 2027 02:40:46.913           241.031                Sumatra          7532.219
       213   04 Jun 2027 03:58:28.532   04 Jun 2027 03:59:06.875            38.343                Irkutsk          1198.219
       214   04 Jun 2027 03:59:16.354   04 Jun 2027 03:59:45.611            29.257                Norilsk           914.281
       215   04 Jun 2027 03:59:56.169   04 Jun 2027 04:00:55.390            59.221              Murmansk2          1850.656
       216   04 Jun 2027 04:00:55.390   04 Jun 2027 04:01:40.479            45.089              Murmansk1          1409.031
       217   04 Jun 2027 04:01:45.417   04 Jun 2027 04:05:02.645           197.228                Norilsk          6163.375
       218   04 Jun 2027 04:05:14.177   04 Jun 2027 04:06:17.658            63.481                Novosib          1983.781
       219   04 Jun 2027 04:07:53.423   04 Jun 2027 04:08:45.222            51.799                  Delhi          1618.719
       220   04 Jun 2027 04:11:48.104   04 Jun 2027 04:13:41.013           112.909                  Delhi          3528.406
       221   04 Jun 2027 05:37:29.152   04 Jun 2027 05:37:46.151            16.999                Norilsk           531.219
       222   04 Jun 2027 05:37:47.217   04 Jun 2027 05:39:21.226            94.009              Murmansk2          2937.781
       223   04 Jun 2027 05:39:23.639   04 Jun 2027 05:41:03.650           100.011                Novosib          3125.344
       224   04 Jun 2027 05:41:11.735   04 Jun 2027 05:43:05.303           113.568                 Moscow          3549.000
       225   04 Jun 2027 05:44:50.845   04 Jun 2027 05:45:00.830             9.985                 Moscow           312.031
       226   04 Jun 2027 07:05:08.960   04 Jun 2027 07:06:10.522            61.562                Anadyr1          1923.813
       227   04 Jun 2027 07:13:00.492   04 Jun 2027 07:15:42.025           161.533              Murmansk2          5047.906
       228   04 Jun 2027 07:15:46.563   04 Jun 2027 07:18:50.750           184.187                 Moscow          5755.844
       229   04 Jun 2027 07:34:39.200   04 Jun 2027 07:39:32.874           293.674               CapeTown          9177.312
       230   04 Jun 2027 08:35:15.193   04 Jun 2027 08:37:11.115           115.922                Anadyr2          3622.562
       231   04 Jun 2027 08:37:29.538   04 Jun 2027 08:39:35.322           125.784               Magadan1          3930.750
       232   04 Jun 2027 08:39:35.322   04 Jun 2027 08:40:28.904            53.582               Magadan2          1674.437
       233   04 Jun 2027 08:42:11.064   04 Jun 2027 08:42:37.417            26.353               Magadan1           823.531
       234   04 Jun 2027 10:10:13.761   04 Jun 2027 10:12:25.241           131.480               Magadan2          4108.750
       235   04 Jun 2027 10:12:43.077   04 Jun 2027 10:14:42.110           119.033               Magadan2          3719.781
       236   04 Jun 2027 10:14:42.566   04 Jun 2027 10:18:16.590           214.024                Anadyr2          6688.250
       237   04 Jun 2027 11:45:48.365   04 Jun 2027 11:46:06.107            17.742               Magadan1           554.437
       238   04 Jun 2027 11:46:47.256   04 Jun 2027 11:53:22.017           394.761               Magadan2         12336.281
       239   04 Jun 2027 11:54:18.444   04 Jun 2027 11:55:34.072            75.628                Novosib          2363.375
       240   04 Jun 2027 12:02:09.530   04 Jun 2027 12:02:40.175            30.645              Murmansk2           957.656
       241   04 Jun 2027 12:32:16.580   04 Jun 2027 12:33:15.917            59.337            RioGallegos          1854.281
       242   04 Jun 2027 12:35:58.607   04 Jun 2027 12:37:58.923           120.316            RioGallegos          3759.875
       243   04 Jun 2027 13:09:55.408   04 Jun 2027 13:10:46.996            51.588                Sumatra          1612.125
       244   04 Jun 2027 13:12:27.807   04 Jun 2027 13:13:30.927            63.120                Sumatra          1972.500
       245   04 Jun 2027 13:17:57.677   04 Jun 2027 13:18:06.526             8.849                Irkutsk           276.531
       246   04 Jun 2027 13:19:06.355   04 Jun 2027 13:20:20.911            74.556                Novosib          2329.875
       247   04 Jun 2027 13:21:07.692   04 Jun 2027 13:22:39.878            92.186                Irkutsk          2880.813
       248   04 Jun 2027 13:35:06.739   04 Jun 2027 13:35:19.549            12.810                Norilsk           400.312
       249   04 Jun 2027 14:08:33.938   04 Jun 2027 14:09:56.066            82.128            RioGallegos          2566.500
       250   04 Jun 2027 14:12:07.231   04 Jun 2027 14:16:09.296           242.065            RioGallegos          7564.531
       251   04 Jun 2027 14:43:39.929   04 Jun 2027 14:47:08.498           208.569                Sumatra          6517.781
       252   04 Jun 2027 14:59:35.507   04 Jun 2027 15:03:01.868           206.361                Irkutsk          6448.781
       253   04 Jun 2027 16:39:27.158   04 Jun 2027 16:42:35.055           187.897                Norilsk          5871.781
       254   04 Jun 2027 16:44:20.682   04 Jun 2027 16:45:08.112            47.430                Norilsk          1482.188
       255   04 Jun 2027 17:52:15.741   04 Jun 2027 17:53:19.584            63.843               CapeTown          1995.094
       256   04 Jun 2027 18:09:35.170   04 Jun 2027 18:09:56.498            21.328                 Moscow           666.500
       257   04 Jun 2027 18:11:29.359   04 Jun 2027 18:14:37.283           187.924                 Moscow          5872.625
       258   04 Jun 2027 18:29:06.302   04 Jun 2027 18:29:27.754            21.452                Anadyr1           670.375
       259   04 Jun 2027 18:30:06.622   04 Jun 2027 18:30:23.080            16.458                Anadyr1           514.312
       260   04 Jun 2027 18:30:42.717   04 Jun 2027 18:30:45.602             2.885                Anadyr1            90.156
       261   04 Jun 2027 18:30:46.956   04 Jun 2027 18:31:18.487            31.531                Anadyr1           985.344
       262   04 Jun 2027 19:21:58.948   04 Jun 2027 19:24:22.067           143.119               CapeTown          4472.469
       263   04 Jun 2027 19:33:15.376   04 Jun 2027 19:33:23.981             8.605               CapeTown           268.906
       264   04 Jun 2027 19:51:54.374   04 Jun 2027 19:52:53.919            59.545              Murmansk2          1860.781
       265   04 Jun 2027 19:54:20.454   04 Jun 2027 20:00:40.527           380.073              Murmansk1         11877.281
       266   04 Jun 2027 21:00:47.942   04 Jun 2027 21:05:23.580           275.638               CapeTown          8613.687
       267   04 Jun 2027 21:40:52.731   04 Jun 2027 21:42:05.379            72.648               Magadan2          2270.250
       268   04 Jun 2027 21:45:54.869   04 Jun 2027 21:46:15.272            20.403               Magadan1           637.594
       269   04 Jun 2027 21:49:11.325   04 Jun 2027 21:49:29.914            18.589               Magadan2           580.906
       270   04 Jun 2027 21:49:48.378   04 Jun 2027 21:49:51.953             3.575               Magadan1           111.719
       271   04 Jun 2027 21:52:52.559   04 Jun 2027 21:53:07.292            14.733               Magadan2           460.406
       272   04 Jun 2027 23:14:23.493   04 Jun 2027 23:18:10.115           226.622                Anadyr1          7081.937
       273   04 Jun 2027 23:18:29.442   04 Jun 2027 23:19:23.145            53.703                Anadyr1          1678.219
       274   04 Jun 2027 23:19:33.855   04 Jun 2027 23:19:51.322            17.467                Anadyr2           545.844
       275   04 Jun 2027 23:19:52.867   04 Jun 2027 23:19:53.075             0.208                Anadyr1             6.500
       276   04 Jun 2027 23:19:56.281   04 Jun 2027 23:20:26.564            30.283               Magadan1           946.344
       277   04 Jun 2027 23:20:28.191   04 Jun 2027 23:20:58.557            30.366               Magadan2           948.938
       278   04 Jun 2027 23:21:15.533   04 Jun 2027 23:21:51.872            36.339                Norilsk          1135.594
       279   04 Jun 2027 23:22:17.964   04 Jun 2027 23:23:32.078            74.114                Irkutsk          2316.062
       280   04 Jun 2027 23:24:23.863   04 Jun 2027 23:25:01.836            37.973                Irkutsk          1186.656
       281   04 Jun 2027 23:26:57.038   04 Jun 2027 23:27:29.758            32.720                Irkutsk          1022.500
       282   04 Jun 2027 23:39:19.283   04 Jun 2027 23:41:34.851           135.568                Sumatra          4236.500
       283   05 Jun 2027 00:13:18.742   05 Jun 2027 00:13:42.530            23.788            RioGallegos           743.375
       284   05 Jun 2027 00:15:49.405   05 Jun 2027 00:15:51.591             2.186            RioGallegos            68.313
       285   05 Jun 2027 00:16:05.716   05 Jun 2027 00:16:26.785            21.069            RioGallegos           658.406
       286   05 Jun 2027 00:19:07.809   05 Jun 2027 00:19:37.802            29.993            RioGallegos           937.281
       287   05 Jun 2027 00:49:51.603   05 Jun 2027 00:50:21.216            29.613                Anadyr1           925.406
       288   05 Jun 2027 00:50:55.619   05 Jun 2027 00:51:22.764            27.145                Anadyr2           848.281
       289   05 Jun 2027 00:51:22.764   05 Jun 2027 00:52:08.745            45.981                Anadyr1          1436.906
       290   05 Jun 2027 00:52:36.853   05 Jun 2027 00:52:58.711            21.858                Norilsk           683.062
       291   05 Jun 2027 00:52:58.810   05 Jun 2027 00:53:08.858            10.048               Magadan2           314.000
       292   05 Jun 2027 00:53:18.666   05 Jun 2027 00:54:21.431            62.765               Magadan1          1961.406
       293   05 Jun 2027 00:54:36.863   05 Jun 2027 00:56:43.960           127.097               Magadan1          3971.781
       294   05 Jun 2027 00:57:18.818   05 Jun 2027 00:57:43.803            24.985                Novosib           780.781
       295   05 Jun 2027 00:59:39.219   05 Jun 2027 01:00:14.549            35.330                Novosib          1104.062
       296   05 Jun 2027 01:01:53.321   05 Jun 2027 01:02:50.559            57.238                Novosib          1788.687
       297   05 Jun 2027 01:09:56.543   05 Jun 2027 01:10:23.926            27.383                Sumatra           855.719
       298   05 Jun 2027 01:12:43.066   05 Jun 2027 01:14:00.502            77.436                Sumatra          2419.875
       299   05 Jun 2027 01:47:36.960   05 Jun 2027 01:48:08.343            31.383            RioGallegos           980.719
       300   05 Jun 2027 01:52:44.476   05 Jun 2027 01:52:59.421            14.945            RioGallegos           467.031
       301   05 Jun 2027 01:53:17.635   05 Jun 2027 01:53:44.452            26.817            RioGallegos           838.031
       302   05 Jun 2027 02:24:17.425   05 Jun 2027 02:24:29.005            11.580                Anadyr2           361.875
       303   05 Jun 2027 02:25:18.247   05 Jun 2027 02:26:39.602            81.355                Anadyr1          2542.344
       304   05 Jun 2027 02:28:13.107   05 Jun 2027 02:29:03.327            50.220                Norilsk          1569.375
       305   05 Jun 2027 02:29:14.247   05 Jun 2027 02:29:29.799            15.552                Norilsk           486.000
       306   05 Jun 2027 02:31:54.972   05 Jun 2027 02:32:24.398            29.426              Murmansk1           919.563
       307   05 Jun 2027 02:32:43.814   05 Jun 2027 02:33:38.349            54.535              Murmansk2          1704.219
       308   05 Jun 2027 02:34:18.162   05 Jun 2027 02:34:38.506            20.344                Irkutsk           635.750
       309   05 Jun 2027 02:35:28.297   05 Jun 2027 02:36:32.468            64.171                Irkutsk          2005.344
       310   05 Jun 2027 02:40:30.586   05 Jun 2027 02:41:21.308            50.722                  Delhi          1585.063
       311   05 Jun 2027 02:47:44.868   05 Jun 2027 02:49:02.630            77.762                  Delhi          2430.063
       312   05 Jun 2027 03:20:52.723   05 Jun 2027 03:21:54.633            61.910            RioGallegos          1934.688
       313   05 Jun 2027 03:22:30.899   05 Jun 2027 03:22:44.088            13.189            RioGallegos           412.156
       314   05 Jun 2027 03:28:48.708   05 Jun 2027 03:29:37.335            48.627            RioGallegos          1519.594
       315   05 Jun 2027 04:09:19.859   05 Jun 2027 04:10:23.173            63.314                Irkutsk          1978.563
       316   05 Jun 2027 04:12:10.561   05 Jun 2027 04:13:12.222            61.661              Murmansk2          1926.906
       317   05 Jun 2027 04:13:12.850   05 Jun 2027 04:14:35.844            82.994                Norilsk          2593.563
       318   05 Jun 2027 04:14:44.192   05 Jun 2027 04:18:19.416           215.224                Novosib          6725.750
       319   05 Jun 2027 04:19:28.443   05 Jun 2027 04:19:43.336            14.893                Novosib           465.406
       320   05 Jun 2027 04:23:31.692   05 Jun 2027 04:25:28.940           117.248                  Delhi          3664.000
       321   05 Jun 2027 04:25:49.349   05 Jun 2027 04:26:09.437            20.088                  Delhi           627.750
       322   05 Jun 2027 05:49:35.793   05 Jun 2027 05:50:20.430            44.637              Murmansk1          1394.906
       323   05 Jun 2027 05:50:28.619   05 Jun 2027 05:52:16.048           107.429              Murmansk2          3357.156
       324   05 Jun 2027 05:52:35.946   05 Jun 2027 05:52:41.000             5.054                Novosib           157.937
       325   05 Jun 2027 05:52:58.487   05 Jun 2027 05:54:48.748           110.261              Murmansk2          3445.656
       326   05 Jun 2027 05:54:50.868   05 Jun 2027 05:58:23.631           212.763                 Moscow          6648.844
       327   05 Jun 2027 06:19:04.445   05 Jun 2027 06:20:03.491            59.046               CapeTown          1845.187
       328   05 Jun 2027 07:13:38.390   05 Jun 2027 07:14:07.051            28.661               Magadan2           895.656
       329   05 Jun 2027 07:14:11.147   05 Jun 2027 07:16:10.999           119.852                Anadyr1          3745.375
       330   05 Jun 2027 07:16:23.979   05 Jun 2027 07:17:29.546            65.567               Magadan2          2048.969
       331   05 Jun 2027 07:17:49.143   05 Jun 2027 07:18:10.589            21.446               Magadan1           670.187
       332   05 Jun 2027 07:18:38.709   05 Jun 2027 07:19:06.956            28.247                Anadyr1           882.719
       333   05 Jun 2027 07:24:52.698   05 Jun 2027 07:26:11.893            79.195              Murmansk2          2474.844
       334   05 Jun 2027 07:26:11.893   05 Jun 2027 07:26:30.727            18.834              Murmansk1           588.563
       335   05 Jun 2027 07:27:01.146   05 Jun 2027 07:27:25.548            24.402                 Moscow           762.563
       336   05 Jun 2027 07:27:46.422   05 Jun 2027 07:28:01.125            14.703                 Moscow           459.469
       337   05 Jun 2027 07:28:19.614   05 Jun 2027 07:28:38.149            18.535                 Moscow           579.219
       338   05 Jun 2027 07:47:20.381   05 Jun 2027 07:51:57.771           277.390               CapeTown          8668.437
       339   05 Jun 2027 08:46:47.934   05 Jun 2027 08:47:43.298            55.364                Anadyr1          1730.125
       340   05 Jun 2027 08:47:53.274   05 Jun 2027 08:48:04.888            11.614               Magadan1           362.937
       341   05 Jun 2027 08:49:00.099   05 Jun 2027 08:49:27.806            27.707               Magadan1           865.844
       342   05 Jun 2027 08:49:36.393   05 Jun 2027 08:51:21.779           105.386               Magadan2          3293.313
       343   05 Jun 2027 08:51:46.460   05 Jun 2027 08:52:39.298            52.838                Anadyr2          1651.187
       344   05 Jun 2027 08:52:47.184   05 Jun 2027 08:52:55.554             8.370               Magadan1           261.563
       345   05 Jun 2027 08:52:58.552   05 Jun 2027 08:54:58.625           120.073                Anadyr2          3752.281
       346   05 Jun 2027 10:20:58.569   05 Jun 2027 10:22:02.987            64.418               Magadan2          2013.063
       347   05 Jun 2027 10:22:02.987   05 Jun 2027 10:23:06.815            63.828               Magadan1          1994.625
       348   05 Jun 2027 10:23:07.534   05 Jun 2027 10:23:41.178            33.644                Anadyr2          1051.375
       349   05 Jun 2027 10:23:41.178   05 Jun 2027 10:27:29.813           228.635                Anadyr1          7144.844
       350   05 Jun 2027 10:28:06.296   05 Jun 2027 10:30:31.732           145.436               Magadan2          4544.875
       351   05 Jun 2027 11:44:06.884   05 Jun 2027 11:44:45.822            38.938                Sumatra          1216.812
       352   05 Jun 2027 11:58:46.743   05 Jun 2027 12:02:53.717           246.974               Magadan2          7717.937
       353   05 Jun 2027 13:20:08.555   05 Jun 2027 13:20:40.810            32.255                Sumatra          1007.969
       354   05 Jun 2027 13:21:44.769   05 Jun 2027 13:22:35.129            50.360                Sumatra          1573.750
       355   05 Jun 2027 13:30:16.625   05 Jun 2027 13:32:33.246           136.621                Irkutsk          4269.406
       356   05 Jun 2027 13:39:12.784   05 Jun 2027 13:40:09.036            56.252                Irkutsk          1757.875
       357   05 Jun 2027 13:48:47.831   05 Jun 2027 13:48:55.095             7.264              Murmansk2           227.000
       358   05 Jun 2027 14:21:42.296   05 Jun 2027 14:25:35.773           233.477            RioGallegos          7296.156
       359   05 Jun 2027 15:08:09.913   05 Jun 2027 15:08:36.778            26.865                Novosib           839.531
       360   05 Jun 2027 15:09:52.217   05 Jun 2027 15:13:14.806           202.589                Novosib          6330.906
       361   05 Jun 2027 16:44:33.094   05 Jun 2027 16:47:08.614           155.520                 Moscow          4860.000
       362   05 Jun 2027 16:48:57.259   05 Jun 2027 16:49:24.005            26.746              Murmansk1           835.813
       363   05 Jun 2027 16:52:01.761   05 Jun 2027 16:52:37.545            35.784              Murmansk2          1118.250
       364   05 Jun 2027 16:53:00.179   05 Jun 2027 16:54:42.476           102.297                Norilsk          3196.781
       365   05 Jun 2027 16:55:20.352   05 Jun 2027 16:58:04.901           164.549                Norilsk          5142.156
       366   05 Jun 2027 18:22:01.761   05 Jun 2027 18:22:52.489            50.728                 Moscow          1585.250
       367   05 Jun 2027 18:25:07.813   05 Jun 2027 18:26:30.693            82.880              Murmansk1          2590.000
       368   05 Jun 2027 18:26:48.136   05 Jun 2027 18:27:18.075            29.939                 Moscow           935.594
       369   05 Jun 2027 18:27:20.210   05 Jun 2027 18:28:49.370            89.160              Murmansk2          2786.250
       370   05 Jun 2027 18:34:56.659   05 Jun 2027 18:34:57.286             0.627              Murmansk1            19.594
       371   05 Jun 2027 18:44:47.926   05 Jun 2027 18:45:05.271            17.345                Anadyr2           542.031
       372   05 Jun 2027 18:45:28.850   05 Jun 2027 18:45:55.697            26.847                Anadyr2           838.969
       373   05 Jun 2027 19:34:04.882   05 Jun 2027 19:35:28.844            83.962               CapeTown          2623.812
       374   05 Jun 2027 19:36:09.071   05 Jun 2027 19:37:01.159            52.088               CapeTown          1627.750
       375   05 Jun 2027 19:42:38.337   05 Jun 2027 19:42:52.914            14.577               CapeTown           455.531
       376   05 Jun 2027 20:04:32.248   05 Jun 2027 20:10:10.970           338.722              Murmansk1         10585.063
       377   05 Jun 2027 20:10:40.521   05 Jun 2027 20:11:43.866            63.345              Murmansk2          1979.531
       378   05 Jun 2027 20:12:03.493   05 Jun 2027 20:12:37.750            34.257              Murmansk2          1070.531
       379   05 Jun 2027 21:50:32.156   05 Jun 2027 21:53:40.788           188.632                Anadyr1          5894.750
       380   05 Jun 2027 21:53:49.902   05 Jun 2027 21:56:23.061           153.159               Magadan2          4786.219
       381   05 Jun 2027 21:56:55.096   05 Jun 2027 21:56:55.726             0.630               Magadan2            19.687
       382   05 Jun 2027 21:59:51.369   05 Jun 2027 22:00:13.260            21.891               Magadan2           684.094
       383   05 Jun 2027 22:00:26.355   05 Jun 2027 22:00:47.943            21.588               Magadan2           674.625
       384   05 Jun 2027 22:01:44.460   05 Jun 2027 22:02:28.020            43.560               Magadan2          1361.250
       385   05 Jun 2027 22:47:43.298   05 Jun 2027 22:49:33.955           110.657            RioGallegos          3458.031
       386   05 Jun 2027 23:26:23.707   05 Jun 2027 23:27:49.363            85.656                Anadyr2          2676.750
       387   05 Jun 2027 23:27:56.594   05 Jun 2027 23:28:27.604            31.010                Anadyr1           969.063
       388   05 Jun 2027 23:28:31.830   05 Jun 2027 23:29:55.008            83.178                Norilsk          2599.313
       389   05 Jun 2027 23:30:15.237   05 Jun 2027 23:30:24.273             9.036                Anadyr2           282.375
       390   05 Jun 2027 23:30:36.573   05 Jun 2027 23:31:51.801            75.228               Magadan1          2350.875
       391   05 Jun 2027 23:33:01.177   05 Jun 2027 23:33:39.009            37.832               Magadan1          1182.250
       392   05 Jun 2027 23:33:44.981   05 Jun 2027 23:34:12.374            27.393                Irkutsk           856.031
       393   05 Jun 2027 23:34:50.517   05 Jun 2027 23:35:13.498            22.981                Irkutsk           718.156
       394   05 Jun 2027 23:36:46.687   05 Jun 2027 23:36:47.831             1.144                Irkutsk            35.750
       395   05 Jun 2027 23:49:20.642   05 Jun 2027 23:51:04.789           104.147                Sumatra          3254.594
       396   05 Jun 2027 23:51:53.427   05 Jun 2027 23:52:07.925            14.498                Sumatra           453.063
       397   05 Jun 2027 23:54:37.997   05 Jun 2027 23:56:04.228            86.231                Sumatra          2694.719
       398   06 Jun 2027 00:28:39.935   06 Jun 2027 00:29:48.780            68.845            RioGallegos          2151.406
       399   06 Jun 2027 01:01:46.198   06 Jun 2027 01:01:48.400             2.202                Anadyr1            68.813
       400   06 Jun 2027 01:01:54.420   06 Jun 2027 01:02:16.144            21.724                Anadyr2           678.875
       401   06 Jun 2027 01:03:21.588   06 Jun 2027 01:04:01.993            40.405                Anadyr1          1262.656
       402   06 Jun 2027 01:04:14.703   06 Jun 2027 01:04:25.756            11.053                Norilsk           345.406
       403   06 Jun 2027 01:04:30.808   06 Jun 2027 01:04:36.927             6.119                Anadyr2           191.219
       404   06 Jun 2027 01:04:49.551   06 Jun 2027 01:05:20.303            30.752                Norilsk           961.000
       405   06 Jun 2027 01:05:20.837   06 Jun 2027 01:06:25.287            64.450               Magadan2          2014.062
       406   06 Jun 2027 01:06:40.000   06 Jun 2027 01:06:55.466            15.466               Magadan1           483.313
       407   06 Jun 2027 01:08:12.731   06 Jun 2027 01:11:12.857           180.126                Irkutsk          5628.938
       408   06 Jun 2027 01:20:37.020   06 Jun 2027 01:20:55.247            18.227                Irkutsk           569.594
       409   06 Jun 2027 01:21:59.096   06 Jun 2027 01:23:40.054           100.958                Sumatra          3154.938
       410   06 Jun 2027 01:27:34.028   06 Jun 2027 01:27:41.718             7.690                Sumatra           240.312
       411   06 Jun 2027 01:28:26.721   06 Jun 2027 01:30:45.427           138.706                Sumatra          4334.562
       412   06 Jun 2027 02:38:30.722   06 Jun 2027 02:38:37.286             6.564                Anadyr2           205.125
       413   06 Jun 2027 02:40:15.522   06 Jun 2027 02:41:56.864           101.342                Norilsk          3166.938
       414   06 Jun 2027 02:43:23.810   06 Jun 2027 02:44:00.891            37.081              Murmansk1          1158.781
       415   06 Jun 2027 02:44:04.855   06 Jun 2027 02:44:31.252            26.397              Murmansk2           824.906
       416   06 Jun 2027 02:45:10.418   06 Jun 2027 02:46:05.999            55.581                Novosib          1736.906
       417   06 Jun 2027 02:46:23.123   06 Jun 2027 02:47:46.221            83.098                Irkutsk          2596.813
       418   06 Jun 2027 02:54:31.123   06 Jun 2027 02:54:46.505            15.382                  Delhi           480.688
       419   06 Jun 2027 02:55:14.971   06 Jun 2027 02:55:16.146             1.175                  Delhi            36.719
       420   06 Jun 2027 02:57:56.824   06 Jun 2027 02:58:48.358            51.534                  Delhi          1610.438
       421   06 Jun 2027 03:33:07.432   06 Jun 2027 03:35:08.364           120.932            RioGallegos          3779.125
       422   06 Jun 2027 03:40:04.163   06 Jun 2027 03:41:00.562            56.399            RioGallegos          1762.469
       423   06 Jun 2027 04:22:58.607   06 Jun 2027 04:24:26.438            87.831                Irkutsk          2744.719
       424   06 Jun 2027 04:24:51.557   06 Jun 2027 04:25:00.359             8.802                Norilsk           275.062
       425   06 Jun 2027 04:25:12.485   06 Jun 2027 04:25:57.696            45.211                Norilsk          1412.844
       426   06 Jun 2027 04:26:00.094   06 Jun 2027 04:27:02.343            62.249              Murmansk2          1945.281
       427   06 Jun 2027 04:27:02.343   06 Jun 2027 04:27:45.626            43.283              Murmansk1          1352.594
       428   06 Jun 2027 04:28:00.907   06 Jun 2027 04:28:20.482            19.575              Murmansk1           611.719
       429   06 Jun 2027 04:28:25.369   06 Jun 2027 04:29:04.155            38.786                Novosib          1212.063
       430   06 Jun 2027 04:29:43.341   06 Jun 2027 04:33:37.999           234.658                  Delhi          7333.062
       431   06 Jun 2027 06:02:47.274   06 Jun 2027 06:04:03.334            76.060                Novosib          2376.875
       432   06 Jun 2027 06:04:07.043   06 Jun 2027 06:05:48.985           101.942              Murmansk2          3185.688
       433   06 Jun 2027 06:05:48.985   06 Jun 2027 06:06:59.927            70.942              Murmansk1          2216.938
       434   06 Jun 2027 06:07:10.922   06 Jun 2027 06:08:07.321            56.399                 Moscow          1762.469
       435   06 Jun 2027 07:25:44.908   06 Jun 2027 07:26:09.175            24.267               Magadan1           758.344
       436   06 Jun 2027 07:26:09.175   06 Jun 2027 07:26:48.563            39.388               Magadan2          1230.875
       437   06 Jun 2027 07:27:00.020   06 Jun 2027 07:29:11.345           131.325                Anadyr2          4103.906
       438   06 Jun 2027 07:29:25.014   06 Jun 2027 07:29:35.566            10.552               Magadan2           329.750
       439   06 Jun 2027 07:30:09.475   06 Jun 2027 07:30:36.188            26.713                Anadyr2           834.781
       440   06 Jun 2027 07:30:55.429   06 Jun 2027 07:31:08.792            13.363                Anadyr2           417.594
       441   06 Jun 2027 08:00:16.192   06 Jun 2027 08:04:30.968           254.776               CapeTown          7961.750
       442   06 Jun 2027 09:00:37.894   06 Jun 2027 09:01:46.645            68.751                Anadyr2          2148.469
       443   06 Jun 2027 09:02:31.390   06 Jun 2027 09:03:02.848            31.458               Magadan2           983.062
       444   06 Jun 2027 09:03:07.366   06 Jun 2027 09:04:43.854            96.488                Anadyr2          3015.250
       445   06 Jun 2027 09:04:43.854   06 Jun 2027 09:05:21.150            37.296                Anadyr1          1165.500
       446   06 Jun 2027 09:14:29.803   06 Jun 2027 09:14:41.073            11.270                 Moscow           352.188
       447   06 Jun 2027 10:32:57.123   06 Jun 2027 10:33:48.190            51.067               Magadan2          1595.844
       448   06 Jun 2027 10:34:51.255   06 Jun 2027 10:35:14.149            22.894                Irkutsk           715.437
       449   06 Jun 2027 10:35:35.065   06 Jun 2027 10:36:12.467            37.402               Magadan2          1168.812
       450   06 Jun 2027 10:36:18.174   06 Jun 2027 10:40:01.954           223.780               Magadan2          6993.125
       451   06 Jun 2027 10:40:01.954   06 Jun 2027 10:40:37.165            35.211               Magadan1          1100.344
       452   06 Jun 2027 10:40:51.620   06 Jun 2027 10:41:46.930            55.310                Anadyr1          1728.437
       453   06 Jun 2027 10:41:52.255   06 Jun 2027 10:41:59.802             7.547                Norilsk           235.844
       454   06 Jun 2027 10:42:21.330   06 Jun 2027 10:42:24.884             3.554              Murmansk2           111.062
       455   06 Jun 2027 10:42:35.600   06 Jun 2027 10:43:22.467            46.867                Norilsk          1464.594
       456   06 Jun 2027 11:17:32.715   06 Jun 2027 11:18:08.263            35.548            RioGallegos          1110.875
       457   06 Jun 2027 11:22:12.175   06 Jun 2027 11:22:59.101            46.926            RioGallegos          1466.437
       458   06 Jun 2027 11:56:40.840   06 Jun 2027 11:56:50.313             9.473                Sumatra           296.031
       459   06 Jun 2027 11:57:33.133   06 Jun 2027 11:57:47.768            14.635                Sumatra           457.344
       460   06 Jun 2027 12:05:39.498   06 Jun 2027 12:06:54.031            74.533                Irkutsk          2329.156
       461   06 Jun 2027 12:08:39.298   06 Jun 2027 12:10:06.957            87.659                Novosib          2739.344
       462   06 Jun 2027 12:12:03.444   06 Jun 2027 12:16:19.627           256.183               Magadan2          8005.719
       463   06 Jun 2027 13:31:03.371   06 Jun 2027 13:32:30.323            86.952                Sumatra          2717.250
       464   06 Jun 2027 13:36:38.033   06 Jun 2027 13:37:45.308            67.275                Sumatra          2102.344
       465   06 Jun 2027 13:42:40.110   06 Jun 2027 13:43:17.489            37.379                Irkutsk          1168.094
       466   06 Jun 2027 13:50:48.258   06 Jun 2027 13:52:36.502           108.244                Irkutsk          3382.625
       467   06 Jun 2027 14:35:31.361   06 Jun 2027 14:38:15.862           164.501            RioGallegos          5140.656
       468   06 Jun 2027 15:12:33.684   06 Jun 2027 15:13:05.312            31.628                  Delhi           988.375
       469   06 Jun 2027 15:20:37.525   06 Jun 2027 15:25:14.708           277.183                Novosib          8661.969
       470   06 Jun 2027 16:56:35.005   06 Jun 2027 16:57:49.351            74.346                 Moscow          2323.312
       471   06 Jun 2027 17:00:04.956   06 Jun 2027 17:00:55.625            50.669              Murmansk1          1583.406
       472   06 Jun 2027 17:03:06.963   06 Jun 2027 17:03:23.054            16.091              Murmansk1           502.844
       473   06 Jun 2027 17:04:56.793   06 Jun 2027 17:09:19.699           262.906                Norilsk          8215.813
       474   06 Jun 2027 18:34:33.410   06 Jun 2027 18:36:06.099            92.689                 Moscow          2896.531
       475   06 Jun 2027 18:37:27.307   06 Jun 2027 18:39:21.993           114.686              Murmansk1          3583.938
       476   06 Jun 2027 18:41:05.595   06 Jun 2027 18:42:09.361            63.766              Murmansk2          1992.688
       477   06 Jun 2027 18:59:15.137   06 Jun 2027 18:59:59.856            44.719                Anadyr2          1397.469
       478   06 Jun 2027 19:01:09.707   06 Jun 2027 19:01:15.737             6.030                Anadyr2           188.437
       479   06 Jun 2027 19:46:13.790   06 Jun 2027 19:48:49.274           155.484               CapeTown          4858.875
       480   06 Jun 2027 20:17:13.907   06 Jun 2027 20:23:07.942           354.035              Murmansk1         11063.594
       481   06 Jun 2027 22:02:33.962   06 Jun 2027 22:06:13.859           219.897                Anadyr2          6871.781
       482   06 Jun 2027 22:06:19.476   06 Jun 2027 22:09:10.754           171.278               Magadan2          5352.438
