uniorb/output/strategy_1/Drop/Drop_KinoSat_112010.txt

KinoSat_112010
-------------------------
    Access    *     Start Time (UTCG)     *     Stop Time (UTCG)  *   Duration (s)        *       Station  *  Data (Mbytes)
         1   01 Jun 2027 03:47:08.155   01 Jun 2027 03:48:06.603            58.448                Norilsk          1826.500
         2   01 Jun 2027 03:48:12.319   01 Jun 2027 03:49:27.077            74.758                Norilsk          2336.188
         3   01 Jun 2027 03:49:35.721   01 Jun 2027 03:50:44.730            69.009              Murmansk2          2156.531
         4   01 Jun 2027 03:50:50.910   01 Jun 2027 03:51:24.606            33.696                Novosib          1053.000
         5   01 Jun 2027 03:51:28.686   01 Jun 2027 03:51:51.442            22.756                Norilsk           711.125
         6   01 Jun 2027 03:51:55.760   01 Jun 2027 03:53:53.138           117.378                Norilsk          3668.063
         7   01 Jun 2027 03:54:07.391   01 Jun 2027 03:55:41.780            94.389                Irkutsk          2949.656
         8   01 Jun 2027 03:55:51.198   01 Jun 2027 03:56:26.362            35.164                  Delhi          1098.875
         9   01 Jun 2027 04:01:03.126   01 Jun 2027 04:01:44.263            41.137                  Delhi          1285.531
        10   01 Jun 2027 04:34:47.763   01 Jun 2027 04:38:28.503           220.740            RioGallegos          6898.125
        11   01 Jun 2027 05:25:04.383   01 Jun 2027 05:26:05.204            60.821              Murmansk2          1900.656
        12   01 Jun 2027 05:26:22.976   01 Jun 2027 05:29:15.250           172.274                Norilsk          5383.562
        13   01 Jun 2027 05:29:16.148   01 Jun 2027 05:30:36.331            80.183                Novosib          2505.719
        14   01 Jun 2027 07:03:13.623   01 Jun 2027 07:03:45.937            32.314              Murmansk1          1009.812
        15   01 Jun 2027 07:03:49.456   01 Jun 2027 07:04:54.269            64.813                 Moscow          2025.406
        16   01 Jun 2027 07:05:07.933   01 Jun 2027 07:05:42.894            34.961                 Moscow          1092.531
        17   01 Jun 2027 07:05:49.148   01 Jun 2027 07:07:55.211           126.063              Murmansk1          3939.469
        18   01 Jun 2027 07:08:53.394   01 Jun 2027 07:09:17.391            23.997                 Moscow           749.906
        19   01 Jun 2027 07:22:17.527   01 Jun 2027 07:25:14.104           176.577               CapeTown          5518.031
        20   01 Jun 2027 07:29:19.430   01 Jun 2027 07:31:31.646           132.216               CapeTown          4131.750
        21   01 Jun 2027 08:26:06.026   01 Jun 2027 08:27:32.339            86.313                Anadyr1          2697.281
        22   01 Jun 2027 08:27:39.037   01 Jun 2027 08:28:15.709            36.672                Anadyr1          1146.000
        23   01 Jun 2027 08:31:18.894   01 Jun 2027 08:31:23.970             5.076               Magadan1           158.625
        24   01 Jun 2027 09:57:55.340   01 Jun 2027 09:58:38.426            43.086                Anadyr1          1346.437
        25   01 Jun 2027 10:01:35.624   01 Jun 2027 10:03:45.249           129.625                Anadyr1          4050.781
        26   01 Jun 2027 10:04:37.858   01 Jun 2027 10:04:59.165            21.307                Anadyr1           665.844
        27   01 Jun 2027 10:04:59.165   01 Jun 2027 10:07:27.439           148.274                Anadyr2          4633.563
        28   01 Jun 2027 11:32:29.763   01 Jun 2027 11:36:08.816           219.053               Magadan1          6845.406
        29   01 Jun 2027 11:36:51.858   01 Jun 2027 11:38:06.104            74.246               Magadan2          2320.187
        30   01 Jun 2027 11:39:52.182   01 Jun 2027 11:42:51.324           179.142               Magadan2          5598.188
        31   01 Jun 2027 13:56:32.441   01 Jun 2027 13:56:42.327             9.886            RioGallegos           308.938
        32   01 Jun 2027 13:59:50.983   01 Jun 2027 14:00:42.447            51.464            RioGallegos          1608.250
        33   01 Jun 2027 14:29:24.423   01 Jun 2027 14:35:17.957           353.534                Sumatra         11047.938
        34   01 Jun 2027 14:44:46.450   01 Jun 2027 14:51:11.921           385.471                Irkutsk         12045.969
        35   01 Jun 2027 16:17:00.174   01 Jun 2027 16:21:37.071           276.897                  Delhi          8653.031
        36   01 Jun 2027 16:22:56.072   01 Jun 2027 16:29:45.979           409.907                Novosib         12809.594
        37   01 Jun 2027 18:09:15.506   01 Jun 2027 18:09:39.646            24.140                Norilsk           754.375
        38   01 Jun 2027 19:37:08.319   01 Jun 2027 19:44:31.877           443.558                 Moscow         13861.188
        39   01 Jun 2027 20:47:30.798   01 Jun 2027 20:48:21.819            51.021               CapeTown          1594.406
        40   01 Jun 2027 20:49:38.122   01 Jun 2027 20:52:49.375           191.253               CapeTown          5976.656
        41   01 Jun 2027 21:20:08.773   01 Jun 2027 21:24:38.344           269.571              Murmansk2          8424.094
        42   01 Jun 2027 23:03:12.280   01 Jun 2027 23:04:30.099            77.819                Anadyr1          2431.844
        43   01 Jun 2027 23:04:30.099   01 Jun 2027 23:04:42.429            12.330                Anadyr2           385.313
        44   01 Jun 2027 23:05:27.907   01 Jun 2027 23:06:47.151            79.244               Magadan1          2476.375
        45   01 Jun 2027 23:08:20.214   01 Jun 2027 23:08:46.149            25.935               Magadan2           810.469
        46   01 Jun 2027 23:09:00.034   01 Jun 2027 23:09:12.167            12.133               Magadan2           379.156
        47   01 Jun 2027 23:09:53.403   01 Jun 2027 23:10:31.003            37.600               Magadan1          1175.000
        48   01 Jun 2027 23:11:02.190   01 Jun 2027 23:11:44.371            42.181               Magadan1          1318.156
        49   01 Jun 2027 23:16:16.126   01 Jun 2027 23:16:57.326            41.200               Magadan1          1287.500
        50   01 Jun 2027 23:18:22.148   01 Jun 2027 23:18:23.168             1.020               Magadan1            31.875
        51   01 Jun 2027 23:57:55.421   02 Jun 2027 00:00:43.252           167.831            RioGallegos          5244.719
        52   02 Jun 2027 00:04:38.859   02 Jun 2027 00:04:53.140            14.281            RioGallegos           446.281
        53   02 Jun 2027 00:06:30.299   02 Jun 2027 00:07:18.386            48.087            RioGallegos          1502.719
        54   02 Jun 2027 00:38:54.281   02 Jun 2027 00:40:07.263            72.982                Anadyr2          2280.688
        55   02 Jun 2027 00:40:08.857   02 Jun 2027 00:40:22.973            14.116                Anadyr1           441.125
        56   02 Jun 2027 00:40:22.973   02 Jun 2027 00:40:37.723            14.750                Anadyr2           460.938
        57   02 Jun 2027 00:41:00.701   02 Jun 2027 00:42:59.877           119.176                Norilsk          3724.250
        58   02 Jun 2027 00:43:23.259   02 Jun 2027 00:43:42.395            19.136               Magadan1           598.000
        59   02 Jun 2027 00:44:56.190   02 Jun 2027 00:45:14.035            17.845               Magadan2           557.656
        60   02 Jun 2027 00:46:09.015   02 Jun 2027 00:46:52.769            43.754                Irkutsk          1367.313
        61   02 Jun 2027 00:47:47.566   02 Jun 2027 00:48:58.940            71.374                Irkutsk          2230.437
        62   02 Jun 2027 00:51:31.284   02 Jun 2027 00:52:42.037            70.753                Irkutsk          2211.031
        63   02 Jun 2027 00:55:51.269   02 Jun 2027 00:56:17.496            26.227                Irkutsk           819.594
        64   02 Jun 2027 00:59:19.421   02 Jun 2027 01:00:01.053            41.632                Sumatra          1301.000
        65   02 Jun 2027 01:01:17.753   02 Jun 2027 01:02:11.700            53.947                Sumatra          1685.844
        66   02 Jun 2027 01:06:54.972   02 Jun 2027 01:08:39.856           104.884                Sumatra          3277.625
        67   02 Jun 2027 01:41:35.067   02 Jun 2027 01:42:29.453            54.386            RioGallegos          1699.563
        68   02 Jun 2027 02:13:49.885   02 Jun 2027 02:13:59.704             9.819                Anadyr2           306.844
        69   02 Jun 2027 02:14:14.924   02 Jun 2027 02:14:59.618            44.694                Anadyr2          1396.688
        70   02 Jun 2027 02:16:22.934   02 Jun 2027 02:16:50.016            27.082                Anadyr2           846.313
        71   02 Jun 2027 02:16:56.835   02 Jun 2027 02:17:46.963            50.128                Norilsk          1566.500
        72   02 Jun 2027 02:20:49.417   02 Jun 2027 02:23:10.758           141.341                Irkutsk          4416.906
        73   02 Jun 2027 02:24:39.002   02 Jun 2027 02:25:01.798            22.796                Irkutsk           712.375
        74   02 Jun 2027 02:27:37.293   02 Jun 2027 02:27:44.517             7.224                Irkutsk           225.750
        75   02 Jun 2027 02:28:47.615   02 Jun 2027 02:29:24.417            36.802                Irkutsk          1150.063
        76   02 Jun 2027 02:31:26.026   02 Jun 2027 02:31:33.471             7.445                Irkutsk           232.656
        77   02 Jun 2027 02:32:51.613   02 Jun 2027 02:33:21.471            29.858                Irkutsk           933.063
        78   02 Jun 2027 02:35:40.014   02 Jun 2027 02:37:40.936           120.922                Sumatra          3778.812
        79   02 Jun 2027 02:38:35.557   02 Jun 2027 02:42:06.485           210.928                Sumatra          6591.500
        80   02 Jun 2027 02:45:45.215   02 Jun 2027 02:45:52.062             6.847                Sumatra           213.969
        81   02 Jun 2027 03:58:07.986   02 Jun 2027 03:59:39.140            91.154                Irkutsk          2848.562
        82   02 Jun 2027 04:00:31.489   02 Jun 2027 04:01:44.973            73.484                Novosib          2296.375
        83   02 Jun 2027 04:01:46.839   02 Jun 2027 04:03:03.310            76.471                Norilsk          2389.719
        84   02 Jun 2027 04:03:09.786   02 Jun 2027 04:03:26.571            16.785              Murmansk2           524.531
        85   02 Jun 2027 04:03:31.618   02 Jun 2027 04:06:11.340           159.722                Irkutsk          4991.313
        86   02 Jun 2027 04:06:11.686   02 Jun 2027 04:07:14.452            62.766                Irkutsk          1961.437
        87   02 Jun 2027 04:09:56.719   02 Jun 2027 04:10:06.520             9.801                  Delhi           306.281
        88   02 Jun 2027 04:12:17.701   02 Jun 2027 04:13:44.241            86.540                  Delhi          2704.375
        89   02 Jun 2027 04:47:50.242   02 Jun 2027 04:49:34.120           103.878            RioGallegos          3246.188
        90   02 Jun 2027 05:37:38.349   02 Jun 2027 05:37:59.926            21.577                Norilsk           674.281
        91   02 Jun 2027 05:38:03.537   02 Jun 2027 05:38:53.081            49.544              Murmansk1          1548.250
        92   02 Jun 2027 05:38:53.865   02 Jun 2027 05:39:18.150            24.285                Novosib           758.906
        93   02 Jun 2027 05:39:24.103   02 Jun 2027 05:41:07.845           103.742                Norilsk          3241.937
        94   02 Jun 2027 05:41:15.898   02 Jun 2027 05:42:51.836            95.938              Murmansk1          2998.062
        95   02 Jun 2027 05:43:41.758   02 Jun 2027 05:46:36.337           174.579                 Moscow          5455.594
        96   02 Jun 2027 05:59:15.096   02 Jun 2027 06:02:22.179           187.083               CapeTown          5846.344
        97   02 Jun 2027 06:04:44.087   02 Jun 2027 06:05:15.492            31.405               CapeTown           981.406
        98   02 Jun 2027 06:05:38.050   02 Jun 2027 06:05:59.709            21.659               CapeTown           676.844
        99   02 Jun 2027 07:15:14.763   02 Jun 2027 07:15:39.257            24.494              Murmansk1           765.437
       100   02 Jun 2027 07:15:59.499   02 Jun 2027 07:18:16.693           137.194                 Moscow          4287.313
       101   02 Jun 2027 07:18:37.608   02 Jun 2027 07:19:55.072            77.464              Murmansk1          2420.750
       102   02 Jun 2027 07:19:58.506   02 Jun 2027 07:20:36.461            37.955                 Moscow          1186.094
       103   02 Jun 2027 07:20:58.730   02 Jun 2027 07:22:15.480            76.750                 Moscow          2398.438
       104   02 Jun 2027 07:34:32.965   02 Jun 2027 07:39:35.924           302.959               CapeTown          9467.469
       105   02 Jun 2027 08:38:06.761   02 Jun 2027 08:40:12.484           125.723                Anadyr1          3928.844
       106   02 Jun 2027 10:09:52.541   02 Jun 2027 10:10:55.006            62.465                Anadyr2          1952.031
       107   02 Jun 2027 10:13:28.897   02 Jun 2027 10:15:19.330           110.433                Anadyr1          3451.031
       108   02 Jun 2027 10:16:40.879   02 Jun 2027 10:19:23.618           162.739                Anadyr2          5085.594
       109   02 Jun 2027 11:45:15.640   02 Jun 2027 11:47:04.298           108.658               Magadan2          3395.563
       110   02 Jun 2027 11:48:37.889   02 Jun 2027 11:50:51.412           133.523               Magadan1          4172.594
       111   02 Jun 2027 11:51:11.781   02 Jun 2027 11:54:43.367           211.586               Magadan2          6612.062
       112   02 Jun 2027 14:13:03.352   02 Jun 2027 14:13:39.751            36.399            RioGallegos          1137.469
       113   02 Jun 2027 14:41:58.580   02 Jun 2027 14:49:39.365           460.785                Sumatra         14399.531
       114   02 Jun 2027 14:51:18.887   02 Jun 2027 14:51:31.546            12.659                Sumatra           395.594
       115   02 Jun 2027 14:58:42.813   02 Jun 2027 15:05:28.331           405.518                Irkutsk         12672.438
       116   02 Jun 2027 16:27:20.310   02 Jun 2027 16:35:28.554           488.244                  Delhi         15257.625
       117   02 Jun 2027 16:35:50.456   02 Jun 2027 16:42:55.557           425.101                Novosib         13284.406
       118   02 Jun 2027 19:50:14.361   02 Jun 2027 19:55:59.082           344.721                 Moscow         10772.531
       119   02 Jun 2027 19:55:59.845   02 Jun 2027 19:56:50.801            50.956              Murmansk2          1592.375
       120   02 Jun 2027 21:01:11.580   02 Jun 2027 21:06:08.341           296.761               CapeTown          9273.781
       121   02 Jun 2027 21:33:23.279   02 Jun 2027 21:36:08.918           165.639              Murmansk1          5176.219
       122   03 Jun 2027 02:32:52.274   03 Jun 2027 02:33:22.164            29.890                Irkutsk           934.063
       123   03 Jun 2027 02:33:47.338   03 Jun 2027 02:33:55.167             7.829                Irkutsk           244.656
       124   03 Jun 2027 02:35:20.645   03 Jun 2027 02:35:27.534             6.889                Novosib           215.281
       125   03 Jun 2027 02:35:42.405   03 Jun 2027 02:36:00.769            18.364                Irkutsk           573.875
       126   03 Jun 2027 02:37:09.704   03 Jun 2027 02:38:34.329            84.625                Irkutsk          2644.531
       127   03 Jun 2027 02:43:44.766   03 Jun 2027 02:45:00.198            75.432                Irkutsk          2357.250
       128   03 Jun 2027 02:48:20.830   03 Jun 2027 02:57:07.138           526.308                Sumatra         16447.125
       129   03 Jun 2027 04:11:19.843   03 Jun 2027 04:18:43.410           443.567                Irkutsk         13861.469
       130   03 Jun 2027 04:19:08.700   03 Jun 2027 04:19:18.381             9.681                Novosib           302.531
       131   03 Jun 2027 04:21:24.589   03 Jun 2027 04:21:25.141             0.552                Novosib            17.250
       132   03 Jun 2027 04:23:17.115   03 Jun 2027 04:26:09.083           171.968                  Delhi          5374.000
       133   03 Jun 2027 05:50:00.594   03 Jun 2027 05:50:21.506            20.912                Norilsk           653.500
       134   03 Jun 2027 05:50:22.216   03 Jun 2027 05:50:31.622             9.406                Norilsk           293.938
       135   03 Jun 2027 05:50:43.926   03 Jun 2027 05:51:35.743            51.817                Norilsk          1619.281
       136   03 Jun 2027 05:51:37.603   03 Jun 2027 05:53:06.621            89.018              Murmansk1          2781.812
       137   03 Jun 2027 05:53:16.403   03 Jun 2027 05:56:04.850           168.447                 Moscow          5263.969
       138   03 Jun 2027 05:56:08.072   03 Jun 2027 05:57:05.019            56.947                 Moscow          1779.594
       139   03 Jun 2027 05:57:58.463   03 Jun 2027 05:58:09.624            11.161                 Moscow           348.781
       140   03 Jun 2027 07:17:23.120   03 Jun 2027 07:17:31.642             8.522                Anadyr2           266.312
       141   03 Jun 2027 07:26:59.560   03 Jun 2027 07:27:18.136            18.576                Norilsk           580.500
       142   03 Jun 2027 07:27:19.132   03 Jun 2027 07:28:43.201            84.069                 Moscow          2627.156
       143   03 Jun 2027 07:28:44.637   03 Jun 2027 07:30:06.726            82.089                 Moscow          2565.281
       144   03 Jun 2027 07:31:36.236   03 Jun 2027 07:32:49.010            72.774                 Moscow          2274.187
       145   03 Jun 2027 07:46:54.857   03 Jun 2027 07:51:59.219           304.362               CapeTown          9511.313
       146   03 Jun 2027 08:50:07.094   03 Jun 2027 08:52:43.777           156.683                Anadyr1          4896.344
       147   03 Jun 2027 08:52:43.777   03 Jun 2027 08:53:10.357            26.580                Anadyr2           830.625
       148   03 Jun 2027 10:22:21.677   03 Jun 2027 10:24:15.089           113.412                Anadyr1          3544.125
       149   03 Jun 2027 10:25:18.675   03 Jun 2027 10:29:06.073           227.398                Anadyr2          7106.187
       150   03 Jun 2027 10:29:45.578   03 Jun 2027 10:31:18.140            92.562                Anadyr1          2892.562
       151   03 Jun 2027 11:57:43.571   03 Jun 2027 12:06:32.519           528.948               Magadan1         16529.625
       152   03 Jun 2027 14:22:57.895   03 Jun 2027 14:26:57.661           239.766            RioGallegos          7492.687
       153   03 Jun 2027 14:54:47.969   03 Jun 2027 15:02:37.635           469.666                Sumatra         14677.063
       154   03 Jun 2027 15:10:36.601   03 Jun 2027 15:17:04.425           387.824                Irkutsk         12119.500
       155   03 Jun 2027 16:40:36.619   03 Jun 2027 16:46:26.098           349.479                  Delhi         10921.219
       156   03 Jun 2027 16:49:00.835   03 Jun 2027 16:54:19.087           318.252                Novosib          9945.375
       157   03 Jun 2027 20:03:52.928   03 Jun 2027 20:06:56.938           184.010                 Moscow          5750.312
       158   03 Jun 2027 20:07:47.555   03 Jun 2027 20:09:30.017           102.462              Murmansk1          3201.938
       159   03 Jun 2027 21:12:31.908   03 Jun 2027 21:19:50.781           438.873               CapeTown         13714.781
       160   04 Jun 2027 01:23:42.357   04 Jun 2027 01:25:50.349           127.992                Sumatra          3999.750
       161   04 Jun 2027 02:07:07.150   04 Jun 2027 02:07:47.363            40.213            RioGallegos          1256.656
       162   04 Jun 2027 02:38:17.644   04 Jun 2027 02:39:03.228            45.584                Anadyr1          1424.500
       163   04 Jun 2027 02:41:01.823   04 Jun 2027 02:41:58.235            56.412                Norilsk          1762.875
       164   04 Jun 2027 02:42:35.146   04 Jun 2027 02:43:04.675            29.529                Norilsk           922.781
       165   04 Jun 2027 02:44:55.923   04 Jun 2027 02:47:21.776           145.853                Irkutsk          4557.906
       166   04 Jun 2027 02:51:02.748   04 Jun 2027 02:51:17.051            14.303                Irkutsk           446.969
       167   04 Jun 2027 02:53:39.844   04 Jun 2027 02:53:59.511            19.667                  Delhi           614.594
       168   04 Jun 2027 02:58:47.177   04 Jun 2027 02:59:16.911            29.734                  Delhi           929.187
       169   04 Jun 2027 03:01:22.176   04 Jun 2027 03:08:00.808           398.632                Sumatra         12457.250
       170   04 Jun 2027 04:22:13.141   04 Jun 2027 04:23:03.654            50.513                Irkutsk          1578.531
       171   04 Jun 2027 04:23:55.436   04 Jun 2027 04:24:12.988            17.552              Murmansk1           548.500
       172   04 Jun 2027 04:24:28.050   04 Jun 2027 04:25:27.200            59.150                Irkutsk          1848.437
       173   04 Jun 2027 04:25:30.692   04 Jun 2027 04:29:00.702           210.010                Irkutsk          6562.812
       174   04 Jun 2027 04:31:35.711   04 Jun 2027 04:31:52.152            16.441                Novosib           513.781
       175   04 Jun 2027 04:32:39.160   04 Jun 2027 04:32:53.220            14.060                  Delhi           439.375
       176   04 Jun 2027 06:02:41.681   04 Jun 2027 06:03:24.757            43.076              Murmansk2          1346.125
       177   04 Jun 2027 06:03:24.757   04 Jun 2027 06:03:47.585            22.828              Murmansk1           713.375
       178   04 Jun 2027 06:03:49.158   04 Jun 2027 06:04:34.925            45.767                Norilsk          1430.219
       179   04 Jun 2027 06:04:41.152   04 Jun 2027 06:05:23.489            42.337              Murmansk1          1323.031
       180   04 Jun 2027 06:05:35.608   04 Jun 2027 06:07:45.481           129.873                 Moscow          4058.531
       181   04 Jun 2027 06:09:51.728   04 Jun 2027 06:10:01.885            10.157                 Moscow           317.406
       182   04 Jun 2027 06:22:37.724   04 Jun 2027 06:23:25.909            48.185               CapeTown          1505.781
       183   04 Jun 2027 06:23:38.063   04 Jun 2027 06:24:53.530            75.467               CapeTown          2358.344
       184   04 Jun 2027 07:29:17.984   04 Jun 2027 07:30:07.696            49.712                Anadyr2          1553.500
       185   04 Jun 2027 07:37:55.309   04 Jun 2027 07:40:01.088           125.779              Murmansk2          3930.594
       186   04 Jun 2027 07:40:06.036   04 Jun 2027 07:40:15.545             9.509                 Moscow           297.156
       187   04 Jun 2027 07:40:23.995   04 Jun 2027 07:40:43.382            19.387              Murmansk2           605.844
       188   04 Jun 2027 07:40:52.994   04 Jun 2027 07:42:28.860            95.866                 Moscow          2995.812
       189   04 Jun 2027 07:43:12.506   04 Jun 2027 07:44:01.854            49.348                 Moscow          1542.125
       190   04 Jun 2027 07:59:24.351   04 Jun 2027 08:05:25.432           361.081               CapeTown         11283.781
       191   04 Jun 2027 09:00:17.066   04 Jun 2027 09:03:19.413           182.347                Anadyr2          5698.344
       192   04 Jun 2027 09:03:37.412   04 Jun 2027 09:04:23.431            46.019               Magadan2          1438.094
       193   04 Jun 2027 09:04:35.125   04 Jun 2027 09:05:32.394            57.269               Magadan2          1789.656
       194   04 Jun 2027 09:05:32.394   04 Jun 2027 09:05:32.507             0.113               Magadan1             3.531
       195   04 Jun 2027 09:06:19.999   04 Jun 2027 09:07:50.209            90.210                Anadyr2          2819.063
       196   04 Jun 2027 10:33:51.043   04 Jun 2027 10:35:14.612            83.569               Magadan2          2611.531
       197   04 Jun 2027 10:35:36.100   04 Jun 2027 10:37:33.904           117.804               Magadan1          3681.375
       198   04 Jun 2027 10:38:24.051   04 Jun 2027 10:40:29.568           125.517               Magadan2          3922.406
       199   04 Jun 2027 10:40:35.028   04 Jun 2027 10:41:16.682            41.654               Magadan1          1301.688
       200   04 Jun 2027 10:41:42.452   04 Jun 2027 10:42:14.552            32.100                Novosib          1003.125
       201   04 Jun 2027 10:42:31.616   04 Jun 2027 10:43:10.398            38.782                Anadyr2          1211.937
       202   04 Jun 2027 11:18:56.143   04 Jun 2027 11:19:23.920            27.777            RioGallegos           868.031
       203   04 Jun 2027 11:27:36.001   04 Jun 2027 11:28:13.667            37.666            RioGallegos          1177.062
       204   04 Jun 2027 12:06:47.038   04 Jun 2027 12:08:34.412           107.374                Irkutsk          3355.438
       205   04 Jun 2027 12:10:23.120   04 Jun 2027 12:10:37.693            14.573                Novosib           455.406
       206   04 Jun 2027 12:11:34.178   04 Jun 2027 12:12:30.884            56.706                Norilsk          1772.062
       207   04 Jun 2027 12:13:46.487   04 Jun 2027 12:18:17.508           271.021               Magadan2          8469.406
       208   04 Jun 2027 13:28:49.777   04 Jun 2027 13:28:55.018             5.241                Sumatra           163.781
       209   04 Jun 2027 13:31:54.402   04 Jun 2027 13:32:37.037            42.635                Sumatra          1332.344
       210   04 Jun 2027 13:35:43.425   04 Jun 2027 13:37:23.515           100.090                Sumatra          3127.813
       211   04 Jun 2027 13:45:29.070   04 Jun 2027 13:46:08.104            39.034                Irkutsk          1219.812
       212   04 Jun 2027 13:47:55.635   04 Jun 2027 13:48:23.633            27.998                Irkutsk           874.937
       213   04 Jun 2027 13:57:57.440   04 Jun 2027 13:58:24.832            27.392                Norilsk           856.000
       214   04 Jun 2027 14:33:14.683   04 Jun 2027 14:41:06.738           472.055            RioGallegos         14751.719
       215   04 Jun 2027 15:08:08.555   04 Jun 2027 15:13:11.538           302.983                Sumatra          9468.219
       216   04 Jun 2027 15:24:03.766   04 Jun 2027 15:28:10.565           246.799                Irkutsk          7712.469
       217   04 Jun 2027 17:02:57.658   04 Jun 2027 17:04:59.387           121.729                Novosib          3804.031
       218   04 Jun 2027 18:42:05.213   04 Jun 2027 18:42:18.297            13.084              Murmansk1           408.875
       219   04 Jun 2027 18:44:05.307   04 Jun 2027 18:45:44.078            98.771              Murmansk2          3086.594
       220   04 Jun 2027 19:46:49.880   04 Jun 2027 19:49:21.219           151.339               CapeTown          4729.344
       221   04 Jun 2027 20:16:39.163   04 Jun 2027 20:17:51.051            71.888              Murmansk1          2246.500
       222   04 Jun 2027 20:18:16.733   04 Jun 2027 20:22:13.262           236.529              Murmansk2          7391.531
       223   04 Jun 2027 20:23:09.848   04 Jun 2027 20:25:32.890           143.042              Murmansk1          4470.062
       224   04 Jun 2027 21:25:25.820   04 Jun 2027 21:30:33.918           308.098               CapeTown          9628.063
       225   04 Jun 2027 22:17:40.364   04 Jun 2027 22:17:54.043            13.679               Magadan1           427.469
       226   04 Jun 2027 23:39:15.237   04 Jun 2027 23:44:13.383           298.146                Anadyr2          9317.062
       227   04 Jun 2027 23:44:21.958   04 Jun 2027 23:44:49.402            27.444                Norilsk           857.625
       228   04 Jun 2027 23:44:58.345   04 Jun 2027 23:45:16.382            18.037               Magadan2           563.656
       229   04 Jun 2027 23:45:28.367   04 Jun 2027 23:46:14.343            45.976               Magadan2          1436.750
       230   04 Jun 2027 23:47:17.370   04 Jun 2027 23:48:10.993            53.623                Irkutsk          1675.719
       231   04 Jun 2027 23:49:15.849   04 Jun 2027 23:49:28.629            12.780                Irkutsk           399.375
       232   04 Jun 2027 23:49:38.039   04 Jun 2027 23:49:48.230            10.191               Magadan2           318.469
       233   04 Jun 2027 23:50:12.487   04 Jun 2027 23:50:26.771            14.284               Magadan2           446.375
       234   04 Jun 2027 23:51:10.550   04 Jun 2027 23:51:17.935             7.385               Magadan1           230.781
       235   04 Jun 2027 23:51:58.303   04 Jun 2027 23:52:30.014            31.711                Irkutsk           990.969
       236   04 Jun 2027 23:53:48.035   04 Jun 2027 23:53:59.567            11.532               Magadan1           360.375
       237   05 Jun 2027 00:05:08.009   05 Jun 2027 00:06:17.043            69.034                Sumatra          2157.312
       238   05 Jun 2027 00:33:23.937   05 Jun 2027 00:35:15.475           111.538            RioGallegos          3485.563
       239   05 Jun 2027 00:35:41.418   05 Jun 2027 00:35:58.586            17.168            RioGallegos           536.500
       240   05 Jun 2027 00:38:19.600   05 Jun 2027 00:38:42.942            23.342            RioGallegos           729.438
       241   05 Jun 2027 00:41:51.150   05 Jun 2027 00:42:36.025            44.875            RioGallegos          1402.344
       242   05 Jun 2027 01:14:44.427   05 Jun 2027 01:15:22.087            37.660                Anadyr1          1176.875
       243   05 Jun 2027 01:16:12.886   05 Jun 2027 01:16:40.284            27.398                Anadyr2           856.188
       244   05 Jun 2027 01:17:04.113   05 Jun 2027 01:17:18.269            14.156                Norilsk           442.375
       245   05 Jun 2027 01:17:21.201   05 Jun 2027 01:17:48.286            27.085                Anadyr2           846.406
       246   05 Jun 2027 01:17:53.875   05 Jun 2027 01:18:28.818            34.943               Magadan2          1091.969
       247   05 Jun 2027 01:18:28.818   05 Jun 2027 01:19:14.369            45.551               Magadan1          1423.469
       248   05 Jun 2027 01:19:28.560   05 Jun 2027 01:20:27.320            58.760               Magadan1          1836.250
       249   05 Jun 2027 01:21:06.601   05 Jun 2027 01:22:27.785            81.184                Irkutsk          2537.000
       250   05 Jun 2027 01:24:08.804   05 Jun 2027 01:24:35.376            26.572                Novosib           830.375
       251   05 Jun 2027 01:25:56.331   05 Jun 2027 01:26:38.434            42.103                Novosib          1315.719
       252   05 Jun 2027 01:34:48.407   05 Jun 2027 01:37:42.256           173.849                Sumatra          5432.781
       253   05 Jun 2027 02:12:41.924   05 Jun 2027 02:13:03.554            21.630            RioGallegos           675.937
       254   05 Jun 2027 02:15:04.489   05 Jun 2027 02:15:29.020            24.531            RioGallegos           766.594
       255   05 Jun 2027 02:49:57.722   05 Jun 2027 02:50:19.053            21.331                Anadyr2           666.594
       256   05 Jun 2027 02:52:12.086   05 Jun 2027 02:52:22.057             9.971                Anadyr2           311.594
       257   05 Jun 2027 02:52:37.600   05 Jun 2027 02:52:40.273             2.673                Anadyr2            83.531
       258   05 Jun 2027 02:53:04.321   05 Jun 2027 02:54:39.122            94.801                Norilsk          2962.531
       259   05 Jun 2027 02:56:05.307   05 Jun 2027 02:56:40.174            34.867                Norilsk          1089.594
       260   05 Jun 2027 02:56:55.768   05 Jun 2027 02:57:24.890            29.122              Murmansk2           910.062
       261   05 Jun 2027 02:57:45.606   05 Jun 2027 02:58:54.982            69.376                Novosib          2168.000
       262   05 Jun 2027 02:59:04.287   05 Jun 2027 02:59:49.252            44.965                Irkutsk          1405.156
       263   05 Jun 2027 03:00:41.915   05 Jun 2027 03:01:22.525            40.610                Irkutsk          1269.063
       264   05 Jun 2027 03:01:25.806   05 Jun 2027 03:03:05.571            99.765                Novosib          3117.656
       265   05 Jun 2027 03:03:10.750   05 Jun 2027 03:04:47.062            96.312                Irkutsk          3009.750
       266   05 Jun 2027 03:05:29.436   05 Jun 2027 03:06:27.598            58.162                  Delhi          1817.563
       267   05 Jun 2027 03:15:29.396   05 Jun 2027 03:17:47.512           138.116                Sumatra          4316.125
       268   05 Jun 2027 03:49:08.046   05 Jun 2027 03:50:16.396            68.350            RioGallegos          2135.938
       269   05 Jun 2027 04:35:09.904   05 Jun 2027 04:35:13.700             3.796              Murmansk1           118.625
       270   05 Jun 2027 04:35:17.534   05 Jun 2027 04:36:06.790            49.256                Novosib          1539.250
       271   05 Jun 2027 04:36:12.671   05 Jun 2027 04:36:17.117             4.446              Murmansk1           138.937
       272   05 Jun 2027 04:36:42.586   05 Jun 2027 04:39:00.602           138.016              Murmansk1          4313.000
       273   05 Jun 2027 04:39:02.320   05 Jun 2027 04:40:39.364            97.044                Irkutsk          3032.625
       274   05 Jun 2027 04:40:59.142   05 Jun 2027 04:50:50.311           591.169                  Delhi         18474.031
       275   05 Jun 2027 06:15:08.472   05 Jun 2027 06:15:31.554            23.082                Novosib           721.312
       276   05 Jun 2027 06:15:44.175   05 Jun 2027 06:19:38.223           234.048              Murmansk2          7314.000
       277   05 Jun 2027 06:21:16.408   05 Jun 2027 06:21:22.730             6.322                 Moscow           197.562
       278   05 Jun 2027 06:22:40.123   05 Jun 2027 06:23:14.021            33.898                 Moscow          1059.312
       279   05 Jun 2027 06:34:27.254   05 Jun 2027 06:38:14.560           227.306               CapeTown          7103.313
       280   05 Jun 2027 07:38:18.282   05 Jun 2027 07:42:09.063           230.781                Anadyr2          7211.906
       281   05 Jun 2027 07:49:43.745   05 Jun 2027 07:51:13.256            89.511              Murmansk1          2797.219
       282   05 Jun 2027 07:51:55.842   05 Jun 2027 07:51:58.659             2.817              Murmansk2            88.031
       283   05 Jun 2027 07:52:22.258   05 Jun 2027 07:52:31.613             9.355                 Moscow           292.344
       284   05 Jun 2027 07:54:35.912   05 Jun 2027 07:54:59.631            23.719                 Moscow           741.219
       285   05 Jun 2027 07:56:24.924   05 Jun 2027 07:57:10.142            45.218                 Moscow          1413.062
       286   05 Jun 2027 07:57:15.120   05 Jun 2027 07:57:23.477             8.357                 Moscow           261.156
       287   05 Jun 2027 08:12:03.433   05 Jun 2027 08:14:35.019           151.586               CapeTown          4737.063
       288   05 Jun 2027 08:17:25.498   05 Jun 2027 08:19:10.012           104.514               CapeTown          3266.063
       289   05 Jun 2027 09:11:48.963   05 Jun 2027 09:12:44.144            55.181                Anadyr1          1724.406
       290   05 Jun 2027 09:12:44.144   05 Jun 2027 09:14:06.170            82.026                Anadyr2          2563.312
       291   05 Jun 2027 09:14:16.661   05 Jun 2027 09:14:34.970            18.309               Magadan1           572.156
       292   05 Jun 2027 09:15:06.832   05 Jun 2027 09:16:25.649            78.817                Anadyr1          2463.031
       293   05 Jun 2027 09:16:25.649   05 Jun 2027 09:17:46.303            80.654                Anadyr2          2520.437
       294   05 Jun 2027 10:47:03.807   05 Jun 2027 10:49:59.357           175.550               Magadan2          5485.937
       295   05 Jun 2027 10:50:10.944   05 Jun 2027 10:50:27.154            16.210                Irkutsk           506.562
       296   05 Jun 2027 10:50:42.137   05 Jun 2027 10:54:59.372           257.235                Anadyr2          8038.594
       297   05 Jun 2027 12:18:37.973   05 Jun 2027 12:19:52.924            74.951                Irkutsk          2342.219
       298   05 Jun 2027 12:23:26.231   05 Jun 2027 12:29:55.852           389.621               Magadan1         12175.656
       299   05 Jun 2027 13:55:04.442   05 Jun 2027 13:57:25.856           141.414                Irkutsk          4419.187
       300   05 Jun 2027 13:57:37.300   05 Jun 2027 14:01:00.113           202.813                Irkutsk          6337.906
       301   05 Jun 2027 14:46:19.225   05 Jun 2027 14:52:32.061           372.836            RioGallegos         11651.125
       302   05 Jun 2027 17:10:49.784   05 Jun 2027 17:12:13.390            83.606                 Moscow          2612.687
       303   05 Jun 2027 17:14:46.313   05 Jun 2027 17:15:40.182            53.869              Murmansk1          1683.406
       304   05 Jun 2027 17:16:52.924   05 Jun 2027 17:19:32.242           159.318                Norilsk          4978.687
       305   05 Jun 2027 17:20:27.392   05 Jun 2027 17:21:33.015            65.623                Norilsk          2050.719
       306   05 Jun 2027 17:22:18.820   05 Jun 2027 17:22:54.281            35.461                Norilsk          1108.156
       307   05 Jun 2027 18:46:48.092   05 Jun 2027 18:47:49.894            61.802                 Moscow          1931.313
       308   05 Jun 2027 18:49:56.075   05 Jun 2027 18:51:38.511           102.436              Murmansk1          3201.125
       309   05 Jun 2027 18:51:43.697   05 Jun 2027 18:52:09.555            25.858                 Moscow           808.063
       310   05 Jun 2027 18:59:00.876   05 Jun 2027 18:59:47.956            47.080              Murmansk2          1471.250
       311   05 Jun 2027 19:06:38.708   05 Jun 2027 19:06:58.514            19.806                Anadyr1           618.937
       312   05 Jun 2027 19:58:55.337   05 Jun 2027 20:00:27.414            92.077               CapeTown          2877.406
       313   05 Jun 2027 20:01:54.535   05 Jun 2027 20:03:11.453            76.918               CapeTown          2403.688
       314   05 Jun 2027 20:07:37.659   05 Jun 2027 20:07:55.376            17.717               CapeTown           553.656
       315   05 Jun 2027 20:29:16.405   05 Jun 2027 20:30:53.420            97.015              Murmansk2          3031.719
       316   05 Jun 2027 20:31:38.119   05 Jun 2027 20:35:01.491           203.372              Murmansk1          6355.375
       317   05 Jun 2027 20:35:08.608   05 Jun 2027 20:37:30.432           141.824              Murmansk2          4432.000
       318   05 Jun 2027 22:15:23.588   05 Jun 2027 22:16:52.408            88.820                Anadyr1          2775.625
       319   05 Jun 2027 22:17:12.372   05 Jun 2027 22:17:20.098             7.726                Anadyr1           241.437
       320   05 Jun 2027 22:17:43.644   05 Jun 2027 22:20:55.836           192.192               Magadan1          6006.000
       321   05 Jun 2027 22:22:21.079   05 Jun 2027 22:22:45.876            24.797               Magadan2           774.906
       322   05 Jun 2027 22:26:25.098   05 Jun 2027 22:27:09.514            44.416               Magadan2          1388.000
       323   05 Jun 2027 23:12:58.913   05 Jun 2027 23:14:31.550            92.637            RioGallegos          2894.906
       324   05 Jun 2027 23:51:15.572   05 Jun 2027 23:53:28.812           133.240                Anadyr2          4163.750
       325   05 Jun 2027 23:53:36.379   05 Jun 2027 23:56:07.685           151.306               Magadan1          4728.313
       326   05 Jun 2027 23:56:07.685   05 Jun 2027 23:56:44.533            36.848               Magadan2          1151.500
       327   05 Jun 2027 23:58:12.814   05 Jun 2027 23:58:38.315            25.501               Magadan2           796.906
       328   05 Jun 2027 23:58:41.549   05 Jun 2027 23:59:13.076            31.527                Irkutsk           985.219
       329   05 Jun 2027 23:59:51.058   06 Jun 2027 00:00:15.967            24.909                Irkutsk           778.406
       330   06 Jun 2027 00:03:55.726   06 Jun 2027 00:05:10.213            74.487                Irkutsk          2327.719
       331   06 Jun 2027 00:14:27.921   06 Jun 2027 00:16:01.078            93.157                Sumatra          2911.156
       332   06 Jun 2027 00:45:18.596   06 Jun 2027 00:46:05.539            46.943            RioGallegos          1466.969
       333   06 Jun 2027 00:46:37.819   06 Jun 2027 00:47:05.162            27.343            RioGallegos           854.469
       334   06 Jun 2027 00:52:51.519   06 Jun 2027 00:53:09.209            17.690            RioGallegos           552.812
       335   06 Jun 2027 00:56:29.150   06 Jun 2027 00:56:42.179            13.029            RioGallegos           407.156
       336   06 Jun 2027 01:26:39.255   06 Jun 2027 01:27:28.942            49.687                Anadyr2          1552.719
       337   06 Jun 2027 01:28:08.677   06 Jun 2027 01:28:27.448            18.771                Anadyr2           586.594
       338   06 Jun 2027 01:29:05.944   06 Jun 2027 01:31:09.184           123.240                Norilsk          3851.250
       339   06 Jun 2027 01:31:27.617   06 Jun 2027 01:32:18.690            51.073               Magadan1          1596.031
       340   06 Jun 2027 01:33:04.656   06 Jun 2027 01:36:02.370           177.714                Irkutsk          5553.562
       341   06 Jun 2027 01:46:49.940   06 Jun 2027 01:48:38.261           108.321                Sumatra          3385.031
       342   06 Jun 2027 01:51:12.217   06 Jun 2027 01:52:40.027            87.810                Sumatra          2744.063
       343   06 Jun 2027 02:26:55.054   06 Jun 2027 02:27:02.225             7.171            RioGallegos           224.094
       344   06 Jun 2027 02:27:46.695   06 Jun 2027 02:28:00.480            13.785            RioGallegos           430.781
       345   06 Jun 2027 02:29:56.797   06 Jun 2027 02:30:20.342            23.545            RioGallegos           735.781
       346   06 Jun 2027 02:32:23.086   06 Jun 2027 02:32:49.183            26.097            RioGallegos           815.531
       347   06 Jun 2027 03:09:12.353   06 Jun 2027 03:09:23.990            11.637               Magadan1           363.656
       348   06 Jun 2027 03:09:37.609   06 Jun 2027 03:10:16.202            38.593               Magadan1          1206.031
       349   06 Jun 2027 03:10:27.895   06 Jun 2027 03:11:11.673            43.778               Magadan1          1368.063
       350   06 Jun 2027 03:11:11.673   06 Jun 2027 03:11:29.897            18.224               Magadan2           569.500
       351   06 Jun 2027 03:11:53.463   06 Jun 2027 03:12:44.761            51.298                Irkutsk          1603.062
       352   06 Jun 2027 03:13:00.793   06 Jun 2027 03:13:24.253            23.460                Novosib           733.125
       353   06 Jun 2027 03:13:27.643   06 Jun 2027 03:13:43.830            16.187                Irkutsk           505.844
       354   06 Jun 2027 03:13:48.481   06 Jun 2027 03:14:50.827            62.346                Novosib          1948.312
       355   06 Jun 2027 03:15:09.074   06 Jun 2027 03:17:17.592           128.518                Irkutsk          4016.188
       356   06 Jun 2027 03:17:19.310   06 Jun 2027 03:19:21.027           121.717                  Delhi          3803.656
       357   06 Jun 2027 03:19:46.705   06 Jun 2027 03:20:59.866            73.161                Irkutsk          2286.281
       358   06 Jun 2027 04:00:19.861   06 Jun 2027 04:02:05.230           105.369            RioGallegos          3292.781
       359   06 Jun 2027 04:02:41.556   06 Jun 2027 04:02:43.471             1.915            RioGallegos            59.844
       360   06 Jun 2027 04:47:57.171   06 Jun 2027 04:49:41.754           104.583                Norilsk          3268.219
       361   06 Jun 2027 04:49:45.654   06 Jun 2027 04:50:02.518            16.864                Norilsk           527.000
       362   06 Jun 2027 04:50:10.472   06 Jun 2027 04:51:35.069            84.597                 Moscow          2643.656
       363   06 Jun 2027 04:51:43.808   06 Jun 2027 04:52:18.595            34.787                Norilsk          1087.094
       364   06 Jun 2027 04:52:21.179   06 Jun 2027 04:52:41.332            20.153                Irkutsk           629.781
       365   06 Jun 2027 04:53:26.850   06 Jun 2027 04:59:58.702           391.852                  Delhi         12245.375
       366   06 Jun 2027 06:26:59.715   06 Jun 2027 06:27:26.497            26.782              Murmansk2           836.937
       367   06 Jun 2027 06:27:26.497   06 Jun 2027 06:28:43.223            76.726              Murmansk1          2397.688
       368   06 Jun 2027 06:29:06.472   06 Jun 2027 06:31:49.776           163.304              Murmansk2          5103.250
       369   06 Jun 2027 06:32:02.426   06 Jun 2027 06:32:37.715            35.289                 Moscow          1102.781
       370   06 Jun 2027 06:32:44.255   06 Jun 2027 06:33:07.851            23.596                 Moscow           737.375
       371   06 Jun 2027 06:46:21.907   06 Jun 2027 06:49:32.897           190.990               CapeTown          5968.437
       372   06 Jun 2027 07:49:55.013   06 Jun 2027 07:50:31.417            36.404               Magadan1          1137.625
       373   06 Jun 2027 07:50:53.496   06 Jun 2027 07:52:19.854            86.358               Magadan2          2698.688
       374   06 Jun 2027 07:53:00.923   06 Jun 2027 07:54:10.194            69.271                Anadyr2          2164.719
       375   06 Jun 2027 08:00:47.064   06 Jun 2027 08:01:07.828            20.764                 Moscow           648.875
       376   06 Jun 2027 08:24:56.000   06 Jun 2027 08:32:58.376           482.376               CapeTown         15074.250
       377   06 Jun 2027 09:25:35.178   06 Jun 2027 09:25:43.722             8.544               Magadan2           267.000
       378   06 Jun 2027 09:25:57.254   06 Jun 2027 09:27:33.491            96.237               Magadan1          3007.406
       379   06 Jun 2027 09:27:54.637   06 Jun 2027 09:30:08.379           133.742                Anadyr1          4179.437
       380   06 Jun 2027 09:30:08.379   06 Jun 2027 09:31:14.295            65.916                Anadyr2          2059.875
       381   06 Jun 2027 09:37:22.052   06 Jun 2027 09:38:03.175            41.123                 Moscow          1285.094
       382   06 Jun 2027 11:00:27.904   06 Jun 2027 11:01:17.686            49.782               Magadan2          1555.688
       383   06 Jun 2027 11:01:22.599   06 Jun 2027 11:02:12.575            49.976                Irkutsk          1561.750
       384   06 Jun 2027 11:02:39.050   06 Jun 2027 11:02:59.686            20.636                Norilsk           644.875
       385   06 Jun 2027 11:03:36.162   06 Jun 2027 11:06:43.098           186.936                Anadyr2          5841.750
       386   06 Jun 2027 11:06:53.985   06 Jun 2027 11:07:15.400            21.415              Murmansk1           669.219
       387   06 Jun 2027 11:07:34.307   06 Jun 2027 11:07:42.698             8.391              Murmansk2           262.219
       388   06 Jun 2027 11:07:53.787   06 Jun 2027 11:08:05.150            11.363              Murmansk1           355.094
       389   06 Jun 2027 11:08:49.442   06 Jun 2027 11:09:03.849            14.407              Murmansk1           450.219
       390   06 Jun 2027 11:10:07.224   06 Jun 2027 11:10:13.220             5.996              Murmansk2           187.375
       391   06 Jun 2027 11:12:19.092   06 Jun 2027 11:12:21.006             1.914              Murmansk2            59.812
       392   06 Jun 2027 11:42:26.598   06 Jun 2027 11:43:12.214            45.616            RioGallegos          1425.500
       393   06 Jun 2027 11:43:28.674   06 Jun 2027 11:43:45.899            17.225            RioGallegos           538.281
       394   06 Jun 2027 12:19:49.299   06 Jun 2027 12:21:40.401           111.102                Sumatra          3471.937
       395   06 Jun 2027 12:30:32.038   06 Jun 2027 12:32:50.465           138.427                Irkutsk          4325.844
       396   06 Jun 2027 12:35:26.705   06 Jun 2027 12:35:54.303            27.598                Norilsk           862.438
       397   06 Jun 2027 12:36:38.174   06 Jun 2027 12:41:21.258           283.084               Magadan1          8846.375
       398   06 Jun 2027 13:55:56.156   06 Jun 2027 13:57:23.762            87.606                Sumatra          2737.687
       399   06 Jun 2027 13:59:14.208   06 Jun 2027 14:01:37.664           143.456                Sumatra          4483.000
       400   06 Jun 2027 14:07:27.072   06 Jun 2027 14:08:15.100            48.028                Irkutsk          1500.875
       401   06 Jun 2027 14:12:39.534   06 Jun 2027 14:12:40.639             1.105                Irkutsk            34.531
       402   06 Jun 2027 14:15:47.901   06 Jun 2027 14:17:22.673            94.772                Irkutsk          2961.625
       403   06 Jun 2027 14:59:54.980   06 Jun 2027 15:03:29.395           214.415            RioGallegos          6700.469
       404   06 Jun 2027 15:45:38.342   06 Jun 2027 15:46:33.026            54.684                Novosib          1708.875
       405   06 Jun 2027 15:49:43.541   06 Jun 2027 15:50:06.454            22.913                Norilsk           716.031
       406   06 Jun 2027 15:50:11.906   06 Jun 2027 15:50:48.559            36.653                Novosib          1145.406
       407   06 Jun 2027 15:53:06.300   06 Jun 2027 15:56:13.944           187.644                Novosib          5863.875
       408   06 Jun 2027 17:24:44.958   06 Jun 2027 17:24:45.723             0.765                 Moscow            23.906
       409   06 Jun 2027 17:24:55.729   06 Jun 2027 17:25:27.445            31.716              Murmansk2           991.125
       410   06 Jun 2027 17:29:39.021   06 Jun 2027 17:34:40.904           301.883                Norilsk          9433.844
       411   06 Jun 2027 18:59:18.770   06 Jun 2027 19:01:03.004           104.234                 Moscow          3257.313
       412   06 Jun 2027 19:02:15.196   06 Jun 2027 19:02:22.668             7.472              Murmansk1           233.500
       413   06 Jun 2027 19:02:42.772   06 Jun 2027 19:04:08.270            85.498              Murmansk2          2671.812
       414   06 Jun 2027 19:06:03.207   06 Jun 2027 19:06:06.237             3.030              Murmansk1            94.688
       415   06 Jun 2027 19:06:06.237   06 Jun 2027 19:06:39.806            33.569              Murmansk2          1049.031
       416   06 Jun 2027 19:24:31.484   06 Jun 2027 19:25:02.211            30.727                Anadyr2           960.219
       417   06 Jun 2027 20:11:03.723   06 Jun 2027 20:13:43.636           159.913               CapeTown          4997.281
       418   06 Jun 2027 20:41:57.322   06 Jun 2027 20:44:21.967           144.645              Murmansk1          4520.156
       419   06 Jun 2027 20:44:41.078   06 Jun 2027 20:47:56.619           195.541              Murmansk2          6110.656
       420   06 Jun 2027 20:47:57.143   06 Jun 2027 20:49:26.414            89.271              Murmansk1          2789.719
       421   06 Jun 2027 22:27:25.447   06 Jun 2027 22:29:20.398           114.951                Anadyr2          3592.219
       422   06 Jun 2027 22:29:43.407   06 Jun 2027 22:32:46.017           182.610               Magadan2          5706.563
       423   06 Jun 2027 22:32:57.800   06 Jun 2027 22:33:07.257             9.457               Magadan2           295.531
       424   06 Jun 2027 22:33:29.527   06 Jun 2027 22:33:38.326             8.799               Magadan1           274.969
       425   06 Jun 2027 22:34:18.040   06 Jun 2027 22:34:51.317            33.277               Magadan1          1039.906
       426   06 Jun 2027 22:38:58.207   06 Jun 2027 22:39:22.616            24.409               Magadan2           762.781
       427   06 Jun 2027 23:23:35.485   06 Jun 2027 23:26:10.327           154.842            RioGallegos          4838.812
       428   06 Jun 2027 23:28:38.440   06 Jun 2027 23:29:13.756            35.316            RioGallegos          1103.625
       429   07 Jun 2027 00:03:15.476   07 Jun 2027 00:04:45.414            89.938                Anadyr1          2810.563
       430   07 Jun 2027 00:04:48.599   07 Jun 2027 00:05:06.606            18.007                Anadyr2           562.719
       431   07 Jun 2027 00:05:20.825   07 Jun 2027 00:06:53.231            92.406                Norilsk          2887.688
       432   07 Jun 2027 00:07:37.846   07 Jun 2027 00:08:38.197            60.351               Magadan1          1885.969
       433   07 Jun 2027 00:10:17.759   07 Jun 2027 00:11:49.922            92.163                Irkutsk          2880.094
       434   07 Jun 2027 00:14:35.955   07 Jun 2027 00:14:51.304            15.349                Irkutsk           479.656
       435   07 Jun 2027 00:15:37.500   07 Jun 2027 00:17:05.348            87.848                Irkutsk          2745.250
       436   07 Jun 2027 00:25:18.637   07 Jun 2027 00:27:14.394           115.757                Sumatra          3617.406
       437   07 Jun 2027 01:00:11.336   07 Jun 2027 01:01:02.958            51.622            RioGallegos          1613.187
       438   07 Jun 2027 01:08:26.084   07 Jun 2027 01:08:46.408            20.324            RioGallegos           635.125
       439   07 Jun 2027 01:38:32.989   07 Jun 2027 01:38:49.976            16.987                Anadyr1           530.844
       440   07 Jun 2027 01:38:59.251   07 Jun 2027 01:39:05.991             6.740                Anadyr1           210.625
       441   07 Jun 2027 01:40:02.890   07 Jun 2027 01:40:40.630            37.740                Anadyr1          1179.375
       442   07 Jun 2027 01:41:05.834   07 Jun 2027 01:41:41.830            35.996                Anadyr2          1124.875
       443   07 Jun 2027 01:41:46.954   07 Jun 2027 01:42:18.637            31.683               Magadan1           990.094
       444   07 Jun 2027 01:42:28.323   07 Jun 2027 01:43:11.520            43.197                Norilsk          1349.906
       445   07 Jun 2027 01:43:22.553   07 Jun 2027 01:43:47.107            24.554               Magadan1           767.312
       446   07 Jun 2027 01:45:03.910   07 Jun 2027 01:48:13.009           189.099                Irkutsk          5909.344
       447   07 Jun 2027 01:52:50.402   07 Jun 2027 01:52:51.948             1.546                Irkutsk            48.313
       448   07 Jun 2027 01:55:45.907   07 Jun 2027 01:56:28.654            42.747                  Delhi          1335.844
       449   07 Jun 2027 01:58:57.257   07 Jun 2027 01:58:58.909             1.652                Sumatra            51.625
       450   07 Jun 2027 02:01:53.002   07 Jun 2027 02:03:37.548           104.546                Sumatra          3267.062
       451   07 Jun 2027 02:07:10.158   07 Jun 2027 02:08:41.617            91.459                Sumatra          2858.094
       452   07 Jun 2027 02:44:06.938   07 Jun 2027 02:44:17.408            10.470            RioGallegos           327.188
       453   07 Jun 2027 03:22:05.423   07 Jun 2027 03:23:15.704            70.281               Magadan1          2196.281
       454   07 Jun 2027 03:23:15.704   07 Jun 2027 03:23:15.889             0.185               Magadan2             5.781
       455   07 Jun 2027 03:23:49.496   07 Jun 2027 03:28:54.401           304.905                Irkutsk          9528.281
       456   07 Jun 2027 03:29:35.708   07 Jun 2027 03:29:38.580             2.872                Irkutsk            89.750
       457   07 Jun 2027 03:30:11.206   07 Jun 2027 03:30:51.203            39.997                Irkutsk          1249.906
       458   07 Jun 2027 04:13:02.683   07 Jun 2027 04:14:38.849            96.166            RioGallegos          3005.187
       459   07 Jun 2027 05:00:46.973   07 Jun 2027 05:01:22.106            35.133                Irkutsk          1097.906
       460   07 Jun 2027 05:01:40.104   07 Jun 2027 05:02:07.125            27.021                 Moscow           844.406
       461   07 Jun 2027 05:02:14.014   07 Jun 2027 05:02:57.854            43.840                Novosib          1370.000
       462   07 Jun 2027 05:03:04.076   07 Jun 2027 05:04:42.401            98.325                Novosib          3072.656
       463   07 Jun 2027 05:04:43.109   07 Jun 2027 05:05:35.818            52.709              Murmansk1          1647.156
       464   07 Jun 2027 05:06:05.427   07 Jun 2027 05:13:29.125           443.698                  Delhi         13865.563
       465   07 Jun 2027 06:39:19.560   07 Jun 2027 06:39:38.184            18.624                 Moscow           582.000
       466   07 Jun 2027 06:39:55.413   07 Jun 2027 06:40:43.477            48.064              Murmansk1          1502.000
       467   07 Jun 2027 06:40:50.864   07 Jun 2027 06:43:41.238           170.374              Murmansk1          5324.188
       468   07 Jun 2027 06:58:21.604   07 Jun 2027 07:01:35.324           193.720               CapeTown          6053.750
       469   07 Jun 2027 08:01:41.977   07 Jun 2027 08:01:58.164            16.187               Magadan2           505.844
       470   07 Jun 2027 08:02:21.460   07 Jun 2027 08:02:53.555            32.095                Anadyr2          1002.969
       471   07 Jun 2027 08:02:54.289   07 Jun 2027 08:03:37.010            42.721                Anadyr1          1335.031
       472   07 Jun 2027 08:04:46.182   07 Jun 2027 08:04:46.710             0.528                Anadyr2            16.500
       473   07 Jun 2027 08:05:20.495   07 Jun 2027 08:05:32.035            11.540               Magadan1           360.625
       474   07 Jun 2027 08:05:32.035   07 Jun 2027 08:05:52.372            20.337               Magadan2           635.531
       475   07 Jun 2027 08:06:11.031   07 Jun 2027 08:06:54.407            43.376                Anadyr2          1355.500
       476   07 Jun 2027 08:38:12.084   07 Jun 2027 08:43:59.838           347.754               CapeTown         10867.312
       477   07 Jun 2027 09:37:42.589   07 Jun 2027 09:38:16.117            33.528                Anadyr2          1047.750
       478   07 Jun 2027 09:38:57.002   07 Jun 2027 09:39:34.833            37.831               Magadan1          1182.219
       479   07 Jun 2027 09:39:35.937   07 Jun 2027 09:43:49.361           253.424                Anadyr2          7919.500
       480   07 Jun 2027 11:10:27.618   07 Jun 2027 11:13:00.286           152.668               Magadan2          4770.875
       481   07 Jun 2027 11:13:15.625   07 Jun 2027 11:16:49.034           213.409               Magadan1          6669.031
       482   07 Jun 2027 11:17:41.321   07 Jun 2027 11:17:55.900            14.579                Norilsk           455.594
