uniorb/output/strategy_1/Drop/Drop_KinoSat_110909.txt

KinoSat_110909
-------------------------
    Access    *     Start Time (UTCG)     *     Stop Time (UTCG)  *   Duration (s)        *       Station  *  Data (Mbytes)
         1   01 Jun 2027 04:28:07.825   01 Jun 2027 04:28:35.993            28.168                Anadyr1           880.250
         2   01 Jun 2027 04:29:16.393   01 Jun 2027 04:29:53.992            37.599               Magadan2          1174.969
         3   01 Jun 2027 04:30:02.398   01 Jun 2027 04:32:22.876           140.478                Anadyr1          4389.937
         4   01 Jun 2027 04:32:50.922   01 Jun 2027 04:33:19.062            28.140               Magadan1           879.375
         5   01 Jun 2027 04:33:19.062   01 Jun 2027 04:35:24.229           125.167               Magadan2          3911.469
         6   01 Jun 2027 06:04:01.692   01 Jun 2027 06:08:31.229           269.537               Magadan2          8423.031
         7   01 Jun 2027 06:08:31.229   01 Jun 2027 06:08:50.458            19.229               Magadan1           600.906
         8   01 Jun 2027 06:08:51.840   01 Jun 2027 06:09:52.683            60.843                Anadyr2          1901.344
         9   01 Jun 2027 06:10:19.687   01 Jun 2027 06:10:45.463            25.776                Anadyr2           805.500
        10   01 Jun 2027 06:10:49.878   01 Jun 2027 06:11:13.121            23.243                Novosib           726.344
        11   01 Jun 2027 06:46:30.371   01 Jun 2027 06:47:43.470            73.099            RioGallegos          2284.344
        12   01 Jun 2027 07:25:31.118   01 Jun 2027 07:26:16.553            45.435                Sumatra          1419.844
        13   01 Jun 2027 07:28:34.388   01 Jun 2027 07:29:13.928            39.540                Sumatra          1235.625
        14   01 Jun 2027 07:41:59.187   01 Jun 2027 07:42:33.051            33.864               Magadan1          1058.250
        15   01 Jun 2027 07:42:33.051   01 Jun 2027 07:43:13.481            40.430               Magadan2          1263.438
        16   01 Jun 2027 07:43:25.425   01 Jun 2027 07:45:06.277           100.852               Magadan1          3151.625
        17   01 Jun 2027 07:45:06.277   01 Jun 2027 07:45:28.795            22.518               Magadan2           703.687
        18   01 Jun 2027 07:45:31.433   01 Jun 2027 07:47:04.819            93.386                Novosib          2918.313
        19   01 Jun 2027 08:56:37.395   01 Jun 2027 08:57:10.312            32.917                Sumatra          1028.656
        20   01 Jun 2027 08:58:04.482   01 Jun 2027 08:59:24.932            80.450                Sumatra          2514.062
        21   01 Jun 2027 09:06:52.423   01 Jun 2027 09:07:58.816            66.393                  Delhi          2074.781
        22   01 Jun 2027 09:16:47.069   01 Jun 2027 09:16:47.378             0.309                  Delhi             9.656
        23   01 Jun 2027 09:18:36.818   01 Jun 2027 09:20:13.112            96.294                Irkutsk          3009.188
        24   01 Jun 2027 09:20:16.885   01 Jun 2027 09:20:39.329            22.444              Murmansk1           701.375
        25   01 Jun 2027 09:20:39.329   01 Jun 2027 09:21:27.157            47.828              Murmansk2          1494.625
        26   01 Jun 2027 09:21:28.283   01 Jun 2027 09:21:48.551            20.268                 Moscow           633.375
        27   01 Jun 2027 09:21:54.063   01 Jun 2027 09:23:36.119           102.056                Novosib          3189.250
        28   01 Jun 2027 09:23:50.469   01 Jun 2027 09:24:19.033            28.564              Murmansk1           892.625
        29   01 Jun 2027 09:24:34.323   01 Jun 2027 09:24:35.613             1.290                Novosib            40.313
        30   01 Jun 2027 09:27:57.246   01 Jun 2027 09:28:01.358             4.112                Norilsk           128.500
        31   01 Jun 2027 10:02:00.922   01 Jun 2027 10:03:24.199            83.277            RioGallegos          2602.406
        32   01 Jun 2027 10:41:03.746   01 Jun 2027 10:41:52.752            49.006                  Delhi          1531.437
        33   01 Jun 2027 10:45:31.366   01 Jun 2027 10:45:49.775            18.409                  Delhi           575.281
        34   01 Jun 2027 10:47:28.620   01 Jun 2027 10:49:14.226           105.606                  Delhi          3300.188
        35   01 Jun 2027 10:56:24.267   01 Jun 2027 10:57:25.376            61.109                Novosib          1909.656
        36   01 Jun 2027 10:57:41.578   01 Jun 2027 10:58:19.457            37.879                Novosib          1183.719
        37   01 Jun 2027 10:58:29.364   01 Jun 2027 11:00:00.922            91.558                Norilsk          2861.187
        38   01 Jun 2027 11:01:49.170   01 Jun 2027 11:02:11.152            21.982                Norilsk           686.938
        39   01 Jun 2027 12:25:13.773   01 Jun 2027 12:29:24.300           250.527                 Moscow          7828.969
        40   01 Jun 2027 12:29:48.790   01 Jun 2027 12:30:42.833            54.043              Murmansk2          1688.844
        41   01 Jun 2027 12:30:42.833   01 Jun 2027 12:31:06.322            23.489              Murmansk1           734.031
        42   01 Jun 2027 12:32:00.850   01 Jun 2027 12:32:47.742            46.892              Murmansk2          1465.375
        43   01 Jun 2027 12:32:52.655   01 Jun 2027 12:33:17.253            24.598                Norilsk           768.688
        44   01 Jun 2027 12:33:17.983   01 Jun 2027 12:33:43.055            25.072              Murmansk1           783.500
        45   01 Jun 2027 12:34:17.576   01 Jun 2027 12:34:51.163            33.587                Norilsk          1049.594
        46   01 Jun 2027 13:39:52.006   01 Jun 2027 13:43:07.091           195.085               CapeTown          6096.406
        47   01 Jun 2027 13:44:45.973   01 Jun 2027 13:45:32.984            47.011               CapeTown          1469.094
        48   01 Jun 2027 14:02:33.967   01 Jun 2027 14:03:02.015            28.048                 Moscow           876.500
        49   01 Jun 2027 14:05:43.370   01 Jun 2027 14:06:33.230            49.860              Murmansk1          1558.125
        50   01 Jun 2027 14:06:36.180   01 Jun 2027 14:08:23.178           106.998              Murmansk2          3343.687
        51   01 Jun 2027 14:19:45.576   01 Jun 2027 14:22:19.716           154.140                Anadyr1          4816.875
        52   01 Jun 2027 15:14:42.865   01 Jun 2027 15:16:32.782           109.917               CapeTown          3434.906
        53   01 Jun 2027 15:45:02.731   01 Jun 2027 15:46:46.537           103.806              Murmansk2          3243.938
        54   01 Jun 2027 15:47:53.809   01 Jun 2027 15:48:06.940            13.131              Murmansk2           410.344
        55   01 Jun 2027 15:55:17.402   01 Jun 2027 15:56:04.537            47.135                Anadyr2          1472.969
        56   01 Jun 2027 15:56:50.034   01 Jun 2027 15:58:05.894            75.860                Anadyr2          2370.625
        57   01 Jun 2027 15:58:30.189   01 Jun 2027 15:59:23.882            53.693                Anadyr2          1677.906
        58   01 Jun 2027 15:59:44.305   01 Jun 2027 16:00:35.873            51.568               Magadan1          1611.500
        59   01 Jun 2027 16:01:56.789   01 Jun 2027 16:03:09.677            72.888               Magadan1          2277.750
        60   01 Jun 2027 16:03:09.677   01 Jun 2027 16:03:15.032             5.355               Magadan2           167.344
        61   01 Jun 2027 16:04:31.303   01 Jun 2027 16:05:29.746            58.443               Magadan2          1826.344
        62   01 Jun 2027 17:31:11.873   01 Jun 2027 17:34:26.848           194.975                Anadyr2          6092.969
        63   01 Jun 2027 17:34:44.410   01 Jun 2027 17:35:36.856            52.446               Magadan1          1638.938
        64   01 Jun 2027 17:35:50.037   01 Jun 2027 17:37:31.107           101.070               Magadan2          3158.438
        65   01 Jun 2027 19:07:02.856   01 Jun 2027 19:08:49.044           106.188                Anadyr1          3318.375
        66   01 Jun 2027 19:08:56.662   01 Jun 2027 19:11:01.026           124.364                Anadyr2          3886.375
        67   01 Jun 2027 19:11:04.521   01 Jun 2027 19:11:58.229            53.708               Magadan1          1678.375
        68   01 Jun 2027 19:11:58.229   01 Jun 2027 19:12:14.144            15.915               Magadan2           497.344
        69   01 Jun 2027 19:12:31.965   01 Jun 2027 19:12:49.126            17.161               Magadan2           536.281
        70   01 Jun 2027 19:13:31.392   01 Jun 2027 19:14:21.288            49.896               Magadan2          1559.250
        71   01 Jun 2027 19:14:39.354   01 Jun 2027 19:17:43.850           184.496                Irkutsk          5765.500
        72   01 Jun 2027 19:18:52.522   01 Jun 2027 19:20:04.852            72.330                Irkutsk          2260.312
        73   01 Jun 2027 19:21:12.555   01 Jun 2027 19:21:55.641            43.086                Irkutsk          1346.437
        74   01 Jun 2027 19:30:31.579   01 Jun 2027 19:32:47.623           136.044                Sumatra          4251.375
        75   01 Jun 2027 20:45:10.541   01 Jun 2027 20:45:33.032            22.491                Norilsk           702.844
        76   01 Jun 2027 20:49:02.145   01 Jun 2027 20:49:34.445            32.300                Norilsk          1009.375
        77   01 Jun 2027 20:49:50.418   01 Jun 2027 20:50:33.248            42.830                Norilsk          1338.438
        78   01 Jun 2027 20:50:43.058   01 Jun 2027 20:51:07.144            24.086                Irkutsk           752.688
        79   01 Jun 2027 20:51:18.552   01 Jun 2027 20:54:09.608           171.056                Novosib          5345.500
        80   01 Jun 2027 20:56:36.890   01 Jun 2027 20:57:13.004            36.114                Novosib          1128.563
        81   01 Jun 2027 22:21:30.974   01 Jun 2027 22:22:46.223            75.249               Magadan1          2351.531
        82   01 Jun 2027 22:24:22.431   01 Jun 2027 22:27:56.213           213.782              Murmansk1          6680.687
        83   01 Jun 2027 22:32:10.078   01 Jun 2027 22:33:16.356            66.278                  Delhi          2071.188
        84   01 Jun 2027 22:35:08.162   01 Jun 2027 22:35:08.961             0.799                  Delhi            24.969
        85   01 Jun 2027 22:40:14.927   01 Jun 2027 22:41:41.430            86.503                  Delhi          2703.219
        86   01 Jun 2027 23:56:13.512   01 Jun 2027 23:56:53.654            40.142               Magadan2          1254.438
        87   01 Jun 2027 23:56:56.811   01 Jun 2027 23:57:00.879             4.068               Magadan2           127.125
        88   01 Jun 2027 23:57:11.206   01 Jun 2027 23:57:43.758            32.552               Magadan1          1017.250
        89   01 Jun 2027 23:58:46.504   01 Jun 2027 23:58:59.637            13.133               Magadan2           410.406
        90   01 Jun 2027 23:59:09.092   02 Jun 2027 00:03:11.105           242.013              Murmansk2          7562.906
        91   02 Jun 2027 00:03:24.797   02 Jun 2027 00:05:09.520           104.723                 Moscow          3272.594
        92   02 Jun 2027 00:05:18.786   02 Jun 2027 00:06:45.781            86.995                 Moscow          2718.594
        93   02 Jun 2027 00:30:11.120   02 Jun 2027 00:31:57.840           106.720               CapeTown          3335.000
        94   02 Jun 2027 01:28:01.123   02 Jun 2027 01:28:15.963            14.840               Magadan1           463.750
        95   02 Jun 2027 01:28:48.316   02 Jun 2027 01:29:20.108            31.792               Magadan1           993.500
        96   02 Jun 2027 01:35:01.994   02 Jun 2027 01:36:43.767           101.773              Murmansk2          3180.406
        97   02 Jun 2027 01:37:17.119   02 Jun 2027 01:37:42.511            25.392              Murmansk2           793.500
        98   02 Jun 2027 01:38:03.187   02 Jun 2027 01:38:19.794            16.607                Novosib           518.969
        99   02 Jun 2027 01:39:39.925   02 Jun 2027 01:39:49.745             9.820                Novosib           306.875
       100   02 Jun 2027 01:41:28.825   02 Jun 2027 01:41:56.803            27.978                 Moscow           874.313
       101   02 Jun 2027 02:02:11.150   02 Jun 2027 02:02:56.378            45.228               CapeTown          1413.375
       102   02 Jun 2027 02:05:24.961   02 Jun 2027 02:06:21.231            56.270               CapeTown          1758.438
       103   02 Jun 2027 02:58:52.237   02 Jun 2027 03:00:18.807            86.570                Anadyr1          2705.312
       104   02 Jun 2027 03:00:19.390   02 Jun 2027 03:00:26.923             7.533               Magadan1           235.406
       105   02 Jun 2027 03:00:32.486   02 Jun 2027 03:01:02.078            29.592               Magadan1           924.750
       106   02 Jun 2027 03:05:00.578   02 Jun 2027 03:05:16.081            15.503               Magadan2           484.469
       107   02 Jun 2027 03:05:16.081   02 Jun 2027 03:05:54.467            38.386               Magadan1          1199.562
       108   02 Jun 2027 03:05:54.467   02 Jun 2027 03:06:38.322            43.855               Magadan2          1370.469
       109   02 Jun 2027 03:06:48.507   02 Jun 2027 03:08:29.072           100.565                Anadyr2          3142.656
       110   02 Jun 2027 03:08:35.208   02 Jun 2027 03:09:04.438            29.230               Magadan1           913.438
       111   02 Jun 2027 04:40:20.853   02 Jun 2027 04:42:13.701           112.848                Anadyr2          3526.500
       112   02 Jun 2027 04:42:13.701   02 Jun 2027 04:42:19.650             5.949                Anadyr1           185.906
       113   02 Jun 2027 04:43:04.181   02 Jun 2027 04:45:10.541           126.360               Magadan1          3948.750
       114   02 Jun 2027 04:45:14.518   02 Jun 2027 04:45:38.010            23.492                Norilsk           734.125
       115   02 Jun 2027 04:45:53.586   02 Jun 2027 04:47:37.336           103.750                Anadyr2          3242.187
       116   02 Jun 2027 06:15:01.100   02 Jun 2027 06:17:19.691           138.591               Magadan1          4330.969
       117   02 Jun 2027 06:17:19.691   02 Jun 2027 06:19:15.982           116.291               Magadan2          3634.094
       118   02 Jun 2027 06:19:15.982   02 Jun 2027 06:19:26.332            10.350               Magadan1           323.437
       119   02 Jun 2027 06:19:33.198   02 Jun 2027 06:20:10.121            36.923               Magadan2          1153.844
       120   02 Jun 2027 06:20:32.616   02 Jun 2027 06:22:28.716           116.100                Anadyr1          3628.125
       121   02 Jun 2027 06:22:29.377   02 Jun 2027 06:23:09.475            40.098               Magadan2          1253.063
       122   02 Jun 2027 06:59:46.095   02 Jun 2027 07:00:59.255            73.160            RioGallegos          2286.250
       123   02 Jun 2027 07:53:14.437   02 Jun 2027 07:54:17.391            62.954               Magadan2          1967.312
       124   02 Jun 2027 07:54:21.372   02 Jun 2027 07:54:54.183            32.811                Irkutsk          1025.344
       125   02 Jun 2027 07:55:20.895   02 Jun 2027 07:56:14.164            53.269               Magadan2          1664.656
       126   02 Jun 2027 07:56:14.727   02 Jun 2027 07:57:06.237            51.510                Novosib          1609.688
       127   02 Jun 2027 07:57:22.242   02 Jun 2027 08:00:20.581           178.339                Novosib          5573.094
       128   02 Jun 2027 08:00:35.337   02 Jun 2027 08:01:18.607            43.270              Murmansk1          1352.188
       129   02 Jun 2027 08:34:08.968   02 Jun 2027 08:34:59.197            50.229            RioGallegos          1569.656
       130   02 Jun 2027 08:37:51.455   02 Jun 2027 08:38:00.287             8.832            RioGallegos           276.000
       131   02 Jun 2027 09:08:40.357   02 Jun 2027 09:09:17.664            37.307                Sumatra          1165.844
       132   02 Jun 2027 09:10:02.905   02 Jun 2027 09:10:59.671            56.766                Sumatra          1773.937
       133   02 Jun 2027 09:18:17.235   02 Jun 2027 09:20:12.236           115.001                  Delhi          3593.781
       134   02 Jun 2027 09:30:42.826   02 Jun 2027 09:30:48.752             5.926              Murmansk2           185.188
       135   02 Jun 2027 09:30:48.752   02 Jun 2027 09:30:58.773            10.021              Murmansk1           313.156
       136   02 Jun 2027 09:30:58.773   02 Jun 2027 09:32:35.547            96.774              Murmansk2          3024.188
       137   02 Jun 2027 09:32:35.547   02 Jun 2027 09:33:17.730            42.183              Murmansk1          1318.219
       138   02 Jun 2027 09:33:26.984   02 Jun 2027 09:34:54.144            87.160                Norilsk          2723.750
       139   02 Jun 2027 09:35:03.064   02 Jun 2027 09:35:08.799             5.735                 Moscow           179.219
       140   02 Jun 2027 09:35:11.218   02 Jun 2027 09:35:47.880            36.662              Murmansk2          1145.688
       141   02 Jun 2027 09:35:47.880   02 Jun 2027 09:36:16.112            28.232              Murmansk1           882.250
       142   02 Jun 2027 10:53:08.182   02 Jun 2027 10:54:42.313            94.131                  Delhi          2941.594
       143   02 Jun 2027 11:07:57.734   02 Jun 2027 11:10:11.185           133.451              Murmansk1          4170.344
       144   02 Jun 2027 11:10:23.569   02 Jun 2027 11:12:01.697            98.128                Novosib          3066.500
       145   02 Jun 2027 11:12:02.684   02 Jun 2027 11:12:23.824            21.140                Norilsk           660.625
       146   02 Jun 2027 11:12:31.274   02 Jun 2027 11:13:00.660            29.386              Murmansk1           918.313
       147   02 Jun 2027 11:13:06.857   02 Jun 2027 11:13:40.575            33.718              Murmansk1          1053.688
       148   02 Jun 2027 12:37:14.438   02 Jun 2027 12:39:20.897           126.459                 Moscow          3951.844
       149   02 Jun 2027 12:40:33.245   02 Jun 2027 12:41:31.908            58.663                 Moscow          1833.219
       150   02 Jun 2027 12:41:39.629   02 Jun 2027 12:45:10.761           211.132              Murmansk2          6597.875
       151   02 Jun 2027 12:45:25.298   02 Jun 2027 12:45:31.294             5.996                Norilsk           187.375
       152   02 Jun 2027 12:47:50.237   02 Jun 2027 12:48:41.558            51.321                Norilsk          1603.781
       153   02 Jun 2027 13:51:30.711   02 Jun 2027 13:54:59.181           208.470               CapeTown          6514.687
       154   02 Jun 2027 13:55:33.606   02 Jun 2027 13:56:35.049            61.443               CapeTown          1920.094
       155   02 Jun 2027 14:18:01.775   02 Jun 2027 14:18:42.993            41.218              Murmansk2          1288.063
       156   02 Jun 2027 14:18:52.645   02 Jun 2027 14:19:51.779            59.134              Murmansk1          1847.937
       157   02 Jun 2027 14:21:59.399   02 Jun 2027 14:22:25.629            26.230              Murmansk1           819.688
       158   02 Jun 2027 14:31:40.748   02 Jun 2027 14:34:09.046           148.298                Anadyr2          4634.312
       159   02 Jun 2027 14:38:44.166   02 Jun 2027 14:39:40.186            56.020                Anadyr2          1750.625
       160   02 Jun 2027 15:26:50.056   02 Jun 2027 15:28:27.338            97.282               CapeTown          3040.063
       161   02 Jun 2027 15:57:42.916   02 Jun 2027 15:58:40.813            57.897              Murmansk1          1809.281
       162   02 Jun 2027 15:59:55.490   02 Jun 2027 16:00:24.193            28.703              Murmansk1           896.969
       163   02 Jun 2027 16:07:18.100   02 Jun 2027 16:09:05.313           107.213                Anadyr1          3350.406
       164   02 Jun 2027 16:09:18.290   02 Jun 2027 16:10:15.394            57.104                Anadyr2          1784.500
       165   02 Jun 2027 16:10:28.584   02 Jun 2027 16:14:51.085           262.501               Magadan2          8203.156
       166   02 Jun 2027 16:15:07.933   02 Jun 2027 16:15:28.869            20.936               Magadan2           654.250
       167   02 Jun 2027 17:43:13.212   02 Jun 2027 17:44:54.897           101.685                Anadyr1          3177.656
       168   02 Jun 2027 17:45:00.668   02 Jun 2027 17:46:47.882           107.214                Anadyr2          3350.438
       169   02 Jun 2027 17:47:28.604   02 Jun 2027 17:47:31.279             2.675               Magadan2            83.594
       170   02 Jun 2027 17:47:51.917   02 Jun 2027 17:48:25.334            33.417               Magadan1          1044.281
       171   02 Jun 2027 17:48:44.006   02 Jun 2027 17:48:59.069            15.063               Magadan1           470.719
       172   02 Jun 2027 17:48:59.069   02 Jun 2027 17:49:20.782            21.713               Magadan2           678.531
       173   02 Jun 2027 18:39:39.341   02 Jun 2027 18:42:09.649           150.308            RioGallegos          4697.125
       174   02 Jun 2027 19:19:02.303   02 Jun 2027 19:19:02.985             0.682                Anadyr1            21.313
       175   02 Jun 2027 19:19:26.279   02 Jun 2027 19:20:49.979            83.700                Anadyr2          2615.625
       176   02 Jun 2027 19:21:14.274   02 Jun 2027 19:25:10.463           236.189                Norilsk          7380.906
       177   02 Jun 2027 19:26:13.060   02 Jun 2027 19:29:32.816           199.756                Irkutsk          6242.375
       178   02 Jun 2027 19:32:11.443   02 Jun 2027 19:32:52.545            41.102                Irkutsk          1284.437
       179   02 Jun 2027 19:41:17.143   02 Jun 2027 19:43:32.349           135.206                Sumatra          4225.188
       180   02 Jun 2027 19:45:18.002   02 Jun 2027 19:47:01.768           103.766                Sumatra          3242.688
       181   02 Jun 2027 20:57:55.510   02 Jun 2027 20:58:05.207             9.697               Magadan2           303.031
       182   02 Jun 2027 20:58:09.426   02 Jun 2027 20:58:16.452             7.026               Magadan2           219.562
       183   02 Jun 2027 20:58:24.330   02 Jun 2027 20:58:42.177            17.847               Magadan2           557.719
       184   02 Jun 2027 20:59:00.634   02 Jun 2027 20:59:43.198            42.564               Magadan1          1330.125
       185   02 Jun 2027 21:00:53.032   02 Jun 2027 21:02:37.536           104.504                Irkutsk          3265.750
       186   02 Jun 2027 21:03:12.145   02 Jun 2027 21:05:28.331           136.186                Novosib          4255.813
       187   02 Jun 2027 21:11:54.599   02 Jun 2027 21:13:28.650            94.051                  Delhi          2939.094
       188   02 Jun 2027 22:30:07.732   02 Jun 2027 22:30:24.338            16.606                Anadyr1           518.937
       189   02 Jun 2027 22:35:59.880   02 Jun 2027 22:39:34.697           214.817              Murmansk2          6713.031
       190   02 Jun 2027 22:40:10.277   02 Jun 2027 22:41:01.458            51.181              Murmansk1          1599.406
       191   02 Jun 2027 22:44:06.479   02 Jun 2027 22:44:22.288            15.809                  Delhi           494.031
       192   03 Jun 2027 00:01:47.118   03 Jun 2027 00:04:13.425           146.307                Anadyr2          4572.094
       193   03 Jun 2027 00:07:49.835   03 Jun 2027 00:08:56.281            66.446               Magadan1          2076.437
       194   03 Jun 2027 00:08:56.281   03 Jun 2027 00:09:59.199            62.918               Magadan2          1966.188
       195   03 Jun 2027 00:11:08.987   03 Jun 2027 00:14:06.075           177.088              Murmansk2          5534.000
       196   03 Jun 2027 00:14:58.581   03 Jun 2027 00:18:24.077           205.496                 Moscow          6421.750
       197   03 Jun 2027 00:41:12.226   03 Jun 2027 00:43:28.058           135.832               CapeTown          4244.750
       198   03 Jun 2027 01:39:30.548   03 Jun 2027 01:41:09.467            98.919               Magadan2          3091.219
       199   03 Jun 2027 01:48:39.744   03 Jun 2027 01:48:44.397             4.653              Murmansk2           145.406
       200   03 Jun 2027 01:49:32.181   03 Jun 2027 01:50:48.341            76.160                Novosib          2380.000
       201   03 Jun 2027 01:53:27.203   03 Jun 2027 01:53:34.352             7.149                 Moscow           223.406
       202   03 Jun 2027 01:54:06.053   03 Jun 2027 01:54:32.536            26.483                 Moscow           827.594
       203   03 Jun 2027 02:14:09.742   03 Jun 2027 02:15:21.997            72.255               CapeTown          2257.969
       204   03 Jun 2027 02:18:03.389   03 Jun 2027 02:18:34.582            31.193               CapeTown           974.781
       205   03 Jun 2027 03:10:55.365   03 Jun 2027 03:11:24.130            28.765                Anadyr1           898.906
       206   03 Jun 2027 03:11:24.130   03 Jun 2027 03:11:41.785            17.655                Anadyr2           551.719
       207   03 Jun 2027 03:12:00.893   03 Jun 2027 03:12:01.487             0.594               Magadan1            18.563
       208   03 Jun 2027 03:12:32.690   03 Jun 2027 03:12:47.916            15.226                Anadyr1           475.812
       209   03 Jun 2027 03:16:54.006   03 Jun 2027 03:17:39.541            45.535               Magadan1          1422.969
       210   03 Jun 2027 03:17:54.440   03 Jun 2027 03:21:08.187           193.747                Anadyr1          6054.594
       211   03 Jun 2027 03:21:15.528   03 Jun 2027 03:21:25.394             9.866                Anadyr1           308.312
       212   03 Jun 2027 04:55:09.600   03 Jun 2027 04:57:45.200           155.600                Anadyr1          4862.500
       213   03 Jun 2027 04:57:45.200   03 Jun 2027 04:58:00.390            15.190                Anadyr2           474.687
       214   03 Jun 2027 06:27:39.105   03 Jun 2027 06:28:36.269            57.164                Irkutsk          1786.375
       215   03 Jun 2027 06:28:42.834   03 Jun 2027 06:28:56.067            13.233               Magadan2           413.531
       216   03 Jun 2027 06:29:01.997   03 Jun 2027 06:29:21.217            19.220               Magadan2           600.625
       217   03 Jun 2027 06:29:21.217   03 Jun 2027 06:29:36.234            15.017               Magadan1           469.281
       218   03 Jun 2027 06:29:39.835   03 Jun 2027 06:30:07.760            27.925                Anadyr1           872.656
       219   03 Jun 2027 06:30:25.819   03 Jun 2027 06:31:39.088            73.269                Irkutsk          2289.656
       220   03 Jun 2027 06:31:47.663   03 Jun 2027 06:33:50.766           123.103                Irkutsk          3846.969
       221   03 Jun 2027 06:33:56.259   03 Jun 2027 06:34:02.115             5.856                Anadyr1           183.000
       222   03 Jun 2027 06:34:02.255   03 Jun 2027 06:35:06.031            63.776               Magadan2          1993.000
       223   03 Jun 2027 06:35:08.914   03 Jun 2027 06:35:26.575            17.661              Murmansk1           551.906
       224   03 Jun 2027 06:35:43.019   03 Jun 2027 06:36:57.602            74.583                Norilsk          2330.719
       225   03 Jun 2027 07:10:06.126   03 Jun 2027 07:11:45.933            99.807            RioGallegos          3118.969
       226   03 Jun 2027 07:13:03.633   03 Jun 2027 07:13:06.053             2.420            RioGallegos            75.625
       227   03 Jun 2027 07:46:50.350   03 Jun 2027 07:47:52.559            62.209                Sumatra          1944.031
       228   03 Jun 2027 08:06:04.852   03 Jun 2027 08:07:25.121            80.269                Novosib          2508.406
       229   03 Jun 2027 08:07:26.619   03 Jun 2027 08:07:48.213            21.594               Magadan2           674.813
       230   03 Jun 2027 08:07:51.653   03 Jun 2027 08:09:38.086           106.433                Irkutsk          3326.031
       231   03 Jun 2027 08:10:08.070   03 Jun 2027 08:10:50.742            42.672                Irkutsk          1333.500
       232   03 Jun 2027 08:10:51.664   03 Jun 2027 08:11:35.484            43.820                Norilsk          1369.375
       233   03 Jun 2027 08:11:44.746   03 Jun 2027 08:13:11.892            87.146              Murmansk1          2723.312
       234   03 Jun 2027 08:46:26.097   03 Jun 2027 08:47:27.341            61.244            RioGallegos          1913.875
       235   03 Jun 2027 08:48:41.546   03 Jun 2027 08:49:47.985            66.439            RioGallegos          2076.219
       236   03 Jun 2027 09:20:49.092   03 Jun 2027 09:22:42.100           113.008                Sumatra          3531.500
       237   03 Jun 2027 09:29:49.970   03 Jun 2027 09:32:32.225           162.255                  Delhi          5070.469
       238   03 Jun 2027 09:42:50.553   03 Jun 2027 09:43:12.473            21.920                Norilsk           685.000
       239   03 Jun 2027 09:43:30.477   03 Jun 2027 09:44:40.817            70.340                 Moscow          2198.125
       240   03 Jun 2027 09:44:44.095   03 Jun 2027 09:46:29.167           105.072                Irkutsk          3283.500
       241   03 Jun 2027 09:46:32.369   03 Jun 2027 09:46:51.063            18.694                Norilsk           584.188
       242   03 Jun 2027 09:46:52.040   03 Jun 2027 09:48:03.022            70.982                 Moscow          2218.188
       243   03 Jun 2027 11:05:27.393   03 Jun 2027 11:06:36.070            68.677                  Delhi          2146.156
       244   03 Jun 2027 11:07:28.179   03 Jun 2027 11:09:40.810           132.631                  Delhi          4144.719
       245   03 Jun 2027 11:18:38.747   03 Jun 2027 11:18:47.487             8.740                Norilsk           273.125
       246   03 Jun 2027 11:18:47.937   03 Jun 2027 11:19:13.317            25.380              Murmansk2           793.125
       247   03 Jun 2027 11:19:14.496   03 Jun 2027 11:19:40.048            25.552                Novosib           798.500
       248   03 Jun 2027 11:19:43.312   03 Jun 2027 11:19:45.505             2.193                Novosib            68.531
       249   03 Jun 2027 11:19:48.308   03 Jun 2027 11:20:54.111            65.803              Murmansk1          2056.344
       250   03 Jun 2027 11:20:56.131   03 Jun 2027 11:21:13.381            17.250                Novosib           539.063
       251   03 Jun 2027 11:21:15.941   03 Jun 2027 11:21:37.061            21.120                 Moscow           660.000
       252   03 Jun 2027 11:21:46.076   03 Jun 2027 11:22:04.441            18.365                Norilsk           573.906
       253   03 Jun 2027 11:22:10.205   03 Jun 2027 11:22:14.072             3.867              Murmansk1           120.844
       254   03 Jun 2027 11:22:23.752   03 Jun 2027 11:22:24.368             0.616                Novosib            19.250
       255   03 Jun 2027 11:22:26.652   03 Jun 2027 11:22:56.469            29.817                Norilsk           931.781
       256   03 Jun 2027 11:23:21.757   03 Jun 2027 11:23:43.971            22.214                 Moscow           694.188
       257   03 Jun 2027 12:49:18.021   03 Jun 2027 12:53:43.907           265.886                 Moscow          8308.937
       258   03 Jun 2027 12:53:50.197   03 Jun 2027 12:54:25.184            34.987              Murmansk2          1093.344
       259   03 Jun 2027 12:54:42.871   03 Jun 2027 12:55:48.732            65.861              Murmansk1          2058.156
       260   03 Jun 2027 12:56:02.796   03 Jun 2027 12:56:39.545            36.749              Murmansk1          1148.406
       261   03 Jun 2027 13:00:09.483   03 Jun 2027 13:00:44.094            34.611                Norilsk          1081.594
       262   03 Jun 2027 14:03:15.223   03 Jun 2027 14:06:03.698           168.475               CapeTown          5264.844
       263   03 Jun 2027 14:06:54.567   03 Jun 2027 14:07:17.901            23.334               CapeTown           729.188
       264   03 Jun 2027 14:30:22.349   03 Jun 2027 14:33:43.218           200.869              Murmansk2          6277.156
       265   03 Jun 2027 14:43:37.271   03 Jun 2027 14:45:53.975           136.704                Anadyr1          4272.000
       266   03 Jun 2027 14:50:19.398   03 Jun 2027 14:50:45.463            26.065                Anadyr2           814.531
       267   03 Jun 2027 15:44:04.315   03 Jun 2027 15:44:22.422            18.107               CapeTown           565.844
       268   03 Jun 2027 16:10:27.475   03 Jun 2027 16:13:22.680           175.205              Murmansk1          5475.156
       269   03 Jun 2027 16:19:19.030   03 Jun 2027 16:19:43.984            24.954                Anadyr2           779.812
       270   03 Jun 2027 16:20:57.008   03 Jun 2027 16:21:04.774             7.766                Anadyr2           242.687
       271   03 Jun 2027 16:21:10.264   03 Jun 2027 16:22:16.565            66.301                Anadyr1          2071.906
       272   03 Jun 2027 16:22:16.824   03 Jun 2027 16:25:59.736           222.912               Magadan2          6966.000
       273   03 Jun 2027 17:55:14.463   03 Jun 2027 17:58:36.305           201.842                Anadyr2          6307.562
       274   03 Jun 2027 17:59:27.007   03 Jun 2027 18:01:58.110           151.103               Magadan2          4721.969
       275   03 Jun 2027 18:50:54.164   03 Jun 2027 18:53:53.827           179.663            RioGallegos          5614.469
       276   03 Jun 2027 18:56:14.669   03 Jun 2027 18:57:33.797            79.128            RioGallegos          2472.750
       277   03 Jun 2027 19:31:01.282   03 Jun 2027 19:31:04.625             3.343                Anadyr2           104.469
       278   03 Jun 2027 19:32:24.239   03 Jun 2027 19:32:43.466            19.227                Anadyr1           600.844
       279   03 Jun 2027 19:33:11.497   03 Jun 2027 19:36:01.984           170.487                Norilsk          5327.719
       280   03 Jun 2027 19:37:06.189   03 Jun 2027 19:37:10.257             4.068                Norilsk           127.125
       281   03 Jun 2027 19:37:54.305   03 Jun 2027 19:39:22.317            88.012                Irkutsk          2750.375
       282   03 Jun 2027 19:39:54.649   03 Jun 2027 19:40:44.356            49.707                Irkutsk          1553.344
       283   03 Jun 2027 19:41:14.383   03 Jun 2027 19:41:24.509            10.126                Irkutsk           316.438
       284   03 Jun 2027 19:52:27.897   03 Jun 2027 19:55:13.297           165.400                Sumatra          5168.750
       285   03 Jun 2027 19:56:32.606   03 Jun 2027 19:57:39.220            66.614                Sumatra          2081.687
       286   03 Jun 2027 19:59:00.768   03 Jun 2027 19:59:23.668            22.900                Sumatra           715.625
       287   03 Jun 2027 21:12:52.569   03 Jun 2027 21:14:28.969            96.400                Irkutsk          3012.500
       288   03 Jun 2027 21:15:03.497   03 Jun 2027 21:15:48.506            45.009                Novosib          1406.531
       289   03 Jun 2027 21:22:39.339   03 Jun 2027 21:25:04.578           145.239                  Delhi          4538.719
       290   03 Jun 2027 21:27:52.874   03 Jun 2027 21:28:34.353            41.479                  Delhi          1296.219
       291   03 Jun 2027 21:30:09.789   03 Jun 2027 21:30:10.731             0.942                  Delhi            29.438
       292   03 Jun 2027 22:45:29.607   03 Jun 2027 22:46:43.977            74.370               Magadan2          2324.062
       293   03 Jun 2027 22:46:43.977   03 Jun 2027 22:48:13.447            89.470               Magadan1          2795.937
       294   03 Jun 2027 22:48:46.353   03 Jun 2027 22:50:00.893            74.540                Novosib          2329.375
       295   03 Jun 2027 22:50:11.687   03 Jun 2027 22:53:55.248           223.561              Murmansk2          6986.281
       296   04 Jun 2027 00:13:29.247   04 Jun 2027 00:13:39.796            10.549                Anadyr2           329.656
       297   04 Jun 2027 00:19:14.247   04 Jun 2027 00:19:30.157            15.910                Anadyr2           497.187
       298   04 Jun 2027 00:20:14.854   04 Jun 2027 00:21:31.871            77.017               Magadan1          2406.781
       299   04 Jun 2027 00:21:57.306   04 Jun 2027 00:23:04.006            66.700               Magadan2          2084.375
       300   04 Jun 2027 00:23:09.350   04 Jun 2027 00:25:10.960           121.610              Murmansk1          3800.312
       301   04 Jun 2027 00:25:10.960   04 Jun 2027 00:26:07.739            56.779              Murmansk2          1774.344
       302   04 Jun 2027 00:26:27.995   04 Jun 2027 00:27:13.248            45.253              Murmansk2          1414.156
       303   04 Jun 2027 00:27:58.327   04 Jun 2027 00:28:49.859            51.532                 Moscow          1610.375
       304   04 Jun 2027 00:36:44.113   04 Jun 2027 00:36:46.632             2.519                 Moscow            78.719
       305   04 Jun 2027 00:52:26.834   04 Jun 2027 00:54:13.751           106.917               CapeTown          3341.156
       306   04 Jun 2027 00:56:24.693   04 Jun 2027 00:57:11.521            46.828               CapeTown          1463.375
       307   04 Jun 2027 00:58:29.655   04 Jun 2027 00:58:35.087             5.432               CapeTown           169.750
       308   04 Jun 2027 01:49:41.040   04 Jun 2027 01:50:03.297            22.257                Anadyr1           695.531
       309   04 Jun 2027 01:51:00.999   04 Jun 2027 01:51:29.041            28.042               Magadan2           876.313
       310   04 Jun 2027 01:51:29.041   04 Jun 2027 01:52:02.836            33.795               Magadan1          1056.094
       311   04 Jun 2027 01:52:16.256   04 Jun 2027 01:52:39.806            23.550               Magadan1           735.937
       312   04 Jun 2027 01:56:24.903   04 Jun 2027 01:56:30.047             5.144               Magadan2           160.750
       313   04 Jun 2027 01:56:39.755   04 Jun 2027 01:56:58.305            18.550                Norilsk           579.687
       314   04 Jun 2027 01:58:10.395   04 Jun 2027 01:58:18.568             8.173                Norilsk           255.406
       315   04 Jun 2027 01:59:05.442   04 Jun 2027 01:59:48.668            43.226              Murmansk1          1350.813
       316   04 Jun 2027 01:59:48.668   04 Jun 2027 02:00:35.056            46.388              Murmansk2          1449.625
       317   04 Jun 2027 02:01:08.190   04 Jun 2027 02:01:24.478            16.288              Murmansk1           509.000
       318   04 Jun 2027 02:01:45.076   04 Jun 2027 02:02:06.546            21.470                Novosib           670.938
       319   04 Jun 2027 02:02:17.941   04 Jun 2027 02:03:16.323            58.382                 Moscow          1824.438
       320   04 Jun 2027 02:11:53.666   04 Jun 2027 02:12:06.313            12.647                 Moscow           395.219
       321   04 Jun 2027 02:13:05.131   04 Jun 2027 02:13:53.730            48.599                 Moscow          1518.719
       322   04 Jun 2027 02:30:51.676   04 Jun 2027 02:30:54.066             2.390               CapeTown            74.687
       323   04 Jun 2027 02:31:23.160   04 Jun 2027 02:31:30.821             7.661               CapeTown           239.406
       324   04 Jun 2027 02:33:05.886   04 Jun 2027 02:34:46.940           101.054               CapeTown          3157.938
       325   04 Jun 2027 03:28:55.274   04 Jun 2027 03:30:42.653           107.379               Magadan1          3355.594
       326   04 Jun 2027 03:30:54.871   04 Jun 2027 03:31:24.719            29.848               Magadan2           932.750
       327   04 Jun 2027 03:31:24.719   04 Jun 2027 03:33:51.682           146.963               Magadan1          4592.594
       328   04 Jun 2027 05:07:13.035   04 Jun 2027 05:10:46.293           213.258                Anadyr1          6664.313
       329   04 Jun 2027 06:41:08.065   04 Jun 2027 06:41:18.501            10.436                Norilsk           326.125
       330   04 Jun 2027 06:41:28.624   04 Jun 2027 06:45:15.205           226.581               Magadan1          7080.656
       331   04 Jun 2027 06:45:18.103   04 Jun 2027 06:45:54.053            35.950                Irkutsk          1123.438
       332   04 Jun 2027 06:46:02.331   04 Jun 2027 06:46:14.727            12.396               Magadan1           387.375
       333   04 Jun 2027 06:46:29.620   04 Jun 2027 06:48:04.645            95.025              Murmansk2          2969.531
       334   04 Jun 2027 06:48:47.442   04 Jun 2027 06:49:16.576            29.134                Norilsk           910.437
       335   04 Jun 2027 06:49:59.645   04 Jun 2027 06:50:03.125             3.480                Norilsk           108.750
       336   04 Jun 2027 06:51:31.531   04 Jun 2027 06:51:41.630            10.099                Norilsk           315.594
       337   04 Jun 2027 07:21:58.768   04 Jun 2027 07:23:44.688           105.920            RioGallegos          3310.000
       338   04 Jun 2027 07:58:08.870   04 Jun 2027 08:00:08.359           119.489                Sumatra          3734.031
       339   04 Jun 2027 08:17:13.869   04 Jun 2027 08:18:32.491            78.622                Norilsk          2456.937
       340   04 Jun 2027 08:19:02.447   04 Jun 2027 08:19:48.592            46.145                Novosib          1442.031
       341   04 Jun 2027 08:19:53.824   04 Jun 2027 08:20:11.325            17.501                Irkutsk           546.906
       342   04 Jun 2027 08:20:13.967   04 Jun 2027 08:20:20.369             6.402              Murmansk2           200.063
       343   04 Jun 2027 08:20:27.158   04 Jun 2027 08:20:53.693            26.535                Novosib           829.219
       344   04 Jun 2027 08:20:55.981   04 Jun 2027 08:21:11.538            15.557                Norilsk           486.156
       345   04 Jun 2027 08:21:19.394   04 Jun 2027 08:22:16.771            57.377              Murmansk2          1793.031
       346   04 Jun 2027 08:22:23.147   04 Jun 2027 08:22:37.563            14.416                Norilsk           450.500
       347   04 Jun 2027 08:22:38.693   04 Jun 2027 08:22:58.410            19.717              Murmansk1           616.156
       348   04 Jun 2027 08:22:58.410   04 Jun 2027 08:23:31.679            33.269              Murmansk2          1039.656
       349   04 Jun 2027 08:23:52.656   04 Jun 2027 08:24:10.555            17.899              Murmansk1           559.344
       350   04 Jun 2027 08:24:31.454   04 Jun 2027 08:24:35.896             4.442                Novosib           138.813
       351   04 Jun 2027 08:58:47.691   04 Jun 2027 08:59:31.507            43.816            RioGallegos          1369.250
       352   04 Jun 2027 09:00:44.414   04 Jun 2027 09:00:47.980             3.566            RioGallegos           111.438
       353   04 Jun 2027 09:02:45.569   04 Jun 2027 09:03:31.629            46.060            RioGallegos          1439.375
       354   04 Jun 2027 09:33:04.163   04 Jun 2027 09:34:31.056            86.893                Sumatra          2715.406
       355   04 Jun 2027 09:41:47.040   04 Jun 2027 09:42:45.229            58.189                  Delhi          1818.406
       356   04 Jun 2027 09:54:18.868   04 Jun 2027 09:54:25.413             6.545              Murmansk1           204.531
       357   04 Jun 2027 09:54:25.413   04 Jun 2027 09:54:57.643            32.230              Murmansk2          1007.188
       358   04 Jun 2027 09:55:01.301   04 Jun 2027 09:55:13.628            12.327              Murmansk2           385.219
       359   04 Jun 2027 09:55:50.534   04 Jun 2027 09:55:53.993             3.459                Irkutsk           108.094
       360   04 Jun 2027 09:55:59.784   04 Jun 2027 09:56:56.585            56.801              Murmansk1          1775.031
       361   04 Jun 2027 09:57:06.029   04 Jun 2027 09:57:13.824             7.795                Norilsk           243.594
       362   04 Jun 2027 09:57:22.891   04 Jun 2027 09:57:42.232            19.341              Murmansk2           604.406
       363   04 Jun 2027 09:57:48.370   04 Jun 2027 09:58:25.645            37.275                Novosib          1164.844
       364   04 Jun 2027 10:02:13.944   04 Jun 2027 10:02:52.822            38.878              Murmansk2          1214.937
       365   04 Jun 2027 11:17:54.176   04 Jun 2027 11:21:16.569           202.393                  Delhi          6324.781
       366   04 Jun 2027 11:30:26.850   04 Jun 2027 11:31:22.504            55.654                 Moscow          1739.187
       367   04 Jun 2027 11:31:35.988   04 Jun 2027 11:31:44.329             8.341                 Moscow           260.656
       368   04 Jun 2027 11:31:59.184   04 Jun 2027 11:32:39.368            40.184              Murmansk2          1255.750
       369   04 Jun 2027 11:32:42.922   04 Jun 2027 11:33:11.552            28.630                Novosib           894.688
       370   04 Jun 2027 11:33:34.060   04 Jun 2027 11:33:37.127             3.067                 Moscow            95.844
       371   04 Jun 2027 11:33:39.473   04 Jun 2027 11:34:02.153            22.680                 Moscow           708.750
       372   04 Jun 2027 11:34:06.574   04 Jun 2027 11:34:27.476            20.902                Norilsk           653.188
       373   04 Jun 2027 11:34:29.070   04 Jun 2027 11:34:50.357            21.287                Norilsk           665.219
       374   04 Jun 2027 11:36:55.686   04 Jun 2027 11:37:19.416            23.730              Murmansk1           741.562
       375   04 Jun 2027 13:01:24.633   04 Jun 2027 13:04:34.087           189.454                 Moscow          5920.438
       376   04 Jun 2027 13:04:55.341   04 Jun 2027 13:05:54.085            58.744                 Moscow          1835.750
       377   04 Jun 2027 13:05:56.603   04 Jun 2027 13:07:36.017            99.414              Murmansk1          3106.688
       378   04 Jun 2027 13:07:36.017   04 Jun 2027 13:08:58.631            82.614              Murmansk2          2581.688
       379   04 Jun 2027 13:21:19.240   04 Jun 2027 13:24:19.441           180.201                Anadyr2          5631.281
       380   04 Jun 2027 14:17:35.407   04 Jun 2027 14:18:26.345            50.938               CapeTown          1591.813
       381   04 Jun 2027 14:42:45.194   04 Jun 2027 14:43:08.074            22.880              Murmansk1           715.000
       382   04 Jun 2027 14:43:51.652   04 Jun 2027 14:44:19.292            27.640              Murmansk2           863.750
       383   04 Jun 2027 14:45:12.531   04 Jun 2027 14:45:44.933            32.402              Murmansk2          1012.562
       384   04 Jun 2027 14:46:01.546   04 Jun 2027 14:46:28.003            26.457              Murmansk2           826.781
       385   04 Jun 2027 14:47:41.299   04 Jun 2027 14:47:42.783             1.484              Murmansk1            46.375
       386   04 Jun 2027 14:48:03.248   04 Jun 2027 14:48:03.965             0.717              Murmansk2            22.406
       387   04 Jun 2027 14:49:45.967   04 Jun 2027 14:50:04.192            18.225              Murmansk1           569.531
       388   04 Jun 2027 14:55:34.849   04 Jun 2027 14:58:22.329           167.480                Anadyr1          5233.750
       389   04 Jun 2027 15:51:14.143   04 Jun 2027 15:51:37.468            23.325               CapeTown           728.906
       390   04 Jun 2027 15:55:38.830   04 Jun 2027 15:56:22.795            43.965               CapeTown          1373.906
       391   04 Jun 2027 16:23:17.689   04 Jun 2027 16:25:19.182           121.493              Murmansk2          3796.656
       392   04 Jun 2027 16:25:44.710   04 Jun 2027 16:25:47.983             3.273              Murmansk2           102.281
       393   04 Jun 2027 16:26:21.852   04 Jun 2027 16:27:23.786            61.934              Murmansk2          1935.438
       394   04 Jun 2027 16:31:20.141   04 Jun 2027 16:31:37.860            17.719                Anadyr2           553.719
       395   04 Jun 2027 16:32:51.265   04 Jun 2027 16:33:04.718            13.453                Anadyr2           420.406
       396   04 Jun 2027 16:33:15.410   04 Jun 2027 16:34:17.607            62.197                Anadyr1          1943.656
       397   04 Jun 2027 16:34:22.783   04 Jun 2027 16:37:54.607           211.824               Magadan2          6619.500
       398   04 Jun 2027 18:07:15.582   04 Jun 2027 18:10:30.012           194.430                Anadyr1          6075.937
       399   04 Jun 2027 18:11:05.106   04 Jun 2027 18:11:08.102             2.996                Anadyr1            93.625
       400   04 Jun 2027 18:11:16.033   04 Jun 2027 18:11:39.760            23.727                Anadyr1           741.469
       401   04 Jun 2027 18:11:54.313   04 Jun 2027 18:12:07.813            13.500               Magadan1           421.875
       402   04 Jun 2027 18:12:33.494   04 Jun 2027 18:13:32.726            59.232               Magadan1          1851.000
       403   04 Jun 2027 18:15:10.101   04 Jun 2027 18:15:37.732            27.631               Magadan1           863.469
       404   04 Jun 2027 18:16:34.370   04 Jun 2027 18:16:56.041            21.671               Magadan2           677.219
       405   04 Jun 2027 18:21:38.539   04 Jun 2027 18:21:53.337            14.798               Magadan2           462.437
       406   04 Jun 2027 19:02:25.472   04 Jun 2027 19:05:41.970           196.498            RioGallegos          6140.563
       407   04 Jun 2027 19:43:46.105   04 Jun 2027 19:45:03.580            77.475                Anadyr1          2421.094
       408   04 Jun 2027 19:45:09.892   04 Jun 2027 19:49:10.590           240.698                Norilsk          7521.812
       409   04 Jun 2027 19:49:40.405   04 Jun 2027 19:51:25.795           105.390                Irkutsk          3293.437
       410   04 Jun 2027 20:03:52.673   04 Jun 2027 20:07:00.926           188.253                Sumatra          5882.906
       411   04 Jun 2027 20:10:30.046   04 Jun 2027 20:10:49.531            19.485                Sumatra           608.906
       412   04 Jun 2027 21:24:53.055   04 Jun 2027 21:26:17.357            84.302                Irkutsk          2634.438
       413   04 Jun 2027 21:26:31.114   04 Jun 2027 21:28:36.974           125.860                Novosib          3933.125
       414   04 Jun 2027 21:33:53.965   04 Jun 2027 21:36:47.184           173.219                  Delhi          5413.094
       415   04 Jun 2027 22:57:01.311   04 Jun 2027 22:57:19.235            17.924                Norilsk           560.125
       416   04 Jun 2027 22:57:26.812   04 Jun 2027 22:57:51.056            24.244               Magadan1           757.625
       417   04 Jun 2027 22:58:07.757   04 Jun 2027 22:58:38.132            30.375                Norilsk           949.219
       418   04 Jun 2027 22:59:38.231   04 Jun 2027 23:03:27.814           229.583              Murmansk1          7174.469
       419   04 Jun 2027 23:03:47.611   04 Jun 2027 23:06:12.392           144.781              Murmansk2          4524.406
       420   05 Jun 2027 00:27:52.456   05 Jun 2027 00:28:07.186            14.730                Anadyr2           460.312
       421   05 Jun 2027 00:30:53.452   05 Jun 2027 00:32:00.351            66.899               Magadan1          2090.594
       422   05 Jun 2027 00:32:10.412   05 Jun 2027 00:32:54.811            44.399               Magadan1          1387.469
       423   05 Jun 2027 00:33:18.695   05 Jun 2027 00:33:27.456             8.761               Magadan1           273.781
       424   05 Jun 2027 00:34:06.798   05 Jun 2027 00:34:30.048            23.250               Magadan2           726.562
       425   05 Jun 2027 00:35:10.090   05 Jun 2027 00:37:10.090           120.000              Murmansk1          3750.000
       426   05 Jun 2027 00:38:43.582   05 Jun 2027 00:39:04.770            21.188                 Moscow           662.125
       427   05 Jun 2027 00:39:10.361   05 Jun 2027 00:39:21.752            11.391                 Moscow           355.969
       428   05 Jun 2027 00:39:34.023   05 Jun 2027 00:40:17.353            43.330                 Moscow          1354.062
       429   05 Jun 2027 00:41:20.181   05 Jun 2027 00:41:21.373             1.192                 Moscow            37.250
       430   05 Jun 2027 00:42:51.152   05 Jun 2027 00:44:38.310           107.158                 Moscow          3348.687
       431   05 Jun 2027 01:03:50.855   05 Jun 2027 01:04:09.851            18.996               CapeTown           593.625
       432   05 Jun 2027 01:04:39.079   05 Jun 2027 01:05:25.543            46.464               CapeTown          1452.000
       433   05 Jun 2027 01:59:19.288   05 Jun 2027 02:00:06.097            46.809                Anadyr1          1462.781
       434   05 Jun 2027 02:01:01.453   05 Jun 2027 02:01:23.315            21.862                Anadyr1           683.187
       435   05 Jun 2027 02:01:41.020   05 Jun 2027 02:01:59.015            17.995                Anadyr1           562.344
       436   05 Jun 2027 02:02:32.670   05 Jun 2027 02:03:28.673            56.003               Magadan2          1750.094
       437   05 Jun 2027 02:04:01.383   05 Jun 2027 02:04:08.625             7.242               Magadan2           226.313
       438   05 Jun 2027 02:07:22.499   05 Jun 2027 02:07:55.325            32.826               Magadan1          1025.813
       439   05 Jun 2027 02:10:17.965   05 Jun 2027 02:10:23.579             5.614                Norilsk           175.438
       440   05 Jun 2027 02:10:37.226   05 Jun 2027 02:11:24.018            46.792               Magadan1          1462.250
       441   05 Jun 2027 02:11:41.367   05 Jun 2027 02:12:29.681            48.314              Murmansk1          1509.813
       442   05 Jun 2027 02:13:07.853   05 Jun 2027 02:13:19.859            12.006              Murmansk2           375.187
       443   05 Jun 2027 02:14:01.596   05 Jun 2027 02:14:30.259            28.663                Novosib           895.719
       444   05 Jun 2027 02:14:44.523   05 Jun 2027 02:14:44.916             0.393                 Moscow            12.281
       445   05 Jun 2027 02:15:01.818   05 Jun 2027 02:15:27.594            25.776                 Moscow           805.500
       446   05 Jun 2027 02:19:55.915   05 Jun 2027 02:21:19.085            83.170                 Moscow          2599.062
       447   05 Jun 2027 02:43:48.791   05 Jun 2027 02:44:01.341            12.550               CapeTown           392.187
       448   05 Jun 2027 02:47:39.262   05 Jun 2027 02:48:07.699            28.437               CapeTown           888.656
       449   05 Jun 2027 02:48:30.920   05 Jun 2027 02:49:00.989            30.069               CapeTown           939.656
       450   05 Jun 2027 03:41:37.439   05 Jun 2027 03:42:16.344            38.905               Magadan1          1215.781
       451   05 Jun 2027 03:42:16.344   05 Jun 2027 03:44:35.502           139.158               Magadan2          4348.687
       452   05 Jun 2027 03:44:35.502   05 Jun 2027 03:45:43.860            68.358               Magadan1          2136.188
       453   05 Jun 2027 03:46:36.726   05 Jun 2027 03:47:10.304            33.578               Magadan2          1049.313
       454   05 Jun 2027 05:19:27.833   05 Jun 2027 05:21:18.699           110.866               Magadan2          3464.562
       455   05 Jun 2027 05:21:59.000   05 Jun 2027 05:22:27.801            28.801               Magadan1           900.031
       456   05 Jun 2027 06:54:10.426   05 Jun 2027 06:54:23.896            13.470               Magadan1           420.937
       457   05 Jun 2027 06:54:41.193   05 Jun 2027 06:55:11.518            30.325                Irkutsk           947.656
       458   05 Jun 2027 06:55:13.025   05 Jun 2027 06:58:30.222           197.197               Magadan1          6162.406
       459   05 Jun 2027 06:58:49.012   05 Jun 2027 07:00:23.292            94.280              Murmansk2          2946.250
       460   05 Jun 2027 07:01:33.339   05 Jun 2027 07:02:17.920            44.581              Murmansk2          1393.156
       461   05 Jun 2027 07:02:17.920   05 Jun 2027 07:03:21.124            63.204              Murmansk1          1975.125
       462   05 Jun 2027 07:33:54.592   05 Jun 2027 07:35:42.208           107.616            RioGallegos          3363.000
       463   05 Jun 2027 08:09:38.899   05 Jun 2027 08:12:31.792           172.893                Sumatra          5402.906
       464   05 Jun 2027 08:29:36.268   05 Jun 2027 08:30:33.783            57.515                Norilsk          1797.344
       465   05 Jun 2027 08:30:42.430   05 Jun 2027 08:31:12.836            30.406                Novosib           950.188
       466   05 Jun 2027 08:31:13.078   05 Jun 2027 08:31:32.464            19.386                Irkutsk           605.812
       467   05 Jun 2027 08:31:40.094   05 Jun 2027 08:32:04.738            24.644                Norilsk           770.125
       468   05 Jun 2027 08:32:07.224   05 Jun 2027 08:32:17.630            10.406                Norilsk           325.187
       469   05 Jun 2027 08:32:22.106   05 Jun 2027 08:33:08.257            46.151              Murmansk1          1442.219
       470   05 Jun 2027 08:33:16.163   05 Jun 2027 08:34:12.541            56.378              Murmansk2          1761.813
       471   05 Jun 2027 08:34:18.208   05 Jun 2027 08:34:23.037             4.829                Novosib           150.906
       472   05 Jun 2027 08:34:25.596   05 Jun 2027 08:34:38.960            13.364              Murmansk1           417.625
       473   05 Jun 2027 08:34:58.725   05 Jun 2027 08:35:05.522             6.797              Murmansk1           212.406
       474   05 Jun 2027 08:35:19.122   05 Jun 2027 08:35:29.624            10.502              Murmansk1           328.187
       475   05 Jun 2027 08:35:42.184   05 Jun 2027 08:36:20.303            38.119              Murmansk2          1191.219
       476   05 Jun 2027 09:11:14.296   05 Jun 2027 09:11:39.169            24.873            RioGallegos           777.281
       477   05 Jun 2027 09:12:36.860   05 Jun 2027 09:13:32.470            55.610            RioGallegos          1737.812
       478   05 Jun 2027 09:45:26.701   05 Jun 2027 09:46:25.905            59.204                Sumatra          1850.125
       479   05 Jun 2027 09:53:14.808   05 Jun 2027 09:54:38.694            83.886                  Delhi          2621.438
       480   05 Jun 2027 10:06:24.623   05 Jun 2027 10:06:33.090             8.467                Norilsk           264.594
       481   05 Jun 2027 10:06:33.780   05 Jun 2027 10:07:03.534            29.754                 Moscow           929.812
       482   05 Jun 2027 10:07:19.059   05 Jun 2027 10:07:56.501            37.442              Murmansk2          1170.062
