uniorb/output/strategy_1/Drop/Drop_KinoSat_110409.txt

KinoSat_110409
-------------------------
    Access    *     Start Time (UTCG)     *     Stop Time (UTCG)  *   Duration (s)        *       Station  *  Data (Mbytes)
         1   01 Jun 2027 03:12:47.740   01 Jun 2027 03:13:05.032            17.292               Magadan2          2161.500
         2   01 Jun 2027 03:13:14.215   01 Jun 2027 03:13:34.003            19.788               Magadan2          2473.500
         3   01 Jun 2027 03:13:49.494   01 Jun 2027 03:14:13.261            23.767               Magadan1          2970.875
         4   01 Jun 2027 03:14:19.730   01 Jun 2027 03:14:58.918            39.188                Anadyr2          4898.500
         5   01 Jun 2027 03:15:05.988   01 Jun 2027 03:15:40.641            34.653                Anadyr2          4331.625
         6   01 Jun 2027 03:15:41.686   01 Jun 2027 03:16:14.608            32.922               Magadan1          4115.250
         7   01 Jun 2027 03:16:26.047   01 Jun 2027 03:16:35.883             9.836               Magadan1          1229.500
         8   01 Jun 2027 03:16:42.579   01 Jun 2027 03:17:09.075            26.496                Anadyr2          3312.000
         9   01 Jun 2027 03:17:09.075   01 Jun 2027 03:17:25.819            16.744                Anadyr1          2093.000
        10   01 Jun 2027 03:17:29.651   01 Jun 2027 03:18:54.211            84.560                Anadyr1         10570.000
        11   01 Jun 2027 03:18:58.277   01 Jun 2027 03:19:50.727            52.450                Anadyr1          6556.250
        12   01 Jun 2027 03:20:14.012   01 Jun 2027 03:20:23.079             9.067                Anadyr1          1133.375
        13   01 Jun 2027 04:51:16.091   01 Jun 2027 04:51:38.627            22.536               Magadan2          2817.000
        14   01 Jun 2027 04:51:48.191   01 Jun 2027 04:53:21.263            93.072                Irkutsk         11634.000
        15   01 Jun 2027 04:53:41.814   01 Jun 2027 04:55:58.760           136.946                Irkutsk         17118.250
        16   01 Jun 2027 05:31:31.065   01 Jun 2027 05:32:19.893            48.828            RioGallegos          6103.500
        17   01 Jun 2027 06:06:16.404   01 Jun 2027 06:08:15.532           119.128                Sumatra         14891.000
        18   01 Jun 2027 06:16:45.316   01 Jun 2027 06:17:32.366            47.050                  Delhi          5881.250
        19   01 Jun 2027 06:28:37.322   01 Jun 2027 06:29:15.673            38.351                Novosib          4793.875
        20   01 Jun 2027 06:29:35.995   01 Jun 2027 06:30:56.655            80.660                Novosib         10082.500
        21   01 Jun 2027 06:31:18.823   01 Jun 2027 06:32:28.157            69.334              Murmansk1          8666.750
        22   01 Jun 2027 06:32:40.537   01 Jun 2027 06:33:12.659            32.122              Murmansk1          4015.250
        23   01 Jun 2027 06:33:17.781   01 Jun 2027 06:33:49.968            32.187                Novosib          4023.375
        24   01 Jun 2027 07:11:16.622   01 Jun 2027 07:11:22.868             6.246            RioGallegos           780.750
        25   01 Jun 2027 07:46:57.305   01 Jun 2027 07:48:10.484            73.179                Sumatra          9147.375
        26   01 Jun 2027 07:50:31.158   01 Jun 2027 07:50:57.625            26.467                  Delhi          3308.375
        27   01 Jun 2027 08:06:26.552   01 Jun 2027 08:06:32.463             5.911                 Moscow           738.875
        28   01 Jun 2027 08:06:38.852   01 Jun 2027 08:06:58.709            19.857              Murmansk2          2482.125
        29   01 Jun 2027 08:07:05.521   01 Jun 2027 08:07:37.826            32.305                 Moscow          4038.125
        30   01 Jun 2027 08:07:38.555   01 Jun 2027 08:08:07.692            29.137                Novosib          3642.125
        31   01 Jun 2027 08:08:23.542   01 Jun 2027 08:09:11.290            47.748              Murmansk2          5968.500
        32   01 Jun 2027 09:39:39.176   01 Jun 2027 09:40:02.547            23.371                 Moscow          2921.375
        33   01 Jun 2027 09:40:20.292   01 Jun 2027 09:41:29.089            68.797              Murmansk2          8599.625
        34   01 Jun 2027 09:41:39.027   01 Jun 2027 09:42:20.427            41.400              Murmansk2          5175.000
        35   01 Jun 2027 09:42:46.252   01 Jun 2027 09:44:26.934           100.682                 Moscow         12585.250
        36   01 Jun 2027 09:44:44.157   01 Jun 2027 09:45:28.258            44.101              Murmansk2          5512.625
        37   01 Jun 2027 09:45:59.316   01 Jun 2027 09:46:47.183            47.867                 Moscow          5983.375
        38   01 Jun 2027 10:49:39.989   01 Jun 2027 10:56:58.762           438.773               CapeTown         54846.625
        39   01 Jun 2027 11:29:26.727   01 Jun 2027 11:35:00.965           334.238                Anadyr2         41779.750
        40   01 Jun 2027 13:08:30.890   01 Jun 2027 13:12:18.693           227.803               Magadan1         28475.375
        41   01 Jun 2027 16:24:30.339   01 Jun 2027 16:28:27.118           236.779                Irkutsk         29597.375
        42   01 Jun 2027 16:30:26.712   01 Jun 2027 16:31:12.178            45.466                Irkutsk          5683.250
        43   01 Jun 2027 16:40:48.173   01 Jun 2027 16:41:57.687            69.514                Sumatra          8689.250
        44   01 Jun 2027 16:43:13.513   01 Jun 2027 16:45:31.641           138.128                Sumatra         17266.000
        45   01 Jun 2027 17:59:36.009   01 Jun 2027 18:01:02.202            86.193                Novosib         10774.125
        46   01 Jun 2027 21:08:51.279   01 Jun 2027 21:09:47.689            56.410              Murmansk2          7051.250
        47   01 Jun 2027 21:12:53.724   01 Jun 2027 21:18:44.626           350.902                 Moscow         32465.374
        48   02 Jun 2027 03:28:35.712   02 Jun 2027 03:29:23.227            47.515                Anadyr2          5939.375
        49   02 Jun 2027 03:29:35.751   02 Jun 2027 03:30:54.771            79.020                Anadyr2          9877.500
        50   02 Jun 2027 03:31:55.235   02 Jun 2027 03:32:13.291            18.056                Anadyr1          2257.000
        51   02 Jun 2027 03:32:29.836   02 Jun 2027 03:32:48.932            19.096               Magadan2          2387.000
        52   02 Jun 2027 04:45:56.060   02 Jun 2027 04:47:25.590            89.530                Sumatra         11191.250
        53   02 Jun 2027 05:03:40.918   02 Jun 2027 05:04:17.342            36.424               Magadan2          4553.000
        54   02 Jun 2027 05:04:23.024   02 Jun 2027 05:04:46.465            23.441                Irkutsk          2930.125
        55   02 Jun 2027 05:05:07.881   02 Jun 2027 05:06:37.077            89.196               Magadan2         11149.500
        56   02 Jun 2027 05:06:45.418   02 Jun 2027 05:06:51.731             6.313                Novosib           789.125
        57   02 Jun 2027 05:07:06.591   02 Jun 2027 05:07:14.671             8.080              Murmansk1          1010.000
        58   02 Jun 2027 05:07:22.446   02 Jun 2027 05:07:44.734            22.288              Murmansk1          2786.000
        59   02 Jun 2027 05:08:03.415   02 Jun 2027 05:09:16.188            72.773              Murmansk2          9096.625
        60   02 Jun 2027 05:09:39.971   02 Jun 2027 05:10:13.234            33.263                Norilsk          4157.875
        61   02 Jun 2027 05:43:42.750   02 Jun 2027 05:44:11.606            28.856            RioGallegos          3607.000
        62   02 Jun 2027 06:18:17.371   02 Jun 2027 06:20:30.485           133.114                Sumatra         16639.250
        63   02 Jun 2027 06:28:07.000   02 Jun 2027 06:28:48.201            41.201                  Delhi          5150.125
        64   02 Jun 2027 06:29:32.036   02 Jun 2027 06:31:24.251           112.215                  Delhi         14026.875
        65   02 Jun 2027 06:40:54.662   02 Jun 2027 06:41:28.779            34.117                 Moscow          4264.625
        66   02 Jun 2027 06:41:40.733   02 Jun 2027 06:44:25.381           164.648                Novosib         20581.000
        67   02 Jun 2027 08:02:41.786   02 Jun 2027 08:03:37.886            56.100                  Delhi          7012.500
        68   02 Jun 2027 08:18:36.585   02 Jun 2027 08:19:51.598            75.013                 Moscow          9376.625
        69   02 Jun 2027 08:20:17.271   02 Jun 2027 08:21:05.657            48.386              Murmansk1          6048.250
        70   02 Jun 2027 09:52:36.712   02 Jun 2027 09:53:40.529            63.817              Murmansk1          7977.125
        71   02 Jun 2027 09:53:44.750   02 Jun 2027 09:54:20.876            36.126              Murmansk1          4515.750
        72   02 Jun 2027 09:54:41.369   02 Jun 2027 09:55:51.879            70.510                 Moscow          8813.750
        73   02 Jun 2027 09:59:12.146   02 Jun 2027 09:59:46.823            34.677                 Moscow          4334.625
        74   02 Jun 2027 11:01:16.166   02 Jun 2027 11:03:22.109           125.943               CapeTown         15742.875
        75   02 Jun 2027 11:04:40.317   02 Jun 2027 11:07:49.646           189.329               CapeTown         23666.125
        76   02 Jun 2027 11:41:21.240   02 Jun 2027 11:46:48.012           326.772                Anadyr1         40846.500
        77   02 Jun 2027 11:46:56.965   02 Jun 2027 11:47:27.041            30.076                Anadyr2          3759.500
        78   02 Jun 2027 11:48:54.431   02 Jun 2027 11:50:24.790            90.359                Anadyr2         11294.875
        79   02 Jun 2027 13:20:12.653   02 Jun 2027 13:25:15.566           302.913               Magadan2         37864.125
        80   02 Jun 2027 15:49:42.884   02 Jun 2027 15:52:13.458           150.574            RioGallegos         18821.750
        81   02 Jun 2027 16:36:00.164   02 Jun 2027 16:39:40.165           220.001                Irkutsk         27500.125
        82   02 Jun 2027 16:40:59.585   02 Jun 2027 16:42:30.218            90.633                Irkutsk         11329.125
        83   02 Jun 2027 16:51:17.670   02 Jun 2027 16:53:34.353           136.683                Sumatra         17085.375
        84   02 Jun 2027 18:13:14.640   02 Jun 2027 18:15:06.524           111.884                Novosib         13985.500
        85   02 Jun 2027 18:22:19.855   02 Jun 2027 18:23:28.423            68.568                  Delhi          8571.000
        86   02 Jun 2027 21:21:19.725   02 Jun 2027 21:22:48.300            88.575              Murmansk1         11071.875
        87   02 Jun 2027 21:27:46.249   02 Jun 2027 21:28:50.239            63.990                 Moscow          7998.750
        88   02 Jun 2027 21:31:06.651   02 Jun 2027 21:31:55.127            48.476                 Moscow          6059.500
        89   02 Jun 2027 21:51:09.161   02 Jun 2027 21:53:28.314           139.153               CapeTown         17394.125
        90   03 Jun 2027 03:42:18.278   03 Jun 2027 03:43:12.819            54.541               Magadan1          6817.625
        91   03 Jun 2027 03:43:21.517   03 Jun 2027 03:43:50.753            29.236                Anadyr2          3654.500
        92   03 Jun 2027 03:44:02.680   03 Jun 2027 03:44:45.793            43.113               Magadan1          5389.125
        93   03 Jun 2027 04:56:47.045   03 Jun 2027 04:59:25.503           158.458                Sumatra         19807.250
        94   03 Jun 2027 05:16:10.756   03 Jun 2027 05:16:32.532            21.776                Irkutsk          2722.000
        95   03 Jun 2027 05:17:00.175   03 Jun 2027 05:18:50.219           110.044                Novosib         13755.500
        96   03 Jun 2027 05:19:13.262   03 Jun 2027 05:19:33.635            20.373                Norilsk          2546.625
        97   03 Jun 2027 05:19:40.868   03 Jun 2027 05:19:54.318            13.450                Norilsk          1681.250
        98   03 Jun 2027 05:20:16.120   03 Jun 2027 05:20:47.940            31.820                Irkutsk          3977.500
        99   03 Jun 2027 05:20:50.568   03 Jun 2027 05:21:15.831            25.263                Norilsk          3157.875
       100   03 Jun 2027 05:27:14.711   03 Jun 2027 05:27:37.642            22.931              Murmansk2          2866.375
       101   03 Jun 2027 05:55:58.393   03 Jun 2027 05:56:06.493             8.100            RioGallegos          1012.500
       102   03 Jun 2027 05:58:23.328   03 Jun 2027 05:59:20.244            56.916            RioGallegos          7114.500
       103   03 Jun 2027 06:36:34.437   03 Jun 2027 06:38:29.322           114.885                Sumatra         14360.625
       104   03 Jun 2027 06:41:28.314   03 Jun 2027 06:43:16.546           108.232                  Delhi         13529.000
       105   03 Jun 2027 06:53:24.850   03 Jun 2027 06:53:43.525            18.675                Novosib          2334.375
       106   03 Jun 2027 06:53:59.193   03 Jun 2027 06:54:24.244            25.051                 Moscow          3131.375
       107   03 Jun 2027 06:54:46.503   03 Jun 2027 06:56:18.550            92.047                Norilsk         11505.875
       108   03 Jun 2027 06:56:32.389   03 Jun 2027 06:57:40.051            67.662                Novosib          8457.750
       109   03 Jun 2027 08:14:58.609   03 Jun 2027 08:15:29.433            30.824                  Delhi          3853.000
       110   03 Jun 2027 08:17:08.891   03 Jun 2027 08:17:22.389            13.498                  Delhi          1687.250
       111   03 Jun 2027 08:18:11.869   03 Jun 2027 08:19:34.352            82.483                  Delhi         10310.375
       112   03 Jun 2027 08:29:28.806   03 Jun 2027 08:29:44.492            15.686                Novosib          1960.750
       113   03 Jun 2027 08:30:26.406   03 Jun 2027 08:30:34.107             7.701                Novosib           962.625
       114   03 Jun 2027 08:30:39.460   03 Jun 2027 08:30:55.270            15.810              Murmansk2          1976.250
       115   03 Jun 2027 08:30:57.881   03 Jun 2027 08:31:06.940             9.059                 Moscow          1132.375
       116   03 Jun 2027 08:31:18.950   03 Jun 2027 08:32:38.035            79.085                Norilsk          9885.625
       117   03 Jun 2027 08:34:15.635   03 Jun 2027 08:35:40.570            84.935                 Moscow         10616.875
       118   03 Jun 2027 10:06:04.784   03 Jun 2027 10:06:43.386            38.602                 Moscow          4825.250
       119   03 Jun 2027 10:07:03.753   03 Jun 2027 10:08:33.775            90.022                 Moscow         11252.750
       120   03 Jun 2027 11:12:58.793   03 Jun 2027 11:17:04.714           245.921               CapeTown         30740.125
       121   03 Jun 2027 11:17:54.004   03 Jun 2027 11:19:07.479            73.475               CapeTown          9184.375
       122   03 Jun 2027 11:53:17.250   03 Jun 2027 11:55:06.867           109.617                Anadyr2         13702.125
       123   03 Jun 2027 11:55:41.643   03 Jun 2027 11:57:44.563           122.920                Anadyr1         15365.000
       124   03 Jun 2027 12:00:16.479   03 Jun 2027 12:00:59.460            42.981                Anadyr2          5372.625
       125   03 Jun 2027 12:02:25.459   03 Jun 2027 12:03:41.711            76.252                Anadyr2          9531.500
       126   03 Jun 2027 13:31:59.481   03 Jun 2027 13:37:42.828           343.347               Magadan1         42918.375
       127   03 Jun 2027 16:00:46.370   03 Jun 2027 16:03:59.502           193.132            RioGallegos         24141.500
       128   03 Jun 2027 16:06:34.333   03 Jun 2027 16:07:13.971            39.638            RioGallegos          4954.750
       129   03 Jun 2027 16:48:31.081   03 Jun 2027 16:51:32.837           181.756                Irkutsk         22719.500
       130   03 Jun 2027 16:53:26.380   03 Jun 2027 16:54:06.039            39.659                Irkutsk          4957.375
       131   03 Jun 2027 17:02:21.720   03 Jun 2027 17:05:18.329           176.609                Sumatra         22076.125
       132   03 Jun 2027 17:07:57.375   03 Jun 2027 17:11:23.759           206.384                Sumatra         25798.000
       133   03 Jun 2027 18:32:39.335   03 Jun 2027 18:34:35.762           116.427                  Delhi         14553.375
       134   03 Jun 2027 21:34:33.933   03 Jun 2027 21:36:09.698            95.765              Murmansk1         11970.625
       135   03 Jun 2027 21:40:40.861   03 Jun 2027 21:42:41.084           120.223                 Moscow         15027.875
       136   03 Jun 2027 22:02:19.822   03 Jun 2027 22:02:54.845            35.023               CapeTown          4377.875
       137   03 Jun 2027 22:04:57.856   03 Jun 2027 22:05:07.613             9.757               CapeTown          1219.625
       138   03 Jun 2027 22:07:28.210   03 Jun 2027 22:09:17.063           108.853               CapeTown         13606.625
       139   04 Jun 2027 03:54:22.306   04 Jun 2027 03:54:56.676            34.370                Anadyr2          4296.250
       140   04 Jun 2027 03:55:01.401   04 Jun 2027 03:55:06.799             5.398                Anadyr2           674.750
       141   04 Jun 2027 03:55:30.958   04 Jun 2027 03:56:41.464            70.506               Magadan2          8813.250
       142   04 Jun 2027 04:31:39.521   04 Jun 2027 04:31:45.390             5.869            RioGallegos           733.625
       143   04 Jun 2027 04:38:10.433   04 Jun 2027 04:38:38.447            28.014            RioGallegos          3501.750
       144   04 Jun 2027 04:41:34.010   04 Jun 2027 04:42:35.986            61.976            RioGallegos          7747.000
       145   04 Jun 2027 05:08:00.394   04 Jun 2027 05:09:16.970            76.576                Sumatra          9572.000
       146   04 Jun 2027 05:14:03.729   04 Jun 2027 05:15:56.725           112.996                Sumatra         14124.500
       147   04 Jun 2027 05:28:42.868   04 Jun 2027 05:29:00.908            18.040                Irkutsk          2255.000
       148   04 Jun 2027 05:29:29.934   04 Jun 2027 05:30:05.177            35.243                Norilsk          4405.375
       149   04 Jun 2027 05:30:07.608   04 Jun 2027 05:30:17.020             9.412              Murmansk2          1176.500
       150   04 Jun 2027 05:30:19.127   04 Jun 2027 05:30:27.853             8.726                Norilsk          1090.750
       151   04 Jun 2027 05:30:39.437   04 Jun 2027 05:31:23.403            43.966                Norilsk          5495.750
       152   04 Jun 2027 05:31:34.063   04 Jun 2027 05:32:09.719            35.656              Murmansk2          4457.000
       153   04 Jun 2027 05:32:10.869   04 Jun 2027 05:32:49.132            38.263                Irkutsk          4782.875
       154   04 Jun 2027 06:42:36.710   04 Jun 2027 06:43:33.926            57.216                Sumatra          7152.000
       155   04 Jun 2027 06:51:14.393   04 Jun 2027 06:53:20.916           126.523                  Delhi         15815.375
       156   04 Jun 2027 07:05:33.388   04 Jun 2027 07:05:56.707            23.319                 Moscow          2914.875
       157   04 Jun 2027 07:06:07.319   04 Jun 2027 07:06:40.067            32.748                Norilsk          4093.500
       158   04 Jun 2027 07:06:58.788   04 Jun 2027 07:08:46.349           107.561                 Moscow         13445.125
       159   04 Jun 2027 07:08:47.897   04 Jun 2027 07:09:32.382            44.485                Novosib          5560.625
       160   04 Jun 2027 08:29:56.226   04 Jun 2027 08:30:19.855            23.629                  Delhi          2953.625
       161   04 Jun 2027 08:40:26.468   04 Jun 2027 08:41:30.895            64.427                 Moscow          8053.375
       162   04 Jun 2027 08:41:46.920   04 Jun 2027 08:42:34.583            47.663                 Moscow          5957.875
       163   04 Jun 2027 08:42:40.822   04 Jun 2027 08:43:05.036            24.214                Norilsk          3026.750
       164   04 Jun 2027 08:43:19.827   04 Jun 2027 08:44:25.464            65.637                 Moscow          8204.625
       165   04 Jun 2027 08:44:39.577   04 Jun 2027 08:45:09.047            29.470                Norilsk          3683.750
       166   04 Jun 2027 08:45:33.239   04 Jun 2027 08:45:52.704            19.465              Murmansk1          2433.125
       167   04 Jun 2027 10:18:22.502   04 Jun 2027 10:20:00.546            98.044              Murmansk2         12255.500
       168   04 Jun 2027 10:20:00.546   04 Jun 2027 10:20:32.971            32.425              Murmansk1          4053.125
       169   04 Jun 2027 10:31:16.997   04 Jun 2027 10:33:51.093           154.096                Anadyr1         19262.000
       170   04 Jun 2027 10:33:51.093   04 Jun 2027 10:34:18.100            27.007                Anadyr2          3375.875
       171   04 Jun 2027 11:24:46.301   04 Jun 2027 11:27:04.157           137.856               CapeTown         17232.000
       172   04 Jun 2027 12:05:14.409   04 Jun 2027 12:06:45.209            90.800                Anadyr2         11350.000
       173   04 Jun 2027 12:07:52.938   04 Jun 2027 12:09:41.753           108.815                Anadyr1         13601.875
       174   04 Jun 2027 13:43:49.686   04 Jun 2027 13:47:53.494           243.808               Magadan1         30476.000
       175   04 Jun 2027 13:51:13.294   04 Jun 2027 13:52:39.831            86.537               Magadan1         10817.125
       176   04 Jun 2027 16:12:13.233   04 Jun 2027 16:15:49.003           215.770            RioGallegos         26971.250
       177   04 Jun 2027 16:18:37.472   04 Jun 2027 16:20:09.333            91.861            RioGallegos         11482.625
       178   04 Jun 2027 17:02:13.282   04 Jun 2027 17:03:27.449            74.167                Irkutsk          9270.875
       179   04 Jun 2027 17:15:47.986   04 Jun 2027 17:21:16.727           328.741                Sumatra         41092.625
       180   04 Jun 2027 18:37:33.641   04 Jun 2027 18:39:10.635            96.994                Novosib         12124.250
       181   04 Jun 2027 18:43:46.556   04 Jun 2027 18:46:46.277           179.721                  Delhi         22465.125
       182   04 Jun 2027 21:47:31.539   04 Jun 2027 21:49:26.496           114.957              Murmansk1         14369.625
       183   04 Jun 2027 21:49:55.422   04 Jun 2027 21:51:07.966            72.544                 Moscow          9068.000
       184   04 Jun 2027 22:13:40.903   04 Jun 2027 22:14:56.379            75.476               CapeTown          9434.500
       185   05 Jun 2027 04:06:42.213   05 Jun 2027 04:07:26.248            44.035               Magadan1          5504.375
       186   05 Jun 2027 04:07:32.922   05 Jun 2027 04:08:01.606            28.684               Magadan2          3585.500
       187   05 Jun 2027 04:08:19.499   05 Jun 2027 04:08:35.642            16.143               Magadan1          2017.875
       188   05 Jun 2027 04:43:34.205   05 Jun 2027 04:44:03.498            29.293            RioGallegos          3661.625
       189   05 Jun 2027 04:47:39.192   05 Jun 2027 04:48:16.010            36.818            RioGallegos          4602.250
       190   05 Jun 2027 04:52:02.826   05 Jun 2027 04:53:06.801            63.975            RioGallegos          7996.875
       191   05 Jun 2027 05:21:08.304   05 Jun 2027 05:23:05.938           117.634                Sumatra         14704.250
       192   05 Jun 2027 05:40:50.781   05 Jun 2027 05:41:20.962            30.181                Irkutsk          3772.625
       193   05 Jun 2027 05:41:35.568   05 Jun 2027 05:41:49.065            13.497                Irkutsk          1687.125
       194   05 Jun 2027 05:42:27.842   05 Jun 2027 05:42:44.484            16.642                Norilsk          2080.250
       195   05 Jun 2027 05:42:48.125   05 Jun 2027 05:42:57.377             9.252              Murmansk1          1156.500
       196   05 Jun 2027 05:43:13.678   05 Jun 2027 05:44:51.173            97.495                Norilsk         12186.875
       197   05 Jun 2027 05:45:48.973   05 Jun 2027 05:46:10.581            21.608                Novosib          2701.000
       198   05 Jun 2027 06:54:56.393   05 Jun 2027 06:55:17.612            21.219                Sumatra          2652.375
       199   05 Jun 2027 06:56:50.945   05 Jun 2027 06:57:55.510            64.565                Sumatra          8070.625
       200   05 Jun 2027 07:03:16.748   05 Jun 2027 07:05:09.324           112.576                  Delhi         14072.000
       201   05 Jun 2027 07:18:40.405   05 Jun 2027 07:19:57.172            76.767                 Moscow          9595.875
       202   05 Jun 2027 07:20:21.740   05 Jun 2027 07:21:10.770            49.030              Murmansk1          6128.750
       203   05 Jun 2027 07:21:13.320   05 Jun 2027 07:21:37.636            24.316                 Moscow          3039.500
       204   05 Jun 2027 08:39:55.163   05 Jun 2027 08:40:30.880            35.717                  Delhi          4464.625
       205   05 Jun 2027 08:46:36.182   05 Jun 2027 08:47:29.469            53.287                  Delhi          6660.875
       206   05 Jun 2027 08:52:47.137   05 Jun 2027 08:53:51.146            64.009                Norilsk          8001.125
       207   05 Jun 2027 08:53:55.782   05 Jun 2027 08:54:07.735            11.953              Murmansk1          1494.125
       208   05 Jun 2027 08:54:07.735   05 Jun 2027 08:54:35.802            28.067              Murmansk2          3508.375
       209   05 Jun 2027 08:54:47.579   05 Jun 2027 08:54:57.688            10.109                 Moscow          1263.625
       210   05 Jun 2027 08:55:09.168   05 Jun 2027 08:55:30.466            21.298                 Moscow          2662.250
       211   05 Jun 2027 08:55:38.076   05 Jun 2027 08:57:01.003            82.927                Novosib         10365.875
       212   05 Jun 2027 10:42:36.069   05 Jun 2027 10:45:05.616           149.547                Anadyr1         18693.375
       213   05 Jun 2027 10:45:05.616   05 Jun 2027 10:47:39.781           154.165                Anadyr2         19270.625
       214   05 Jun 2027 11:39:24.772   05 Jun 2027 11:39:44.816            20.044               CapeTown          2505.500
       215   05 Jun 2027 12:17:12.474   05 Jun 2027 12:18:30.867            78.393                Anadyr1          9799.125
       216   05 Jun 2027 12:18:31.214   05 Jun 2027 12:20:01.982            90.768                Anadyr2         11346.000
       217   05 Jun 2027 13:55:42.313   05 Jun 2027 13:58:27.009           164.696               Magadan2         20587.000
       218   05 Jun 2027 13:59:45.621   05 Jun 2027 14:01:14.986            89.365               Magadan1         11170.625
       219   05 Jun 2027 16:23:50.406   05 Jun 2027 16:30:25.660           395.254            RioGallegos         49406.750
       220   05 Jun 2027 17:11:12.023   05 Jun 2027 17:12:06.916            54.893                Irkutsk          6861.625
       221   05 Jun 2027 17:13:41.085   05 Jun 2027 17:15:18.804            97.719                Irkutsk         12214.875
       222   05 Jun 2027 17:15:19.367   05 Jun 2027 17:15:23.658             4.291                Irkutsk           536.375
       223   05 Jun 2027 17:25:13.728   05 Jun 2027 17:26:51.164            97.436                Sumatra         12179.500
       224   05 Jun 2027 17:29:04.671   05 Jun 2027 17:31:45.710           161.039                Sumatra         20129.875
       225   05 Jun 2027 18:46:52.340   05 Jun 2027 18:48:30.103            97.763                Novosib         12220.375
       226   05 Jun 2027 18:51:13.467   05 Jun 2027 18:51:14.052             0.585                Novosib            73.125
       227   05 Jun 2027 18:55:11.024   05 Jun 2027 18:58:42.196           211.172                  Delhi         26396.500
       228   05 Jun 2027 20:27:39.900   05 Jun 2027 20:28:51.877            71.977                 Moscow          8997.125
       229   05 Jun 2027 21:56:49.438   05 Jun 2027 21:58:35.626           106.188              Murmansk1         13273.500
       230   05 Jun 2027 22:25:09.954   05 Jun 2027 22:26:30.813            80.859               CapeTown         10107.375
       231   05 Jun 2027 22:31:45.167   05 Jun 2027 22:31:57.634            12.467               CapeTown          1558.375
       232   06 Jun 2027 04:19:06.615   06 Jun 2027 04:19:32.004            25.389               Magadan1          3173.625
       233   06 Jun 2027 04:19:50.484   06 Jun 2027 04:20:15.794            25.310                Irkutsk          3163.750
       234   06 Jun 2027 04:20:22.321   06 Jun 2027 04:20:27.900             5.579               Magadan2           697.375
       235   06 Jun 2027 04:20:40.502   06 Jun 2027 04:20:44.987             4.485                Irkutsk           560.625
       236   06 Jun 2027 04:20:45.111   06 Jun 2027 04:20:57.225            12.114                Norilsk          1514.250
       237   06 Jun 2027 04:21:22.067   06 Jun 2027 04:21:40.003            17.936              Murmansk2          2242.000
       238   06 Jun 2027 04:55:32.101   06 Jun 2027 04:56:26.173            54.072            RioGallegos          6759.000
       239   06 Jun 2027 05:31:02.659   06 Jun 2027 05:32:53.443           110.784                Sumatra         13848.000
       240   06 Jun 2027 05:44:46.340   06 Jun 2027 05:45:09.000            22.660                  Delhi          2832.500
       241   06 Jun 2027 05:46:33.219   06 Jun 2027 05:47:46.830            73.611                  Delhi          9201.375
       242   06 Jun 2027 05:53:27.322   06 Jun 2027 05:53:39.424            12.102                Novosib          1512.750
       243   06 Jun 2027 05:53:40.858   06 Jun 2027 05:54:02.053            21.195              Murmansk2          2649.375
       244   06 Jun 2027 05:54:05.666   06 Jun 2027 05:54:21.323            15.657              Murmansk2          1957.125
       245   06 Jun 2027 05:54:32.375   06 Jun 2027 05:56:48.800           136.425                Irkutsk         17053.125
       246   06 Jun 2027 07:14:46.789   06 Jun 2027 07:15:34.405            47.616                  Delhi          5952.000
       247   06 Jun 2027 07:17:46.939   06 Jun 2027 07:18:17.822            30.883                  Delhi          3860.375
       248   06 Jun 2027 07:30:15.038   06 Jun 2027 07:30:27.761            12.723                Norilsk          1590.375
       249   06 Jun 2027 07:30:34.657   06 Jun 2027 07:31:16.838            42.181                Irkutsk          5272.625
       250   06 Jun 2027 07:31:24.923   06 Jun 2027 07:31:46.620            21.697                Novosib          2712.125
       251   06 Jun 2027 07:31:51.091   06 Jun 2027 07:32:02.981            11.890              Murmansk2          1486.250
       252   06 Jun 2027 07:32:04.312   06 Jun 2027 07:32:21.772            17.460                 Moscow          2182.500
       253   06 Jun 2027 07:32:44.419   06 Jun 2027 07:33:08.690            24.271                Novosib          3033.875
       254   06 Jun 2027 07:34:52.315   06 Jun 2027 07:34:58.947             6.632                 Moscow           829.000
       255   06 Jun 2027 08:52:39.395   06 Jun 2027 08:53:29.514            50.119                  Delhi          6264.875
       256   06 Jun 2027 08:59:28.829   06 Jun 2027 08:59:38.632             9.803                  Delhi          1225.375
       257   06 Jun 2027 09:04:22.815   06 Jun 2027 09:04:45.232            22.417                Novosib          2802.125
       258   06 Jun 2027 09:04:48.844   06 Jun 2027 09:05:29.745            40.901                Norilsk          5112.625
       259   06 Jun 2027 09:05:38.436   06 Jun 2027 09:06:10.374            31.938                 Moscow          3992.250
       260   06 Jun 2027 09:06:27.146   06 Jun 2027 09:07:08.020            40.874              Murmansk2          5109.250
       261   06 Jun 2027 09:07:13.989   06 Jun 2027 09:07:39.579            25.590                 Moscow          3198.750
       262   06 Jun 2027 09:07:43.741   06 Jun 2027 09:08:06.857            23.116                Norilsk          2889.500
       263   06 Jun 2027 09:08:18.288   06 Jun 2027 09:08:33.273            14.985                Novosib          1873.125
       264   06 Jun 2027 09:08:34.169   06 Jun 2027 09:08:52.333            18.164                Norilsk          2270.500
       265   06 Jun 2027 09:08:56.179   06 Jun 2027 09:09:10.118            13.939              Murmansk1          1742.375
       266   06 Jun 2027 09:09:55.689   06 Jun 2027 09:10:28.622            32.933                 Moscow          4116.625
       267   06 Jun 2027 10:16:46.171   06 Jun 2027 10:18:12.798            86.627               CapeTown         10828.375
       268   06 Jun 2027 10:54:13.765   06 Jun 2027 10:59:54.097           340.332                Anadyr1         42541.500
       269   06 Jun 2027 12:31:54.992   06 Jun 2027 12:33:44.549           109.557                Anadyr2         13694.625
       270   06 Jun 2027 14:07:36.777   06 Jun 2027 14:11:56.637           259.860               Magadan2         32482.500
       271   06 Jun 2027 16:35:33.734   06 Jun 2027 16:37:42.407           128.673            RioGallegos         16084.125
       272   06 Jun 2027 16:38:12.948   06 Jun 2027 16:41:40.458           207.510            RioGallegos         25938.750
       273   06 Jun 2027 17:23:03.266   06 Jun 2027 17:24:37.012            93.746                Irkutsk         11718.250
       274   06 Jun 2027 17:25:44.254   06 Jun 2027 17:26:01.866            17.612                Irkutsk          2201.500
       275   06 Jun 2027 17:27:18.733   06 Jun 2027 17:28:58.559            99.826                Novosib         12478.250
       276   06 Jun 2027 17:36:53.439   06 Jun 2027 17:38:43.436           109.997                Sumatra         13749.625
       277   06 Jun 2027 17:40:29.297   06 Jun 2027 17:41:06.310            37.013                Sumatra          4626.625
       278   06 Jun 2027 17:42:58.741   06 Jun 2027 17:43:13.662            14.921                Sumatra          1865.125
       279   06 Jun 2027 18:58:47.311   06 Jun 2027 19:00:43.357           116.046                Novosib         14505.750
       280   06 Jun 2027 19:06:45.592   06 Jun 2027 19:07:46.926            61.334                  Delhi          7666.750
       281   06 Jun 2027 19:10:16.939   06 Jun 2027 19:10:35.908            18.969                  Delhi          2371.125
       282   06 Jun 2027 20:37:11.006   06 Jun 2027 20:37:34.437            23.431              Murmansk2          2928.875
       283   06 Jun 2027 20:38:25.001   06 Jun 2027 20:40:50.756           145.755                 Moscow         18219.375
       284   06 Jun 2027 22:08:50.553   06 Jun 2027 22:10:55.342           124.789              Murmansk2         15598.625
       285   06 Jun 2027 22:36:45.642   06 Jun 2027 22:38:46.755           121.113               CapeTown         15139.125
       286   07 Jun 2027 04:28:01.888   07 Jun 2027 04:29:05.172            63.284                Irkutsk          7910.500
       287   07 Jun 2027 04:31:34.145   07 Jun 2027 04:32:43.419            69.274                Irkutsk          8659.250
       288   07 Jun 2027 05:54:55.674   07 Jun 2027 05:55:30.880            35.206                  Delhi          4400.750
       289   07 Jun 2027 06:05:11.779   07 Jun 2027 06:07:13.680           121.901                Novosib         15237.625
       290   07 Jun 2027 06:07:29.373   07 Jun 2027 06:08:02.871            33.498                Norilsk          4187.250
       291   07 Jun 2027 06:08:13.728   07 Jun 2027 06:09:00.970            47.242                Novosib          5905.250
       292   07 Jun 2027 07:26:41.178   07 Jun 2027 07:28:13.292            92.114                  Delhi         11514.250
       293   07 Jun 2027 07:42:39.468   07 Jun 2027 07:43:40.296            60.828                Novosib          7603.500
       294   07 Jun 2027 07:43:53.167   07 Jun 2027 07:44:23.215            30.048                 Moscow          3756.000
       295   07 Jun 2027 09:05:41.844   07 Jun 2027 09:06:23.667            41.823                  Delhi          5227.875
       296   07 Jun 2027 09:14:13.978   07 Jun 2027 09:15:10.494            56.516                Novosib          7064.500
       297   07 Jun 2027 09:15:56.406   07 Jun 2027 09:16:42.014            45.608                Novosib          5701.000
       298   07 Jun 2027 09:16:52.345   07 Jun 2027 09:17:12.079            19.734                 Moscow          2466.750
       299   07 Jun 2027 09:17:26.953   07 Jun 2027 09:18:37.990            71.037                 Moscow          8879.625
       300   07 Jun 2027 09:19:00.605   07 Jun 2027 09:20:16.485            75.880                 Moscow          9485.000
       301   07 Jun 2027 09:20:19.944   07 Jun 2027 09:20:43.383            23.439              Murmansk2          2929.875
       302   07 Jun 2027 09:20:46.143   07 Jun 2027 09:20:57.172            11.029                 Moscow          1378.625
       303   07 Jun 2027 09:21:14.236   07 Jun 2027 09:22:07.564            53.328                Norilsk          6666.000
       304   07 Jun 2027 09:22:50.041   07 Jun 2027 09:23:23.875            33.834                 Moscow          4229.250
       305   07 Jun 2027 10:27:16.045   07 Jun 2027 10:29:53.209           157.164               CapeTown         19645.500
       306   07 Jun 2027 11:05:59.084   07 Jun 2027 11:10:07.007           247.923                Anadyr1         30990.375
       307   07 Jun 2027 11:10:19.640   07 Jun 2027 11:12:41.747           142.107                Anadyr2         17763.375
       308   07 Jun 2027 12:45:58.576   07 Jun 2027 12:49:34.897           216.321               Magadan2         27040.125
       309   07 Jun 2027 14:21:18.687   07 Jun 2027 14:22:24.624            65.937               Magadan2          8242.125
       310   07 Jun 2027 16:47:21.255   07 Jun 2027 16:53:11.713           350.458            RioGallegos         43807.250
       311   07 Jun 2027 17:36:45.176   07 Jun 2027 17:40:00.662           195.486                Novosib         24435.750
       312   07 Jun 2027 17:42:26.796   07 Jun 2027 17:42:33.462             6.666                Novosib           833.250
       313   07 Jun 2027 17:48:39.991   07 Jun 2027 17:51:28.754           168.763                Sumatra         21095.375
       314   07 Jun 2027 19:18:27.175   07 Jun 2027 19:22:33.201           246.026                  Delhi         30753.250
       315   07 Jun 2027 20:46:41.622   07 Jun 2027 20:46:59.328            17.706              Murmansk1          2213.250
       316   07 Jun 2027 20:49:48.866   07 Jun 2027 20:52:50.463           181.597                 Moscow         22699.625
       317   08 Jun 2027 03:05:04.071   08 Jun 2027 03:05:28.425            24.354                Anadyr1          3044.250
       318   08 Jun 2027 03:05:41.956   08 Jun 2027 03:07:10.291            88.335                Anadyr1         11041.875
       319   08 Jun 2027 03:46:39.128   08 Jun 2027 03:46:44.594             5.466            RioGallegos           683.250
       320   08 Jun 2027 04:39:20.358   08 Jun 2027 04:40:11.316            50.958               Magadan1          6369.750
       321   08 Jun 2027 04:40:34.058   08 Jun 2027 04:40:45.571            11.513               Magadan1          1439.125
       322   08 Jun 2027 04:41:00.151   08 Jun 2027 04:42:14.567            74.416                Irkutsk          9302.000
       323   08 Jun 2027 04:42:16.166   08 Jun 2027 04:42:43.505            27.339                Novosib          3417.375
       324   08 Jun 2027 04:42:56.420   08 Jun 2027 04:43:06.095             9.675              Murmansk1          1209.375
       325   08 Jun 2027 04:43:28.496   08 Jun 2027 04:43:50.033            21.537              Murmansk2          2692.125
       326   08 Jun 2027 04:44:01.420   08 Jun 2027 04:45:20.972            79.552                Norilsk          9944.000
       327   08 Jun 2027 04:45:56.345   08 Jun 2027 04:46:24.014            27.669                Norilsk          3458.625
       328   08 Jun 2027 05:19:37.791   08 Jun 2027 05:20:45.814            68.023            RioGallegos          8502.875
       329   08 Jun 2027 05:54:35.566   08 Jun 2027 05:55:40.680            65.114                Sumatra          8139.250
       330   08 Jun 2027 05:57:33.867   08 Jun 2027 05:58:36.800            62.933                Sumatra          7866.625
       331   08 Jun 2027 06:05:48.812   08 Jun 2027 06:07:44.574           115.762                  Delhi         14470.250
       332   08 Jun 2027 06:17:05.632   08 Jun 2027 06:17:19.325            13.693              Murmansk1          1711.625
       333   08 Jun 2027 06:17:29.994   08 Jun 2027 06:18:49.612            79.618                Novosib          9952.250
       334   08 Jun 2027 06:19:06.498   08 Jun 2027 06:19:47.959            41.461                 Moscow          5182.625
       335   08 Jun 2027 06:20:08.906   08 Jun 2027 06:21:03.694            54.788              Murmansk1          6848.500
       336   08 Jun 2027 06:21:15.025   08 Jun 2027 06:22:26.353            71.328                Novosib          8916.000
       337   08 Jun 2027 07:38:40.848   08 Jun 2027 07:39:19.209            38.361                  Delhi          4795.125
       338   08 Jun 2027 07:39:57.736   08 Jun 2027 07:40:51.645            53.909                  Delhi          6738.625
       339   08 Jun 2027 07:54:32.376   08 Jun 2027 07:54:50.213            17.837                Norilsk          2229.625
       340   08 Jun 2027 07:54:50.274   08 Jun 2027 07:54:56.144             5.870                 Moscow           733.750
       341   08 Jun 2027 07:55:02.073   08 Jun 2027 07:56:10.033            67.960                 Moscow          8495.000
       342   08 Jun 2027 07:56:21.249   08 Jun 2027 07:57:37.343            76.094                 Moscow          9511.750
       343   08 Jun 2027 09:26:03.922   08 Jun 2027 09:26:42.294            38.372                 Moscow          4796.500
       344   08 Jun 2027 09:26:47.424   08 Jun 2027 09:27:23.627            36.203                 Moscow          4525.375
       345   08 Jun 2027 09:27:36.299   08 Jun 2027 09:28:47.231            70.932              Murmansk2          8866.500
       346   08 Jun 2027 09:29:18.472   08 Jun 2027 09:31:17.980           119.508              Murmansk2         14938.500
       347   08 Jun 2027 09:31:40.791   08 Jun 2027 09:32:38.673            57.882              Murmansk2          7235.250
       348   08 Jun 2027 09:32:42.466   08 Jun 2027 09:33:11.954            29.488                 Moscow          3686.000
       349   08 Jun 2027 09:33:45.264   08 Jun 2027 09:35:22.379            97.115                Norilsk         12139.375
       350   08 Jun 2027 10:38:27.280   08 Jun 2027 10:41:38.999           191.719               CapeTown         23964.875
       351   08 Jun 2027 10:44:06.284   08 Jun 2027 10:45:59.096           112.812               CapeTown         14101.500
       352   08 Jun 2027 11:17:48.759   08 Jun 2027 11:18:40.439            51.680                Anadyr1          6460.000
       353   08 Jun 2027 11:18:40.439   08 Jun 2027 11:20:34.705           114.266                Anadyr2         14283.250
       354   08 Jun 2027 12:57:11.994   08 Jun 2027 13:00:06.585           174.591               Magadan2         21823.875
       355   08 Jun 2027 13:00:22.308   08 Jun 2027 13:02:58.508           156.200               Magadan1         19525.000
       356   08 Jun 2027 16:13:33.411   08 Jun 2027 16:18:07.531           274.120                Irkutsk         34265.000
       357   08 Jun 2027 17:01:51.428   08 Jun 2027 17:02:24.174            32.746            RioGallegos          4093.250
       358   08 Jun 2027 17:46:52.010   08 Jun 2027 17:48:45.503           113.493                Irkutsk         14186.625
       359   08 Jun 2027 17:48:59.942   08 Jun 2027 17:51:19.744           139.802                Novosib         17475.250
       360   08 Jun 2027 19:30:14.126   08 Jun 2027 19:34:33.828           259.702                  Delhi         32462.750
       361   08 Jun 2027 20:57:03.926   08 Jun 2027 20:57:18.536            14.610              Murmansk2          1826.250
       362   08 Jun 2027 20:57:36.434   08 Jun 2027 20:58:31.507            55.073              Murmansk1          6884.125
       363   08 Jun 2027 21:01:25.142   08 Jun 2027 21:04:50.899           205.757                 Moscow         25719.625
       364   09 Jun 2027 03:15:56.335   09 Jun 2027 03:16:40.665            44.330               Magadan1          5541.250
       365   09 Jun 2027 03:16:52.278   09 Jun 2027 03:17:33.071            40.793               Magadan2          5099.125
       366   09 Jun 2027 03:17:41.148   09 Jun 2027 03:19:10.532            89.384                Anadyr2         11173.000
       367   09 Jun 2027 03:20:07.875   09 Jun 2027 03:20:42.578            34.703                Anadyr2          4337.875
       368   09 Jun 2027 04:51:53.677   09 Jun 2027 04:52:36.119            42.442               Magadan1          5305.250
       369   09 Jun 2027 04:52:47.222   09 Jun 2027 04:53:39.245            52.023               Magadan1          6502.875
       370   09 Jun 2027 04:53:43.983   09 Jun 2027 04:54:36.364            52.381                Novosib          6547.625
       371   09 Jun 2027 04:54:48.081   09 Jun 2027 04:55:03.239            15.158               Magadan1          1894.750
       372   09 Jun 2027 04:55:25.957   09 Jun 2027 04:55:46.762            20.805              Murmansk2          2600.625
       373   09 Jun 2027 04:55:57.964   09 Jun 2027 04:57:05.504            67.540                Novosib          8442.500
       374   09 Jun 2027 05:31:45.828   09 Jun 2027 05:32:34.407            48.579            RioGallegos          6072.375
       375   09 Jun 2027 06:06:31.023   09 Jun 2027 06:08:31.419           120.396                Sumatra         15049.500
       376   09 Jun 2027 06:16:59.414   09 Jun 2027 06:19:51.901           172.487                  Delhi         21560.875
       377   09 Jun 2027 06:29:13.061   09 Jun 2027 06:30:09.285            56.224                Irkutsk          7028.000
       378   09 Jun 2027 06:30:27.980   09 Jun 2027 06:30:42.831            14.851              Murmansk1          1856.375
       379   09 Jun 2027 06:30:54.783   09 Jun 2027 06:31:00.624             5.841                 Moscow           730.125
       380   09 Jun 2027 06:31:05.303   09 Jun 2027 06:32:56.112           110.809                Novosib         13851.125
       381   09 Jun 2027 07:47:15.460   09 Jun 2027 07:48:25.155            69.695                Sumatra          8711.875
       382   09 Jun 2027 07:50:45.898   09 Jun 2027 07:51:11.502            25.604                  Delhi          3200.500
       383   09 Jun 2027 08:05:35.242   09 Jun 2027 08:05:45.980            10.738              Murmansk2          1342.250
       384   09 Jun 2027 08:05:50.245   09 Jun 2027 08:05:59.085             8.840                Norilsk          1105.000
       385   09 Jun 2027 08:06:02.539   09 Jun 2027 08:06:55.335            52.796              Murmansk1          6599.500
       386   09 Jun 2027 08:06:58.615   09 Jun 2027 08:07:07.910             9.295                 Moscow          1161.875
       387   09 Jun 2027 08:07:14.338   09 Jun 2027 08:07:20.763             6.425              Murmansk2           803.125
       388   09 Jun 2027 08:07:24.239   09 Jun 2027 08:07:59.760            35.521              Murmansk1          4440.125
       389   09 Jun 2027 08:08:11.010   09 Jun 2027 08:08:29.340            18.330                Norilsk          2291.250
       390   09 Jun 2027 08:08:38.277   09 Jun 2027 08:09:28.538            50.261              Murmansk1          6282.625
       391   09 Jun 2027 09:38:24.645   09 Jun 2027 09:39:32.725            68.080                 Moscow          8510.000
       392   09 Jun 2027 09:39:50.800   09 Jun 2027 09:41:38.265           107.465                 Moscow         13433.125
       393   09 Jun 2027 09:42:01.143   09 Jun 2027 09:42:35.077            33.934              Murmansk1          4241.750
       394   09 Jun 2027 09:42:44.290   09 Jun 2027 09:43:00.951            16.661                 Moscow          2082.625
       395   09 Jun 2027 09:43:01.416   09 Jun 2027 09:43:25.533            24.117                 Moscow          3014.625
       396   09 Jun 2027 09:43:32.219   09 Jun 2027 09:43:41.505             9.286                Norilsk          1160.750
       397   09 Jun 2027 09:43:51.985   09 Jun 2027 09:44:39.923            47.938              Murmansk2          5992.250
       398   09 Jun 2027 09:44:46.095   09 Jun 2027 09:45:32.595            46.500                 Moscow          5812.500
       399   09 Jun 2027 10:49:54.278   09 Jun 2027 10:53:29.050           214.772               CapeTown         26846.500
       400   09 Jun 2027 10:55:49.959   09 Jun 2027 10:57:12.236            82.277               CapeTown         10284.625
       401   09 Jun 2027 11:29:41.282   09 Jun 2027 11:31:27.019           105.737                Anadyr1         13217.125
       402   09 Jun 2027 11:31:47.870   09 Jun 2027 11:33:53.024           125.154                Anadyr1         15644.250
       403   09 Jun 2027 13:08:45.251   09 Jun 2027 13:09:26.148            40.897               Magadan1          5112.125
       404   09 Jun 2027 13:09:26.148   09 Jun 2027 13:12:06.362           160.214               Magadan2         20026.750
       405   09 Jun 2027 16:24:44.513   09 Jun 2027 16:30:41.802           357.289                Irkutsk         44661.125
       406   09 Jun 2027 16:41:01.230   09 Jun 2027 16:42:12.009            70.779                Sumatra          8847.375
       407   09 Jun 2027 16:44:03.923   09 Jun 2027 16:45:47.774           103.851                Sumatra         12981.375
       408   09 Jun 2027 17:59:50.408   09 Jun 2027 18:03:20.323           209.915                Novosib         26239.375
       409   09 Jun 2027 21:09:02.901   09 Jun 2027 21:10:16.259            73.358              Murmansk1          9169.750
       410   09 Jun 2027 21:13:08.183   09 Jun 2027 21:16:51.989           223.806                 Moscow         27975.750
       411   09 Jun 2027 21:40:28.140   09 Jun 2027 21:42:09.422           101.282               CapeTown         12660.250
       412   10 Jun 2027 03:27:15.597   10 Jun 2027 03:27:38.430            22.833                Anadyr1          2854.125
       413   10 Jun 2027 03:27:50.826   10 Jun 2027 03:28:19.188            28.362               Magadan1          3545.250
       414   10 Jun 2027 03:28:28.534   10 Jun 2027 03:29:06.529            37.995                Anadyr2          4749.375
       415   10 Jun 2027 03:29:07.894   10 Jun 2027 03:29:11.284             3.390                Anadyr2           423.750
       416   10 Jun 2027 03:29:35.895   10 Jun 2027 03:30:12.820            36.925               Magadan1          4615.625
       417   10 Jun 2027 03:30:33.212   10 Jun 2027 03:30:57.010            23.798               Magadan2          2974.750
       418   10 Jun 2027 03:31:11.102   10 Jun 2027 03:32:27.711            76.609                Anadyr1          9576.125
       419   10 Jun 2027 03:32:45.136   10 Jun 2027 03:33:03.537            18.401               Magadan1          2300.125
       420   10 Jun 2027 04:46:09.608   10 Jun 2027 04:47:40.988            91.380                Sumatra         11422.500
       421   10 Jun 2027 05:01:42.414   10 Jun 2027 05:01:50.633             8.219                Irkutsk          1027.375
       422   10 Jun 2027 05:03:54.975   10 Jun 2027 05:05:00.697            65.722                Irkutsk          8215.250
       423   10 Jun 2027 05:05:23.069   10 Jun 2027 05:06:32.659            69.590               Magadan2          8698.750
       424   10 Jun 2027 05:06:36.941   10 Jun 2027 05:06:46.806             9.865               Magadan1          1233.125
       425   10 Jun 2027 05:07:03.382   10 Jun 2027 05:08:31.317            87.935                Novosib         10991.875
       426   10 Jun 2027 05:08:50.926   10 Jun 2027 05:09:30.679            39.753              Murmansk2          4969.125
       427   10 Jun 2027 05:09:38.393   10 Jun 2027 05:10:22.849            44.456              Murmansk2          5557.000
       428   10 Jun 2027 05:43:57.560   10 Jun 2027 05:44:20.546            22.986            RioGallegos          2873.250
       429   10 Jun 2027 06:18:32.063   10 Jun 2027 06:20:44.648           132.585                Sumatra         16573.125
       430   10 Jun 2027 06:29:46.828   10 Jun 2027 06:31:38.814           111.986                  Delhi         13998.250
       431   10 Jun 2027 06:40:57.942   10 Jun 2027 06:41:00.302             2.360                Norilsk           295.000
       432   10 Jun 2027 06:41:08.733   10 Jun 2027 06:41:46.853            38.120                 Moscow          4765.000
       433   10 Jun 2027 06:41:56.912   10 Jun 2027 06:42:30.130            33.218              Murmansk2          4152.250
       434   10 Jun 2027 06:42:31.426   10 Jun 2027 06:43:10.971            39.545                Novosib          4943.125
       435   10 Jun 2027 06:43:24.017   10 Jun 2027 06:43:57.099            33.082                 Moscow          4135.250
       436   10 Jun 2027 06:44:06.615   10 Jun 2027 06:44:39.831            33.216                Novosib          4152.000
       437   10 Jun 2027 06:44:54.403   10 Jun 2027 06:45:43.983            49.580                 Moscow          6197.500
       438   10 Jun 2027 08:02:56.597   10 Jun 2027 08:03:55.552            58.955                  Delhi          7369.375
       439   10 Jun 2027 08:17:14.120   10 Jun 2027 08:18:21.363            67.243                Novosib          8405.375
       440   10 Jun 2027 08:18:24.381   10 Jun 2027 08:18:45.551            21.170              Murmansk2          2646.250
       441   10 Jun 2027 08:18:56.339   10 Jun 2027 08:19:21.108            24.769              Murmansk2          3096.125
       442   10 Jun 2027 08:19:31.276   10 Jun 2027 08:20:32.020            60.744              Murmansk2          7593.000
       443   10 Jun 2027 09:47:07.209   10 Jun 2027 09:47:19.966            12.757                 Moscow          1594.625
       444   10 Jun 2027 09:50:35.666   10 Jun 2027 09:51:18.640            42.974              Murmansk1          5371.750
       445   10 Jun 2027 09:51:40.693   10 Jun 2027 09:52:21.545            40.852                 Moscow          5106.500
       446   10 Jun 2027 09:52:26.426   10 Jun 2027 09:54:07.479           101.053                 Moscow         12631.625
       447   10 Jun 2027 09:54:35.529   10 Jun 2027 09:55:34.693            59.164              Murmansk1          7395.500
       448   10 Jun 2027 09:55:47.460   10 Jun 2027 09:55:50.587             3.127              Murmansk2           390.875
       449   10 Jun 2027 09:57:22.353   10 Jun 2027 09:57:57.497            35.144                 Moscow          4393.000
       450   10 Jun 2027 11:01:30.553   10 Jun 2027 11:07:27.992           357.439               CapeTown         44679.875
       451   10 Jun 2027 11:41:35.819   10 Jun 2027 11:43:43.077           127.258                Anadyr2         15907.250
       452   10 Jun 2027 13:20:27.102   10 Jun 2027 13:24:06.654           219.552               Magadan1         27444.000
       453   10 Jun 2027 15:49:56.499   10 Jun 2027 15:54:02.467           245.968            RioGallegos         30746.000
       454   10 Jun 2027 16:36:14.492   10 Jun 2027 16:39:54.753           220.261                Irkutsk         27532.625
       455   10 Jun 2027 16:42:45.239   10 Jun 2027 16:43:47.546            62.307                Irkutsk          7788.375
       456   10 Jun 2027 16:51:31.462   10 Jun 2027 16:53:48.784           137.322                Sumatra         17165.250
       457   10 Jun 2027 16:55:54.532   10 Jun 2027 16:58:00.461           125.929                Sumatra         15741.125
       458   10 Jun 2027 18:22:32.339   10 Jun 2027 18:23:42.780            70.441                  Delhi          8805.125
       459   10 Jun 2027 18:24:20.674   10 Jun 2027 18:25:46.484            85.810                  Delhi         10726.250
       460   10 Jun 2027 21:21:35.682   10 Jun 2027 21:23:30.928           115.246              Murmansk1         14405.750
       461   10 Jun 2027 21:27:10.284   10 Jun 2027 21:28:01.662            51.378                 Moscow          6422.250
       462   10 Jun 2027 21:28:53.669   10 Jun 2027 21:29:04.892            11.223                 Moscow          1402.875
       463   10 Jun 2027 21:31:21.646   10 Jun 2027 21:32:10.063            48.417                 Moscow          6052.125
       464   10 Jun 2027 21:51:23.106   10 Jun 2027 21:52:57.861            94.755               CapeTown         11844.375
       465   11 Jun 2027 03:40:33.852   11 Jun 2027 03:41:07.943            34.091                Anadyr1          4261.375
       466   11 Jun 2027 03:41:11.956   11 Jun 2027 03:41:37.646            25.690               Magadan1          3211.250
       467   11 Jun 2027 03:41:40.745   11 Jun 2027 03:42:13.282            32.537               Magadan2          4067.125
       468   11 Jun 2027 03:42:34.703   11 Jun 2027 03:42:39.963             5.260               Magadan2           657.500
       469   11 Jun 2027 03:42:53.389   11 Jun 2027 03:45:00.387           126.998               Magadan1         15874.750
       470   11 Jun 2027 04:57:00.991   11 Jun 2027 04:57:34.738            33.747                Sumatra          4218.375
       471   11 Jun 2027 05:16:02.959   11 Jun 2027 05:16:25.425            22.466                Irkutsk          2808.250
       472   11 Jun 2027 05:16:29.843   11 Jun 2027 05:16:48.357            18.514                Irkutsk          2314.250
       473   11 Jun 2027 05:17:18.069   11 Jun 2027 05:18:03.225            45.156               Magadan2          5644.500
       474   11 Jun 2027 05:18:23.171   11 Jun 2027 05:20:24.704           121.533                Novosib         15191.625
       475   11 Jun 2027 05:56:13.254   11 Jun 2027 05:56:21.092             7.838            RioGallegos           979.750
       476   11 Jun 2027 05:58:37.804   11 Jun 2027 05:58:44.535             6.731            RioGallegos           841.375
       477   11 Jun 2027 05:59:34.919   11 Jun 2027 06:00:07.638            32.719            RioGallegos          4089.875
       478   11 Jun 2027 06:33:34.420   11 Jun 2027 06:35:40.739           126.319                Sumatra         15789.875
       479   11 Jun 2027 06:53:03.918   11 Jun 2027 06:53:28.879            24.961                Novosib          3120.125
       480   11 Jun 2027 06:53:40.845   11 Jun 2027 06:54:37.021            56.176                Novosib          7022.000
       481   11 Jun 2027 06:55:13.552   11 Jun 2027 06:56:00.239            46.687                Novosib          5835.875
       482   11 Jun 2027 06:56:16.230   11 Jun 2027 06:56:25.483             9.253                Irkutsk          1156.625
