uniorb/output/strategy_1/Drop/Drop_KinoSat_111504.txt

KinoSat_111504
-------------------------
    Access    *     Start Time (UTCG)     *     Stop Time (UTCG)  *   Duration (s)        *       Station  *  Data (Mbytes)
         1   01 Jun 2027 03:30:47.189   01 Jun 2027 03:31:00.066            12.877              Murmansk2           402.406
         2   01 Jun 2027 03:31:07.748   01 Jun 2027 03:33:57.976           170.228              Murmansk2          5319.625
         3   01 Jun 2027 03:36:40.428   01 Jun 2027 03:38:23.624           103.196                 Moscow          3224.875
         4   01 Jun 2027 03:52:00.543   01 Jun 2027 03:56:49.956           289.413               CapeTown          9044.156
         5   01 Jun 2027 04:01:42.654   01 Jun 2027 04:02:23.461            40.807               CapeTown          1275.219
         6   01 Jun 2027 05:07:39.051   01 Jun 2027 05:08:14.968            35.917              Murmansk1          1122.406
         7   01 Jun 2027 05:08:21.116   01 Jun 2027 05:08:52.352            31.236                 Moscow           976.125
         8   01 Jun 2027 05:09:02.777   01 Jun 2027 05:10:15.030            72.253              Murmansk1          2257.906
         9   01 Jun 2027 05:10:15.030   01 Jun 2027 05:10:34.074            19.044              Murmansk2           595.125
        10   01 Jun 2027 05:10:34.074   01 Jun 2027 05:10:48.180            14.106              Murmansk1           440.812
        11   01 Jun 2027 06:30:59.431   01 Jun 2027 06:31:31.589            32.158                Anadyr1          1004.937
        12   01 Jun 2027 06:31:48.512   01 Jun 2027 06:31:55.895             7.383                Norilsk           230.719
        13   01 Jun 2027 06:32:07.888   01 Jun 2027 06:34:50.094           162.206                Anadyr2          5068.938
        14   01 Jun 2027 06:34:51.227   01 Jun 2027 06:36:33.862           102.635                Anadyr1          3207.344
        15   01 Jun 2027 08:07:37.688   01 Jun 2027 08:09:15.236            97.548                Anadyr1          3048.375
        16   01 Jun 2027 08:09:22.046   01 Jun 2027 08:12:07.964           165.918                Anadyr2          5184.938
        17   01 Jun 2027 09:41:15.136   01 Jun 2027 09:42:32.701            77.565               Magadan1          2423.906
        18   01 Jun 2027 09:43:52.257   01 Jun 2027 09:44:24.190            31.933                Irkutsk           997.906
        19   01 Jun 2027 09:44:51.587   01 Jun 2027 09:47:46.627           175.040                Novosib          5470.000
        20   01 Jun 2027 09:47:48.894   01 Jun 2027 09:49:14.786            85.892              Murmansk2          2684.125
        21   01 Jun 2027 09:49:46.139   01 Jun 2027 09:50:13.626            27.487              Murmansk1           858.969
        22   01 Jun 2027 10:22:34.380   01 Jun 2027 10:23:38.906            64.526            RioGallegos          2016.437
        23   01 Jun 2027 10:57:56.075   01 Jun 2027 10:59:34.814            98.739                Sumatra          3085.594
        24   01 Jun 2027 11:19:35.286   01 Jun 2027 11:20:03.120            27.834                Novosib           869.813
        25   01 Jun 2027 11:20:05.659   01 Jun 2027 11:22:23.627           137.968                Novosib          4311.500
        26   01 Jun 2027 11:22:27.343   01 Jun 2027 11:23:11.574            44.231                Norilsk          1382.219
        27   01 Jun 2027 11:23:17.691   01 Jun 2027 11:23:17.858             0.167                Novosib             5.219
        28   01 Jun 2027 11:23:21.412   01 Jun 2027 11:26:25.521           184.109                Norilsk          5753.406
        29   01 Jun 2027 12:00:30.467   01 Jun 2027 12:01:02.657            32.190            RioGallegos          1005.938
        30   01 Jun 2027 12:01:50.407   01 Jun 2027 12:02:16.421            26.014            RioGallegos           812.937
        31   01 Jun 2027 12:04:08.887   01 Jun 2027 12:05:35.174            86.287            RioGallegos          2696.469
        32   01 Jun 2027 12:34:44.122   01 Jun 2027 12:36:50.190           126.068                Sumatra          3939.625
        33   01 Jun 2027 12:38:35.351   01 Jun 2027 12:39:49.927            74.576                Sumatra          2330.500
        34   01 Jun 2027 12:51:04.204   01 Jun 2027 12:51:28.979            24.775                Irkutsk           774.219
        35   01 Jun 2027 12:51:39.537   01 Jun 2027 12:53:02.252            82.715                Novosib          2584.844
        36   01 Jun 2027 12:53:12.160   01 Jun 2027 12:54:57.615           105.455                Norilsk          3295.469
        37   01 Jun 2027 12:55:20.995   01 Jun 2027 12:56:37.811            76.816                Irkutsk          2400.500
        38   01 Jun 2027 14:20:06.673   01 Jun 2027 14:24:46.920           280.247                  Delhi          8757.719
        39   01 Jun 2027 14:29:33.418   01 Jun 2027 14:29:47.648            14.230              Murmansk1           444.687
        40   01 Jun 2027 14:31:40.507   01 Jun 2027 14:33:11.953            91.446                Novosib          2857.687
        41   01 Jun 2027 14:33:44.312   01 Jun 2027 14:34:49.181            64.869                Norilsk          2027.156
        42   01 Jun 2027 15:42:54.606   01 Jun 2027 15:43:48.815            54.209               CapeTown          1694.031
        43   01 Jun 2027 16:02:29.527   01 Jun 2027 16:03:05.816            36.289                 Moscow          1134.031
        44   01 Jun 2027 16:03:35.128   01 Jun 2027 16:04:05.801            30.673                 Moscow           958.531
        45   01 Jun 2027 16:05:12.801   01 Jun 2027 16:06:20.513            67.712                 Moscow          2116.000
        46   01 Jun 2027 16:06:45.784   01 Jun 2027 16:07:05.054            19.270              Murmansk1           602.188
        47   01 Jun 2027 16:07:05.054   01 Jun 2027 16:07:35.485            30.431              Murmansk2           950.969
        48   01 Jun 2027 16:08:50.650   01 Jun 2027 16:10:32.151           101.501              Murmansk1          3171.906
        49   01 Jun 2027 16:21:11.350   01 Jun 2027 16:21:48.439            37.089                Anadyr1          1159.031
        50   01 Jun 2027 16:22:43.173   01 Jun 2027 16:22:49.822             6.649                Anadyr1           207.781
        51   01 Jun 2027 16:23:24.498   01 Jun 2027 16:24:02.944            38.446                Anadyr1          1201.438
        52   01 Jun 2027 17:15:33.247   01 Jun 2027 17:17:50.870           137.623               CapeTown          4300.719
        53   01 Jun 2027 17:43:02.559   01 Jun 2027 17:47:03.059           240.500                 Moscow          7515.625
        54   01 Jun 2027 17:48:41.255   01 Jun 2027 17:50:16.195            94.940              Murmansk1          2966.875
        55   01 Jun 2027 18:01:45.603   01 Jun 2027 18:02:13.554            27.951               Magadan1           873.469
        56   01 Jun 2027 18:52:41.279   01 Jun 2027 18:53:43.450            62.171               CapeTown          1942.844
        57   01 Jun 2027 18:56:22.505   01 Jun 2027 18:57:58.608            96.103               CapeTown          3003.219
        58   01 Jun 2027 19:26:16.220   01 Jun 2027 19:27:53.414            97.194              Murmansk2          3037.312
        59   01 Jun 2027 19:27:53.414   01 Jun 2027 19:28:47.170            53.756              Murmansk1          1679.875
        60   01 Jun 2027 19:34:35.786   01 Jun 2027 19:34:56.254            20.468               Magadan2           639.625
        61   01 Jun 2027 19:34:56.254   01 Jun 2027 19:36:02.417            66.163               Magadan1          2067.594
        62   01 Jun 2027 19:40:24.032   01 Jun 2027 19:40:36.186            12.154               Magadan2           379.813
        63   01 Jun 2027 19:41:16.897   01 Jun 2027 19:41:38.053            21.156               Magadan1           661.125
        64   01 Jun 2027 21:07:58.704   01 Jun 2027 21:11:48.057           229.353                Anadyr2          7167.281
        65   01 Jun 2027 21:12:26.937   01 Jun 2027 21:14:41.468           134.531                Norilsk          4204.094
        66   01 Jun 2027 21:17:02.981   01 Jun 2027 21:17:43.095            40.114               Magadan1          1253.562
        67   01 Jun 2027 21:19:22.560   01 Jun 2027 21:19:39.267            16.707               Magadan2           522.094
        68   01 Jun 2027 21:20:23.553   01 Jun 2027 21:20:40.870            17.317               Magadan2           541.156
        69   01 Jun 2027 21:21:10.380   01 Jun 2027 21:22:13.862            63.482               Magadan2          1983.812
        70   01 Jun 2027 22:02:28.336   01 Jun 2027 22:06:14.083           225.747            RioGallegos          7054.594
        71   01 Jun 2027 22:43:36.379   01 Jun 2027 22:45:05.752            89.373                Anadyr2          2792.906
        72   01 Jun 2027 22:45:18.912   01 Jun 2027 22:45:32.036            13.124                Anadyr2           410.125
        73   01 Jun 2027 22:45:48.355   01 Jun 2027 22:46:11.480            23.125                Norilsk           722.656
        74   01 Jun 2027 22:46:18.402   01 Jun 2027 22:47:37.018            78.616               Magadan2          2456.750
        75   01 Jun 2027 22:48:20.527   01 Jun 2027 22:48:41.731            21.204               Magadan2           662.625
        76   01 Jun 2027 22:48:41.731   01 Jun 2027 22:49:27.174            45.443               Magadan1          1420.094
        77   01 Jun 2027 22:49:37.204   01 Jun 2027 22:49:46.978             9.774               Magadan2           305.438
        78   01 Jun 2027 22:49:50.897   01 Jun 2027 22:50:03.248            12.351               Magadan2           385.969
        79   01 Jun 2027 22:50:45.043   01 Jun 2027 22:51:22.695            37.652                Irkutsk          1176.625
        80   01 Jun 2027 22:52:20.291   01 Jun 2027 22:53:22.509            62.218                Irkutsk          1944.313
        81   01 Jun 2027 23:03:48.534   01 Jun 2027 23:06:16.092           147.558                Sumatra          4611.188
        82   02 Jun 2027 00:18:22.730   02 Jun 2027 00:19:48.280            85.550                Anadyr2          2673.437
        83   02 Jun 2027 00:20:37.682   02 Jun 2027 00:21:00.678            22.996                Anadyr1           718.625
        84   02 Jun 2027 00:21:45.478   02 Jun 2027 00:21:52.498             7.020                Norilsk           219.375
        85   02 Jun 2027 00:22:25.223   02 Jun 2027 00:23:55.035            89.812               Magadan1          2806.625
        86   02 Jun 2027 00:25:26.814   02 Jun 2027 00:25:43.390            16.576               Magadan2           518.000
        87   02 Jun 2027 00:25:46.934   02 Jun 2027 00:28:06.051           139.117                Novosib          4347.406
        88   02 Jun 2027 00:28:24.856   02 Jun 2027 00:28:47.651            22.795                Novosib           712.344
        89   02 Jun 2027 00:29:44.235   02 Jun 2027 00:30:01.750            17.515                Novosib           547.344
        90   02 Jun 2027 00:31:24.064   02 Jun 2027 00:32:04.155            40.091                Novosib          1252.844
        91   02 Jun 2027 00:33:37.809   02 Jun 2027 00:34:19.897            42.088                  Delhi          1315.250
        92   02 Jun 2027 00:34:40.968   02 Jun 2027 00:35:04.990            24.022                  Delhi           750.687
        93   02 Jun 2027 00:36:50.366   02 Jun 2027 00:37:42.472            52.106                  Delhi          1628.313
        94   02 Jun 2027 01:14:04.734   02 Jun 2027 01:15:07.563            62.829            RioGallegos          1963.406
        95   02 Jun 2027 01:23:46.770   02 Jun 2027 01:24:27.163            40.393            RioGallegos          1262.281
        96   02 Jun 2027 01:51:56.902   02 Jun 2027 01:52:07.147            10.245                Anadyr2           320.156
        97   02 Jun 2027 01:52:07.147   02 Jun 2027 01:52:49.456            42.309                Anadyr1          1322.156
        98   02 Jun 2027 01:54:16.980   02 Jun 2027 01:54:49.595            32.615                Anadyr1          1019.219
        99   02 Jun 2027 01:57:59.047   02 Jun 2027 01:59:05.909            66.862               Magadan2          2089.437
       100   02 Jun 2027 01:59:05.909   02 Jun 2027 01:59:14.010             8.101               Magadan1           253.156
       101   02 Jun 2027 01:59:46.779   02 Jun 2027 01:59:48.835             2.056                Norilsk            64.250
       102   02 Jun 2027 02:00:07.107   02 Jun 2027 02:02:37.124           150.017              Murmansk2          4688.031
       103   02 Jun 2027 02:05:04.911   02 Jun 2027 02:05:21.573            16.662                 Moscow           520.688
       104   02 Jun 2027 02:06:59.964   02 Jun 2027 02:07:01.999             2.035                 Moscow            63.594
       105   02 Jun 2027 02:07:52.853   02 Jun 2027 02:08:19.881            27.028                 Moscow           844.625
       106   02 Jun 2027 02:09:08.357   02 Jun 2027 02:09:56.705            48.348                  Delhi          1510.875
       107   02 Jun 2027 02:15:01.210   02 Jun 2027 02:16:12.444            71.234                  Delhi          2226.062
       108   02 Jun 2027 03:42:55.811   02 Jun 2027 03:43:15.279            19.468                Norilsk           608.375
       109   02 Jun 2027 03:43:21.851   02 Jun 2027 03:43:27.845             5.994                Norilsk           187.312
       110   02 Jun 2027 03:43:28.741   02 Jun 2027 03:47:08.240           219.499                Novosib          6859.344
       111   02 Jun 2027 03:47:10.484   02 Jun 2027 03:47:53.627            43.143                 Moscow          1348.219
       112   02 Jun 2027 03:48:44.815   02 Jun 2027 03:51:37.841           173.026                 Moscow          5407.062
       113   02 Jun 2027 04:03:38.994   02 Jun 2027 04:10:31.784           412.790               CapeTown         12899.687
       114   02 Jun 2027 04:11:23.333   02 Jun 2027 04:13:00.301            96.968               CapeTown          3030.250
       115   02 Jun 2027 05:07:37.378   02 Jun 2027 05:08:32.356            54.978                Anadyr1          1718.063
       116   02 Jun 2027 05:18:22.108   02 Jun 2027 05:18:50.341            28.233                Norilsk           882.281
       117   02 Jun 2027 05:18:56.788   02 Jun 2027 05:19:17.212            20.424              Murmansk2           638.250
       118   02 Jun 2027 05:19:17.212   02 Jun 2027 05:19:41.143            23.931              Murmansk1           747.844
       119   02 Jun 2027 05:20:07.401   02 Jun 2027 05:22:23.075           135.674              Murmansk1          4239.813
       120   02 Jun 2027 05:22:23.075   02 Jun 2027 05:23:11.367            48.292              Murmansk2          1509.125
       121   02 Jun 2027 05:39:40.665   02 Jun 2027 05:40:33.804            53.139               CapeTown          1660.594
       122   02 Jun 2027 06:42:26.145   02 Jun 2027 06:45:09.281           163.136               Magadan1          5098.000
       123   02 Jun 2027 06:46:12.416   02 Jun 2027 06:46:39.817            27.401               Magadan1           856.281
       124   02 Jun 2027 08:19:53.462   02 Jun 2027 08:20:50.204            56.742                Norilsk          1773.187
       125   02 Jun 2027 08:21:07.919   02 Jun 2027 08:27:05.856           357.937                Norilsk         11185.531
       126   02 Jun 2027 08:27:55.157   02 Jun 2027 08:28:10.119            14.962              Murmansk1           467.563
       127   02 Jun 2027 09:00:01.037   02 Jun 2027 09:01:36.483            95.446            RioGallegos          2982.687
       128   02 Jun 2027 09:52:26.027   02 Jun 2027 09:52:56.420            30.393               Magadan2           949.781
       129   02 Jun 2027 09:53:31.493   02 Jun 2027 09:54:36.676            65.183                Irkutsk          2036.969
       130   02 Jun 2027 09:54:36.864   02 Jun 2027 09:55:25.209            48.345               Magadan1          1510.781
       131   02 Jun 2027 09:55:52.420   02 Jun 2027 09:59:16.463           204.043               Magadan2          6376.344
       132   02 Jun 2027 10:35:39.571   02 Jun 2027 10:35:58.026            18.455            RioGallegos           576.719
       133   02 Jun 2027 11:09:42.607   02 Jun 2027 11:12:08.589           145.982                Sumatra          4561.937
       134   02 Jun 2027 11:31:15.577   02 Jun 2027 11:31:18.845             3.268                Novosib           102.125
       135   02 Jun 2027 11:31:30.760   02 Jun 2027 11:31:52.419            21.659                Norilsk           676.844
       136   02 Jun 2027 11:32:06.889   02 Jun 2027 11:36:44.865           277.976                Novosib          8686.750
       137   02 Jun 2027 11:36:46.126   02 Jun 2027 11:37:14.007            27.881              Murmansk1           871.281
       138   02 Jun 2027 11:37:36.688   02 Jun 2027 11:37:43.858             7.170              Murmansk1           224.062
       139   02 Jun 2027 11:39:13.817   02 Jun 2027 11:39:28.054            14.237              Murmansk2           444.906
       140   02 Jun 2027 11:40:11.452   02 Jun 2027 11:40:49.237            37.785              Murmansk1          1180.781
       141   02 Jun 2027 11:43:10.561   02 Jun 2027 11:43:13.498             2.937              Murmansk2            91.781
       142   02 Jun 2027 12:13:10.982   02 Jun 2027 12:14:34.079            83.097            RioGallegos          2596.781
       143   02 Jun 2027 12:15:39.834   02 Jun 2027 12:17:50.541           130.707            RioGallegos          4084.594
       144   02 Jun 2027 12:47:33.053   02 Jun 2027 12:47:43.120            10.067                Sumatra           314.594
       145   02 Jun 2027 12:49:39.669   02 Jun 2027 12:52:18.122           158.453                Sumatra          4951.656
       146   02 Jun 2027 13:03:23.909   02 Jun 2027 13:06:13.433           169.524                Irkutsk          5297.625
       147   02 Jun 2027 13:06:53.674   02 Jun 2027 13:07:18.696            25.022                Norilsk           781.938
       148   02 Jun 2027 13:07:54.710   02 Jun 2027 13:08:58.895            64.185                Norilsk          2005.781
       149   02 Jun 2027 14:33:22.980   02 Jun 2027 14:34:28.844            65.864                  Delhi          2058.250
       150   02 Jun 2027 14:36:52.123   02 Jun 2027 14:37:30.481            38.358                  Delhi          1198.687
       151   02 Jun 2027 14:38:16.098   02 Jun 2027 14:39:19.149            63.051                 Moscow          1970.344
       152   02 Jun 2027 14:41:33.017   02 Jun 2027 14:42:43.920            70.903              Murmansk2          2215.719
       153   02 Jun 2027 14:42:49.332   02 Jun 2027 14:43:00.593            11.261              Murmansk1           351.906
       154   02 Jun 2027 14:43:12.538   02 Jun 2027 14:43:38.423            25.885              Murmansk1           808.906
       155   02 Jun 2027 14:43:39.180   02 Jun 2027 14:45:38.015           118.835                Novosib          3713.594
       156   02 Jun 2027 14:46:46.027   02 Jun 2027 14:47:16.178            30.151                Norilsk           942.219
       157   02 Jun 2027 14:49:04.751   02 Jun 2027 14:49:35.558            30.807                Norilsk           962.719
       158   02 Jun 2027 15:53:51.194   02 Jun 2027 15:56:04.212           133.018               CapeTown          4156.813
       159   02 Jun 2027 16:14:46.820   02 Jun 2027 16:15:37.694            50.874                 Moscow          1589.813
       160   02 Jun 2027 16:18:47.075   02 Jun 2027 16:19:41.448            54.373              Murmansk1          1699.156
       161   02 Jun 2027 16:20:29.750   02 Jun 2027 16:20:52.608            22.858              Murmansk1           714.313
       162   02 Jun 2027 16:21:30.022   02 Jun 2027 16:22:18.304            48.282              Murmansk1          1508.812
       163   02 Jun 2027 16:32:53.581   02 Jun 2027 16:34:44.496           110.915                Anadyr1          3466.094
       164   02 Jun 2027 16:35:48.350   02 Jun 2027 16:36:03.289            14.939                Anadyr1           466.844
       165   02 Jun 2027 17:27:32.808   02 Jun 2027 17:30:02.854           150.046               CapeTown          4688.938
       166   02 Jun 2027 17:56:43.417   02 Jun 2027 17:59:30.859           167.442                 Moscow          5232.563
       167   02 Jun 2027 18:00:21.449   02 Jun 2027 18:01:56.742            95.293              Murmansk2          2977.906
       168   02 Jun 2027 18:09:12.715   02 Jun 2027 18:09:21.984             9.269                Anadyr2           289.656
       169   02 Jun 2027 18:09:39.016   02 Jun 2027 18:10:26.129            47.113                Anadyr2          1472.281
       170   02 Jun 2027 18:12:30.302   02 Jun 2027 18:13:44.931            74.629               Magadan1          2332.156
       171   02 Jun 2027 18:13:56.864   02 Jun 2027 18:15:12.041            75.177               Magadan1          2349.281
       172   02 Jun 2027 19:05:15.891   02 Jun 2027 19:05:55.018            39.127               CapeTown          1222.719
       173   02 Jun 2027 19:44:05.217   02 Jun 2027 19:47:49.975           224.758                Anadyr2          7023.687
       174   02 Jun 2027 19:48:14.650   02 Jun 2027 19:51:19.633           184.983               Magadan1          5780.719
       175   02 Jun 2027 21:19:59.460   02 Jun 2027 21:23:40.671           221.211                Anadyr2          6912.844
       176   02 Jun 2027 21:24:28.807   02 Jun 2027 21:27:26.348           177.541                Norilsk          5548.156
       177   02 Jun 2027 21:28:29.304   02 Jun 2027 21:29:09.045            39.741               Magadan1          1241.906
       178   02 Jun 2027 21:29:16.878   02 Jun 2027 21:29:50.353            33.475                Irkutsk          1046.094
       179   02 Jun 2027 21:30:55.502   02 Jun 2027 21:32:09.822            74.320                Irkutsk          2322.500
       180   02 Jun 2027 22:14:17.830   02 Jun 2027 22:16:10.710           112.880            RioGallegos          3527.500
       181   02 Jun 2027 22:16:36.176   02 Jun 2027 22:17:17.177            41.001            RioGallegos          1281.281
       182   02 Jun 2027 22:22:17.744   02 Jun 2027 22:22:32.389            14.645            RioGallegos           457.656
       183   02 Jun 2027 22:22:47.155   02 Jun 2027 22:23:21.240            34.085            RioGallegos          1065.156
       184   02 Jun 2027 22:55:32.900   02 Jun 2027 22:57:20.273           107.373                Anadyr2          3355.406
       185   02 Jun 2027 22:58:05.913   02 Jun 2027 22:59:32.973            87.060                Norilsk          2720.625
       186   02 Jun 2027 22:59:41.615   02 Jun 2027 23:00:03.635            22.020               Magadan2           688.125
       187   02 Jun 2027 23:02:52.387   02 Jun 2027 23:03:24.545            32.158                Irkutsk          1004.937
       188   02 Jun 2027 23:03:27.292   02 Jun 2027 23:04:19.713            52.421                Novosib          1638.156
       189   02 Jun 2027 23:04:44.958   02 Jun 2027 23:05:39.118            54.160                Novosib          1692.500
       190   02 Jun 2027 23:06:46.239   02 Jun 2027 23:07:46.474            60.235                Novosib          1882.344
       191   02 Jun 2027 23:13:27.861   02 Jun 2027 23:14:03.877            36.016                Irkutsk          1125.500
       192   02 Jun 2027 23:22:22.898   02 Jun 2027 23:23:14.229            51.331                Sumatra          1604.094
       193   02 Jun 2027 23:24:07.394   02 Jun 2027 23:25:05.627            58.233                Sumatra          1819.781
       194   02 Jun 2027 23:57:46.564   02 Jun 2027 23:58:15.945            29.381            RioGallegos           918.156
       195   02 Jun 2027 23:59:39.456   03 Jun 2027 00:00:06.063            26.607            RioGallegos           831.469
       196   03 Jun 2027 00:30:10.019   03 Jun 2027 00:31:01.584            51.565                Anadyr2          1611.406
       197   03 Jun 2027 00:31:11.033   03 Jun 2027 00:31:46.940            35.907                Anadyr2          1122.094
       198   03 Jun 2027 00:32:25.591   03 Jun 2027 00:32:43.235            17.644                Anadyr2           551.375
       199   03 Jun 2027 00:33:47.729   03 Jun 2027 00:35:32.800           105.071                Norilsk          3283.469
       200   03 Jun 2027 00:36:29.740   03 Jun 2027 00:36:48.509            18.769               Magadan2           586.531
       201   03 Jun 2027 00:37:04.334   03 Jun 2027 00:37:25.664            21.330               Magadan2           666.563
       202   03 Jun 2027 00:37:41.150   03 Jun 2027 00:38:18.621            37.471                Irkutsk          1170.969
       203   03 Jun 2027 00:38:49.557   03 Jun 2027 00:39:35.844            46.287                Novosib          1446.469
       204   03 Jun 2027 00:40:24.079   03 Jun 2027 00:40:57.242            33.163                Novosib          1036.344
       205   03 Jun 2027 00:42:56.949   03 Jun 2027 00:43:29.659            32.710                Irkutsk          1022.187
       206   03 Jun 2027 00:45:52.663   03 Jun 2027 00:46:44.605            51.942                Irkutsk          1623.187
       207   03 Jun 2027 00:49:19.065   03 Jun 2027 00:49:41.995            22.930                Novosib           716.562
       208   03 Jun 2027 00:52:28.120   03 Jun 2027 00:54:34.378           126.258                  Delhi          3945.562
       209   03 Jun 2027 01:30:20.498   03 Jun 2027 01:30:25.414             4.916            RioGallegos           153.625
       210   03 Jun 2027 01:31:08.808   03 Jun 2027 01:31:53.589            44.781            RioGallegos          1399.406
       211   03 Jun 2027 01:34:58.848   03 Jun 2027 01:35:20.322            21.474            RioGallegos           671.063
       212   03 Jun 2027 02:03:37.935   03 Jun 2027 02:03:57.256            19.321                Anadyr2           603.781
       213   03 Jun 2027 02:04:10.450   03 Jun 2027 02:04:49.817            39.367                Anadyr2          1230.219
       214   03 Jun 2027 02:06:20.345   03 Jun 2027 02:06:35.033            14.688                Anadyr1           459.000
       215   03 Jun 2027 02:08:49.111   03 Jun 2027 02:09:10.385            21.274                Anadyr2           664.813
       216   03 Jun 2027 02:09:44.866   03 Jun 2027 02:09:53.464             8.598                Anadyr1           268.688
       217   03 Jun 2027 02:09:56.067   03 Jun 2027 02:10:38.935            42.868               Magadan1          1339.625
       218   03 Jun 2027 02:10:42.801   03 Jun 2027 02:11:09.113            26.312                Norilsk           822.250
       219   03 Jun 2027 02:12:05.208   03 Jun 2027 02:13:33.660            88.452              Murmansk1          2764.125
       220   03 Jun 2027 02:13:35.882   03 Jun 2027 02:14:17.006            41.124                Novosib          1285.125
       221   03 Jun 2027 02:17:32.295   03 Jun 2027 02:17:38.334             6.039                Irkutsk           188.719
       222   03 Jun 2027 02:18:33.721   03 Jun 2027 02:18:48.029            14.308              Murmansk2           447.125
       223   03 Jun 2027 02:20:00.827   03 Jun 2027 02:20:48.375            47.548                 Moscow          1485.875
       224   03 Jun 2027 02:25:18.331   03 Jun 2027 02:25:29.214            10.883                Novosib           340.094
       225   03 Jun 2027 02:26:09.981   03 Jun 2027 02:26:55.530            45.549                  Delhi          1423.406
       226   03 Jun 2027 02:31:13.255   03 Jun 2027 02:31:33.683            20.428                  Delhi           638.375
       227   03 Jun 2027 02:32:25.335   03 Jun 2027 02:32:27.032             1.697                  Delhi            53.031
       228   03 Jun 2027 03:54:51.739   03 Jun 2027 03:56:24.088            92.349              Murmansk2          2885.906
       229   03 Jun 2027 03:56:24.763   03 Jun 2027 03:57:17.718            52.955                Novosib          1654.844
       230   03 Jun 2027 03:57:19.859   03 Jun 2027 03:57:36.543            16.684                Norilsk           521.375
       231   03 Jun 2027 03:57:40.994   03 Jun 2027 03:58:59.528            78.534                Novosib          2454.187
       232   03 Jun 2027 03:59:14.571   03 Jun 2027 04:00:09.859            55.288              Murmansk1          1727.750
       233   03 Jun 2027 04:00:47.204   03 Jun 2027 04:03:50.174           182.970                 Moscow          5717.813
       234   03 Jun 2027 04:17:13.970   03 Jun 2027 04:21:42.985           269.015               CapeTown          8406.719
       235   03 Jun 2027 05:19:09.463   03 Jun 2027 05:20:21.428            71.965                Anadyr1          2248.906
       236   03 Jun 2027 05:22:26.871   03 Jun 2027 05:22:36.246             9.375                Anadyr2           292.969
       237   03 Jun 2027 05:30:28.232   03 Jun 2027 05:31:14.527            46.295                Norilsk          1446.719
       238   03 Jun 2027 05:31:58.863   03 Jun 2027 05:32:19.591            20.728              Murmansk2           647.750
       239   03 Jun 2027 05:32:49.168   03 Jun 2027 05:33:03.380            14.212              Murmansk2           444.125
       240   03 Jun 2027 05:33:28.814   03 Jun 2027 05:34:30.569            61.755              Murmansk2          1929.844
       241   03 Jun 2027 05:34:54.728   03 Jun 2027 05:34:57.451             2.723                 Moscow            85.094
       242   03 Jun 2027 05:35:23.939   03 Jun 2027 05:36:18.224            54.285              Murmansk2          1696.406
       243   03 Jun 2027 06:54:41.230   03 Jun 2027 06:57:31.627           170.397                Anadyr2          5324.906
       244   03 Jun 2027 06:57:31.627   03 Jun 2027 06:58:54.907            83.280                Anadyr1          2602.500
       245   03 Jun 2027 08:29:40.340   03 Jun 2027 08:31:38.412           118.072                Anadyr1          3689.750
       246   03 Jun 2027 08:32:02.980   03 Jun 2027 08:32:34.450            31.470                Irkutsk           983.438
       247   03 Jun 2027 08:32:38.035   03 Jun 2027 08:34:00.037            82.002                Norilsk          2562.563
       248   03 Jun 2027 08:34:16.654   03 Jun 2027 08:35:13.690            57.036                Irkutsk          1782.375
       249   03 Jun 2027 08:35:17.838   03 Jun 2027 08:35:25.807             7.969                Norilsk           249.031
       250   03 Jun 2027 08:35:51.209   03 Jun 2027 08:36:25.113            33.904              Murmansk1          1059.500
       251   03 Jun 2027 08:36:25.113   03 Jun 2027 08:36:45.951            20.838              Murmansk2           651.187
       252   03 Jun 2027 08:37:00.927   03 Jun 2027 08:37:47.634            46.707              Murmansk2          1459.594
       253   03 Jun 2027 08:39:41.448   03 Jun 2027 08:39:44.135             2.687              Murmansk2            83.969
       254   03 Jun 2027 08:39:46.963   03 Jun 2027 08:40:16.387            29.424                Norilsk           919.500
       255   03 Jun 2027 08:41:37.772   03 Jun 2027 08:41:42.323             4.551              Murmansk1           142.219
       256   03 Jun 2027 08:42:27.032   03 Jun 2027 08:42:58.381            31.349              Murmansk2           979.656
       257   03 Jun 2027 09:11:41.256   03 Jun 2027 09:11:55.171            13.915            RioGallegos           434.844
       258   03 Jun 2027 09:13:16.166   03 Jun 2027 09:13:39.154            22.988            RioGallegos           718.375
       259   03 Jun 2027 09:13:49.030   03 Jun 2027 09:14:48.886            59.856            RioGallegos          1870.500
       260   03 Jun 2027 10:05:45.618   03 Jun 2027 10:06:10.016            24.398                Irkutsk           762.437
       261   03 Jun 2027 10:06:18.155   03 Jun 2027 10:07:16.519            58.364                Norilsk          1823.875
       262   03 Jun 2027 10:07:25.284   03 Jun 2027 10:07:51.745            26.461                Norilsk           826.906
       263   03 Jun 2027 10:08:00.116   03 Jun 2027 10:08:59.110            58.994                Irkutsk          1843.563
       264   03 Jun 2027 10:09:05.265   03 Jun 2027 10:09:36.836            31.571                Norilsk           986.594
       265   03 Jun 2027 10:09:36.969   03 Jun 2027 10:11:00.991            84.022               Magadan1          2625.688
       266   03 Jun 2027 10:11:08.138   03 Jun 2027 10:11:17.351             9.213                Norilsk           287.906
       267   03 Jun 2027 10:11:20.052   03 Jun 2027 10:11:58.290            38.238                Irkutsk          1194.938
       268   03 Jun 2027 10:12:05.284   03 Jun 2027 10:12:39.168            33.884              Murmansk2          1058.875
       269   03 Jun 2027 10:13:09.748   03 Jun 2027 10:13:23.280            13.532              Murmansk1           422.875
       270   03 Jun 2027 10:16:52.590   03 Jun 2027 10:17:00.127             7.537                Norilsk           235.531
       271   03 Jun 2027 10:46:43.611   03 Jun 2027 10:47:29.865            46.254            RioGallegos          1445.438
       272   03 Jun 2027 10:48:04.037   03 Jun 2027 10:48:45.985            41.948            RioGallegos          1310.875
       273   03 Jun 2027 11:21:35.290   03 Jun 2027 11:22:09.580            34.290                Sumatra          1071.563
       274   03 Jun 2027 11:24:39.867   03 Jun 2027 11:24:46.271             6.404                Sumatra           200.125
       275   03 Jun 2027 11:33:49.683   03 Jun 2027 11:34:03.923            14.240                Sumatra           445.000
       276   03 Jun 2027 11:34:41.070   03 Jun 2027 11:35:20.028            38.958                  Delhi          1217.438
       277   03 Jun 2027 11:40:27.300   03 Jun 2027 11:40:29.908             2.608                Irkutsk            81.500
       278   03 Jun 2027 11:42:13.839   03 Jun 2027 11:43:15.404            61.565                Norilsk          1923.906
       279   03 Jun 2027 11:43:20.037   03 Jun 2027 11:43:30.388            10.351                Norilsk           323.469
       280   03 Jun 2027 11:43:39.518   03 Jun 2027 11:44:02.564            23.046                Novosib           720.188
       281   03 Jun 2027 11:44:03.274   03 Jun 2027 11:44:13.544            10.270              Murmansk1           320.937
       282   03 Jun 2027 11:44:13.544   03 Jun 2027 11:44:46.947            33.403              Murmansk2          1043.844
       283   03 Jun 2027 11:44:57.029   03 Jun 2027 11:45:33.107            36.078              Murmansk2          1127.437
       284   03 Jun 2027 11:45:36.858   03 Jun 2027 11:46:13.928            37.070                Irkutsk          1158.438
       285   03 Jun 2027 11:46:14.690   03 Jun 2027 11:46:43.586            28.896              Murmansk2           903.000
       286   03 Jun 2027 11:46:46.057   03 Jun 2027 11:47:45.747            59.690                Irkutsk          1865.313
       287   03 Jun 2027 12:26:01.050   03 Jun 2027 12:26:40.477            39.427            RioGallegos          1232.094
       288   03 Jun 2027 12:27:35.514   03 Jun 2027 12:29:50.883           135.369            RioGallegos          4230.281
       289   03 Jun 2027 13:01:32.404   03 Jun 2027 13:02:12.704            40.300                Sumatra          1259.375
       290   03 Jun 2027 13:04:49.431   03 Jun 2027 13:04:58.235             8.804                Sumatra           275.125
       291   03 Jun 2027 13:13:20.333   03 Jun 2027 13:14:07.622            47.289                Novosib          1477.781
       292   03 Jun 2027 13:14:40.997   03 Jun 2027 13:15:39.093            58.096                Novosib          1815.500
       293   03 Jun 2027 13:16:41.617   03 Jun 2027 13:17:55.092            73.475                Novosib          2296.094
       294   03 Jun 2027 13:18:11.574   03 Jun 2027 13:20:08.353           116.779                Irkutsk          3649.344
       295   03 Jun 2027 14:50:11.649   03 Jun 2027 14:53:26.126           194.477                 Moscow          6077.406
       296   03 Jun 2027 14:53:34.077   03 Jun 2027 14:54:51.227            77.150              Murmansk1          2410.937
       297   03 Jun 2027 14:55:50.400   03 Jun 2027 14:57:36.519           106.119                Novosib          3316.219
       298   03 Jun 2027 15:01:00.993   03 Jun 2027 15:01:53.748            52.755                Norilsk          1648.594
       299   03 Jun 2027 15:03:44.393   03 Jun 2027 15:04:41.768            57.375                Norilsk          1792.969
       300   03 Jun 2027 16:05:11.522   03 Jun 2027 16:05:21.434             9.912               CapeTown           309.750
       301   03 Jun 2027 16:06:11.961   03 Jun 2027 16:07:58.068           106.107               CapeTown          3315.844
       302   03 Jun 2027 16:27:39.695   03 Jun 2027 16:28:17.753            38.058                 Moscow          1189.312
       303   03 Jun 2027 16:30:08.894   03 Jun 2027 16:31:25.874            76.980                 Moscow          2405.625
       304   03 Jun 2027 16:38:16.004   03 Jun 2027 16:38:45.011            29.007              Murmansk2           906.469
       305   03 Jun 2027 16:40:44.898   03 Jun 2027 16:41:54.664            69.766              Murmansk2          2180.187
       306   03 Jun 2027 16:44:45.330   03 Jun 2027 16:45:39.464            54.134                Anadyr1          1691.688
       307   03 Jun 2027 16:46:45.748   03 Jun 2027 16:47:12.653            26.905                Anadyr1           840.781
       308   03 Jun 2027 16:49:52.819   03 Jun 2027 16:50:13.548            20.729                Anadyr1           647.781
       309   03 Jun 2027 16:53:24.913   03 Jun 2027 16:53:35.689            10.776                Anadyr2           336.750
       310   03 Jun 2027 17:39:35.153   03 Jun 2027 17:41:53.182           138.029               CapeTown          4313.406
       311   03 Jun 2027 18:09:25.669   03 Jun 2027 18:12:52.064           206.395              Murmansk2          6449.844
       312   03 Jun 2027 18:13:31.184   03 Jun 2027 18:14:38.418            67.234              Murmansk2          2101.063
       313   03 Jun 2027 18:23:57.183   03 Jun 2027 18:25:13.043            75.860               Magadan1          2370.625
       314   03 Jun 2027 19:18:08.490   03 Jun 2027 19:18:10.347             1.857               CapeTown            58.031
       315   03 Jun 2027 19:22:05.776   03 Jun 2027 19:22:42.890            37.114               CapeTown          1159.812
       316   03 Jun 2027 19:56:06.913   03 Jun 2027 19:57:47.161           100.248                Anadyr1          3132.750
       317   03 Jun 2027 19:57:48.519   03 Jun 2027 19:59:51.509           122.990                Anadyr2          3843.438
       318   03 Jun 2027 20:00:04.478   03 Jun 2027 20:02:18.438           133.960               Magadan1          4186.250
       319   03 Jun 2027 20:04:24.304   03 Jun 2027 20:04:34.708            10.404               Magadan1           325.125
       320   03 Jun 2027 20:05:26.290   03 Jun 2027 20:05:46.251            19.961               Magadan1           623.781
       321   03 Jun 2027 20:06:56.396   03 Jun 2027 20:07:05.640             9.244               Magadan1           288.875
       322   03 Jun 2027 20:07:47.167   03 Jun 2027 20:07:52.520             5.353               Magadan2           167.281
       323   03 Jun 2027 20:09:09.847   03 Jun 2027 20:09:43.275            33.428               Magadan1          1044.625
       324   03 Jun 2027 21:31:59.914   03 Jun 2027 21:34:07.950           128.036                Anadyr2          4001.125
       325   03 Jun 2027 21:34:17.245   03 Jun 2027 21:38:55.939           278.694                Norilsk          8709.187
       326   03 Jun 2027 21:40:05.654   03 Jun 2027 21:40:53.223            47.569                Irkutsk          1486.531
       327   03 Jun 2027 21:41:37.004   03 Jun 2027 21:41:38.659             1.655                Irkutsk            51.719
       328   03 Jun 2027 21:44:54.686   03 Jun 2027 21:45:43.402            48.716                Irkutsk          1522.375
       329   03 Jun 2027 21:57:55.296   03 Jun 2027 21:59:01.647            66.351                Sumatra          2073.469
       330   03 Jun 2027 22:26:10.040   03 Jun 2027 22:26:51.990            41.950            RioGallegos          1310.938
       331   03 Jun 2027 22:34:18.544   03 Jun 2027 22:34:26.504             7.960            RioGallegos           248.750
       332   03 Jun 2027 22:35:26.652   03 Jun 2027 22:35:45.886            19.234            RioGallegos           601.062
       333   03 Jun 2027 23:07:28.520   03 Jun 2027 23:09:21.587           113.067                Anadyr1          3533.344
       334   03 Jun 2027 23:09:21.587   03 Jun 2027 23:09:52.402            30.815                Anadyr2           962.969
       335   03 Jun 2027 23:10:15.905   03 Jun 2027 23:11:35.044            79.139                Norilsk          2473.094
       336   03 Jun 2027 23:11:36.041   03 Jun 2027 23:11:44.789             8.748               Magadan1           273.375
       337   03 Jun 2027 23:11:53.090   03 Jun 2027 23:12:13.274            20.184               Magadan1           630.750
       338   03 Jun 2027 23:13:39.417   03 Jun 2027 23:13:51.147            11.730               Magadan2           366.563
       339   03 Jun 2027 23:13:52.424   03 Jun 2027 23:14:12.097            19.673                Irkutsk           614.781
       340   03 Jun 2027 23:15:01.308   03 Jun 2027 23:15:14.292            12.984                Novosib           405.750
       341   03 Jun 2027 23:15:27.194   03 Jun 2027 23:15:49.721            22.527                Irkutsk           703.969
       342   03 Jun 2027 23:16:42.335   03 Jun 2027 23:16:51.124             8.789                Novosib           274.656
       343   03 Jun 2027 23:17:31.987   03 Jun 2027 23:18:00.640            28.653                Novosib           895.406
       344   03 Jun 2027 23:18:20.908   03 Jun 2027 23:18:30.772             9.864                Novosib           308.250
       345   03 Jun 2027 23:20:54.425   03 Jun 2027 23:21:04.363             9.938                Novosib           310.562
       346   03 Jun 2027 23:24:31.559   03 Jun 2027 23:25:04.282            32.723                Irkutsk          1022.594
       347   03 Jun 2027 23:25:52.243   03 Jun 2027 23:25:54.343             2.100                Irkutsk            65.625
       348   03 Jun 2027 23:27:33.796   03 Jun 2027 23:28:00.369            26.573                Sumatra           830.406
       349   03 Jun 2027 23:30:37.336   03 Jun 2027 23:31:11.115            33.779                Sumatra          1055.594
       350   03 Jun 2027 23:34:15.987   03 Jun 2027 23:36:23.470           127.483                Sumatra          3983.844
       351   04 Jun 2027 00:41:56.033   04 Jun 2027 00:42:16.634            20.601                Anadyr2           643.781
       352   04 Jun 2027 00:42:56.520   04 Jun 2027 00:43:16.744            20.224                Anadyr2           632.000
       353   04 Jun 2027 00:44:10.767   04 Jun 2027 00:44:25.153            14.386                Anadyr2           449.562
       354   04 Jun 2027 00:44:54.781   04 Jun 2027 00:44:59.777             4.996                Anadyr2           156.125
       355   04 Jun 2027 00:45:09.765   04 Jun 2027 00:45:12.663             2.898                Anadyr2            90.563
       356   04 Jun 2027 00:45:29.092   04 Jun 2027 00:46:08.687            39.595                Anadyr2          1237.344
       357   04 Jun 2027 00:46:29.154   04 Jun 2027 00:46:53.571            24.417               Magadan2           763.031
       358   04 Jun 2027 00:47:06.968   04 Jun 2027 00:47:34.301            27.333                Norilsk           854.156
       359   04 Jun 2027 00:48:30.230   04 Jun 2027 00:48:54.361            24.131               Magadan2           754.094
       360   04 Jun 2027 00:49:06.459   04 Jun 2027 00:49:35.940            29.481                Norilsk           921.281
       361   04 Jun 2027 00:49:42.722   04 Jun 2027 00:51:41.075           118.353                Novosib          3698.531
       362   04 Jun 2027 00:54:28.441   04 Jun 2027 00:54:39.923            11.482                Novosib           358.812
       363   04 Jun 2027 00:55:03.061   04 Jun 2027 00:55:43.276            40.215                Irkutsk          1256.719
       364   04 Jun 2027 00:58:30.486   04 Jun 2027 00:59:20.049            49.563                Novosib          1548.844
       365   04 Jun 2027 01:03:23.066   04 Jun 2027 01:03:38.532            15.466                  Delhi           483.313
       366   04 Jun 2027 01:05:12.499   04 Jun 2027 01:05:28.057            15.558                  Delhi           486.188
       367   04 Jun 2027 01:08:12.062   04 Jun 2027 01:10:27.584           135.522                Sumatra          4235.062
       368   04 Jun 2027 01:46:28.957   04 Jun 2027 01:47:21.752            52.795            RioGallegos          1649.844
       369   04 Jun 2027 02:17:42.954   04 Jun 2027 02:18:36.907            53.953                Anadyr2          1686.031
       370   04 Jun 2027 02:21:32.193   04 Jun 2027 02:22:15.065            42.872               Magadan2          1339.750
       371   04 Jun 2027 02:22:15.065   04 Jun 2027 02:22:18.257             3.192               Magadan1            99.750
       372   04 Jun 2027 02:22:55.145   04 Jun 2027 02:23:55.550            60.405               Magadan2          1887.656
       373   04 Jun 2027 02:24:04.253   04 Jun 2027 02:24:17.529            13.276              Murmansk2           414.875
       374   04 Jun 2027 02:24:44.627   04 Jun 2027 02:25:33.007            48.380              Murmansk2          1511.875
       375   04 Jun 2027 02:25:39.522   04 Jun 2027 02:26:29.243            49.721                Novosib          1553.781
       376   04 Jun 2027 02:32:23.217   04 Jun 2027 02:32:32.019             8.802                Irkutsk           275.063
       377   04 Jun 2027 02:33:43.559   04 Jun 2027 02:33:54.730            11.171                  Delhi           349.094
       378   04 Jun 2027 02:34:46.571   04 Jun 2027 02:35:02.306            15.735                  Delhi           491.719
       379   04 Jun 2027 02:38:06.306   04 Jun 2027 02:38:44.443            38.137                  Delhi          1191.781
       380   04 Jun 2027 02:43:38.723   04 Jun 2027 02:43:54.091            15.368                  Delhi           480.250
       381   04 Jun 2027 02:57:52.890   04 Jun 2027 02:57:58.998             6.108               CapeTown           190.875
       382   04 Jun 2027 03:00:39.499   04 Jun 2027 03:00:56.550            17.051               CapeTown           532.844
       383   04 Jun 2027 04:06:33.372   04 Jun 2027 04:07:25.826            52.454                Norilsk          1639.188
       384   04 Jun 2027 04:07:53.876   04 Jun 2027 04:08:33.811            39.935                Norilsk          1247.969
       385   04 Jun 2027 04:08:34.506   04 Jun 2027 04:08:57.485            22.979              Murmansk1           718.094
       386   04 Jun 2027 04:09:00.644   04 Jun 2027 04:09:24.407            23.763              Murmansk1           742.594
       387   04 Jun 2027 04:09:33.235   04 Jun 2027 04:10:26.022            52.787                Novosib          1649.594
       388   04 Jun 2027 04:10:45.552   04 Jun 2027 04:12:23.163            97.611              Murmansk1          3050.344
       389   04 Jun 2027 04:12:47.058   04 Jun 2027 04:15:59.187           192.129                 Moscow          6004.031
       390   04 Jun 2027 04:27:12.556   04 Jun 2027 04:28:04.792            52.236               CapeTown          1632.375
       391   04 Jun 2027 04:30:13.149   04 Jun 2027 04:30:35.892            22.743               CapeTown           710.719
       392   04 Jun 2027 04:34:20.205   04 Jun 2027 04:34:53.357            33.152               CapeTown          1036.000
       393   04 Jun 2027 04:35:53.216   04 Jun 2027 04:36:19.824            26.608               CapeTown           831.500
       394   04 Jun 2027 04:37:25.440   04 Jun 2027 04:37:34.305             8.865               CapeTown           277.031
       395   04 Jun 2027 04:39:48.184   04 Jun 2027 04:39:51.632             3.448               CapeTown           107.750
       396   04 Jun 2027 05:31:10.170   04 Jun 2027 05:34:57.864           227.694                Anadyr1          7115.437
       397   04 Jun 2027 05:42:13.633   04 Jun 2027 05:42:51.089            37.456                Norilsk          1170.500
       398   04 Jun 2027 05:43:05.303   04 Jun 2027 05:44:50.845           105.542                 Moscow          3298.188
       399   04 Jun 2027 05:45:00.830   04 Jun 2027 05:45:31.850            31.020                 Moscow           969.375
       400   04 Jun 2027 07:06:29.968   04 Jun 2027 07:06:34.664             4.696               Magadan2           146.750
       401   04 Jun 2027 07:06:40.333   04 Jun 2027 07:10:31.934           231.601                Anadyr1          7237.531
       402   04 Jun 2027 07:10:31.934   04 Jun 2027 07:11:43.137            71.203                Anadyr2          2225.094
       403   04 Jun 2027 08:39:23.147   04 Jun 2027 08:40:06.064            42.917                Irkutsk          1341.156
       404   04 Jun 2027 08:40:28.904   04 Jun 2027 08:40:33.772             4.868               Magadan1           152.125
       405   04 Jun 2027 08:40:36.198   04 Jun 2027 08:42:58.491           142.293                Anadyr2          4446.656
       406   04 Jun 2027 08:42:58.491   04 Jun 2027 08:44:23.556            85.065                Anadyr1          2658.281
       407   04 Jun 2027 08:45:04.088   04 Jun 2027 08:46:44.734           100.646                Anadyr1          3145.188
       408   04 Jun 2027 08:47:19.363   04 Jun 2027 08:47:24.272             4.909                Norilsk           153.406
       409   04 Jun 2027 08:47:41.949   04 Jun 2027 08:48:00.668            18.719                Norilsk           584.969
       410   04 Jun 2027 08:48:03.470   04 Jun 2027 08:48:15.086            11.616              Murmansk2           363.000
       411   04 Jun 2027 08:48:33.158   04 Jun 2027 08:48:49.813            16.655              Murmansk1           520.469
       412   04 Jun 2027 08:49:32.292   04 Jun 2027 08:49:37.473             5.181              Murmansk1           161.906
       413   04 Jun 2027 08:51:32.535   04 Jun 2027 08:51:41.253             8.718              Murmansk2           272.437
       414   04 Jun 2027 09:23:24.801   04 Jun 2027 09:23:55.070            30.269            RioGallegos           945.906
       415   04 Jun 2027 09:25:34.196   04 Jun 2027 09:25:50.411            16.215            RioGallegos           506.719
       416   04 Jun 2027 09:27:42.030   04 Jun 2027 09:28:24.328            42.298            RioGallegos          1321.812
       417   04 Jun 2027 10:02:07.191   04 Jun 2027 10:02:47.903            40.712                Sumatra          1272.250
       418   04 Jun 2027 10:16:58.317   04 Jun 2027 10:17:31.759            33.442                Irkutsk          1045.063
       419   04 Jun 2027 10:17:34.840   04 Jun 2027 10:17:39.978             5.138                Novosib           160.563
       420   04 Jun 2027 10:17:42.460   04 Jun 2027 10:18:12.340            29.880                Irkutsk           933.750
       421   04 Jun 2027 10:18:32.994   04 Jun 2027 10:19:39.811            66.817               Magadan2          2088.031
       422   04 Jun 2027 10:19:39.811   04 Jun 2027 10:20:35.710            55.899               Magadan1          1746.844
       423   04 Jun 2027 10:20:42.377   04 Jun 2027 10:21:15.871            33.494                Novosib          1046.688
       424   04 Jun 2027 10:21:20.044   04 Jun 2027 10:21:32.789            12.745                Novosib           398.281
       425   04 Jun 2027 10:21:44.954   04 Jun 2027 10:21:59.919            14.965              Murmansk2           467.656
       426   04 Jun 2027 10:22:00.947   04 Jun 2027 10:22:21.578            20.631              Murmansk2           644.719
       427   04 Jun 2027 10:22:21.647   04 Jun 2027 10:22:23.486             1.839              Murmansk1            57.469
       428   04 Jun 2027 10:22:36.721   04 Jun 2027 10:22:43.602             6.881              Murmansk1           215.031
       429   04 Jun 2027 10:22:46.312   04 Jun 2027 10:23:24.873            38.561                Novosib          1205.031
       430   04 Jun 2027 10:23:30.437   04 Jun 2027 10:24:13.066            42.629              Murmansk1          1332.156
       431   04 Jun 2027 10:27:03.967   04 Jun 2027 10:27:07.009             3.042              Murmansk1            95.063
       432   04 Jun 2027 10:58:53.589   04 Jun 2027 10:59:22.453            28.864            RioGallegos           902.000
       433   04 Jun 2027 11:00:09.135   04 Jun 2027 11:00:45.834            36.699            RioGallegos          1146.844
       434   04 Jun 2027 11:33:33.712   04 Jun 2027 11:34:05.912            32.200                Sumatra          1006.250
       435   04 Jun 2027 11:36:04.650   04 Jun 2027 11:36:24.634            19.984                Sumatra           624.500
       436   04 Jun 2027 11:44:17.411   04 Jun 2027 11:46:17.090           119.679                  Delhi          3739.969
       437   04 Jun 2027 11:53:36.278   04 Jun 2027 11:54:58.520            82.242                Irkutsk          2570.063
       438   04 Jun 2027 11:55:16.371   04 Jun 2027 11:55:22.146             5.775                Norilsk           180.469
       439   04 Jun 2027 11:55:30.407   04 Jun 2027 11:56:11.064            40.657                Norilsk          1270.531
       440   04 Jun 2027 11:56:12.997   04 Jun 2027 11:56:57.570            44.573              Murmansk1          1392.906
       441   04 Jun 2027 11:57:07.378   04 Jun 2027 11:57:25.774            18.396                Norilsk           574.875
       442   04 Jun 2027 11:57:34.109   04 Jun 2027 11:57:35.847             1.738              Murmansk2            54.312
       443   04 Jun 2027 11:57:36.581   04 Jun 2027 11:57:45.097             8.516                Novosib           266.125
       444   04 Jun 2027 11:57:47.311   04 Jun 2027 11:58:16.385            29.074                Irkutsk           908.562
       445   04 Jun 2027 11:58:29.208   04 Jun 2027 11:58:44.992            15.784              Murmansk1           493.250
       446   04 Jun 2027 11:58:48.153   04 Jun 2027 11:58:53.669             5.516                 Moscow           172.375
       447   04 Jun 2027 11:58:53.837   04 Jun 2027 11:59:15.666            21.829              Murmansk1           682.156
       448   04 Jun 2027 11:59:20.122   04 Jun 2027 11:59:41.004            20.882                Irkutsk           652.562
       449   04 Jun 2027 11:59:53.797   04 Jun 2027 12:00:23.764            29.967                Norilsk           936.469
       450   04 Jun 2027 12:00:29.614   04 Jun 2027 12:00:38.836             9.222                 Moscow           288.187
       451   04 Jun 2027 12:00:45.727   04 Jun 2027 12:01:32.059            46.332                Novosib          1447.875
       452   04 Jun 2027 12:02:11.632   04 Jun 2027 12:02:54.847            43.215                Norilsk          1350.469
       453   04 Jun 2027 12:04:06.358   04 Jun 2027 12:04:45.750            39.392              Murmansk1          1231.000
       454   04 Jun 2027 12:06:06.176   04 Jun 2027 12:07:05.651            59.475              Murmansk2          1858.594
       455   04 Jun 2027 12:39:27.915   04 Jun 2027 12:41:50.098           142.183            RioGallegos          4443.219
       456   04 Jun 2027 13:25:42.420   04 Jun 2027 13:25:45.435             3.015                Novosib            94.219
       457   04 Jun 2027 13:26:49.188   04 Jun 2027 13:27:33.892            44.704                Novosib          1397.000
       458   04 Jun 2027 13:27:53.701   04 Jun 2027 13:29:55.282           121.581                Novosib          3799.406
       459   04 Jun 2027 13:30:46.636   04 Jun 2027 13:31:22.622            35.986                Norilsk          1124.563
       460   04 Jun 2027 13:34:29.731   04 Jun 2027 13:35:37.436            67.705                Novosib          2115.781
       461   04 Jun 2027 13:39:16.484   04 Jun 2027 13:39:52.844            36.360                Norilsk          1136.250
       462   04 Jun 2027 15:02:10.006   04 Jun 2027 15:05:58.264           228.258                 Moscow          7133.062
       463   04 Jun 2027 15:08:03.250   04 Jun 2027 15:08:50.050            46.800              Murmansk1          1462.500
       464   04 Jun 2027 15:09:39.844   04 Jun 2027 15:11:21.365           101.521                Norilsk          3172.531
       465   04 Jun 2027 15:13:03.942   04 Jun 2027 15:13:53.406            49.464                Norilsk          1545.750
       466   04 Jun 2027 16:16:43.796   04 Jun 2027 16:17:52.597            68.801               CapeTown          2150.031
       467   04 Jun 2027 16:21:21.065   04 Jun 2027 16:21:34.849            13.784               CapeTown           430.750
       468   04 Jun 2027 16:23:13.106   04 Jun 2027 16:23:23.598            10.492               CapeTown           327.875
       469   04 Jun 2027 16:25:45.210   04 Jun 2027 16:26:01.723            16.513               CapeTown           516.031
       470   04 Jun 2027 16:26:58.326   04 Jun 2027 16:27:07.390             9.064               CapeTown           283.250
       471   04 Jun 2027 16:39:33.585   04 Jun 2027 16:39:57.516            23.931                 Moscow           747.844
       472   04 Jun 2027 16:40:26.232   04 Jun 2027 16:40:28.514             2.282                 Moscow            71.313
       473   04 Jun 2027 16:42:41.617   04 Jun 2027 16:44:18.597            96.980              Murmansk2          3030.625
       474   04 Jun 2027 16:49:31.671   04 Jun 2027 16:50:13.745            42.074                 Moscow          1314.813
       475   04 Jun 2027 16:56:39.415   04 Jun 2027 16:58:01.039            81.624                Anadyr1          2550.750
       476   04 Jun 2027 16:58:46.900   04 Jun 2027 16:59:20.706            33.806                Anadyr2          1056.437
       477   04 Jun 2027 17:01:46.402   04 Jun 2027 17:01:49.406             3.004                Anadyr2            93.875
       478   04 Jun 2027 17:03:51.691   04 Jun 2027 17:04:11.694            20.003                Anadyr2           625.094
       479   04 Jun 2027 17:05:23.076   04 Jun 2027 17:05:30.142             7.066                Anadyr1           220.812
       480   04 Jun 2027 17:05:33.856   04 Jun 2027 17:05:43.123             9.267                Anadyr2           289.594
       481   04 Jun 2027 17:51:40.273   04 Jun 2027 17:52:15.741            35.468               CapeTown          1108.375
       482   04 Jun 2027 17:54:27.910   04 Jun 2027 17:54:39.867            11.957               CapeTown           373.656
