uniorb/output/strategy_1/Drop/Drop_KinoSat_111309.txt

KinoSat_111309
-------------------------
    Access    *     Start Time (UTCG)     *     Stop Time (UTCG)  *   Duration (s)        *       Station  *  Data (Mbytes)
         1   01 Jun 2027 04:27:17.176   01 Jun 2027 04:27:39.347            22.171                Norilsk           692.844
         2   01 Jun 2027 04:27:59.436   01 Jun 2027 04:31:08.628           189.192              Murmansk1          5912.250
         3   01 Jun 2027 04:47:54.017   01 Jun 2027 04:48:03.849             9.832               CapeTown           307.250
         4   01 Jun 2027 04:48:32.264   01 Jun 2027 04:48:38.566             6.302               CapeTown           196.938
         5   01 Jun 2027 04:49:00.294   01 Jun 2027 04:49:17.226            16.932               CapeTown           529.125
         6   01 Jun 2027 05:51:06.824   01 Jun 2027 05:56:05.325           298.501                Anadyr2          9328.156
         7   01 Jun 2027 07:27:50.739   01 Jun 2027 07:30:25.988           155.249                Irkutsk          4851.531
         8   01 Jun 2027 07:30:30.051   01 Jun 2027 07:31:41.469            71.418               Magadan2          2231.812
         9   01 Jun 2027 07:31:56.516   01 Jun 2027 07:31:57.091             0.575                Norilsk            17.969
        10   01 Jun 2027 07:32:11.264   01 Jun 2027 07:32:33.763            22.499              Murmansk1           703.094
        11   01 Jun 2027 09:00:13.589   01 Jun 2027 09:00:52.042            38.453               Magadan2          1201.656
        12   01 Jun 2027 09:02:28.433   01 Jun 2027 09:06:50.610           262.177               Magadan2          8193.031
        13   01 Jun 2027 09:07:27.504   01 Jun 2027 09:09:36.681           129.177              Murmansk2          4036.781
        14   01 Jun 2027 09:09:36.681   01 Jun 2027 09:10:48.560            71.879              Murmansk1          2246.219
        15   01 Jun 2027 09:42:07.149   01 Jun 2027 09:44:29.749           142.600            RioGallegos          4456.250
        16   01 Jun 2027 09:45:31.769   01 Jun 2027 09:45:44.207            12.438            RioGallegos           388.687
        17   01 Jun 2027 10:17:17.146   01 Jun 2027 10:19:56.002           158.856                Sumatra          4964.250
        18   01 Jun 2027 10:38:33.909   01 Jun 2027 10:40:12.614            98.705                Novosib          3084.531
        19   01 Jun 2027 10:40:17.275   01 Jun 2027 10:40:33.835            16.560              Murmansk1           517.500
        20   01 Jun 2027 10:40:48.931   01 Jun 2027 10:41:20.486            31.555                Norilsk           986.094
        21   01 Jun 2027 10:41:30.812   01 Jun 2027 10:44:06.859           156.047                Novosib          4876.469
        22   01 Jun 2027 10:44:17.025   01 Jun 2027 10:45:58.685           101.660              Murmansk2          3176.875
        23   01 Jun 2027 10:45:58.685   01 Jun 2027 10:46:14.518            15.833              Murmansk1           494.781
        24   01 Jun 2027 11:20:29.357   01 Jun 2027 11:22:13.760           104.403            RioGallegos          3262.594
        25   01 Jun 2027 11:54:47.082   01 Jun 2027 11:55:27.782            40.700                Sumatra          1271.875
        26   01 Jun 2027 12:01:14.220   01 Jun 2027 12:01:48.284            34.064                  Delhi          1064.500
        27   01 Jun 2027 12:04:14.819   01 Jun 2027 12:05:07.645            52.826                  Delhi          1650.813
        28   01 Jun 2027 12:08:28.726   01 Jun 2027 12:11:13.227           164.501                Novosib          5140.656
        29   01 Jun 2027 12:12:31.561   01 Jun 2027 12:12:51.754            20.193                Norilsk           631.031
        30   01 Jun 2027 12:13:05.953   01 Jun 2027 12:13:50.335            44.382                Norilsk          1386.938
        31   01 Jun 2027 13:40:27.387   01 Jun 2027 13:41:51.090            83.703                  Delhi          2615.719
        32   01 Jun 2027 13:44:31.974   01 Jun 2027 13:44:45.258            13.284                  Delhi           415.125
        33   01 Jun 2027 13:45:48.988   01 Jun 2027 13:45:52.757             3.769                 Moscow           117.781
        34   01 Jun 2027 13:46:17.587   01 Jun 2027 13:46:54.627            37.040                 Moscow          1157.500
        35   01 Jun 2027 13:47:46.349   01 Jun 2027 13:47:55.217             8.868                 Moscow           277.125
        36   01 Jun 2027 13:48:57.113   01 Jun 2027 13:51:19.250           142.137                Novosib          4441.781
        37   01 Jun 2027 13:51:40.483   01 Jun 2027 13:52:34.885            54.402                Norilsk          1700.062
        38   01 Jun 2027 13:58:42.544   01 Jun 2027 13:59:14.420            31.876                Norilsk           996.125
        39   01 Jun 2027 15:01:38.565   01 Jun 2027 15:03:57.016           138.451               CapeTown          4326.594
        40   01 Jun 2027 15:25:23.387   01 Jun 2027 15:25:46.272            22.885                 Moscow           715.156
        41   01 Jun 2027 15:27:04.407   01 Jun 2027 15:27:11.147             6.740              Murmansk2           210.625
        42   01 Jun 2027 15:28:22.896   01 Jun 2027 15:28:43.022            20.126              Murmansk1           628.937
        43   01 Jun 2027 15:30:17.779   01 Jun 2027 15:30:44.719            26.940              Murmansk1           841.875
        44   01 Jun 2027 15:34:11.178   01 Jun 2027 15:34:28.208            17.030              Murmansk1           532.188
        45   01 Jun 2027 15:40:28.657   01 Jun 2027 15:41:47.417            78.760                Anadyr2          2461.250
        46   01 Jun 2027 15:42:20.674   01 Jun 2027 15:43:12.140            51.466                Anadyr1          1608.312
        47   01 Jun 2027 15:43:27.432   01 Jun 2027 15:44:20.795            53.363                Anadyr1          1667.594
        48   01 Jun 2027 16:44:36.507   01 Jun 2027 16:44:39.023             2.516               CapeTown            78.625
        49   01 Jun 2027 16:47:03.639   01 Jun 2027 16:47:33.992            30.353               CapeTown           948.531
        50   01 Jun 2027 17:03:38.474   01 Jun 2027 17:06:53.739           195.265                 Moscow          6102.031
        51   01 Jun 2027 17:15:43.424   01 Jun 2027 17:16:50.514            67.090                Anadyr2          2096.563
        52   01 Jun 2027 17:19:13.749   01 Jun 2027 17:20:15.761            62.012                Anadyr2          1937.875
        53   01 Jun 2027 17:21:41.580   01 Jun 2027 17:22:24.731            43.151               Magadan2          1348.469
        54   01 Jun 2027 18:51:35.768   01 Jun 2027 18:56:46.116           310.348                Anadyr2          9698.375
        55   01 Jun 2027 18:57:12.026   01 Jun 2027 18:57:18.768             6.742               Magadan2           210.687
        56   01 Jun 2027 18:57:24.820   01 Jun 2027 18:57:47.588            22.768               Magadan2           711.500
        57   01 Jun 2027 18:58:33.417   01 Jun 2027 18:59:07.689            34.272               Magadan2          1071.000
        58   01 Jun 2027 19:03:40.161   01 Jun 2027 19:04:13.518            33.357               Magadan1          1042.406
        59   01 Jun 2027 20:27:30.070   01 Jun 2027 20:31:14.310           224.240                Anadyr1          7007.500
        60   01 Jun 2027 20:31:16.983   01 Jun 2027 20:33:22.131           125.148               Magadan1          3910.875
        61   01 Jun 2027 20:33:47.074   01 Jun 2027 20:34:04.508            17.434               Magadan1           544.813
        62   01 Jun 2027 20:36:34.637   01 Jun 2027 20:36:44.327             9.690               Magadan2           302.812
        63   01 Jun 2027 20:37:44.518   01 Jun 2027 20:37:51.103             6.585               Magadan2           205.781
        64   01 Jun 2027 20:38:56.173   01 Jun 2027 20:40:01.639            65.466               Magadan2          2045.812
        65   01 Jun 2027 21:21:52.154   01 Jun 2027 21:23:14.885            82.731            RioGallegos          2585.344
        66   01 Jun 2027 21:23:34.110   01 Jun 2027 21:23:54.349            20.239            RioGallegos           632.469
        67   01 Jun 2027 21:23:59.149   01 Jun 2027 21:24:34.905            35.756            RioGallegos          1117.375
        68   01 Jun 2027 21:27:46.176   01 Jun 2027 21:27:53.565             7.389            RioGallegos           230.906
        69   01 Jun 2027 21:30:57.924   01 Jun 2027 21:31:19.450            21.526            RioGallegos           672.687
        70   01 Jun 2027 22:03:04.571   01 Jun 2027 22:03:43.182            38.611                Anadyr2          1206.594
        71   01 Jun 2027 22:03:48.648   01 Jun 2027 22:05:16.833            88.185                Anadyr2          2755.781
        72   01 Jun 2027 22:05:51.256   01 Jun 2027 22:06:22.451            31.195               Magadan2           974.844
        73   01 Jun 2027 22:07:17.447   01 Jun 2027 22:07:40.226            22.779               Magadan1           711.844
        74   01 Jun 2027 22:09:04.918   01 Jun 2027 22:09:07.559             2.641                Norilsk            82.531
        75   01 Jun 2027 22:09:31.773   01 Jun 2027 22:10:30.509            58.736                Irkutsk          1835.500
        76   01 Jun 2027 22:11:47.008   01 Jun 2027 22:12:52.893            65.885                Novosib          2058.906
        77   01 Jun 2027 22:23:11.795   01 Jun 2027 22:23:57.155            45.360                Sumatra          1417.500
        78   01 Jun 2027 22:31:06.775   01 Jun 2027 22:31:30.997            24.222                Sumatra           756.938
        79   01 Jun 2027 22:33:58.350   01 Jun 2027 22:34:14.096            15.746                Sumatra           492.062
        80   01 Jun 2027 22:35:44.988   01 Jun 2027 22:35:45.243             0.255                Sumatra             7.969
        81   01 Jun 2027 23:07:56.049   01 Jun 2027 23:08:04.321             8.272            RioGallegos           258.500
        82   01 Jun 2027 23:37:44.360   01 Jun 2027 23:39:32.679           108.319                Anadyr1          3384.969
        83   01 Jun 2027 23:39:32.679   01 Jun 2027 23:39:48.595            15.916                Anadyr2           497.375
        84   01 Jun 2027 23:40:29.232   01 Jun 2027 23:40:37.049             7.817                Anadyr2           244.281
        85   01 Jun 2027 23:41:18.296   01 Jun 2027 23:41:39.693            21.397                Norilsk           668.656
        86   01 Jun 2027 23:41:56.983   01 Jun 2027 23:43:33.972            96.989               Magadan2          3030.906
        87   01 Jun 2027 23:44:34.720   01 Jun 2027 23:44:39.432             4.712               Magadan1           147.250
        88   01 Jun 2027 23:45:11.003   01 Jun 2027 23:46:05.262            54.259                Irkutsk          1695.594
        89   01 Jun 2027 23:46:27.925   01 Jun 2027 23:46:59.904            31.979                Novosib           999.344
        90   01 Jun 2027 23:47:06.780   01 Jun 2027 23:47:49.969            43.189                Novosib          1349.656
        91   01 Jun 2027 23:50:18.676   01 Jun 2027 23:51:00.807            42.131                Novosib          1316.594
        92   01 Jun 2027 23:53:19.449   01 Jun 2027 23:53:42.663            23.214                  Delhi           725.438
        93   01 Jun 2027 23:54:45.343   01 Jun 2027 23:54:56.253            10.910                  Delhi           340.937
        94   01 Jun 2027 23:59:57.252   02 Jun 2027 00:00:06.507             9.255                  Delhi           289.219
        95   02 Jun 2027 00:00:14.223   02 Jun 2027 00:02:07.457           113.234                  Delhi          3538.563
        96   02 Jun 2027 01:11:14.209   02 Jun 2027 01:11:58.737            44.528                Anadyr2          1391.500
        97   02 Jun 2027 01:12:47.884   02 Jun 2027 01:13:21.917            34.033                Anadyr1          1063.531
        98   02 Jun 2027 01:13:55.310   02 Jun 2027 01:14:21.160            25.850                Anadyr2           807.812
        99   02 Jun 2027 01:16:58.867   02 Jun 2027 01:17:15.400            16.533                Anadyr1           516.656
       100   02 Jun 2027 01:17:17.392   02 Jun 2027 01:17:34.399            17.007                Norilsk           531.469
       101   02 Jun 2027 01:17:35.232   02 Jun 2027 01:19:11.628            96.396               Magadan1          3012.375
       102   02 Jun 2027 01:19:37.421   02 Jun 2027 01:19:44.153             6.732              Murmansk1           210.375
       103   02 Jun 2027 01:19:56.210   02 Jun 2027 01:21:07.707            71.497              Murmansk1          2234.281
       104   02 Jun 2027 01:21:52.732   02 Jun 2027 01:22:28.670            35.938                Novosib          1123.062
       105   02 Jun 2027 01:26:27.243   02 Jun 2027 01:26:33.323             6.080                 Moscow           190.000
       106   02 Jun 2027 01:27:07.682   02 Jun 2027 01:27:13.971             6.289                 Moscow           196.531
       107   02 Jun 2027 01:27:21.234   02 Jun 2027 01:28:20.771            59.537                 Moscow          1860.531
       108   02 Jun 2027 01:39:27.658   02 Jun 2027 01:39:44.405            16.747                  Delhi           523.344
       109   02 Jun 2027 01:40:05.515   02 Jun 2027 01:40:06.519             1.004                  Delhi            31.375
       110   02 Jun 2027 02:44:40.973   02 Jun 2027 02:48:18.799           217.826                Anadyr2          6807.062
       111   02 Jun 2027 02:49:38.440   02 Jun 2027 02:50:56.059            77.619               Magadan2          2425.594
       112   02 Jun 2027 02:55:25.053   02 Jun 2027 02:55:53.017            27.964              Murmansk1           873.875
       113   02 Jun 2027 02:56:36.478   02 Jun 2027 02:56:50.670            14.192              Murmansk1           443.500
       114   02 Jun 2027 02:57:24.391   02 Jun 2027 02:57:49.535            25.144              Murmansk1           785.750
       115   02 Jun 2027 02:58:05.554   02 Jun 2027 02:59:06.926            61.372                Novosib          1917.875
       116   02 Jun 2027 03:01:08.822   02 Jun 2027 03:01:46.473            37.651                Norilsk          1176.594
       117   02 Jun 2027 03:02:01.732   02 Jun 2027 03:03:02.802            61.070              Murmansk1          1908.438
       118   02 Jun 2027 03:03:02.802   02 Jun 2027 03:03:12.605             9.803              Murmansk2           306.344
       119   02 Jun 2027 03:03:12.671   02 Jun 2027 03:03:29.098            16.427                Novosib           513.344
       120   02 Jun 2027 03:03:37.542   02 Jun 2027 03:04:11.552            34.010                 Moscow          1062.813
       121   02 Jun 2027 03:04:12.926   02 Jun 2027 03:04:49.105            36.179                Novosib          1130.594
       122   02 Jun 2027 03:04:57.271   02 Jun 2027 03:05:28.201            30.930              Murmansk2           966.562
       123   02 Jun 2027 03:05:41.652   02 Jun 2027 03:06:17.375            35.723                 Moscow          1116.344
       124   02 Jun 2027 03:06:23.726   02 Jun 2027 03:06:40.545            16.819                Novosib           525.594
       125   02 Jun 2027 03:06:49.360   02 Jun 2027 03:07:15.789            26.429                 Moscow           825.906
       126   02 Jun 2027 03:08:18.606   02 Jun 2027 03:11:17.772           179.166                 Moscow          5598.938
       127   02 Jun 2027 03:22:58.344   02 Jun 2027 03:30:17.447           439.103               CapeTown         13721.969
       128   02 Jun 2027 04:19:19.080   02 Jun 2027 04:23:05.503           226.423                Anadyr2          7075.719
       129   02 Jun 2027 04:26:13.092   02 Jun 2027 04:27:52.389            99.297                Anadyr2          3103.031
       130   02 Jun 2027 04:28:14.092   02 Jun 2027 04:28:24.477            10.385               Magadan1           324.531
       131   02 Jun 2027 04:28:29.296   02 Jun 2027 04:28:54.101            24.805                Anadyr1           775.156
       132   02 Jun 2027 04:38:18.624   02 Jun 2027 04:39:27.833            69.209                Norilsk          2162.781
       133   02 Jun 2027 04:39:51.148   02 Jun 2027 04:39:59.578             8.430                 Moscow           263.437
       134   02 Jun 2027 04:59:31.313   02 Jun 2027 05:00:06.954            35.641               CapeTown          1113.781
       135   02 Jun 2027 06:01:23.819   02 Jun 2027 06:01:47.930            24.111                Anadyr1           753.469
       136   02 Jun 2027 06:02:01.667   02 Jun 2027 06:02:11.465             9.798               Magadan2           306.187
       137   02 Jun 2027 06:02:13.329   02 Jun 2027 06:04:28.699           135.370               Magadan2          4230.313
       138   02 Jun 2027 06:04:38.895   02 Jun 2027 06:06:45.251           126.356                Anadyr2          3948.625
       139   02 Jun 2027 07:37:47.973   02 Jun 2027 07:41:21.266           213.293               Magadan1          6665.406
       140   02 Jun 2027 07:41:21.266   02 Jun 2027 07:41:48.369            27.103               Magadan2           846.969
       141   02 Jun 2027 09:13:43.307   02 Jun 2027 09:14:17.367            34.060                Irkutsk          1064.375
       142   02 Jun 2027 09:14:57.982   02 Jun 2027 09:17:00.907           122.925                Irkutsk          3841.406
       143   02 Jun 2027 09:17:15.350   02 Jun 2027 09:19:28.222           132.872                Irkutsk          4152.250
       144   02 Jun 2027 09:19:34.359   02 Jun 2027 09:20:48.541            74.182                Norilsk          2318.187
       145   02 Jun 2027 09:21:09.610   02 Jun 2027 09:21:24.153            14.543              Murmansk1           454.469
       146   02 Jun 2027 09:24:43.253   02 Jun 2027 09:24:53.505            10.252              Murmansk1           320.375
       147   02 Jun 2027 09:54:12.372   02 Jun 2027 09:54:12.824             0.452            RioGallegos            14.125
       148   02 Jun 2027 09:55:08.989   02 Jun 2027 09:56:22.217            73.228            RioGallegos          2288.375
       149   02 Jun 2027 09:57:24.612   02 Jun 2027 09:58:03.067            38.455            RioGallegos          1201.719
       150   02 Jun 2027 10:29:07.945   02 Jun 2027 10:29:20.742            12.797                Sumatra           399.906
       151   02 Jun 2027 10:29:49.981   02 Jun 2027 10:31:04.491            74.510                Sumatra          2328.437
       152   02 Jun 2027 10:42:21.340   02 Jun 2027 10:43:23.034            61.694                  Delhi          1927.938
       153   02 Jun 2027 10:51:06.629   02 Jun 2027 10:55:01.782           235.153                Novosib          7348.531
       154   02 Jun 2027 10:55:13.552   02 Jun 2027 10:57:01.434           107.882              Murmansk1          3371.312
       155   02 Jun 2027 10:58:01.785   02 Jun 2027 10:59:11.461            69.676              Murmansk2          2177.375
       156   02 Jun 2027 11:33:16.159   02 Jun 2027 11:33:44.164            28.005            RioGallegos           875.156
       157   02 Jun 2027 11:34:19.762   02 Jun 2027 11:35:08.576            48.814            RioGallegos          1525.437
       158   02 Jun 2027 11:36:19.398   02 Jun 2027 11:37:30.839            71.441            RioGallegos          2232.531
       159   02 Jun 2027 12:07:53.864   02 Jun 2027 12:09:12.903            79.039                Sumatra          2469.969
       160   02 Jun 2027 12:20:45.600   02 Jun 2027 12:21:41.978            56.378                Novosib          1761.813
       161   02 Jun 2027 12:22:10.715   02 Jun 2027 12:23:10.785            60.070                Novosib          1877.188
       162   02 Jun 2027 12:23:52.763   02 Jun 2027 12:24:37.035            44.272                Irkutsk          1383.500
       163   02 Jun 2027 12:25:08.156   02 Jun 2027 12:25:46.105            37.949                Norilsk          1185.906
       164   02 Jun 2027 12:26:46.528   02 Jun 2027 12:26:50.819             4.291                Norilsk           134.094
       165   02 Jun 2027 12:27:07.922   02 Jun 2027 12:27:39.130            31.208                Norilsk           975.250
       166   02 Jun 2027 13:54:30.288   02 Jun 2027 13:56:29.550           119.262                  Delhi          3726.938
       167   02 Jun 2027 13:58:58.040   02 Jun 2027 14:00:10.085            72.045                 Moscow          2251.406
       168   02 Jun 2027 14:01:04.599   02 Jun 2027 14:03:19.361           134.762              Murmansk1          4211.313
       169   02 Jun 2027 14:04:17.775   02 Jun 2027 14:05:33.750            75.975                Norilsk          2374.219
       170   02 Jun 2027 14:06:15.063   02 Jun 2027 14:06:57.947            42.884                Norilsk          1340.125
       171   02 Jun 2027 14:08:34.363   02 Jun 2027 14:08:51.605            17.242                Norilsk           538.812
       172   02 Jun 2027 15:12:53.509   02 Jun 2027 15:14:06.933            73.424               CapeTown          2294.500
       173   02 Jun 2027 15:14:29.691   02 Jun 2027 15:15:37.409            67.718               CapeTown          2116.188
       174   02 Jun 2027 15:34:32.345   02 Jun 2027 15:35:14.114            41.769                 Moscow          1305.281
       175   02 Jun 2027 15:37:51.283   02 Jun 2027 15:38:26.345            35.062              Murmansk1          1095.687
       176   02 Jun 2027 15:52:19.319   02 Jun 2027 15:54:21.282           121.963                Anadyr1          3811.344
       177   02 Jun 2027 15:55:40.011   02 Jun 2027 15:55:50.404            10.393                Anadyr1           324.781
       178   02 Jun 2027 16:47:05.127   02 Jun 2027 16:49:27.361           142.234               CapeTown          4444.813
       179   02 Jun 2027 17:16:46.629   02 Jun 2027 17:17:36.446            49.817              Murmansk1          1556.781
       180   02 Jun 2027 17:18:26.173   02 Jun 2027 17:19:51.712            85.539              Murmansk2          2673.094
       181   02 Jun 2027 17:20:31.654   02 Jun 2027 17:22:03.469            91.815              Murmansk2          2869.219
       182   02 Jun 2027 17:27:43.602   02 Jun 2027 17:28:06.749            23.147                Anadyr2           723.344
       183   02 Jun 2027 17:28:46.821   02 Jun 2027 17:28:56.794             9.973                Anadyr1           311.656
       184   02 Jun 2027 17:29:04.240   02 Jun 2027 17:29:38.238            33.998                Anadyr1          1062.438
       185   02 Jun 2027 17:31:37.715   02 Jun 2027 17:32:29.767            52.052               Magadan1          1626.625
       186   02 Jun 2027 17:33:22.803   02 Jun 2027 17:33:43.936            21.133               Magadan1           660.406
       187   02 Jun 2027 19:03:37.357   02 Jun 2027 19:07:45.692           248.335                Anadyr2          7760.469
       188   02 Jun 2027 19:08:15.585   02 Jun 2027 19:09:38.624            83.039               Magadan2          2594.969
       189   02 Jun 2027 19:09:38.624   02 Jun 2027 19:09:50.063            11.439               Magadan1           357.469
       190   02 Jun 2027 20:39:30.504   02 Jun 2027 20:43:13.778           223.274                Anadyr2          6977.312
       191   02 Jun 2027 20:43:23.920   02 Jun 2027 20:43:40.559            16.639                Norilsk           519.969
       192   02 Jun 2027 20:43:41.681   02 Jun 2027 20:46:30.533           168.852               Magadan1          5276.625
       193   02 Jun 2027 20:47:53.624   02 Jun 2027 20:48:58.248            64.624                Irkutsk          2019.500
       194   02 Jun 2027 20:49:56.122   02 Jun 2027 20:50:18.459            22.337                Irkutsk           698.031
       195   02 Jun 2027 21:33:43.486   02 Jun 2027 21:34:44.665            61.179            RioGallegos          1911.844
       196   02 Jun 2027 21:39:18.670   02 Jun 2027 21:39:30.651            11.981            RioGallegos           374.406
       197   02 Jun 2027 22:15:00.374   02 Jun 2027 22:17:23.923           143.549                Anadyr1          4485.906
       198   02 Jun 2027 22:17:38.897   02 Jun 2027 22:19:20.826           101.929                Norilsk          3185.281
       199   02 Jun 2027 22:19:21.960   02 Jun 2027 22:19:58.212            36.252               Magadan1          1132.875
       200   02 Jun 2027 22:21:24.569   02 Jun 2027 22:21:31.156             6.587                Irkutsk           205.844
       201   02 Jun 2027 22:22:27.957   02 Jun 2027 22:23:12.796            44.839                Irkutsk          1401.219
       202   02 Jun 2027 22:23:18.549   02 Jun 2027 22:24:49.455            90.906                Novosib          2840.812
       203   02 Jun 2027 22:35:41.120   02 Jun 2027 22:36:24.518            43.398                Sumatra          1356.187
       204   02 Jun 2027 22:43:49.256   02 Jun 2027 22:44:39.026            49.770                Sumatra          1555.313
       205   02 Jun 2027 23:49:36.605   02 Jun 2027 23:50:04.367            27.762                Anadyr1           867.562
       206   02 Jun 2027 23:50:34.277   02 Jun 2027 23:51:32.126            57.849                Anadyr1          1807.781
       207   02 Jun 2027 23:52:11.104   02 Jun 2027 23:52:27.266            16.162                Anadyr1           505.062
       208   02 Jun 2027 23:53:20.439   02 Jun 2027 23:53:39.990            19.551                Norilsk           610.969
       209   02 Jun 2027 23:53:58.689   02 Jun 2027 23:55:43.630           104.941               Magadan1          3279.406
       210   02 Jun 2027 23:57:14.245   02 Jun 2027 23:58:16.488            62.243                Novosib          1945.094
       211   03 Jun 2027 00:02:35.278   03 Jun 2027 00:02:40.100             4.822                Novosib           150.687
       212   03 Jun 2027 00:03:54.886   03 Jun 2027 00:04:12.228            17.342                Novosib           541.937
       213   03 Jun 2027 00:04:45.734   03 Jun 2027 00:05:40.394            54.660                  Delhi          1708.125
       214   03 Jun 2027 00:07:07.836   03 Jun 2027 00:07:29.668            21.832                  Delhi           682.250
       215   03 Jun 2027 00:12:12.075   03 Jun 2027 00:12:33.070            20.995                  Delhi           656.094
       216   03 Jun 2027 00:45:52.824   03 Jun 2027 00:47:03.926            71.102            RioGallegos          2221.938
       217   03 Jun 2027 01:22:55.234   03 Jun 2027 01:23:19.373            24.139                Anadyr2           754.344
       218   03 Jun 2027 01:24:07.680   03 Jun 2027 01:24:47.553            39.873                Anadyr1          1246.031
       219   03 Jun 2027 01:24:47.553   03 Jun 2027 01:25:09.767            22.214                Anadyr2           694.188
       220   03 Jun 2027 01:25:29.264   03 Jun 2027 01:25:46.443            17.179                Anadyr2           536.844
       221   03 Jun 2027 01:25:56.630   03 Jun 2027 01:26:09.567            12.937                Anadyr1           404.281
       222   03 Jun 2027 01:28:38.546   03 Jun 2027 01:28:44.046             5.500                Anadyr1           171.875
       223   03 Jun 2027 01:29:06.309   03 Jun 2027 01:31:14.319           128.010               Magadan1          4000.313
       224   03 Jun 2027 01:31:14.319   03 Jun 2027 01:31:39.337            25.018               Magadan2           781.813
       225   03 Jun 2027 01:33:00.566   03 Jun 2027 01:34:05.077            64.511              Murmansk2          2015.969
       226   03 Jun 2027 01:34:38.182   03 Jun 2027 01:34:40.100             1.918                Novosib            59.938
       227   03 Jun 2027 01:34:57.673   03 Jun 2027 01:35:21.289            23.616                Irkutsk           738.000
       228   03 Jun 2027 01:35:48.255   03 Jun 2027 01:35:59.839            11.584                Novosib           362.000
       229   03 Jun 2027 01:36:09.239   03 Jun 2027 01:36:39.095            29.856                 Moscow           933.000
       230   03 Jun 2027 01:42:24.084   03 Jun 2027 01:42:38.184            14.100                 Moscow           440.625
       231   03 Jun 2027 01:45:39.459   03 Jun 2027 01:46:06.279            26.820                  Delhi           838.125
       232   03 Jun 2027 02:04:23.760   03 Jun 2027 02:04:35.964            12.204               CapeTown           381.375
       233   03 Jun 2027 02:05:59.416   03 Jun 2027 02:07:28.117            88.701               CapeTown          2771.906
       234   03 Jun 2027 02:56:27.662   03 Jun 2027 02:57:48.023            80.361                Anadyr1          2511.281
       235   03 Jun 2027 02:58:44.540   03 Jun 2027 02:59:07.815            23.275                Anadyr1           727.344
       236   03 Jun 2027 02:59:43.681   03 Jun 2027 02:59:44.939             1.258                Anadyr2            39.312
       237   03 Jun 2027 03:00:42.089   03 Jun 2027 03:00:56.612            14.523                Anadyr1           453.844
       238   03 Jun 2027 03:01:06.312   03 Jun 2027 03:01:28.282            21.970               Magadan2           686.563
       239   03 Jun 2027 03:14:14.053   03 Jun 2027 03:15:37.636            83.583                Novosib          2611.969
       240   03 Jun 2027 03:15:49.332   03 Jun 2027 03:17:08.955            79.623                Novosib          2488.219
       241   03 Jun 2027 03:17:28.827   03 Jun 2027 03:19:50.153           141.326              Murmansk1          4416.437
       242   03 Jun 2027 03:19:55.662   03 Jun 2027 03:22:17.914           142.252                 Moscow          4445.375
       243   03 Jun 2027 03:39:11.106   03 Jun 2027 03:40:59.847           108.741               CapeTown          3398.156
       244   03 Jun 2027 04:31:18.170   03 Jun 2027 04:32:40.538            82.368                Anadyr1          2574.000
       245   03 Jun 2027 04:37:39.733   03 Jun 2027 04:39:56.423           136.690               Magadan1          4271.563
       246   03 Jun 2027 04:39:56.423   03 Jun 2027 04:40:17.794            21.371               Magadan2           667.844
       247   03 Jun 2027 04:40:52.918   03 Jun 2027 04:42:15.845            82.927                Anadyr1          2591.469
       248   03 Jun 2027 04:50:14.140   03 Jun 2027 04:50:28.212            14.072              Murmansk1           439.750
       249   03 Jun 2027 04:50:56.727   03 Jun 2027 04:51:00.928             4.201                Norilsk           131.281
       250   03 Jun 2027 06:12:02.778   03 Jun 2027 06:12:58.830            56.052                Anadyr1          1751.625
       251   03 Jun 2027 06:13:09.148   03 Jun 2027 06:13:49.222            40.074               Magadan2          1252.312
       252   03 Jun 2027 06:14:03.395   03 Jun 2027 06:16:02.018           118.623               Magadan2          3706.969
       253   03 Jun 2027 06:16:16.192   03 Jun 2027 06:18:08.504           112.312                Norilsk          3509.750
       254   03 Jun 2027 06:18:30.986   03 Jun 2027 06:19:06.155            35.169                Anadyr1          1099.031
       255   03 Jun 2027 06:19:11.549   03 Jun 2027 06:19:38.027            26.478                Anadyr2           827.438
       256   03 Jun 2027 07:48:23.225   03 Jun 2027 07:48:41.676            18.451                Anadyr1           576.594
       257   03 Jun 2027 07:48:57.092   03 Jun 2027 07:51:54.953           177.861                Anadyr2          5558.156
       258   03 Jun 2027 07:52:25.675   03 Jun 2027 07:54:21.810           116.135                Norilsk          3629.219
       259   03 Jun 2027 07:54:30.259   03 Jun 2027 07:55:33.407            63.148                Novosib          1973.375
       260   03 Jun 2027 08:31:00.268   03 Jun 2027 08:31:45.226            44.958            RioGallegos          1404.938
       261   03 Jun 2027 09:10:26.726   03 Jun 2027 09:10:50.152            23.426                Sumatra           732.063
       262   03 Jun 2027 09:26:12.839   03 Jun 2027 09:30:16.363           243.524               Magadan1          7610.125
       263   03 Jun 2027 09:30:41.630   03 Jun 2027 09:31:31.911            50.281                Irkutsk          1571.281
       264   03 Jun 2027 09:31:36.043   03 Jun 2027 09:32:46.631            70.588                Novosib          2205.875
       265   03 Jun 2027 09:32:53.133   03 Jun 2027 09:35:02.671           129.538                Norilsk          4048.062
       266   03 Jun 2027 09:35:12.106   03 Jun 2027 09:36:31.743            79.637                Norilsk          2488.656
       267   03 Jun 2027 10:06:21.165   03 Jun 2027 10:07:01.705            40.540            RioGallegos          1266.875
       268   03 Jun 2027 10:09:23.811   03 Jun 2027 10:10:20.103            56.292            RioGallegos          1759.125
       269   03 Jun 2027 10:41:04.553   03 Jun 2027 10:41:52.971            48.418                Sumatra          1513.063
       270   03 Jun 2027 10:44:03.569   03 Jun 2027 10:44:13.850            10.281                Sumatra           321.281
       271   03 Jun 2027 10:54:29.638   03 Jun 2027 10:54:40.443            10.805                  Delhi           337.656
       272   03 Jun 2027 11:02:01.358   03 Jun 2027 11:02:33.297            31.939                Irkutsk           998.094
       273   03 Jun 2027 11:02:52.338   03 Jun 2027 11:02:58.903             6.565                Norilsk           205.156
       274   03 Jun 2027 11:03:14.270   03 Jun 2027 11:03:40.184            25.914                Novosib           809.813
       275   03 Jun 2027 11:03:40.781   03 Jun 2027 11:05:50.680           129.899                Irkutsk          4059.344
       276   03 Jun 2027 11:06:18.090   03 Jun 2027 11:06:26.407             8.317              Murmansk1           259.906
       277   03 Jun 2027 11:06:29.086   03 Jun 2027 11:07:01.225            32.139                Novosib          1004.344
       278   03 Jun 2027 11:07:01.655   03 Jun 2027 11:07:13.281            11.626                Irkutsk           363.312
       279   03 Jun 2027 11:07:26.540   03 Jun 2027 11:07:28.714             2.174                Norilsk            67.937
       280   03 Jun 2027 11:07:33.004   03 Jun 2027 11:08:42.659            69.655              Murmansk2          2176.719
       281   03 Jun 2027 11:46:15.524   03 Jun 2027 11:46:29.388            13.864            RioGallegos           433.250
       282   03 Jun 2027 11:47:01.533   03 Jun 2027 11:47:28.136            26.603            RioGallegos           831.344
       283   03 Jun 2027 11:48:15.103   03 Jun 2027 11:49:30.060            74.957            RioGallegos          2342.406
       284   03 Jun 2027 12:27:38.045   03 Jun 2027 12:29:44.406           126.361                  Delhi          3948.781
       285   03 Jun 2027 12:33:06.364   03 Jun 2027 12:33:19.320            12.956                Novosib           404.875
       286   03 Jun 2027 12:35:07.108   03 Jun 2027 12:35:16.110             9.002                Novosib           281.312
       287   03 Jun 2027 12:35:41.032   03 Jun 2027 12:37:15.953            94.921                Novosib          2966.281
       288   03 Jun 2027 12:37:43.143   03 Jun 2027 12:38:52.636            69.493                Norilsk          2171.656
       289   03 Jun 2027 12:40:56.584   03 Jun 2027 12:41:32.283            35.699                Norilsk          1115.594
       290   03 Jun 2027 14:09:41.115   03 Jun 2027 14:12:48.040           186.925                 Moscow          5841.406
       291   03 Jun 2027 14:12:51.971   03 Jun 2027 14:12:58.673             6.702                 Moscow           209.438
       292   03 Jun 2027 14:13:06.650   03 Jun 2027 14:15:34.877           148.227              Murmansk2          4632.094
       293   03 Jun 2027 14:15:34.877   03 Jun 2027 14:15:42.703             7.826              Murmansk1           244.563
       294   03 Jun 2027 14:16:58.485   03 Jun 2027 14:18:07.534            69.049                Norilsk          2157.781
       295   03 Jun 2027 14:20:33.693   03 Jun 2027 14:20:54.060            20.367                Norilsk           636.469
       296   03 Jun 2027 14:22:08.979   03 Jun 2027 14:22:39.576            30.597                Norilsk           956.156
       297   03 Jun 2027 15:24:22.638   03 Jun 2027 15:27:23.243           180.605               CapeTown          5643.906
       298   03 Jun 2027 15:46:56.448   03 Jun 2027 15:47:30.553            34.105                 Moscow          1065.781
       299   03 Jun 2027 15:50:07.399   03 Jun 2027 15:50:26.940            19.541              Murmansk2           610.656
       300   03 Jun 2027 15:52:17.379   03 Jun 2027 15:53:13.456            56.077              Murmansk2          1752.406
       301   03 Jun 2027 16:04:12.603   03 Jun 2027 16:05:46.705            94.102                Anadyr1          2940.687
       302   03 Jun 2027 16:06:03.597   03 Jun 2027 16:06:18.010            14.413                Anadyr2           450.406
       303   03 Jun 2027 16:06:55.274   03 Jun 2027 16:07:08.939            13.665                Anadyr2           427.031
       304   03 Jun 2027 16:07:28.126   03 Jun 2027 16:08:13.807            45.681                Anadyr2          1427.531
       305   03 Jun 2027 16:59:09.253   03 Jun 2027 16:59:44.085            34.832               CapeTown          1088.500
       306   03 Jun 2027 17:04:13.199   03 Jun 2027 17:04:23.279            10.080               CapeTown           315.000
       307   03 Jun 2027 17:29:22.681   03 Jun 2027 17:31:46.350           143.669              Murmansk2          4489.656
       308   03 Jun 2027 17:32:33.551   03 Jun 2027 17:34:07.710            94.159              Murmansk1          2942.469
       309   03 Jun 2027 17:39:44.147   03 Jun 2027 17:40:41.983            57.836                Anadyr1          1807.375
       310   03 Jun 2027 17:43:13.518   03 Jun 2027 17:44:10.392            56.874               Magadan2          1777.313
       311   03 Jun 2027 17:44:10.392   03 Jun 2027 17:44:24.646            14.254               Magadan1           445.438
       312   03 Jun 2027 17:45:29.308   03 Jun 2027 17:46:14.033            44.725               Magadan1          1397.656
       313   03 Jun 2027 19:15:38.929   03 Jun 2027 19:19:35.470           236.541                Anadyr2          7391.906
       314   03 Jun 2027 19:19:52.140   03 Jun 2027 19:21:52.376           120.236               Magadan1          3757.375
       315   03 Jun 2027 19:26:27.400   03 Jun 2027 19:26:36.395             8.995               Magadan2           281.094
       316   03 Jun 2027 19:27:00.601   03 Jun 2027 19:27:29.674            29.073               Magadan2           908.531
       317   03 Jun 2027 20:51:30.603   03 Jun 2027 20:55:39.418           248.815                Anadyr1          7775.469
       318   03 Jun 2027 20:55:45.933   03 Jun 2027 20:57:02.383            76.450               Magadan1          2389.062
       319   03 Jun 2027 20:57:15.790   03 Jun 2027 20:57:21.434             5.644                Norilsk           176.375
       320   03 Jun 2027 20:57:31.162   03 Jun 2027 20:57:58.531            27.369               Magadan2           855.281
       321   03 Jun 2027 20:58:42.901   03 Jun 2027 20:59:13.804            30.903               Magadan2           965.719
       322   03 Jun 2027 20:59:14.613   03 Jun 2027 21:01:59.138           164.525                Irkutsk          5141.406
       323   03 Jun 2027 21:15:15.105   03 Jun 2027 21:16:29.453            74.348                Sumatra          2323.375
       324   03 Jun 2027 21:18:29.587   03 Jun 2027 21:19:12.139            42.552                Sumatra          1329.750
       325   03 Jun 2027 22:27:37.158   03 Jun 2027 22:27:53.236            16.078                Anadyr1           502.438
       326   03 Jun 2027 22:28:49.952   03 Jun 2027 22:29:22.076            32.124                Anadyr1          1003.875
       327   03 Jun 2027 22:29:22.839   03 Jun 2027 22:31:22.825           119.986                Norilsk          3749.563
       328   03 Jun 2027 22:33:21.819   03 Jun 2027 22:34:35.761            73.942                Irkutsk          2310.687
       329   03 Jun 2027 22:35:05.380   03 Jun 2027 22:36:58.377           112.997                Novosib          3531.156
       330   03 Jun 2027 22:47:04.962   03 Jun 2027 22:47:22.885            17.923                Sumatra           560.094
       331   03 Jun 2027 22:59:11.115   03 Jun 2027 22:59:46.483            35.368                Sumatra          1105.250
       332   04 Jun 2027 00:01:15.855   04 Jun 2027 00:03:28.418           132.563                Anadyr1          4142.594
       333   04 Jun 2027 00:03:31.975   04 Jun 2027 00:03:41.795             9.820                Anadyr2           306.875
       334   04 Jun 2027 00:03:52.520   04 Jun 2027 00:04:08.956            16.436                Anadyr2           513.625
       335   04 Jun 2027 00:05:22.558   04 Jun 2027 00:05:40.826            18.268                Norilsk           570.875
       336   04 Jun 2027 00:05:59.828   04 Jun 2027 00:07:11.551            71.723               Magadan2          2241.344
       337   04 Jun 2027 00:07:12.207   04 Jun 2027 00:08:05.083            52.876               Magadan1          1652.375
       338   04 Jun 2027 00:08:50.947   04 Jun 2027 00:09:51.860            60.913              Murmansk1          1903.531
       339   04 Jun 2027 00:10:29.451   04 Jun 2027 00:11:15.690            46.239                Novosib          1444.969
       340   04 Jun 2027 00:11:21.735   04 Jun 2027 00:11:54.308            32.573              Murmansk1          1017.906
       341   04 Jun 2027 00:16:38.010   04 Jun 2027 00:17:32.808            54.798                  Delhi          1712.438
       342   04 Jun 2027 00:19:33.522   04 Jun 2027 00:20:02.285            28.763                  Delhi           898.844
       343   04 Jun 2027 00:24:59.507   04 Jun 2027 00:26:08.967            69.460                  Delhi          2170.625
       344   04 Jun 2027 01:02:16.514   04 Jun 2027 01:02:33.608            17.094            RioGallegos           534.187
       345   04 Jun 2027 01:34:36.426   04 Jun 2027 01:35:02.532            26.106                Anadyr1           815.812
       346   04 Jun 2027 01:35:28.291   04 Jun 2027 01:36:05.520            37.229                Anadyr2          1163.406
       347   04 Jun 2027 01:36:45.708   04 Jun 2027 01:37:13.771            28.063                Anadyr1           876.969
       348   04 Jun 2027 01:37:54.995   04 Jun 2027 01:38:30.501            35.506                Anadyr1          1109.562
       349   04 Jun 2027 01:40:47.403   04 Jun 2027 01:42:43.854           116.451               Magadan2          3639.094
       350   04 Jun 2027 01:43:17.002   04 Jun 2027 01:44:05.003            48.001               Magadan2          1500.031
       351   04 Jun 2027 01:44:52.417   04 Jun 2027 01:45:29.370            36.953              Murmansk2          1154.781
       352   04 Jun 2027 01:45:58.773   04 Jun 2027 01:47:14.262            75.489              Murmansk1          2359.031
       353   04 Jun 2027 01:47:38.344   04 Jun 2027 01:48:23.838            45.494                 Moscow          1421.687
       354   04 Jun 2027 01:55:12.515   04 Jun 2027 01:55:36.450            23.935                  Delhi           747.969
       355   04 Jun 2027 02:00:23.364   04 Jun 2027 02:00:33.434            10.070                  Delhi           314.688
       356   04 Jun 2027 02:14:50.483   04 Jun 2027 02:15:42.759            52.276               CapeTown          1633.625
       357   04 Jun 2027 03:09:55.922   04 Jun 2027 03:10:30.610            34.688                Anadyr2          1084.000
       358   04 Jun 2027 03:13:24.465   04 Jun 2027 03:13:56.484            32.019               Magadan2          1000.594
       359   04 Jun 2027 03:26:26.710   04 Jun 2027 03:26:48.054            21.344              Murmansk2           667.000
       360   04 Jun 2027 03:26:55.699   04 Jun 2027 03:27:05.538             9.839                Norilsk           307.469
       361   04 Jun 2027 03:27:09.042   04 Jun 2027 03:27:27.299            18.257                Novosib           570.531
       362   04 Jun 2027 03:27:28.480   04 Jun 2027 03:27:40.989            12.509                 Moscow           390.906
       363   04 Jun 2027 03:27:49.221   04 Jun 2027 03:28:42.603            53.382              Murmansk2          1668.188
       364   04 Jun 2027 03:28:42.603   04 Jun 2027 03:32:02.054           199.451              Murmansk1          6232.844
       365   04 Jun 2027 03:34:21.729   04 Jun 2027 03:35:26.903            65.174                 Moscow          2036.687
       366   04 Jun 2027 03:50:54.081   04 Jun 2027 03:51:17.554            23.473               CapeTown           733.531
       367   04 Jun 2027 04:50:02.844   04 Jun 2027 04:51:59.416           116.572               Magadan1          3642.875
       368   04 Jun 2027 04:52:17.560   04 Jun 2027 04:52:36.608            19.048               Magadan2           595.250
       369   04 Jun 2027 04:53:09.606   04 Jun 2027 04:54:00.191            50.585               Magadan2          1580.781
       370   04 Jun 2027 04:54:40.708   04 Jun 2027 04:55:00.643            19.935               Magadan2           622.969
       371   04 Jun 2027 06:24:41.141   04 Jun 2027 06:24:47.017             5.876                Anadyr1           183.625
       372   04 Jun 2027 06:24:53.341   04 Jun 2027 06:26:47.303           113.962               Magadan1          3561.313
       373   04 Jun 2027 06:26:47.303   04 Jun 2027 06:27:40.278            52.975               Magadan2          1655.469
       374   04 Jun 2027 06:27:55.208   04 Jun 2027 06:31:07.535           192.327               Magadan2          6010.219
       375   04 Jun 2027 07:59:56.350   04 Jun 2027 08:00:07.404            11.054                Irkutsk           345.437
       376   04 Jun 2027 08:00:16.262   04 Jun 2027 08:01:38.948            82.686               Magadan1          2583.937
       377   04 Jun 2027 08:01:41.440   04 Jun 2027 08:02:23.589            42.149               Magadan2          1317.156
       378   04 Jun 2027 08:02:31.212   04 Jun 2027 08:02:35.480             4.268                Irkutsk           133.375
       379   04 Jun 2027 08:02:38.255   04 Jun 2027 08:05:15.572           157.317                Anadyr1          4916.156
       380   04 Jun 2027 08:05:19.617   04 Jun 2027 08:05:56.761            37.144                Anadyr1          1160.750
       381   04 Jun 2027 08:06:09.953   04 Jun 2027 08:07:37.665            87.712               Magadan1          2741.000
       382   04 Jun 2027 08:07:41.714   04 Jun 2027 08:07:55.492            13.778              Murmansk2           430.563
       383   04 Jun 2027 08:15:38.787   04 Jun 2027 08:16:25.207            46.420              Murmansk2          1450.625
       384   04 Jun 2027 08:42:46.063   04 Jun 2027 08:43:21.626            35.563            RioGallegos          1111.344
       385   04 Jun 2027 09:20:29.040   04 Jun 2027 09:21:47.076            78.036                Sumatra          2438.625
       386   04 Jun 2027 09:36:32.730   04 Jun 2027 09:38:11.548            98.818               Magadan1          3088.062
       387   04 Jun 2027 09:38:19.376   04 Jun 2027 09:38:31.308            11.932                Irkutsk           372.875
       388   04 Jun 2027 09:38:57.513   04 Jun 2027 09:39:23.333            25.820                Norilsk           806.875
       389   04 Jun 2027 09:39:25.488   04 Jun 2027 09:39:38.084            12.596                Norilsk           393.625
       390   04 Jun 2027 09:39:44.283   04 Jun 2027 09:40:54.376            70.093                Norilsk          2190.406
       391   04 Jun 2027 09:41:16.394   04 Jun 2027 09:41:45.671            29.277               Magadan2           914.906
       392   04 Jun 2027 09:41:46.977   04 Jun 2027 09:42:08.388            21.411              Murmansk2           669.094
       393   04 Jun 2027 09:42:21.970   04 Jun 2027 09:42:35.965            13.995              Murmansk1           437.344
       394   04 Jun 2027 09:42:41.676   04 Jun 2027 09:42:44.150             2.474                Norilsk            77.313
       395   04 Jun 2027 09:42:49.024   04 Jun 2027 09:42:58.372             9.348                Irkutsk           292.125
       396   04 Jun 2027 09:43:01.762   04 Jun 2027 09:43:06.979             5.217                Irkutsk           163.031
       397   04 Jun 2027 09:43:08.555   04 Jun 2027 09:43:14.169             5.614                Norilsk           175.438
       398   04 Jun 2027 09:43:14.752   04 Jun 2027 09:43:18.151             3.399                Novosib           106.219
       399   04 Jun 2027 09:43:22.585   04 Jun 2027 09:43:37.798            15.213                Norilsk           475.406
       400   04 Jun 2027 09:43:48.104   04 Jun 2027 09:43:49.810             1.706                Novosib            53.312
       401   04 Jun 2027 09:44:00.098   04 Jun 2027 09:44:24.742            24.644              Murmansk1           770.125
       402   04 Jun 2027 09:44:44.918   04 Jun 2027 09:44:53.705             8.787              Murmansk2           274.594
       403   04 Jun 2027 09:49:37.059   04 Jun 2027 09:50:32.398            55.339              Murmansk1          1729.344
       404   04 Jun 2027 10:21:21.804   04 Jun 2027 10:21:25.606             3.802            RioGallegos           118.812
       405   04 Jun 2027 10:22:42.288   04 Jun 2027 10:22:50.267             7.979            RioGallegos           249.344
       406   04 Jun 2027 10:53:06.786   04 Jun 2027 10:54:38.069            91.283                Sumatra          2852.594
       407   04 Jun 2027 11:13:01.104   04 Jun 2027 11:13:03.178             2.074                  Delhi            64.812
       408   04 Jun 2027 11:13:25.307   04 Jun 2027 11:13:28.550             3.243                Novosib           101.344
       409   04 Jun 2027 11:13:52.957   04 Jun 2027 11:14:42.837            49.880                Norilsk          1558.750
       410   04 Jun 2027 11:14:54.395   04 Jun 2027 11:15:06.236            11.841                Norilsk           370.031
       411   04 Jun 2027 11:15:12.528   04 Jun 2027 11:15:31.763            19.235              Murmansk2           601.094
       412   04 Jun 2027 11:15:36.994   04 Jun 2027 11:15:47.906            10.912                Irkutsk           341.000
       413   04 Jun 2027 11:15:49.313   04 Jun 2027 11:15:53.892             4.579                Norilsk           143.094
       414   04 Jun 2027 11:15:56.271   04 Jun 2027 11:17:02.838            66.567              Murmansk1          2080.219
       415   04 Jun 2027 11:17:17.319   04 Jun 2027 11:17:45.148            27.829                Novosib           869.656
       416   04 Jun 2027 11:17:52.383   04 Jun 2027 11:19:07.147            74.764                Irkutsk          2336.375
       417   04 Jun 2027 11:19:15.146   04 Jun 2027 11:20:09.844            54.698                Novosib          1709.312
       418   04 Jun 2027 11:59:38.467   04 Jun 2027 12:00:14.094            35.627            RioGallegos          1113.344
       419   04 Jun 2027 12:01:28.046   04 Jun 2027 12:01:55.538            27.492            RioGallegos           859.125
       420   04 Jun 2027 12:37:32.966   04 Jun 2027 12:37:39.472             6.506                  Delhi           203.313
       421   04 Jun 2027 12:39:29.488   04 Jun 2027 12:40:19.030            49.542                  Delhi          1548.187
       422   04 Jun 2027 12:40:48.121   04 Jun 2027 12:42:13.400            85.279                  Delhi          2664.969
       423   04 Jun 2027 12:45:31.403   04 Jun 2027 12:46:28.290            56.887                Novosib          1777.719
       424   04 Jun 2027 12:49:21.811   04 Jun 2027 12:50:24.576            62.765                Novosib          1961.406
       425   04 Jun 2027 12:50:28.600   04 Jun 2027 12:50:54.271            25.671                Norilsk           802.219
       426   04 Jun 2027 12:51:11.649   04 Jun 2027 12:51:53.720            42.071              Murmansk2          1314.719
       427   04 Jun 2027 14:21:41.406   04 Jun 2027 14:24:51.284           189.878                 Moscow          5933.687
       428   04 Jun 2027 14:25:10.264   04 Jun 2027 14:28:08.454           178.190              Murmansk1          5568.437
       429   04 Jun 2027 14:31:01.817   04 Jun 2027 14:32:32.081            90.264                Norilsk          2820.750
       430   04 Jun 2027 15:36:00.420   04 Jun 2027 15:39:04.471           184.051               CapeTown          5751.594
       431   04 Jun 2027 15:59:25.259   04 Jun 2027 16:00:09.502            44.243                 Moscow          1382.594
       432   04 Jun 2027 16:02:25.597   04 Jun 2027 16:02:51.357            25.760              Murmansk1           805.000
       433   04 Jun 2027 16:03:30.349   04 Jun 2027 16:03:37.726             7.377              Murmansk2           230.531
       434   04 Jun 2027 16:04:47.724   04 Jun 2027 16:05:17.504            29.780              Murmansk2           930.625
       435   04 Jun 2027 16:16:07.770   04 Jun 2027 16:18:13.031           125.261                Anadyr1          3914.406
       436   04 Jun 2027 17:11:16.215   04 Jun 2027 17:13:16.259           120.044               CapeTown          3751.375
       437   04 Jun 2027 17:42:02.282   04 Jun 2027 17:45:12.679           190.397              Murmansk1          5949.906
       438   04 Jun 2027 17:46:06.569   04 Jun 2027 17:46:30.499            23.930              Murmansk1           747.812
       439   04 Jun 2027 17:46:33.161   04 Jun 2027 17:47:56.389            83.228              Murmansk1          2600.875
       440   04 Jun 2027 17:54:56.880   04 Jun 2027 17:56:04.291            67.411               Magadan2          2106.594
       441   04 Jun 2027 17:57:12.660   04 Jun 2027 17:57:30.590            17.930               Magadan1           560.313
       442   04 Jun 2027 17:57:39.978   04 Jun 2027 17:57:43.901             3.923               Magadan1           122.594
       443   04 Jun 2027 17:57:48.990   04 Jun 2027 17:58:17.081            28.091               Magadan2           877.844
       444   04 Jun 2027 19:27:40.457   04 Jun 2027 19:30:35.349           174.892                Anadyr1          5465.375
       445   04 Jun 2027 19:30:50.725   04 Jun 2027 19:31:16.488            25.763                Anadyr1           805.094
       446   04 Jun 2027 19:31:18.023   04 Jun 2027 19:32:19.104            61.081               Magadan1          1908.781
       447   04 Jun 2027 19:32:43.744   04 Jun 2027 19:33:37.105            53.361               Magadan2          1667.531
       448   04 Jun 2027 19:34:59.186   04 Jun 2027 19:35:42.085            42.899               Magadan1          1340.594
       449   04 Jun 2027 19:36:58.262   04 Jun 2027 19:37:24.645            26.383               Magadan1           824.469
       450   04 Jun 2027 20:24:14.368   04 Jun 2027 20:26:30.529           136.161            RioGallegos          4255.031
       451   04 Jun 2027 21:03:30.295   04 Jun 2027 21:04:49.411            79.116                Anadyr1          2472.375
       452   04 Jun 2027 21:04:58.987   04 Jun 2027 21:05:10.725            11.738                Anadyr1           366.813
       453   04 Jun 2027 21:05:19.688   04 Jun 2027 21:05:41.169            21.481                Anadyr1           671.281
       454   04 Jun 2027 21:05:53.710   04 Jun 2027 21:06:31.031            37.321               Magadan1          1166.281
       455   04 Jun 2027 21:06:31.031   04 Jun 2027 21:07:24.120            53.089               Magadan2          1659.031
       456   04 Jun 2027 21:07:25.702   04 Jun 2027 21:09:20.262           114.560                Norilsk          3580.000
       457   04 Jun 2027 21:10:42.749   04 Jun 2027 21:11:25.551            42.802                Irkutsk          1337.563
       458   04 Jun 2027 21:12:43.381   04 Jun 2027 21:14:02.990            79.609                Irkutsk          2487.781
       459   04 Jun 2027 21:14:26.271   04 Jun 2027 21:15:18.094            51.823                Irkutsk          1619.469
       460   04 Jun 2027 21:25:53.860   04 Jun 2027 21:27:04.859            70.999                Sumatra          2218.719
       461   04 Jun 2027 21:31:54.916   04 Jun 2027 21:32:47.099            52.183                Sumatra          1630.719
       462   04 Jun 2027 22:39:22.626   04 Jun 2027 22:39:34.285            11.659                Anadyr1           364.344
       463   04 Jun 2027 22:39:40.304   04 Jun 2027 22:39:58.524            18.220                Anadyr1           569.375
       464   04 Jun 2027 22:41:37.130   04 Jun 2027 22:43:02.264            85.134                Norilsk          2660.437
       465   04 Jun 2027 22:43:24.681   04 Jun 2027 22:43:24.810             0.129                Norilsk             4.031
       466   04 Jun 2027 22:43:38.339   04 Jun 2027 22:44:00.933            22.594               Magadan1           706.062
       467   04 Jun 2027 22:45:20.313   04 Jun 2027 22:46:33.584            73.271                Irkutsk          2289.719
       468   04 Jun 2027 22:46:49.579   04 Jun 2027 22:48:56.806           127.227                Novosib          3975.844
       469   04 Jun 2027 22:56:38.663   04 Jun 2027 22:57:56.186            77.523                  Delhi          2422.594
       470   05 Jun 2027 00:12:59.903   05 Jun 2027 00:13:09.592             9.689                Anadyr1           302.781
       471   05 Jun 2027 00:13:09.592   05 Jun 2027 00:13:12.789             3.197                Anadyr2            99.906
       472   05 Jun 2027 00:14:02.041   05 Jun 2027 00:15:32.167            90.126                Anadyr2          2816.437
       473   05 Jun 2027 00:17:24.632   05 Jun 2027 00:17:42.080            17.448                Norilsk           545.250
       474   05 Jun 2027 00:18:00.199   05 Jun 2027 00:19:40.203           100.004               Magadan2          3125.125
       475   05 Jun 2027 00:20:27.250   05 Jun 2027 00:21:39.070            71.820              Murmansk1          2244.375
       476   05 Jun 2027 00:21:40.218   05 Jun 2027 00:22:43.593            63.375              Murmansk2          1980.469
       477   05 Jun 2027 00:23:23.307   05 Jun 2027 00:24:57.608            94.301              Murmansk2          2946.906
       478   05 Jun 2027 00:32:08.475   05 Jun 2027 00:32:22.132            13.657                  Delhi           426.781
       479   05 Jun 2027 00:35:26.065   05 Jun 2027 00:36:21.076            55.011                  Delhi          1719.094
       480   05 Jun 2027 01:11:29.502   05 Jun 2027 01:11:45.772            16.270            RioGallegos           508.438
       481   05 Jun 2027 01:14:30.154   05 Jun 2027 01:15:04.783            34.629            RioGallegos          1082.156
       482   05 Jun 2027 01:46:17.961   05 Jun 2027 01:46:45.038            27.077                Anadyr1           846.156
