uniorb/output/strategy_1/Drop/Drop_KinoSat_110106.txt

KinoSat_110106
-------------------------
    Access    *     Start Time (UTCG)     *     Stop Time (UTCG)  *   Duration (s)        *       Station  *  Data (Mbytes)
         1   01 Jun 2027 03:59:23.560   01 Jun 2027 03:59:48.571            25.011                Norilsk          3126.375
         2   01 Jun 2027 03:59:52.612   01 Jun 2027 04:00:30.734            38.122                Novosib          4765.250
         3   01 Jun 2027 04:00:48.752   01 Jun 2027 04:01:16.044            27.292                Irkutsk          3411.500
         4   01 Jun 2027 04:01:18.655   01 Jun 2027 04:01:34.439            15.784              Murmansk2          1973.000
         5   01 Jun 2027 04:01:44.472   01 Jun 2027 04:02:29.136            44.664              Murmansk2          5583.000
         6   01 Jun 2027 04:02:40.091   01 Jun 2027 04:03:20.289            40.198                Norilsk          5024.750
         7   01 Jun 2027 04:03:24.154   01 Jun 2027 04:03:56.980            32.826                Norilsk          4103.250
         8   01 Jun 2027 04:05:18.842   01 Jun 2027 04:05:28.537             9.695                Norilsk          1211.875
         9   01 Jun 2027 04:06:57.442   01 Jun 2027 04:07:02.873             5.431                Norilsk           678.875
        10   01 Jun 2027 04:08:23.080   01 Jun 2027 04:08:48.416            25.336                Norilsk          3167.000
        11   01 Jun 2027 04:40:35.600   01 Jun 2027 04:40:59.626            24.026            RioGallegos          3003.250
        12   01 Jun 2027 04:41:42.864   01 Jun 2027 04:41:59.600            16.736            RioGallegos          2092.000
        13   01 Jun 2027 04:48:08.595   01 Jun 2027 04:48:39.386            30.791            RioGallegos          3848.875
        14   01 Jun 2027 05:14:48.907   01 Jun 2027 05:16:23.895            94.988                Sumatra         11873.500
        15   01 Jun 2027 05:21:40.806   01 Jun 2027 05:22:31.367            50.561                  Delhi          6320.125
        16   01 Jun 2027 05:27:10.136   01 Jun 2027 05:29:06.927           116.791                  Delhi         14598.875
        17   01 Jun 2027 05:38:43.675   01 Jun 2027 05:38:59.162            15.487                Norilsk          1935.875
        18   01 Jun 2027 05:39:11.890   01 Jun 2027 05:39:53.221            41.331              Murmansk1          5166.375
        19   01 Jun 2027 05:39:54.926   01 Jun 2027 05:40:04.540             9.614                Norilsk          1201.750
        20   01 Jun 2027 05:44:32.866   01 Jun 2027 05:44:54.895            22.029              Murmansk1          2753.625
        21   01 Jun 2027 07:00:17.182   01 Jun 2027 07:02:50.535           153.353                  Delhi         19169.125
        22   01 Jun 2027 07:05:31.346   01 Jun 2027 07:07:09.651            98.305                  Delhi         12288.125
        23   01 Jun 2027 07:13:43.001   01 Jun 2027 07:14:00.887            17.886              Murmansk1          2235.750
        24   01 Jun 2027 07:14:00.887   01 Jun 2027 07:14:08.278             7.391              Murmansk2           923.875
        25   01 Jun 2027 07:14:21.725   01 Jun 2027 07:14:47.150            25.425                Novosib          3178.125
        26   01 Jun 2027 07:14:49.003   01 Jun 2027 07:15:46.345            57.342                 Moscow          7167.750
        27   01 Jun 2027 07:16:03.513   01 Jun 2027 07:16:39.990            36.477                Norilsk          4559.625
        28   01 Jun 2027 07:16:58.858   01 Jun 2027 07:17:31.857            32.999              Murmansk1          4124.875
        29   01 Jun 2027 08:22:35.754   01 Jun 2027 08:28:33.252           357.498               CapeTown         44687.250
        30   01 Jun 2027 12:22:40.473   01 Jun 2027 12:24:03.906            83.433               Magadan2         10429.125
        31   01 Jun 2027 14:45:09.700   01 Jun 2027 14:46:06.771            57.071            RioGallegos          7133.875
        32   01 Jun 2027 15:30:13.610   01 Jun 2027 15:31:52.806            99.196                Irkutsk         12399.500
        33   01 Jun 2027 15:34:59.409   01 Jun 2027 15:35:16.298            16.889                Irkutsk          2111.125
        34   01 Jun 2027 15:36:38.111   01 Jun 2027 15:39:27.084           168.973                Irkutsk         21121.625
        35   01 Jun 2027 15:46:22.983   01 Jun 2027 15:49:44.354           201.371                Sumatra         25171.375
        36   01 Jun 2027 17:05:42.994   01 Jun 2027 17:06:12.463            29.469                Novosib          3683.625
        37   01 Jun 2027 17:06:24.608   01 Jun 2027 17:08:05.974           101.366                Novosib         12670.750
        38   01 Jun 2027 17:13:30.748   01 Jun 2027 17:15:07.689            96.941                  Delhi         12117.625
        39   01 Jun 2027 17:17:16.954   01 Jun 2027 17:19:52.956           156.002                  Delhi         17666.250
        40   02 Jun 2027 04:19:50.245   02 Jun 2027 04:20:06.013            15.768              Murmansk2          1971.000
        41   02 Jun 2027 04:21:13.735   02 Jun 2027 04:21:32.639            18.904              Murmansk1          2363.000
        42   02 Jun 2027 04:21:47.895   02 Jun 2027 04:22:02.935            15.040              Murmansk1          1880.000
        43   02 Jun 2027 04:53:17.781   02 Jun 2027 04:54:23.469            65.688            RioGallegos          8211.000
        44   02 Jun 2027 04:55:24.780   02 Jun 2027 04:56:18.549            53.769            RioGallegos          6721.125
        45   02 Jun 2027 04:58:08.159   02 Jun 2027 04:58:42.276            34.117            RioGallegos          4264.625
        46   02 Jun 2027 05:27:41.788   02 Jun 2027 05:28:39.888            58.100                Sumatra          7262.500
        47   02 Jun 2027 05:33:38.808   02 Jun 2027 05:36:00.246           141.438                  Delhi         17679.750
        48   02 Jun 2027 05:41:20.783   02 Jun 2027 05:43:15.537           114.754                  Delhi         14344.250
        49   02 Jun 2027 05:50:51.173   02 Jun 2027 05:51:13.964            22.791                Novosib          2848.875
        50   02 Jun 2027 07:13:42.527   02 Jun 2027 07:14:39.516            56.989                  Delhi          7123.625
        51   02 Jun 2027 07:16:45.466   02 Jun 2027 07:17:39.576            54.110                  Delhi          6763.750
        52   02 Jun 2027 07:23:26.989   02 Jun 2027 07:25:07.516           100.527              Murmansk1         12565.875
        53   02 Jun 2027 07:25:23.329   02 Jun 2027 07:26:19.041            55.712                Norilsk          6964.000
        54   02 Jun 2027 07:26:21.807   02 Jun 2027 07:27:41.806            79.999                 Moscow          9999.875
        55   02 Jun 2027 07:28:12.380   02 Jun 2027 07:28:46.069            33.689              Murmansk1          4211.125
        56   02 Jun 2027 07:29:15.041   02 Jun 2027 07:29:26.780            11.739                 Moscow          1467.375
        57   02 Jun 2027 08:33:38.880   02 Jun 2027 08:35:14.408            95.528               CapeTown         11941.000
        58   02 Jun 2027 08:41:43.314   02 Jun 2027 08:41:46.291             2.977               CapeTown           372.125
        59   02 Jun 2027 12:26:28.843   02 Jun 2027 12:27:41.559            72.716               Magadan1          9089.500
        60   02 Jun 2027 12:28:32.440   02 Jun 2027 12:31:31.830           179.390               Magadan1         22423.750
        61   02 Jun 2027 12:34:40.243   02 Jun 2027 12:37:00.016           139.773               Magadan2         17471.625
        62   02 Jun 2027 14:58:14.937   02 Jun 2027 14:59:39.982            85.045            RioGallegos         10630.625
        63   02 Jun 2027 15:41:51.669   02 Jun 2027 15:43:44.038           112.369                Irkutsk         14046.125
        64   02 Jun 2027 15:50:05.915   02 Jun 2027 15:51:23.164            77.249                Irkutsk          9656.125
        65   02 Jun 2027 15:55:32.773   02 Jun 2027 16:00:21.371           288.598                Sumatra         36074.750
        66   02 Jun 2027 17:25:16.158   02 Jun 2027 17:31:11.391           355.233                  Delhi         44404.125
        67   02 Jun 2027 20:31:09.606   02 Jun 2027 20:32:03.027            53.421                 Moscow          6677.625
        68   02 Jun 2027 20:34:04.662   02 Jun 2027 20:36:07.773           123.111                 Moscow         15388.875
        69   02 Jun 2027 22:32:13.277   02 Jun 2027 22:34:04.303           111.026               CapeTown         13878.250
        70   03 Jun 2027 04:01:30.327   03 Jun 2027 04:05:20.032           229.705                Sumatra         28713.125
        71   03 Jun 2027 05:45:42.147   03 Jun 2027 05:46:34.975            52.828                  Delhi          6603.500
        72   03 Jun 2027 05:50:29.661   03 Jun 2027 05:50:37.610             7.949                  Delhi           993.625
        73   03 Jun 2027 05:53:30.609   03 Jun 2027 05:54:48.855            78.246                  Delhi          9780.750
        74   03 Jun 2027 06:03:26.484   03 Jun 2027 06:03:53.752            27.268                Novosib          3408.500
        75   03 Jun 2027 07:35:14.796   03 Jun 2027 07:36:00.288            45.492                 Moscow          5686.500
        76   03 Jun 2027 07:36:27.268   03 Jun 2027 07:36:59.012            31.744              Murmansk1          3968.000
        77   03 Jun 2027 07:37:03.604   03 Jun 2027 07:38:25.167            81.563                 Moscow         10195.375
        78   03 Jun 2027 07:39:02.480   03 Jun 2027 07:41:10.306           127.826              Murmansk2         15978.250
        79   03 Jun 2027 07:42:44.047   03 Jun 2027 07:42:58.448            14.401                 Moscow          1800.125
        80   03 Jun 2027 08:45:01.904   03 Jun 2027 08:49:17.611           255.707               CapeTown         31963.375
        81   03 Jun 2027 08:51:59.532   03 Jun 2027 08:54:14.822           135.290               CapeTown         16911.250
        82   03 Jun 2027 12:38:26.616   03 Jun 2027 12:39:09.290            42.674               Magadan2          5334.250
        83   03 Jun 2027 12:43:30.180   03 Jun 2027 12:44:27.680            57.500               Magadan2          7187.500
        84   03 Jun 2027 15:06:05.194   03 Jun 2027 15:09:06.385           181.191            RioGallegos         22648.875
        85   03 Jun 2027 15:11:05.239   03 Jun 2027 15:11:26.894            21.655            RioGallegos          2706.875
        86   03 Jun 2027 15:15:35.089   03 Jun 2027 15:17:45.036           129.947            RioGallegos         16243.375
        87   03 Jun 2027 15:53:48.039   03 Jun 2027 15:55:11.454            83.415                Irkutsk         10426.875
        88   03 Jun 2027 16:03:07.274   03 Jun 2027 16:03:20.612            13.338                Irkutsk          1667.250
        89   03 Jun 2027 16:07:29.289   03 Jun 2027 16:10:37.548           188.259                Sumatra         23532.375
        90   03 Jun 2027 17:32:36.413   03 Jun 2027 17:34:35.966           119.553                Novosib         14944.125
        91   03 Jun 2027 17:37:06.234   03 Jun 2027 17:39:51.572           165.338                  Delhi         20667.250
        92   03 Jun 2027 19:13:43.206   03 Jun 2027 19:14:35.987            52.781                  Delhi          6597.625
        93   03 Jun 2027 20:39:52.756   03 Jun 2027 20:40:23.963            31.207              Murmansk2          3900.875
        94   03 Jun 2027 20:43:08.648   03 Jun 2027 20:43:49.699            41.051                 Moscow          5131.375
        95   03 Jun 2027 20:46:15.411   03 Jun 2027 20:48:03.328           107.917                 Moscow         13489.625
        96   03 Jun 2027 22:50:51.399   03 Jun 2027 22:52:29.929            98.530               CapeTown         12316.250
        97   04 Jun 2027 04:13:29.636   04 Jun 2027 04:16:04.385           154.749                Sumatra         19343.625
        98   04 Jun 2027 04:30:21.533   04 Jun 2027 04:31:24.449            62.916                Irkutsk          7864.500
        99   04 Jun 2027 04:36:53.616   04 Jun 2027 04:37:21.260            27.644                 Moscow          3455.500
       100   04 Jun 2027 04:37:25.997   04 Jun 2027 04:38:08.716            42.719              Murmansk1          5339.875
       101   04 Jun 2027 04:38:17.940   04 Jun 2027 04:39:11.505            53.565                Irkutsk          6695.625
       102   04 Jun 2027 04:39:37.102   04 Jun 2027 04:40:02.809            25.707              Murmansk2          3213.375
       103   04 Jun 2027 05:19:19.453   04 Jun 2027 05:19:30.428            10.975            RioGallegos          1371.875
       104   04 Jun 2027 05:57:51.039   04 Jun 2027 06:00:13.145           142.106                  Delhi         17763.250
       105   04 Jun 2027 06:00:46.746   04 Jun 2027 06:02:29.735           102.989                  Delhi         12873.625
       106   04 Jun 2027 06:14:07.342   04 Jun 2027 06:15:17.746            70.404                Norilsk          8800.500
       107   04 Jun 2027 06:15:20.700   04 Jun 2027 06:15:39.397            18.697                Novosib          2337.125
       108   04 Jun 2027 07:47:20.564   04 Jun 2027 07:48:28.076            67.512              Murmansk2          8439.000
       109   04 Jun 2027 07:48:49.614   04 Jun 2027 07:50:17.782            88.168              Murmansk2         11021.000
       110   04 Jun 2027 07:50:29.439   04 Jun 2027 07:51:10.243            40.804                Norilsk          5100.500
       111   04 Jun 2027 07:51:29.094   04 Jun 2027 07:52:12.695            43.601              Murmansk2          5450.125
       112   04 Jun 2027 07:52:37.370   04 Jun 2027 07:53:39.757            62.387                 Moscow          7798.375
       113   04 Jun 2027 08:56:35.678   04 Jun 2027 09:03:32.365           416.687               CapeTown         52085.875
       114   04 Jun 2027 11:12:09.467   04 Jun 2027 11:12:24.412            14.945                Anadyr2          1868.125
       115   04 Jun 2027 12:50:25.213   04 Jun 2027 12:55:20.976           295.763               Magadan1         36970.375
       116   04 Jun 2027 12:56:55.091   04 Jun 2027 13:00:14.667           199.576               Magadan2         24947.000
       117   04 Jun 2027 15:17:59.602   04 Jun 2027 15:20:00.884           121.282            RioGallegos         15160.250
       118   04 Jun 2027 16:05:45.744   04 Jun 2027 16:06:49.056            63.312                Irkutsk          7914.000
       119   04 Jun 2027 16:10:46.009   04 Jun 2027 16:12:38.662           112.653                Irkutsk         14081.625
       120   04 Jun 2027 16:19:31.391   04 Jun 2027 16:21:37.263           125.872                Sumatra         15734.000
       121   04 Jun 2027 17:45:05.640   04 Jun 2027 17:46:31.815            86.175                Novosib         10771.875
       122   04 Jun 2027 17:49:00.276   04 Jun 2027 17:51:59.012           178.736                  Delhi         22342.000
       123   04 Jun 2027 17:58:14.828   04 Jun 2027 17:58:32.590            17.762                  Delhi          2220.250
       124   04 Jun 2027 19:26:11.421   04 Jun 2027 19:26:51.092            39.671                  Delhi          4958.875
       125   04 Jun 2027 20:55:08.501   04 Jun 2027 20:55:39.671            31.170                 Moscow          3896.250
       126   04 Jun 2027 20:56:26.502   04 Jun 2027 20:58:22.940           116.438                 Moscow         14554.750
       127   04 Jun 2027 21:22:02.819   04 Jun 2027 21:22:14.218            11.399               CapeTown          1424.875
       128   04 Jun 2027 21:24:21.233   04 Jun 2027 21:25:25.820            64.587               CapeTown          8073.375
       129   05 Jun 2027 02:52:43.078   05 Jun 2027 02:53:34.730            51.652                Sumatra          6456.500
       130   05 Jun 2027 03:12:56.692   05 Jun 2027 03:13:21.569            24.877               Magadan2          3109.625
       131   05 Jun 2027 03:13:21.569   05 Jun 2027 03:13:41.310            19.741               Magadan1          2467.625
       132   05 Jun 2027 03:14:47.013   05 Jun 2027 03:15:37.448            50.435                Irkutsk          6304.375
       133   05 Jun 2027 03:15:40.809   05 Jun 2027 03:16:09.770            28.961                Norilsk          3620.125
       134   05 Jun 2027 03:51:06.288   05 Jun 2027 03:53:10.878           124.590            RioGallegos         15573.750
       135   05 Jun 2027 03:53:44.102   05 Jun 2027 03:53:50.613             6.511            RioGallegos           813.875
       136   05 Jun 2027 03:54:38.024   05 Jun 2027 03:55:22.255            44.231            RioGallegos          5528.875
       137   05 Jun 2027 04:25:34.568   05 Jun 2027 04:27:14.553            99.985                Sumatra         12498.125
       138   05 Jun 2027 04:28:35.358   05 Jun 2027 04:30:26.064           110.706                Sumatra         13838.250
       139   05 Jun 2027 04:48:15.590   05 Jun 2027 04:48:26.048            10.458                Novosib          1307.250
       140   05 Jun 2027 04:48:37.442   05 Jun 2027 04:49:59.126            81.684                Irkutsk         10210.500
       141   05 Jun 2027 04:50:26.393   05 Jun 2027 04:50:32.017             5.624              Murmansk1           703.000
       142   05 Jun 2027 04:50:39.653   05 Jun 2027 04:51:03.302            23.649                Novosib          2956.125
       143   05 Jun 2027 04:51:04.242   05 Jun 2027 04:52:10.298            66.056                Novosib          8257.000
       144   05 Jun 2027 04:53:18.898   05 Jun 2027 04:53:29.187            10.289                Novosib          1286.125
       145   05 Jun 2027 06:10:05.933   05 Jun 2027 06:12:30.566           144.633                  Delhi         18079.125
       146   05 Jun 2027 06:14:27.173   05 Jun 2027 06:16:25.778           118.605                  Delhi         14825.625
       147   05 Jun 2027 06:25:32.117   05 Jun 2027 06:25:52.498            20.381                Norilsk          2547.625
       148   05 Jun 2027 06:25:58.717   05 Jun 2027 06:26:41.506            42.789                 Moscow          5348.625
       149   05 Jun 2027 06:26:44.370   05 Jun 2027 06:27:05.244            20.874                Novosib          2609.250
       150   05 Jun 2027 06:27:14.331   05 Jun 2027 06:27:46.121            31.790              Murmansk2          3973.750
       151   05 Jun 2027 06:27:56.106   05 Jun 2027 06:28:09.478            13.372              Murmansk1          1671.500
       152   05 Jun 2027 06:28:43.993   05 Jun 2027 06:28:50.551             6.558                Novosib           819.750
       153   05 Jun 2027 08:00:11.790   05 Jun 2027 08:01:28.253            76.463                 Moscow          9557.875
       154   05 Jun 2027 08:01:36.973   05 Jun 2027 08:02:08.351            31.378                 Moscow          3922.250
       155   05 Jun 2027 08:02:17.378   05 Jun 2027 08:02:20.668             3.290              Murmansk2           411.250
       156   05 Jun 2027 08:02:34.178   05 Jun 2027 08:03:34.119            59.941                Norilsk          7492.625
       157   05 Jun 2027 09:08:16.587   05 Jun 2027 09:14:32.175           375.588               CapeTown         46948.500
       158   05 Jun 2027 11:24:10.243   05 Jun 2027 11:24:21.395            11.152                Anadyr1          1394.000
       159   05 Jun 2027 11:25:14.188   05 Jun 2027 11:25:48.181            33.993                Anadyr2          4249.125
       160   05 Jun 2027 11:27:13.187   05 Jun 2027 11:28:40.279            87.092                Anadyr1         10886.500
       161   05 Jun 2027 11:32:32.282   05 Jun 2027 11:32:40.213             7.931               Magadan1           991.375
       162   05 Jun 2027 13:02:24.508   05 Jun 2027 13:09:18.549           414.041               Magadan1         51755.125
       163   05 Jun 2027 14:58:17.504   05 Jun 2027 15:00:07.557           110.053                Sumatra         13756.625
       164   05 Jun 2027 15:39:28.123   05 Jun 2027 15:40:39.436            71.313            RioGallegos          8914.125
       165   05 Jun 2027 16:31:39.217   05 Jun 2027 16:32:55.304            76.087                Sumatra          9510.875
       166   05 Jun 2027 16:33:19.289   05 Jun 2027 16:34:10.849            51.560                  Delhi          6445.000
       167   05 Jun 2027 16:39:21.314   05 Jun 2027 16:40:54.700            93.386                Sumatra         11673.250
       168   05 Jun 2027 17:53:37.814   05 Jun 2027 17:54:07.151            29.337                Novosib          3667.125
       169   05 Jun 2027 17:56:53.362   05 Jun 2027 17:58:06.655            73.293                Novosib          9161.625
       170   05 Jun 2027 18:00:57.881   05 Jun 2027 18:03:01.315           123.434                  Delhi         15429.250
       171   05 Jun 2027 18:08:19.394   05 Jun 2027 18:10:32.867           133.473                  Delhi         16684.125
       172   05 Jun 2027 21:07:09.068   05 Jun 2027 21:07:32.101            23.033                 Moscow          2879.125
       173   05 Jun 2027 21:18:52.152   05 Jun 2027 21:20:03.362            71.210                 Moscow          8901.250
       174   05 Jun 2027 21:36:04.888   05 Jun 2027 21:36:05.884             0.996               CapeTown           124.500
       175   05 Jun 2027 21:38:50.966   05 Jun 2027 21:40:21.301            90.335               CapeTown         11291.875
       176   06 Jun 2027 03:03:46.400   06 Jun 2027 03:06:51.331           184.931                Sumatra         23116.375
       177   06 Jun 2027 03:12:12.410   06 Jun 2027 03:12:30.227            17.817                Sumatra          2227.125
       178   06 Jun 2027 03:27:03.286   06 Jun 2027 03:27:40.383            37.097              Murmansk1          4637.125
       179   06 Jun 2027 03:27:46.734   06 Jun 2027 03:29:48.439           121.705                Norilsk         15213.125
       180   06 Jun 2027 04:05:27.473   06 Jun 2027 04:05:40.072            12.599            RioGallegos          1574.875
       181   06 Jun 2027 04:37:45.414   06 Jun 2027 04:39:36.875           111.461                Sumatra         13932.625
       182   06 Jun 2027 04:40:26.035   06 Jun 2027 04:41:21.856            55.821                Sumatra          6977.625
       183   06 Jun 2027 04:45:24.736   06 Jun 2027 04:46:02.833            38.097                Sumatra          4762.125
       184   06 Jun 2027 05:00:29.883   06 Jun 2027 05:01:22.135            52.252                Novosib          6531.500
       185   06 Jun 2027 05:01:36.058   06 Jun 2027 05:02:42.552            66.494                Irkutsk          8311.750
       186   06 Jun 2027 05:03:06.755   06 Jun 2027 05:03:35.336            28.581              Murmansk2          3572.625
       187   06 Jun 2027 05:04:15.524   06 Jun 2027 05:05:01.417            45.893                Novosib          5736.625
       188   06 Jun 2027 06:22:27.618   06 Jun 2027 06:24:26.845           119.227                  Delhi         14903.375
       189   06 Jun 2027 06:24:43.354   06 Jun 2027 06:26:29.921           106.567                  Delhi         13320.875
       190   06 Jun 2027 06:37:30.597   06 Jun 2027 06:37:56.561            25.964                Norilsk          3245.500
       191   06 Jun 2027 06:38:01.750   06 Jun 2027 06:38:30.115            28.365                Norilsk          3545.625
       192   06 Jun 2027 06:38:31.719   06 Jun 2027 06:38:49.314            17.595                Novosib          2199.375
       193   06 Jun 2027 06:39:00.872   06 Jun 2027 06:40:02.731            61.859                Norilsk          7732.375
       194   06 Jun 2027 08:14:07.216   06 Jun 2027 08:16:24.906           137.690                 Moscow         17211.250
       195   06 Jun 2027 08:28:40.855   06 Jun 2027 08:28:56.128            15.273                Anadyr1          1909.125
       196   06 Jun 2027 09:20:02.784   06 Jun 2027 09:25:53.677           350.893               CapeTown         43861.625
       197   06 Jun 2027 11:36:11.238   06 Jun 2027 11:36:19.319             8.081                Anadyr2          1010.125
       198   06 Jun 2027 11:37:40.926   06 Jun 2027 11:39:21.997           101.071                Anadyr1         12633.875
       199   06 Jun 2027 13:14:24.390   06 Jun 2027 13:14:50.071            25.681               Magadan1          3210.125
       200   06 Jun 2027 13:15:23.711   06 Jun 2027 13:18:27.886           184.175               Magadan1         23021.875
       201   06 Jun 2027 13:19:58.785   06 Jun 2027 13:21:38.426            99.641               Magadan2         12455.125
       202   06 Jun 2027 15:09:07.085   06 Jun 2027 15:14:01.853           294.768                Sumatra         36846.000
       203   06 Jun 2027 15:16:58.751   06 Jun 2027 15:18:01.364            62.613                Sumatra          7826.625
       204   06 Jun 2027 16:35:48.196   06 Jun 2027 16:36:02.291            14.095                Novosib          1761.875
       205   06 Jun 2027 16:44:21.958   06 Jun 2027 16:47:24.633           182.675                  Delhi         22834.375
       206   06 Jun 2027 18:05:38.515   06 Jun 2027 18:06:00.014            21.499                Novosib          2687.375
       207   06 Jun 2027 18:07:31.782   06 Jun 2027 18:08:32.142            60.360                Novosib          7545.000
       208   06 Jun 2027 18:12:58.816   06 Jun 2027 18:14:23.323            84.507                  Delhi         10563.375
       209   06 Jun 2027 18:16:10.339   06 Jun 2027 18:17:55.487           105.148                  Delhi         13143.500
       210   06 Jun 2027 19:47:26.855   06 Jun 2027 19:49:01.429            94.574                 Moscow         11821.750
       211   06 Jun 2027 21:22:28.935   06 Jun 2027 21:23:57.108            88.173                 Moscow         11021.625
       212   06 Jun 2027 21:45:33.872   06 Jun 2027 21:46:13.951            40.079               CapeTown          5009.875
       213   06 Jun 2027 21:47:55.723   06 Jun 2027 21:49:10.223            74.500               CapeTown          9312.500
       214   06 Jun 2027 21:50:58.036   06 Jun 2027 21:51:16.136            18.100               CapeTown          2262.500
       215   07 Jun 2027 03:14:49.176   07 Jun 2027 03:22:39.114           469.938                Sumatra         58742.250
       216   07 Jun 2027 04:18:25.714   07 Jun 2027 04:19:16.114            50.400            RioGallegos          6300.000
       217   07 Jun 2027 04:50:02.915   07 Jun 2027 04:50:13.163            10.248                Sumatra          1281.000
       218   07 Jun 2027 04:52:05.695   07 Jun 2027 04:54:17.809           132.114                Sumatra         16514.250
       219   07 Jun 2027 05:13:54.553   07 Jun 2027 05:14:25.717            31.164              Murmansk2          3895.500
       220   07 Jun 2027 05:14:28.563   07 Jun 2027 05:15:21.908            53.345              Murmansk2          6668.125
       221   07 Jun 2027 05:16:05.269   07 Jun 2027 05:16:17.060            11.791                Norilsk          1473.875
       222   07 Jun 2027 06:34:57.415   07 Jun 2027 06:37:41.647           164.232                  Delhi         20529.000
       223   07 Jun 2027 06:41:17.718   07 Jun 2027 06:41:35.681            17.963                  Delhi          2245.375
       224   07 Jun 2027 06:49:23.895   07 Jun 2027 06:49:24.606             0.711                 Moscow            88.875
       225   07 Jun 2027 06:49:30.368   07 Jun 2027 06:49:45.610            15.242                Norilsk          1905.250
       226   07 Jun 2027 06:49:50.635   07 Jun 2027 06:50:19.326            28.691                Norilsk          3586.375
       227   07 Jun 2027 06:50:26.860   07 Jun 2027 06:50:48.598            21.738              Murmansk2          2717.250
       228   07 Jun 2027 06:50:50.910   07 Jun 2027 06:51:13.734            22.824                 Moscow          2853.000
       229   07 Jun 2027 06:51:26.940   07 Jun 2027 06:51:59.317            32.377                Norilsk          4047.125
       230   07 Jun 2027 06:52:18.293   07 Jun 2027 06:52:36.973            18.680                 Moscow          2335.000
       231   07 Jun 2027 09:31:53.179   07 Jun 2027 09:34:33.354           160.175               CapeTown         20021.875
       232   07 Jun 2027 10:12:26.349   07 Jun 2027 10:12:29.030             2.681                Anadyr1           335.125
       233   07 Jun 2027 11:18:05.583   07 Jun 2027 11:18:52.561            46.978               CapeTown          5872.250
       234   07 Jun 2027 11:48:12.399   07 Jun 2027 11:48:17.997             5.598                Anadyr2           699.750
       235   07 Jun 2027 11:49:49.179   07 Jun 2027 11:51:28.662            99.483                Anadyr1         12435.375
       236   07 Jun 2027 11:53:30.286   07 Jun 2027 11:53:40.739            10.453               Magadan2          1306.625
       237   07 Jun 2027 11:57:15.627   07 Jun 2027 11:57:54.550            38.923               Magadan1          4865.375
       238   07 Jun 2027 12:00:25.753   07 Jun 2027 12:01:26.499            60.746               Magadan2          7593.250
       239   07 Jun 2027 13:26:24.775   07 Jun 2027 13:26:44.243            19.468               Magadan1          2433.500
       240   07 Jun 2027 13:27:54.428   07 Jun 2027 13:29:39.283           104.855               Magadan2         13106.875
       241   07 Jun 2027 13:33:50.700   07 Jun 2027 13:35:59.889           129.189               Magadan2         16148.625
       242   07 Jun 2027 15:09:24.802   07 Jun 2027 15:10:48.908            84.106                Irkutsk         10513.250
       243   07 Jun 2027 15:21:55.752   07 Jun 2027 15:27:50.150           354.398                Sumatra         44299.750
       244   07 Jun 2027 16:45:22.564   07 Jun 2027 16:46:30.428            67.864                Novosib          8483.000
       245   07 Jun 2027 16:50:33.635   07 Jun 2027 16:52:32.142           118.507                  Delhi         14813.375
       246   07 Jun 2027 16:54:10.083   07 Jun 2027 16:59:45.074           334.991                  Delhi         41873.875
       247   07 Jun 2027 20:00:36.303   07 Jun 2027 20:02:39.428           123.125                 Moscow         15390.625
       248   07 Jun 2027 21:55:18.353   07 Jun 2027 21:57:50.666           152.313               CapeTown         19039.125
       249   08 Jun 2027 03:26:22.422   08 Jun 2027 03:28:09.497           107.075                Sumatra         13384.375
       250   08 Jun 2027 03:30:28.823   08 Jun 2027 03:33:13.364           164.541                Sumatra         20567.625
       251   08 Jun 2027 03:51:55.738   08 Jun 2027 03:52:02.492             6.754                Irkutsk           844.250
       252   08 Jun 2027 04:29:57.202   08 Jun 2027 04:31:38.556           101.354            RioGallegos         12669.250
       253   08 Jun 2027 05:02:28.469   08 Jun 2027 05:03:47.590            79.121                Sumatra          9890.125
       254   08 Jun 2027 05:08:05.725   08 Jun 2027 05:08:07.468             1.743                Sumatra           217.875
       255   08 Jun 2027 05:09:24.334   08 Jun 2027 05:11:20.010           115.676                Sumatra         14459.500
       256   08 Jun 2027 05:25:19.991   08 Jun 2027 05:26:46.496            86.505                Irkutsk         10813.125
       257   08 Jun 2027 05:27:54.368   08 Jun 2027 05:28:04.660            10.292                Norilsk          1286.500
       258   08 Jun 2027 05:31:31.178   08 Jun 2027 05:31:47.460            16.282                Norilsk          2035.250
       259   08 Jun 2027 06:47:37.728   08 Jun 2027 06:50:52.401           194.673                  Delhi         24334.125
       260   08 Jun 2027 07:01:35.182   08 Jun 2027 07:02:10.894            35.712                Novosib          4464.000
       261   08 Jun 2027 07:02:35.785   08 Jun 2027 07:02:47.423            11.638              Murmansk2          1454.750
       262   08 Jun 2027 07:02:49.125   08 Jun 2027 07:03:00.922            11.797                 Moscow          1474.625
       263   08 Jun 2027 07:03:06.011   08 Jun 2027 07:04:07.128            61.117                Novosib          7639.625
       264   08 Jun 2027 08:13:11.555   08 Jun 2027 08:14:09.180            57.625               CapeTown          7203.125
       265   08 Jun 2027 09:43:47.104   08 Jun 2027 09:46:34.612           167.508               CapeTown         20938.500
       266   08 Jun 2027 10:30:32.604   08 Jun 2027 10:31:23.921            51.317                Anadyr1          6414.625
       267   08 Jun 2027 12:00:13.673   08 Jun 2027 12:00:17.280             3.607                Anadyr1           450.875
       268   08 Jun 2027 12:01:09.980   08 Jun 2027 12:02:25.280            75.300                Anadyr1          9412.500
       269   08 Jun 2027 12:02:51.384   08 Jun 2027 12:03:57.949            66.565               Magadan2          8320.625
       270   08 Jun 2027 12:11:54.315   08 Jun 2027 12:12:22.246            27.931               Magadan1          3491.375
       271   08 Jun 2027 13:38:25.584   08 Jun 2027 13:38:39.913            14.329               Magadan2          1791.125
       272   08 Jun 2027 13:40:20.831   08 Jun 2027 13:40:21.508             0.677               Magadan1            84.625
       273   08 Jun 2027 13:41:44.204   08 Jun 2027 13:43:56.951           132.747               Magadan1         16593.375
       274   08 Jun 2027 13:46:08.487   08 Jun 2027 13:46:59.295            50.808               Magadan2          6351.000
       275   08 Jun 2027 13:48:00.998   08 Jun 2027 13:48:11.859            10.861               Magadan2          1357.625
       276   08 Jun 2027 15:19:28.433   08 Jun 2027 15:23:48.303           259.870                Irkutsk         32483.750
       277   08 Jun 2027 15:34:20.996   08 Jun 2027 15:38:43.785           262.789                Sumatra         32848.625
       278   08 Jun 2027 16:59:13.885   08 Jun 2027 17:01:25.827           131.942                Novosib         16492.750
       279   08 Jun 2027 17:03:00.901   08 Jun 2027 17:09:11.834           370.933                  Delhi         46366.625
       280   08 Jun 2027 20:08:56.843   08 Jun 2027 20:09:00.881             4.038                 Moscow           504.750
       281   08 Jun 2027 20:09:48.122   08 Jun 2027 20:12:36.566           168.444                 Moscow         21055.500
       282   08 Jun 2027 21:51:15.406   08 Jun 2027 21:52:51.114            95.708                 Moscow         11963.500
       283   08 Jun 2027 22:10:03.387   08 Jun 2027 22:11:50.318           106.931               CapeTown         13366.375
       284   09 Jun 2027 03:38:03.602   09 Jun 2027 03:40:30.513           146.911                Sumatra         18363.875
       285   09 Jun 2027 03:43:39.042   09 Jun 2027 03:44:19.237            40.195                Sumatra          5024.375
       286   09 Jun 2027 04:03:34.782   09 Jun 2027 04:03:40.069             5.287                Norilsk           660.875
       287   09 Jun 2027 04:04:11.820   09 Jun 2027 04:04:31.722            19.902                Norilsk          2487.750
       288   09 Jun 2027 04:05:48.825   09 Jun 2027 04:05:56.881             8.056                Norilsk          1007.000
       289   09 Jun 2027 04:40:51.369   09 Jun 2027 04:41:57.573            66.204            RioGallegos          8275.500
       290   09 Jun 2027 04:42:14.287   09 Jun 2027 04:42:26.121            11.834            RioGallegos          1479.250
       291   09 Jun 2027 04:43:01.696   09 Jun 2027 04:43:41.501            39.805            RioGallegos          4975.625
       292   09 Jun 2027 04:49:55.559   09 Jun 2027 04:50:37.355            41.796            RioGallegos          5224.500
       293   09 Jun 2027 05:15:04.802   09 Jun 2027 05:16:38.744            93.942                Sumatra         11742.750
       294   09 Jun 2027 05:26:10.138   09 Jun 2027 05:27:24.583            74.445                  Delhi          9305.625
       295   09 Jun 2027 05:32:59.817   09 Jun 2027 05:33:58.207            58.390                  Delhi          7298.750
       296   09 Jun 2027 05:38:48.561   09 Jun 2027 05:39:18.227            29.666                Novosib          3708.250
       297   09 Jun 2027 05:44:19.630   09 Jun 2027 05:44:58.541            38.911                Norilsk          4863.875
       298   09 Jun 2027 07:00:33.547   09 Jun 2027 07:03:04.999           151.452                  Delhi         18931.500
       299   09 Jun 2027 07:13:31.449   09 Jun 2027 07:13:57.570            26.121              Murmansk2          3265.125
       300   09 Jun 2027 07:14:17.111   09 Jun 2027 07:15:17.796            60.685                Novosib          7585.625
       301   09 Jun 2027 07:15:31.640   09 Jun 2027 07:15:57.167            25.527              Murmansk2          3190.875
       302   09 Jun 2027 07:16:01.207   09 Jun 2027 07:16:07.677             6.470                 Moscow           808.750
       303   09 Jun 2027 07:16:18.033   09 Jun 2027 07:17:20.027            61.994                Norilsk          7749.250
       304   09 Jun 2027 07:18:47.799   09 Jun 2027 07:18:56.347             8.548                 Moscow          1068.500
       305   09 Jun 2027 09:05:50.879   09 Jun 2027 09:07:54.592           123.713                Anadyr1         15464.125
       306   09 Jun 2027 09:55:44.128   09 Jun 2027 09:57:41.423           117.295               CapeTown         14661.875
       307   09 Jun 2027 10:38:29.890   09 Jun 2027 10:39:33.472            63.582                Anadyr2          7947.750
       308   09 Jun 2027 10:42:02.780   09 Jun 2027 10:44:03.151           120.371                Anadyr1         15046.375
       309   09 Jun 2027 12:12:15.035   09 Jun 2027 12:12:17.061             2.026                Anadyr1           253.250
       310   09 Jun 2027 12:14:46.960   09 Jun 2027 12:16:24.981            98.021               Magadan2         12252.625
       311   09 Jun 2027 12:19:34.291   09 Jun 2027 12:20:47.458            73.167               Magadan2          9145.875
       312   09 Jun 2027 12:22:47.993   09 Jun 2027 12:23:38.139            50.146               Magadan1          6268.250
       313   09 Jun 2027 13:50:26.761   09 Jun 2027 13:52:43.383           136.622               Magadan2         17077.750
       314   09 Jun 2027 14:45:25.843   09 Jun 2027 14:46:31.739            65.896            RioGallegos          8237.000
       315   09 Jun 2027 15:30:22.007   09 Jun 2027 15:32:08.295           106.288                Irkutsk         13286.000
       316   09 Jun 2027 15:36:54.468   09 Jun 2027 15:39:41.959           167.491                Irkutsk         20936.375
       317   09 Jun 2027 15:46:38.252   09 Jun 2027 15:49:58.523           200.271                Sumatra         25033.875
       318   09 Jun 2027 17:05:57.893   09 Jun 2027 17:08:21.357           143.464                Novosib         17933.000
       319   09 Jun 2027 17:13:45.360   09 Jun 2027 17:15:23.291            97.931                  Delhi         12241.375
       320   09 Jun 2027 17:17:33.303   09 Jun 2027 17:20:06.910           153.607                  Delhi         19200.875
       321   09 Jun 2027 18:55:11.898   09 Jun 2027 18:55:18.157             6.259                  Delhi           782.375
       322   09 Jun 2027 18:56:58.827   09 Jun 2027 18:58:49.491           110.664                  Delhi         13833.000
       323   09 Jun 2027 20:19:26.410   09 Jun 2027 20:20:35.475            69.065                 Moscow          8633.125
       324   09 Jun 2027 21:55:17.226   09 Jun 2027 21:55:17.648             0.422                 Moscow            52.750
       325   09 Jun 2027 21:56:13.850   09 Jun 2027 21:56:26.423            12.573                 Moscow          1571.625
       326   09 Jun 2027 21:56:43.237   09 Jun 2027 21:56:56.763            13.526              Murmansk2          1690.750
       327   09 Jun 2027 22:19:57.999   09 Jun 2027 22:21:50.082           112.083               CapeTown         14010.375
       328   09 Jun 2027 22:27:02.539   09 Jun 2027 22:28:49.716           107.177               CapeTown         13397.125
       329   10 Jun 2027 03:49:51.442   10 Jun 2027 03:52:44.341           172.899                Sumatra         21612.375
       330   10 Jun 2027 04:17:08.333   10 Jun 2027 04:17:29.674            21.341                Norilsk          2667.625
       331   10 Jun 2027 04:53:33.725   10 Jun 2027 04:54:38.366            64.641            RioGallegos          8080.125
       332   10 Jun 2027 05:27:58.158   10 Jun 2027 05:28:53.712            55.554                Sumatra          6944.250
       333   10 Jun 2027 05:33:53.809   10 Jun 2027 05:36:14.312           140.503                  Delhi         17562.875
       334   10 Jun 2027 05:41:35.803   10 Jun 2027 05:43:30.620           114.817                  Delhi         14352.125
       335   10 Jun 2027 05:51:06.567   10 Jun 2027 05:51:32.635            26.068                Novosib          3258.500
       336   10 Jun 2027 05:51:58.531   10 Jun 2027 05:52:39.017            40.486                Novosib          5060.750
       337   10 Jun 2027 07:13:59.908   10 Jun 2027 07:14:54.056            54.148                  Delhi          6768.500
       338   10 Jun 2027 07:16:59.966   10 Jun 2027 07:17:54.299            54.333                  Delhi          6791.625
       339   10 Jun 2027 07:23:07.057   10 Jun 2027 07:24:05.886            58.829                Novosib          7353.625
       340   10 Jun 2027 07:24:37.529   10 Jun 2027 07:26:20.023           102.494                Novosib         12811.750
       341   10 Jun 2027 07:26:30.424   10 Jun 2027 07:27:56.724            86.300                 Moscow         10787.500
       342   10 Jun 2027 07:28:13.388   10 Jun 2027 07:29:29.449            76.061                 Moscow          9507.625
       343   10 Jun 2027 08:33:52.915   10 Jun 2027 08:35:40.337           107.422               CapeTown         13427.750
       344   10 Jun 2027 08:41:54.877   10 Jun 2027 08:42:02.521             7.644               CapeTown           955.500
       345   10 Jun 2027 10:08:38.793   10 Jun 2027 10:09:06.177            27.384               CapeTown          3423.000
       346   10 Jun 2027 10:48:23.746   10 Jun 2027 10:48:49.044            25.298                Anadyr1          3162.250
       347   10 Jun 2027 10:48:49.044   10 Jun 2027 10:50:26.259            97.215                Anadyr2         12151.875
       348   10 Jun 2027 10:51:06.647   10 Jun 2027 10:53:14.626           127.979                Anadyr1         15997.375
       349   10 Jun 2027 10:57:30.526   10 Jun 2027 10:57:52.507            21.981                Anadyr1          2747.625
       350   10 Jun 2027 12:26:43.758   10 Jun 2027 12:27:55.919            72.161               Magadan1          9020.125
       351   10 Jun 2027 12:28:47.873   10 Jun 2027 12:31:46.520           178.647               Magadan1         22330.875
       352   10 Jun 2027 12:34:55.772   10 Jun 2027 12:37:14.466           138.694               Magadan2         17336.750
       353   10 Jun 2027 14:58:30.736   10 Jun 2027 15:00:00.267            89.531            RioGallegos         11191.375
       354   10 Jun 2027 15:42:06.552   10 Jun 2027 15:43:58.159           111.607                Irkutsk         13950.875
       355   10 Jun 2027 15:55:47.623   10 Jun 2027 16:00:33.838           286.215                Sumatra         35776.875
       356   10 Jun 2027 17:17:55.189   10 Jun 2027 17:19:00.497            65.308                Novosib          8163.500
       357   10 Jun 2027 17:25:30.881   10 Jun 2027 17:31:25.620           354.739                  Delhi         44342.375
       358   10 Jun 2027 19:04:01.653   10 Jun 2027 19:04:52.980            51.327                  Delhi          6415.875
       359   10 Jun 2027 20:31:24.554   10 Jun 2027 20:32:17.508            52.954                 Moscow          6619.250
       360   10 Jun 2027 20:34:19.907   10 Jun 2027 20:36:22.501           122.594                 Moscow         15324.250
       361   10 Jun 2027 22:32:28.995   10 Jun 2027 22:33:33.815            64.820               CapeTown          8102.500
       362   10 Jun 2027 22:34:19.081   10 Jun 2027 22:34:20.116             1.035               CapeTown           129.375
       363   11 Jun 2027 04:01:45.237   11 Jun 2027 04:05:33.342           228.105                Sumatra         28513.125
       364   11 Jun 2027 04:27:50.819   11 Jun 2027 04:28:17.283            26.464              Murmansk2          3308.000
       365   11 Jun 2027 04:29:26.485   11 Jun 2027 04:29:49.174            22.689                Norilsk          2836.125
       366   11 Jun 2027 05:06:26.508   11 Jun 2027 05:07:40.595            74.087            RioGallegos          9260.875
       367   11 Jun 2027 05:41:31.413   11 Jun 2027 05:42:53.156            81.743                Sumatra         10217.875
       368   11 Jun 2027 05:45:57.254   11 Jun 2027 05:47:34.288            97.034                  Delhi         12129.250
       369   11 Jun 2027 05:50:45.662   11 Jun 2027 05:50:52.256             6.594                  Delhi           824.250
       370   11 Jun 2027 05:53:45.566   11 Jun 2027 05:55:02.492            76.926                  Delhi          9615.750
       371   11 Jun 2027 06:03:15.070   11 Jun 2027 06:04:37.643            82.573              Murmansk2         10321.625
       372   11 Jun 2027 07:35:06.006   11 Jun 2027 07:36:18.417            72.411                 Moscow          9051.375
       373   11 Jun 2027 07:37:06.725   11 Jun 2027 07:39:51.470           164.745              Murmansk2         20593.125
       374   11 Jun 2027 07:39:55.021   11 Jun 2027 07:40:19.685            24.664                 Moscow          3083.000
       375   11 Jun 2027 07:40:32.978   11 Jun 2027 07:41:25.107            52.129              Murmansk2          6516.125
       376   11 Jun 2027 07:41:53.447   11 Jun 2027 07:42:48.037            54.590                 Moscow          6823.750
       377   11 Jun 2027 08:45:16.229   11 Jun 2027 08:49:59.282           283.053               CapeTown         35381.625
       378   11 Jun 2027 08:51:55.596   11 Jun 2027 08:54:29.296           153.700               CapeTown         19212.500
       379   11 Jun 2027 12:38:41.553   11 Jun 2027 12:39:36.564            55.011               Magadan1          6876.375
       380   11 Jun 2027 12:41:07.341   11 Jun 2027 12:43:40.330           152.989               Magadan1         19123.625
       381   11 Jun 2027 12:47:46.972   11 Jun 2027 12:49:42.880           115.908               Magadan1         14488.500
       382   11 Jun 2027 15:06:20.034   11 Jun 2027 15:09:19.620           179.586            RioGallegos         22448.250
       383   11 Jun 2027 15:54:02.954   11 Jun 2027 15:55:25.779            82.825                Irkutsk         10353.125
       384   11 Jun 2027 16:03:22.753   11 Jun 2027 16:03:35.550            12.797                Irkutsk          1599.625
       385   11 Jun 2027 16:07:44.259   11 Jun 2027 16:10:51.205           186.946                Sumatra         23368.250
       386   11 Jun 2027 17:31:56.081   11 Jun 2027 17:34:50.701           174.620                Novosib         21827.500
       387   11 Jun 2027 17:37:21.049   11 Jun 2027 17:42:20.153           299.104                  Delhi         37388.000
       388   11 Jun 2027 20:40:07.766   11 Jun 2027 20:40:09.128             1.362              Murmansk1           170.250
       389   11 Jun 2027 20:42:51.737   11 Jun 2027 20:44:08.432            76.695              Murmansk1          9586.875
       390   11 Jun 2027 20:46:30.587   11 Jun 2027 20:48:18.082           107.495                 Moscow         13436.875
       391   12 Jun 2027 03:39:07.095   12 Jun 2027 03:41:47.866           160.771            RioGallegos         20096.375
       392   12 Jun 2027 03:43:26.526   12 Jun 2027 03:43:32.795             6.269            RioGallegos           783.625
       393   12 Jun 2027 04:13:44.665   12 Jun 2027 04:16:18.248           153.583                Sumatra         19197.875
       394   12 Jun 2027 04:30:36.244   12 Jun 2027 04:31:43.746            67.502                Irkutsk          8437.750
       395   12 Jun 2027 04:36:23.932   12 Jun 2027 04:36:47.051            23.119                Novosib          2889.875
       396   12 Jun 2027 04:36:52.102   12 Jun 2027 04:37:43.499            51.397              Murmansk1          6424.625
       397   12 Jun 2027 04:37:58.045   12 Jun 2027 04:39:25.584            87.539                Irkutsk         10942.375
       398   12 Jun 2027 04:39:44.929   12 Jun 2027 04:40:15.716            30.787                Norilsk          3848.375
       399   12 Jun 2027 05:19:36.125   12 Jun 2027 05:19:45.150             9.025            RioGallegos          1128.125
       400   12 Jun 2027 05:58:06.270   12 Jun 2027 06:00:28.139           141.869                  Delhi         17733.625
       401   12 Jun 2027 06:01:01.610   12 Jun 2027 06:02:44.472           102.862                  Delhi         12857.750
       402   12 Jun 2027 06:13:52.127   12 Jun 2027 06:13:56.798             4.671                Novosib           583.875
       403   12 Jun 2027 06:14:32.965   12 Jun 2027 06:14:38.207             5.242              Murmansk2           655.250
       404   12 Jun 2027 06:15:06.768   12 Jun 2027 06:17:18.446           131.678                 Moscow         16459.750
       405   12 Jun 2027 07:48:41.639   12 Jun 2027 07:49:33.436            51.797                 Moscow          6474.625
       406   12 Jun 2027 07:49:47.500   12 Jun 2027 07:50:32.589            45.089              Murmansk1          5636.125
       407   12 Jun 2027 07:50:44.276   12 Jun 2027 07:50:53.325             9.049                Norilsk          1131.125
       408   12 Jun 2027 07:51:10.963   12 Jun 2027 07:52:21.818            70.855              Murmansk2          8856.875
       409   12 Jun 2027 07:52:26.643   12 Jun 2027 07:52:55.698            29.055                 Moscow          3631.875
       410   12 Jun 2027 08:56:50.184   12 Jun 2027 09:03:45.819           415.635               CapeTown         51954.375
       411   12 Jun 2027 11:12:24.456   12 Jun 2027 11:12:39.065            14.609                Anadyr1          1826.125
       412   12 Jun 2027 11:16:13.023   12 Jun 2027 11:17:12.358            59.335                Anadyr2          7416.875
       413   12 Jun 2027 12:50:40.168   12 Jun 2027 12:51:22.689            42.521               Magadan2          5315.125
       414   12 Jun 2027 12:52:28.374   12 Jun 2027 12:57:10.353           281.979               Magadan1         35247.375
       415   12 Jun 2027 15:18:14.483   12 Jun 2027 15:20:14.941           120.458            RioGallegos         15057.250
       416   12 Jun 2027 15:26:22.761   12 Jun 2027 15:27:45.773            83.012            RioGallegos         10376.500
       417   12 Jun 2027 16:06:00.687   12 Jun 2027 16:07:03.490            62.803                Irkutsk          7850.375
       418   12 Jun 2027 16:09:00.203   12 Jun 2027 16:11:00.720           120.517                Irkutsk         15064.625
       419   12 Jun 2027 16:19:46.480   12 Jun 2027 16:21:51.268           124.788                Sumatra         15598.500
       420   12 Jun 2027 17:42:31.165   12 Jun 2027 17:45:01.642           150.477                Novosib         18809.625
       421   12 Jun 2027 17:49:15.171   12 Jun 2027 17:52:12.660           177.489                  Delhi         22186.125
       422   12 Jun 2027 17:58:30.779   12 Jun 2027 17:58:47.549            16.770                  Delhi          2096.250
       423   12 Jun 2027 19:26:27.112   12 Jun 2027 19:27:05.298            38.186                  Delhi          4773.250
       424   12 Jun 2027 20:52:48.848   12 Jun 2027 20:52:56.165             7.317              Murmansk1           914.625
       425   12 Jun 2027 20:55:23.487   12 Jun 2027 20:55:54.252            30.765                 Moscow          3845.625
       426   12 Jun 2027 20:56:41.685   12 Jun 2027 20:58:38.049           116.364                 Moscow         14545.500
       427   12 Jun 2027 21:22:14.298   12 Jun 2027 21:24:35.753           141.455               CapeTown         17681.875
       428   13 Jun 2027 02:52:56.546   13 Jun 2027 02:53:58.168            61.622                Sumatra          7702.750
       429   13 Jun 2027 03:13:14.589   13 Jun 2027 03:13:27.366            12.777               Magadan1          1597.125
       430   13 Jun 2027 03:13:36.273   13 Jun 2027 03:13:57.071            20.798               Magadan1          2599.750
       431   13 Jun 2027 03:14:34.429   13 Jun 2027 03:14:40.698             6.269                Norilsk           783.625
       432   13 Jun 2027 03:14:50.324   13 Jun 2027 03:15:43.794            53.470                Novosib          6683.750
       433   13 Jun 2027 03:15:52.261   13 Jun 2027 03:16:15.613            23.352                Irkutsk          2919.000
       434   13 Jun 2027 03:51:21.614   13 Jun 2027 03:53:03.100           101.486            RioGallegos         12685.750
       435   13 Jun 2027 04:25:49.717   13 Jun 2027 04:27:28.665            98.948                Sumatra         12368.500
       436   13 Jun 2027 04:28:50.208   13 Jun 2027 04:30:40.721           110.513                Sumatra         13814.125
       437   13 Jun 2027 04:48:31.354   13 Jun 2027 04:48:57.731            26.377                Norilsk          3297.125
       438   13 Jun 2027 04:49:16.550   13 Jun 2027 04:50:10.493            53.943                Norilsk          6742.875
       439   13 Jun 2027 04:50:13.534   13 Jun 2027 04:50:25.289            11.755                Irkutsk          1469.375
       440   13 Jun 2027 04:50:27.621   13 Jun 2027 04:50:38.593            10.972              Murmansk1          1371.500
       441   13 Jun 2027 04:50:40.908   13 Jun 2027 04:51:41.963            61.055                Irkutsk          7631.875
       442   13 Jun 2027 05:33:33.598   13 Jun 2027 05:33:49.413            15.815            RioGallegos          1976.875
       443   13 Jun 2027 05:35:32.588   13 Jun 2027 05:35:46.960            14.372            RioGallegos          1796.500
       444   13 Jun 2027 06:10:21.297   13 Jun 2027 06:12:45.485           144.188                  Delhi         18023.500
       445   13 Jun 2027 06:16:40.857   13 Jun 2027 06:17:06.463            25.606                  Delhi          3200.750
       446   13 Jun 2027 06:17:54.637   13 Jun 2027 06:19:59.143           124.506                  Delhi         15563.250
       447   13 Jun 2027 06:25:46.731   13 Jun 2027 06:26:07.621            20.890                Norilsk          2611.250
       448   13 Jun 2027 06:26:15.928   13 Jun 2027 06:26:55.916            39.988                 Moscow          4998.500
       449   13 Jun 2027 06:27:13.539   13 Jun 2027 06:27:19.459             5.920                Novosib           740.000
       450   13 Jun 2027 06:27:24.846   13 Jun 2027 06:29:04.288            99.442                Norilsk         12430.250
       451   13 Jun 2027 08:00:30.009   13 Jun 2027 08:01:09.046            39.037                 Moscow          4879.625
       452   13 Jun 2027 08:01:36.635   13 Jun 2027 08:03:05.541            88.906              Murmansk2         11113.250
       453   13 Jun 2027 08:03:07.337   13 Jun 2027 08:04:00.238            52.901                 Moscow          6612.625
       454   13 Jun 2027 09:08:31.228   13 Jun 2027 09:14:46.196           374.968               CapeTown         46871.000
       455   13 Jun 2027 11:24:25.241   13 Jun 2027 11:24:36.064            10.823                Anadyr2          1352.875
       456   13 Jun 2027 11:25:29.305   13 Jun 2027 11:27:28.381           119.076                Anadyr1         14884.500
       457   13 Jun 2027 11:31:01.219   13 Jun 2027 11:34:20.520           199.301               Magadan2         24912.625
       458   13 Jun 2027 13:02:39.479   13 Jun 2027 13:03:12.405            32.926               Magadan2          4115.750
       459   13 Jun 2027 13:05:36.666   13 Jun 2027 13:09:33.747           237.081               Magadan1         29635.125
       460   13 Jun 2027 14:58:30.066   13 Jun 2027 15:00:32.592           122.526                Sumatra         15315.750
       461   13 Jun 2027 16:22:55.332   13 Jun 2027 16:24:51.606           116.274                Irkutsk         14534.250
       462   13 Jun 2027 16:31:54.433   13 Jun 2027 16:33:09.509            75.076                Sumatra          9384.500
       463   13 Jun 2027 16:33:32.875   13 Jun 2027 16:34:27.791            54.916                  Delhi          6864.500
       464   13 Jun 2027 17:54:21.740   13 Jun 2027 17:55:17.619            55.879                Novosib          6984.875
       465   13 Jun 2027 17:57:08.459   13 Jun 2027 17:58:21.966            73.507                Novosib          9188.375
       466   13 Jun 2027 18:01:12.851   13 Jun 2027 18:03:15.374           122.523                  Delhi         15315.375
       467   13 Jun 2027 18:08:34.602   13 Jun 2027 18:10:47.892           133.290                  Delhi         16661.250
       468   13 Jun 2027 21:07:24.070   13 Jun 2027 21:07:46.714            22.644                 Moscow          2830.500
       469   13 Jun 2027 21:32:45.764   13 Jun 2027 21:33:26.872            41.108               CapeTown          5138.500
       470   13 Jun 2027 21:34:30.460   13 Jun 2027 21:36:20.494           110.034               CapeTown         13754.250
