uniorb/output/strategy_1/Drop/Drop_KinoSat_110804.txt

KinoSat_110804
-------------------------
    Access    *     Start Time (UTCG)     *     Stop Time (UTCG)  *   Duration (s)        *       Station  *  Data (Mbytes)
         1   01 Jun 2027 03:45:56.590   01 Jun 2027 03:47:11.439            74.849               Magadan1          2339.031
         2   01 Jun 2027 03:47:22.828   01 Jun 2027 03:47:58.178            35.350               Magadan1          1104.687
         3   01 Jun 2027 03:47:58.744   01 Jun 2027 03:48:11.890            13.146                Anadyr1           410.812
         4   01 Jun 2027 03:48:20.640   01 Jun 2027 03:49:20.654            60.014                Anadyr1          1875.438
         5   01 Jun 2027 03:49:27.846   01 Jun 2027 03:51:30.541           122.695               Magadan1          3834.219
         6   01 Jun 2027 05:21:09.431   01 Jun 2027 05:24:12.269           182.838                Anadyr2          5713.688
         7   01 Jun 2027 05:24:30.062   01 Jun 2027 05:24:39.625             9.563               Magadan1           298.844
         8   01 Jun 2027 05:24:57.087   01 Jun 2027 05:25:24.651            27.564                Irkutsk           861.375
         9   01 Jun 2027 05:25:32.118   01 Jun 2027 05:26:24.241            52.123                Irkutsk          1628.844
        10   01 Jun 2027 05:26:28.945   01 Jun 2027 05:27:22.158            53.213               Magadan2          1662.906
        11   01 Jun 2027 06:02:59.070   01 Jun 2027 06:04:04.737            65.667            RioGallegos          2052.094
        12   01 Jun 2027 06:04:49.699   01 Jun 2027 06:05:19.814            30.115            RioGallegos           941.094
        13   01 Jun 2027 06:50:48.021   01 Jun 2027 06:51:23.605            35.584                Irkutsk          1112.000
        14   01 Jun 2027 06:57:25.154   01 Jun 2027 06:57:57.071            31.917                Novosib           997.406
        15   01 Jun 2027 06:58:21.032   01 Jun 2027 07:03:09.745           288.713                Irkutsk          9022.281
        16   01 Jun 2027 08:12:49.645   01 Jun 2027 08:13:56.472            66.827                Sumatra          2088.344
        17   01 Jun 2027 08:15:22.080   01 Jun 2027 08:16:16.833            54.753                Sumatra          1711.031
        18   01 Jun 2027 08:23:55.289   01 Jun 2027 08:24:20.479            25.190                  Delhi           787.187
        19   01 Jun 2027 08:25:03.624   01 Jun 2027 08:26:10.708            67.084                  Delhi          2096.375
        20   01 Jun 2027 08:34:25.272   01 Jun 2027 08:35:03.357            38.085                Irkutsk          1190.156
        21   01 Jun 2027 08:35:16.304   01 Jun 2027 08:35:31.268            14.964                Novosib           467.625
        22   01 Jun 2027 08:35:42.469   01 Jun 2027 08:36:02.783            20.314                Norilsk           634.812
        23   01 Jun 2027 08:36:07.910   01 Jun 2027 08:36:48.075            40.165                Irkutsk          1255.156
        24   01 Jun 2027 08:36:50.020   01 Jun 2027 08:39:01.857           131.837              Murmansk1          4119.906
        25   01 Jun 2027 09:51:34.482   01 Jun 2027 09:52:17.757            43.275                Sumatra          1352.344
        26   01 Jun 2027 09:54:55.900   01 Jun 2027 09:55:18.026            22.126                Sumatra           691.437
        27   01 Jun 2027 09:56:56.479   01 Jun 2027 09:57:54.709            58.230                  Delhi          1819.687
        28   01 Jun 2027 09:59:16.410   01 Jun 2027 09:59:18.965             2.555                  Delhi            79.844
        29   01 Jun 2027 10:01:10.688   01 Jun 2027 10:01:38.481            27.793                  Delhi           868.531
        30   01 Jun 2027 10:12:18.074   01 Jun 2027 10:12:19.312             1.238              Murmansk1            38.687
        31   01 Jun 2027 10:12:29.639   01 Jun 2027 10:13:33.124            63.485                Novosib          1983.906
        32   01 Jun 2027 10:13:37.556   01 Jun 2027 10:15:44.993           127.437                 Moscow          3982.406
        33   01 Jun 2027 11:45:49.290   01 Jun 2027 11:46:23.470            34.180              Murmansk2          1068.125
        34   01 Jun 2027 11:46:33.759   01 Jun 2027 11:48:41.445           127.686              Murmansk1          3990.188
        35   01 Jun 2027 11:48:47.720   01 Jun 2027 11:51:49.807           182.087                Norilsk          5690.219
        36   01 Jun 2027 11:51:55.908   01 Jun 2027 11:52:08.116            12.208                Norilsk           381.500
        37   01 Jun 2027 11:52:10.559   01 Jun 2027 11:53:01.009            50.450                 Moscow          1576.562
        38   01 Jun 2027 12:56:36.257   01 Jun 2027 12:59:33.823           177.566               CapeTown          5548.938
        39   01 Jun 2027 13:03:22.417   01 Jun 2027 13:04:15.902            53.485               CapeTown          1671.406
        40   01 Jun 2027 13:21:33.089   01 Jun 2027 13:22:21.050            47.961              Murmansk1          1498.781
        41   01 Jun 2027 13:22:31.125   01 Jun 2027 13:24:05.776            94.651              Murmansk2          2957.844
        42   01 Jun 2027 13:24:23.046   01 Jun 2027 13:24:52.587            29.541              Murmansk2           923.156
        43   01 Jun 2027 13:33:13.735   01 Jun 2027 13:33:41.477            27.742              Murmansk1           866.937
        44   01 Jun 2027 13:36:02.376   01 Jun 2027 13:39:53.779           231.403                Anadyr1          7231.344
        45   01 Jun 2027 13:40:42.041   01 Jun 2027 13:43:04.564           142.523                Anadyr2          4453.844
        46   01 Jun 2027 15:00:29.035   01 Jun 2027 15:01:32.948            63.913              Murmansk2          1997.281
        47   01 Jun 2027 15:03:19.268   01 Jun 2027 15:03:44.472            25.204              Murmansk2           787.625
        48   01 Jun 2027 15:03:51.853   01 Jun 2027 15:04:09.273            17.420              Murmansk1           544.375
        49   01 Jun 2027 15:04:59.032   01 Jun 2027 15:05:03.746             4.714              Murmansk1           147.313
        50   01 Jun 2027 15:05:24.648   01 Jun 2027 15:05:44.286            19.638              Murmansk2           613.687
        51   01 Jun 2027 15:05:44.286   01 Jun 2027 15:06:09.818            25.532              Murmansk1           797.875
        52   01 Jun 2027 15:06:33.835   01 Jun 2027 15:07:14.467            40.632              Murmansk1          1269.750
        53   01 Jun 2027 15:07:54.641   01 Jun 2027 15:09:11.100            76.459              Murmansk2          2389.344
        54   01 Jun 2027 15:11:25.610   01 Jun 2027 15:12:38.962            73.352                Anadyr2          2292.250
        55   01 Jun 2027 15:14:40.812   01 Jun 2027 15:15:34.532            53.720                Anadyr2          1678.750
        56   01 Jun 2027 15:16:31.153   01 Jun 2027 15:21:24.701           293.548               Magadan2          9173.375
        57   01 Jun 2027 16:47:18.822   01 Jun 2027 16:48:49.423            90.601                Anadyr1          2831.281
        58   01 Jun 2027 16:48:49.423   01 Jun 2027 16:48:54.398             4.975                Anadyr2           155.469
        59   01 Jun 2027 16:49:25.846   01 Jun 2027 16:49:47.991            22.145                Anadyr2           692.031
        60   01 Jun 2027 16:50:15.629   01 Jun 2027 16:50:32.584            16.955                Anadyr2           529.844
        61   01 Jun 2027 16:50:41.744   01 Jun 2027 16:52:34.000           112.256               Magadan2          3508.000
        62   01 Jun 2027 16:52:43.557   01 Jun 2027 16:52:53.005             9.448               Magadan2           295.250
        63   01 Jun 2027 16:53:48.263   01 Jun 2027 16:55:18.729            90.466               Magadan1          2827.062
        64   01 Jun 2027 16:58:55.919   01 Jun 2027 16:59:19.192            23.273                Anadyr1           727.281
        65   01 Jun 2027 17:00:06.861   01 Jun 2027 17:00:11.015             4.154                Anadyr1           129.813
        66   01 Jun 2027 17:00:51.717   01 Jun 2027 17:01:48.029            56.312               Magadan1          1759.750
        67   01 Jun 2027 18:23:11.491   01 Jun 2027 18:24:45.944            94.453                Anadyr2          2951.656
        68   01 Jun 2027 18:24:55.801   01 Jun 2027 18:25:54.358            58.557                Anadyr1          1829.906
        69   01 Jun 2027 18:25:58.946   01 Jun 2027 18:26:01.804             2.858                Anadyr1            89.312
        70   01 Jun 2027 18:26:05.695   01 Jun 2027 18:27:06.780            61.085                Anadyr1          1908.906
        71   01 Jun 2027 18:27:34.178   01 Jun 2027 18:30:50.864           196.686                Norilsk          6146.438
        72   01 Jun 2027 18:31:38.160   01 Jun 2027 18:34:13.670           155.510                Irkutsk          4859.688
        73   01 Jun 2027 18:35:10.461   01 Jun 2027 18:36:38.256            87.795                Irkutsk          2743.594
        74   01 Jun 2027 19:27:16.520   01 Jun 2027 19:27:36.544            20.024            RioGallegos           625.750
        75   01 Jun 2027 20:01:03.909   01 Jun 2027 20:02:21.468            77.559                Norilsk          2423.719
        76   01 Jun 2027 20:05:06.535   01 Jun 2027 20:07:00.106           113.571                Irkutsk          3549.094
        77   01 Jun 2027 20:07:48.932   01 Jun 2027 20:10:53.575           184.643                Novosib          5770.094
        78   01 Jun 2027 20:11:14.996   01 Jun 2027 20:12:43.001            88.005                Novosib          2750.156
        79   01 Jun 2027 20:20:59.017   01 Jun 2027 20:21:07.451             8.434                Sumatra           263.562
        80   01 Jun 2027 20:28:20.546   01 Jun 2027 20:29:17.970            57.424                Sumatra          1794.500
        81   01 Jun 2027 21:40:17.654   01 Jun 2027 21:40:35.275            17.621               Magadan2           550.656
        82   01 Jun 2027 21:40:55.965   01 Jun 2027 21:41:03.385             7.420                Irkutsk           231.875
        83   01 Jun 2027 21:41:09.396   01 Jun 2027 21:42:56.101           106.705                Novosib          3334.531
        84   01 Jun 2027 21:48:09.369   01 Jun 2027 21:48:14.733             5.364                Novosib           167.625
        85   01 Jun 2027 21:48:19.230   01 Jun 2027 21:48:45.347            26.117                Novosib           816.156
        86   01 Jun 2027 21:49:01.695   01 Jun 2027 21:52:05.039           183.344                  Delhi          5729.500
        87   01 Jun 2027 21:56:53.718   01 Jun 2027 21:57:55.458            61.740                  Delhi          1929.375
        88   01 Jun 2027 23:12:44.103   01 Jun 2027 23:13:21.437            37.334               Magadan2          1166.687
        89   01 Jun 2027 23:13:44.363   01 Jun 2027 23:14:27.815            43.452               Magadan1          1357.875
        90   01 Jun 2027 23:15:02.272   01 Jun 2027 23:15:19.898            17.626                Anadyr1           550.813
        91   01 Jun 2027 23:15:40.814   01 Jun 2027 23:16:16.126            35.312               Magadan1          1103.500
        92   01 Jun 2027 23:16:34.740   01 Jun 2027 23:20:29.957           235.217              Murmansk1          7350.531
        93   01 Jun 2027 23:21:00.449   01 Jun 2027 23:24:07.422           186.973                 Moscow          5842.906
        94   01 Jun 2027 23:24:53.840   01 Jun 2027 23:26:06.719            72.879                 Moscow          2277.469
        95   01 Jun 2027 23:48:03.966   01 Jun 2027 23:48:50.992            47.026               CapeTown          1469.563
        96   01 Jun 2027 23:50:35.981   01 Jun 2027 23:51:31.014            55.033               CapeTown          1719.781
        97   02 Jun 2027 00:51:06.916   02 Jun 2027 00:51:25.292            18.376               Magadan2           574.250
        98   02 Jun 2027 00:51:27.435   02 Jun 2027 00:52:36.614            69.179              Murmansk2          2161.844
        99   02 Jun 2027 00:53:21.781   02 Jun 2027 00:54:28.676            66.895              Murmansk1          2090.469
       100   02 Jun 2027 00:57:32.724   02 Jun 2027 00:58:12.608            39.884                 Moscow          1246.375
       101   02 Jun 2027 01:02:14.640   02 Jun 2027 01:02:31.036            16.396                 Moscow           512.375
       102   02 Jun 2027 01:03:09.588   02 Jun 2027 01:03:41.896            32.308                 Moscow          1009.625
       103   02 Jun 2027 01:18:27.664   02 Jun 2027 01:20:06.522            98.858               CapeTown          3089.312
       104   02 Jun 2027 01:27:56.013   02 Jun 2027 01:29:05.230            69.217               CapeTown          2163.031
       105   02 Jun 2027 02:15:58.310   02 Jun 2027 02:16:10.705            12.395                Anadyr2           387.344
       106   02 Jun 2027 02:16:22.934   02 Jun 2027 02:16:34.089            11.155                Anadyr1           348.594
       107   02 Jun 2027 02:16:51.916   02 Jun 2027 02:17:28.675            36.759               Magadan1          1148.719
       108   02 Jun 2027 02:17:28.675   02 Jun 2027 02:17:35.088             6.413               Magadan2           200.406
       109   02 Jun 2027 02:17:51.115   02 Jun 2027 02:17:54.583             3.468               Magadan1           108.375
       110   02 Jun 2027 02:18:05.661   02 Jun 2027 02:19:16.756            71.095               Magadan2          2221.719
       111   02 Jun 2027 02:23:57.908   02 Jun 2027 02:24:40.995            43.087                Norilsk          1346.469
       112   02 Jun 2027 02:27:06.727   02 Jun 2027 02:27:40.333            33.606              Murmansk2          1050.187
       113   02 Jun 2027 02:28:21.206   02 Jun 2027 02:28:36.905            15.699              Murmansk2           490.594
       114   02 Jun 2027 02:28:58.757   02 Jun 2027 02:29:26.527            27.770              Murmansk2           867.812
       115   02 Jun 2027 02:30:16.247   02 Jun 2027 02:30:25.923             9.676              Murmansk2           302.375
       116   02 Jun 2027 02:32:05.008   02 Jun 2027 02:32:48.509            43.501                 Moscow          1359.406
       117   02 Jun 2027 02:34:50.183   02 Jun 2027 02:35:08.305            18.122                 Moscow           566.312
       118   02 Jun 2027 02:37:29.165   02 Jun 2027 02:38:55.966            86.801                 Moscow          2712.531
       119   02 Jun 2027 03:02:32.250   02 Jun 2027 03:03:37.836            65.586               CapeTown          2049.562
       120   02 Jun 2027 03:55:46.998   02 Jun 2027 03:56:37.104            50.106                Anadyr2          1565.813
       121   02 Jun 2027 03:57:07.690   02 Jun 2027 03:57:57.507            49.817               Magadan2          1556.781
       122   02 Jun 2027 03:58:07.040   02 Jun 2027 03:59:15.369            68.329                Anadyr2          2135.281
       123   02 Jun 2027 03:59:19.836   02 Jun 2027 03:59:28.204             8.368               Magadan1           261.500
       124   02 Jun 2027 03:59:40.253   02 Jun 2027 04:03:25.532           225.279                Anadyr1          7039.969
       125   02 Jun 2027 04:03:28.989   02 Jun 2027 04:03:32.505             3.516               Magadan2           109.875
       126   02 Jun 2027 05:32:29.460   02 Jun 2027 05:33:29.711            60.251                Irkutsk          1882.844
       127   02 Jun 2027 05:33:31.648   02 Jun 2027 05:33:56.057            24.409                Anadyr1           762.781
       128   02 Jun 2027 05:34:15.246   02 Jun 2027 05:35:40.389            85.143                Norilsk          2660.719
       129   02 Jun 2027 05:35:42.820   02 Jun 2027 05:36:36.150            53.330                Irkutsk          1666.562
       130   02 Jun 2027 05:36:37.124   02 Jun 2027 05:38:53.865           136.741                Novosib          4273.156
       131   02 Jun 2027 05:38:59.562   02 Jun 2027 05:39:20.708            21.146               Magadan2           660.813
       132   02 Jun 2027 06:16:00.306   02 Jun 2027 06:17:01.642            61.336            RioGallegos          1916.750
       133   02 Jun 2027 06:19:52.545   02 Jun 2027 06:20:25.024            32.479            RioGallegos          1014.969
       134   02 Jun 2027 06:21:22.165   02 Jun 2027 06:22:21.057            58.892            RioGallegos          1840.375
       135   02 Jun 2027 06:54:09.803   02 Jun 2027 06:54:23.652            13.849                Sumatra           432.781
       136   02 Jun 2027 06:54:41.285   02 Jun 2027 06:55:16.756            35.471                Sumatra          1108.469
       137   02 Jun 2027 07:09:38.788   02 Jun 2027 07:10:23.839            45.051                Irkutsk          1407.844
       138   02 Jun 2027 07:10:38.413   02 Jun 2027 07:11:23.813            45.400                Norilsk          1418.750
       139   02 Jun 2027 07:11:47.454   02 Jun 2027 07:13:56.001           128.547               Magadan2          4017.094
       140   02 Jun 2027 07:14:00.246   02 Jun 2027 07:16:39.380           159.134              Murmansk2          4972.938
       141   02 Jun 2027 07:16:39.380   02 Jun 2027 07:16:51.608            12.228              Murmansk1           382.125
       142   02 Jun 2027 07:17:40.899   02 Jun 2027 07:18:05.904            25.005              Murmansk2           781.406
       143   02 Jun 2027 07:19:27.669   02 Jun 2027 07:20:13.346            45.677                Norilsk          1427.406
       144   02 Jun 2027 07:50:02.642   02 Jun 2027 07:51:29.552            86.910            RioGallegos          2715.937
       145   02 Jun 2027 08:24:46.024   02 Jun 2027 08:25:41.168            55.144                Sumatra          1723.250
       146   02 Jun 2027 08:26:09.270   02 Jun 2027 08:27:36.709            87.439                Sumatra          2732.469
       147   02 Jun 2027 08:35:07.918   02 Jun 2027 08:36:29.660            81.742                  Delhi          2554.438
       148   02 Jun 2027 08:40:05.653   02 Jun 2027 08:40:45.255            39.602                  Delhi          1237.562
       149   02 Jun 2027 08:46:52.470   02 Jun 2027 08:47:52.987            60.517                Norilsk          1891.156
       150   02 Jun 2027 08:48:03.933   02 Jun 2027 08:48:25.321            21.388                Norilsk           668.375
       151   02 Jun 2027 08:48:29.667   02 Jun 2027 08:49:48.365            78.698                Norilsk          2459.313
       152   02 Jun 2027 08:49:52.022   02 Jun 2027 08:52:24.926           152.904                 Moscow          4778.250
       153   02 Jun 2027 08:52:32.269   02 Jun 2027 08:52:48.508            16.239                 Moscow           507.469
       154   02 Jun 2027 08:52:51.959   02 Jun 2027 08:53:11.285            19.326              Murmansk1           603.938
       155   02 Jun 2027 10:09:02.429   02 Jun 2027 10:10:21.221            78.792                  Delhi          2462.250
       156   02 Jun 2027 10:10:59.025   02 Jun 2027 10:12:06.012            66.987                  Delhi          2093.344
       157   02 Jun 2027 10:24:32.860   02 Jun 2027 10:26:10.432            97.572                Norilsk          3049.125
       158   02 Jun 2027 10:26:18.948   02 Jun 2027 10:26:37.193            18.245                Norilsk           570.156
       159   02 Jun 2027 10:26:47.257   02 Jun 2027 10:29:11.384           144.127                 Moscow          4503.969
       160   02 Jun 2027 10:30:44.402   02 Jun 2027 10:30:54.276             9.874              Murmansk2           308.562
       161   02 Jun 2027 10:33:31.191   02 Jun 2027 10:33:49.002            17.811              Murmansk2           556.594
       162   02 Jun 2027 11:58:03.794   02 Jun 2027 12:02:01.362           237.568                 Moscow          7424.000
       163   02 Jun 2027 12:02:15.732   02 Jun 2027 12:02:57.023            41.291              Murmansk1          1290.344
       164   02 Jun 2027 12:03:25.926   02 Jun 2027 12:03:29.651             3.725              Murmansk1           116.406
       165   02 Jun 2027 12:03:36.919   02 Jun 2027 12:03:41.730             4.811              Murmansk1           150.344
       166   02 Jun 2027 12:04:21.042   02 Jun 2027 12:04:45.275            24.233              Murmansk1           757.281
       167   02 Jun 2027 12:04:58.420   02 Jun 2027 12:06:15.859            77.439                 Moscow          2419.969
       168   02 Jun 2027 12:06:36.007   02 Jun 2027 12:07:19.371            43.364                Norilsk          1355.125
       169   02 Jun 2027 12:07:38.855   02 Jun 2027 12:07:48.678             9.823                Norilsk           306.969
       170   02 Jun 2027 12:07:59.082   02 Jun 2027 12:08:39.781            40.699              Murmansk1          1271.844
       171   02 Jun 2027 12:09:28.499   02 Jun 2027 12:09:44.893            16.394              Murmansk1           512.313
       172   02 Jun 2027 13:08:56.213   02 Jun 2027 13:09:34.510            38.297               CapeTown          1196.781
       173   02 Jun 2027 13:10:15.124   02 Jun 2027 13:11:14.526            59.402               CapeTown          1856.313
       174   02 Jun 2027 13:13:10.980   02 Jun 2027 13:18:13.285           302.305               CapeTown          9447.031
       175   02 Jun 2027 13:33:49.048   02 Jun 2027 13:34:07.051            18.003              Murmansk2           562.594
       176   02 Jun 2027 13:34:19.124   02 Jun 2027 13:34:28.298             9.174              Murmansk2           286.687
       177   02 Jun 2027 13:34:57.020   02 Jun 2027 13:35:39.574            42.554              Murmansk1          1329.812
       178   02 Jun 2027 13:36:07.245   02 Jun 2027 13:36:20.361            13.116              Murmansk2           409.875
       179   02 Jun 2027 13:36:22.843   02 Jun 2027 13:36:49.131            26.288                 Moscow           821.500
       180   02 Jun 2027 13:37:36.595   02 Jun 2027 13:38:19.771            43.176              Murmansk1          1349.250
       181   02 Jun 2027 13:38:31.859   02 Jun 2027 13:38:52.196            20.337              Murmansk1           635.531
       182   02 Jun 2027 13:38:58.307   02 Jun 2027 13:39:42.101            43.794                 Moscow          1368.562
       183   02 Jun 2027 13:40:05.648   02 Jun 2027 13:41:43.855            98.207                 Moscow          3068.969
       184   02 Jun 2027 13:41:55.598   02 Jun 2027 13:43:14.250            78.652              Murmansk2          2457.875
       185   02 Jun 2027 13:43:17.889   02 Jun 2027 13:43:37.780            19.891              Murmansk2           621.594
       186   02 Jun 2027 13:43:41.076   02 Jun 2027 13:45:42.829           121.753              Murmansk1          3804.781
       187   02 Jun 2027 13:50:19.946   02 Jun 2027 13:57:13.663           413.717                Anadyr2         12928.656
       188   02 Jun 2027 14:54:03.383   02 Jun 2027 14:55:08.867            65.484               CapeTown          2046.375
       189   02 Jun 2027 15:19:22.737   02 Jun 2027 15:21:24.780           122.043              Murmansk2          3813.844
       190   02 Jun 2027 15:26:56.861   02 Jun 2027 15:34:22.478           445.617               Magadan2         13925.531
       191   02 Jun 2027 17:04:54.942   02 Jun 2027 17:05:48.323            53.381               Magadan1          1668.156
       192   02 Jun 2027 17:06:09.360   02 Jun 2027 17:06:38.624            29.264               Magadan2           914.500
       193   02 Jun 2027 17:06:54.341   02 Jun 2027 17:07:46.698            52.357                Anadyr2          1636.156
       194   02 Jun 2027 17:08:11.551   02 Jun 2027 17:08:34.727            23.176                Anadyr1           724.250
       195   02 Jun 2027 17:08:59.158   02 Jun 2027 17:09:10.593            11.435               Magadan1           357.344
       196   02 Jun 2027 17:09:10.593   02 Jun 2027 17:09:25.691            15.098               Magadan2           471.813
       197   02 Jun 2027 17:09:26.913   02 Jun 2027 17:09:30.021             3.108               Magadan2            97.125
       198   02 Jun 2027 17:09:36.044   02 Jun 2027 17:10:01.257            25.213                Anadyr2           787.906
       199   02 Jun 2027 17:10:35.506   02 Jun 2027 17:10:38.083             2.577                Anadyr1            80.531
       200   02 Jun 2027 17:10:51.956   02 Jun 2027 17:11:09.407            17.451                Anadyr1           545.344
       201   02 Jun 2027 17:11:16.076   02 Jun 2027 17:12:06.154            50.078                Anadyr2          1564.937
       202   02 Jun 2027 17:12:21.740   02 Jun 2027 17:12:46.331            24.591               Magadan2           768.469
       203   02 Jun 2027 17:13:07.714   02 Jun 2027 17:13:24.098            16.384               Magadan1           512.000
       204   02 Jun 2027 17:13:58.551   02 Jun 2027 17:14:03.400             4.849               Magadan2           151.531
       205   02 Jun 2027 18:36:47.084   02 Jun 2027 18:37:07.815            20.731                Anadyr2           647.844
       206   02 Jun 2027 18:37:28.543   02 Jun 2027 18:43:02.202           333.659                Norilsk         10426.844
       207   02 Jun 2027 18:43:57.519   02 Jun 2027 18:45:58.830           121.311                Irkutsk          3790.969
       208   02 Jun 2027 18:46:54.336   02 Jun 2027 18:47:23.494            29.158                Irkutsk           911.188
       209   02 Jun 2027 18:48:50.791   02 Jun 2027 18:49:53.419            62.628                Irkutsk          1957.125
       210   02 Jun 2027 18:58:57.757   02 Jun 2027 19:01:01.182           123.425                Sumatra          3857.031
       211   02 Jun 2027 19:03:28.189   02 Jun 2027 19:04:20.411            52.222                Sumatra          1631.937
       212   02 Jun 2027 20:18:19.407   02 Jun 2027 20:18:28.480             9.073                Novosib           283.531
       213   02 Jun 2027 20:19:51.828   02 Jun 2027 20:21:35.074           103.246                Novosib          3226.438
       214   02 Jun 2027 20:22:43.005   02 Jun 2027 20:24:27.623           104.618                Novosib          3269.313
       215   02 Jun 2027 20:38:48.646   02 Jun 2027 20:40:05.608            76.962                Sumatra          2405.062
       216   02 Jun 2027 20:42:35.263   02 Jun 2027 20:43:27.836            52.573                Sumatra          1642.906
       217   02 Jun 2027 21:51:43.158   02 Jun 2027 21:52:14.089            30.931                Anadyr1           966.594
       218   02 Jun 2027 21:52:37.439   02 Jun 2027 21:55:50.841           193.402              Murmansk1          6043.812
       219   02 Jun 2027 22:01:47.305   02 Jun 2027 22:03:14.749            87.444                  Delhi          2732.625
       220   02 Jun 2027 22:04:35.063   02 Jun 2027 22:04:50.977            15.914                  Delhi           497.312
       221   02 Jun 2027 22:07:32.733   02 Jun 2027 22:08:10.651            37.918                  Delhi          1184.937
       222   02 Jun 2027 22:09:50.495   02 Jun 2027 22:10:38.769            48.274                  Delhi          1508.562
       223   02 Jun 2027 23:21:31.067   02 Jun 2027 23:21:48.541            17.474                Anadyr2           546.062
       224   02 Jun 2027 23:22:50.658   02 Jun 2027 23:22:52.573             1.915                Anadyr1            59.844
       225   02 Jun 2027 23:22:54.135   02 Jun 2027 23:23:10.802            16.667                Anadyr2           520.844
       226   02 Jun 2027 23:23:37.119   02 Jun 2027 23:24:03.851            26.732                Anadyr2           835.375
       227   02 Jun 2027 23:24:25.216   02 Jun 2027 23:25:43.157            77.941               Magadan2          2435.656
       228   02 Jun 2027 23:26:26.418   02 Jun 2027 23:26:41.406            14.988               Magadan1           468.375
       229   02 Jun 2027 23:27:17.870   02 Jun 2027 23:30:05.061           167.191              Murmansk1          5224.719
       230   02 Jun 2027 23:30:05.061   02 Jun 2027 23:30:08.695             3.634              Murmansk2           113.563
       231   02 Jun 2027 23:30:14.202   02 Jun 2027 23:30:32.516            18.314              Murmansk2           572.312
       232   02 Jun 2027 23:31:20.973   02 Jun 2027 23:31:58.612            37.639                 Moscow          1176.219
       233   02 Jun 2027 23:32:53.922   02 Jun 2027 23:33:27.260            33.338              Murmansk1          1041.812
       234   02 Jun 2027 23:34:28.395   02 Jun 2027 23:35:00.542            32.147                 Moscow          1004.594
       235   02 Jun 2027 23:36:36.156   02 Jun 2027 23:37:01.142            24.986                 Moscow           780.812
       236   02 Jun 2027 23:38:17.922   02 Jun 2027 23:39:02.597            44.675                 Moscow          1396.094
       237   02 Jun 2027 23:58:31.608   03 Jun 2027 00:00:13.271           101.663               CapeTown          3176.969
       238   03 Jun 2027 00:01:14.882   03 Jun 2027 00:02:30.658            75.776               CapeTown          2368.000
       239   03 Jun 2027 00:59:23.754   03 Jun 2027 00:59:58.439            34.685               Magadan1          1083.906
       240   03 Jun 2027 01:02:14.265   03 Jun 2027 01:02:36.054            21.789                Norilsk           680.906
       241   03 Jun 2027 01:03:10.316   03 Jun 2027 01:04:32.221            81.905              Murmansk2          2559.531
       242   03 Jun 2027 01:06:29.807   03 Jun 2027 01:06:37.024             7.217              Murmansk1           225.531
       243   03 Jun 2027 01:07:22.456   03 Jun 2027 01:08:40.495            78.039              Murmansk2          2438.719
       244   03 Jun 2027 01:13:59.332   03 Jun 2027 01:14:02.383             3.051              Murmansk1            95.344
       245   03 Jun 2027 01:14:47.619   03 Jun 2027 01:14:56.161             8.542                 Moscow           266.937
       246   03 Jun 2027 01:15:02.381   03 Jun 2027 01:15:31.718            29.337              Murmansk1           916.781
       247   03 Jun 2027 01:15:59.818   03 Jun 2027 01:17:24.607            84.789                 Moscow          2649.656
       248   03 Jun 2027 01:39:06.125   03 Jun 2027 01:39:22.401            16.276               CapeTown           508.625
       249   03 Jun 2027 01:42:30.799   03 Jun 2027 01:43:06.054            35.255               CapeTown          1101.719
       250   03 Jun 2027 02:27:00.456   03 Jun 2027 02:28:20.462            80.006                Anadyr2          2500.187
       251   03 Jun 2027 02:28:31.234   03 Jun 2027 02:28:53.736            22.502               Magadan1           703.188
       252   03 Jun 2027 02:29:25.302   03 Jun 2027 02:29:41.349            16.047               Magadan2           501.469
       253   03 Jun 2027 02:30:45.491   03 Jun 2027 02:31:18.979            33.488               Magadan2          1046.500
       254   03 Jun 2027 02:33:11.577   03 Jun 2027 02:33:12.980             1.403               Magadan1            43.844
       255   03 Jun 2027 02:33:20.543   03 Jun 2027 02:34:08.966            48.423               Magadan1          1513.219
       256   03 Jun 2027 02:36:30.852   03 Jun 2027 02:36:49.612            18.760                Norilsk           586.250
       257   03 Jun 2027 02:38:32.614   03 Jun 2027 02:39:08.114            35.500                Norilsk          1109.375
       258   03 Jun 2027 02:40:51.975   03 Jun 2027 02:41:19.927            27.952              Murmansk1           873.500
       259   03 Jun 2027 02:42:54.797   03 Jun 2027 02:43:17.727            22.930              Murmansk1           716.563
       260   03 Jun 2027 02:44:41.605   03 Jun 2027 02:44:48.108             6.503                 Moscow           203.219
       261   03 Jun 2027 02:45:05.702   03 Jun 2027 02:45:37.425            31.723              Murmansk1           991.344
       262   03 Jun 2027 02:48:31.110   03 Jun 2027 02:48:43.397            12.287              Murmansk2           383.969
       263   03 Jun 2027 02:50:14.508   03 Jun 2027 02:50:20.343             5.835              Murmansk1           182.344
       264   03 Jun 2027 02:50:20.343   03 Jun 2027 02:50:30.685            10.342              Murmansk2           323.187
       265   03 Jun 2027 02:51:17.436   03 Jun 2027 02:51:25.438             8.002              Murmansk2           250.063
       266   03 Jun 2027 02:51:37.622   03 Jun 2027 02:52:05.938            28.316                 Moscow           884.875
       267   03 Jun 2027 03:12:42.988   03 Jun 2027 03:13:16.483            33.495               CapeTown          1046.719
       268   03 Jun 2027 04:07:25.335   03 Jun 2027 04:08:11.170            45.835               Magadan1          1432.344
       269   03 Jun 2027 04:08:21.971   03 Jun 2027 04:13:29.631           307.660                Anadyr2          9614.375
       270   03 Jun 2027 04:58:49.198   03 Jun 2027 04:59:32.621            43.423            RioGallegos          1356.969
       271   03 Jun 2027 05:43:59.271   03 Jun 2027 05:44:26.267            26.996                Irkutsk           843.625
       272   03 Jun 2027 05:44:27.417   03 Jun 2027 05:44:43.323            15.906               Magadan1           497.062
       273   03 Jun 2027 05:44:52.882   03 Jun 2027 05:45:24.262            31.380               Magadan2           980.625
       274   03 Jun 2027 05:45:26.404   03 Jun 2027 05:48:08.172           161.768               Magadan2          5055.250
       275   03 Jun 2027 05:48:13.393   03 Jun 2027 05:49:07.131            53.738               Magadan2          1679.312
       276   03 Jun 2027 05:49:15.557   03 Jun 2027 05:51:02.175           106.618               Magadan2          3331.813
       277   03 Jun 2027 05:51:02.241   03 Jun 2027 05:51:38.162            35.921                Novosib          1122.531
       278   03 Jun 2027 06:28:07.059   03 Jun 2027 06:29:07.020            59.961            RioGallegos          1873.781
       279   03 Jun 2027 07:04:11.521   03 Jun 2027 07:04:12.874             1.353                Sumatra            42.281
       280   03 Jun 2027 07:06:00.060   03 Jun 2027 07:07:12.806            72.746                Sumatra          2273.313
       281   03 Jun 2027 07:20:35.969   03 Jun 2027 07:21:01.474            25.505                Irkutsk           797.031
       282   03 Jun 2027 07:21:51.863   03 Jun 2027 07:23:05.542            73.679                Irkutsk          2302.469
       283   03 Jun 2027 07:23:56.855   03 Jun 2027 07:24:48.447            51.592               Magadan1          1612.250
       284   03 Jun 2027 07:24:54.589   03 Jun 2027 07:25:26.048            31.459                Irkutsk           983.094
       285   03 Jun 2027 07:25:35.241   03 Jun 2027 07:26:59.560            84.319                Norilsk          2634.969
       286   03 Jun 2027 07:27:16.063   03 Jun 2027 07:29:33.402           137.339              Murmansk1          4291.844
       287   03 Jun 2027 07:29:33.402   03 Jun 2027 07:32:01.061           147.659              Murmansk2          4614.344
       288   03 Jun 2027 07:33:10.493   03 Jun 2027 07:33:28.377            17.884              Murmansk2           558.875
       289   03 Jun 2027 08:02:15.018   03 Jun 2027 08:03:25.713            70.695            RioGallegos          2209.219
       290   03 Jun 2027 08:05:02.786   03 Jun 2027 08:05:28.163            25.377            RioGallegos           793.031
       291   03 Jun 2027 08:05:45.824   03 Jun 2027 08:06:00.691            14.867            RioGallegos           464.594
       292   03 Jun 2027 08:36:47.993   03 Jun 2027 08:37:45.791            57.798                Sumatra          1806.187
       293   03 Jun 2027 08:46:31.206   03 Jun 2027 08:48:44.874           133.668                  Delhi          4177.125
       294   03 Jun 2027 08:52:17.116   03 Jun 2027 08:53:29.872            72.756                  Delhi          2273.625
       295   03 Jun 2027 08:59:15.658   03 Jun 2027 09:00:53.726            98.068                Norilsk          3064.625
       296   03 Jun 2027 09:01:02.020   03 Jun 2027 09:02:47.866           105.846                Irkutsk          3307.687
       297   03 Jun 2027 09:02:48.179   03 Jun 2027 09:04:05.197            77.018                Norilsk          2406.812
       298   03 Jun 2027 09:04:10.392   03 Jun 2027 09:04:55.174            44.782                 Moscow          1399.437
       299   03 Jun 2027 09:05:18.691   03 Jun 2027 09:06:08.270            49.579              Murmansk2          1549.344
       300   03 Jun 2027 09:44:24.404   03 Jun 2027 09:45:26.541            62.137            RioGallegos          1941.781
       301   03 Jun 2027 10:21:14.107   03 Jun 2027 10:22:45.014            90.907                  Delhi          2840.844
       302   03 Jun 2027 10:30:57.879   03 Jun 2027 10:31:02.447             4.568                  Delhi           142.750
       303   03 Jun 2027 10:35:05.401   03 Jun 2027 10:35:22.981            17.580                Novosib           549.375
       304   03 Jun 2027 10:35:30.965   03 Jun 2027 10:36:35.059            64.094              Murmansk2          2002.938
       305   03 Jun 2027 10:36:38.898   03 Jun 2027 10:37:30.428            51.530                Norilsk          1610.313
       306   03 Jun 2027 10:37:41.953   03 Jun 2027 10:39:19.976            98.023                 Moscow          3063.219
       307   03 Jun 2027 12:05:22.667   03 Jun 2027 12:07:36.644           133.977                 Moscow          4186.781
       308   03 Jun 2027 12:07:43.212   03 Jun 2027 12:07:51.057             7.845                 Moscow           245.156
       309   03 Jun 2027 12:08:41.593   03 Jun 2027 12:09:47.696            66.103                 Moscow          2065.719
       310   03 Jun 2027 12:09:49.462   03 Jun 2027 12:10:24.592            35.130              Murmansk1          1097.812
       311   03 Jun 2027 12:11:05.562   03 Jun 2027 12:11:53.888            48.326              Murmansk1          1510.188
       312   03 Jun 2027 12:14:11.251   03 Jun 2027 12:14:44.356            33.105                Norilsk          1034.531
       313   03 Jun 2027 12:16:36.778   03 Jun 2027 12:17:43.264            66.486                Norilsk          2077.687
       314   03 Jun 2027 13:19:42.549   03 Jun 2027 13:22:23.434           160.885               CapeTown          5027.656
       315   03 Jun 2027 13:25:04.324   03 Jun 2027 13:26:10.295            65.971               CapeTown          2061.594
       316   03 Jun 2027 13:46:07.071   03 Jun 2027 13:46:37.291            30.220              Murmansk1           944.375
       317   03 Jun 2027 13:46:56.341   03 Jun 2027 13:48:08.558            72.217              Murmansk2          2256.781
       318   03 Jun 2027 13:50:42.586   03 Jun 2027 13:51:06.153            23.567              Murmansk1           736.469
       319   03 Jun 2027 13:55:19.656   03 Jun 2027 13:55:33.156            13.500              Murmansk1           421.875
       320   03 Jun 2027 13:56:15.570   03 Jun 2027 13:56:20.228             4.658              Murmansk1           145.563
       321   03 Jun 2027 13:59:50.174   03 Jun 2027 14:02:16.412           146.238                Anadyr1          4569.937
       322   03 Jun 2027 14:02:20.293   03 Jun 2027 14:03:49.287            88.994                Anadyr2          2781.063
       323   03 Jun 2027 14:07:06.761   03 Jun 2027 14:07:19.143            12.382                Anadyr2           386.938
       324   03 Jun 2027 15:05:59.096   03 Jun 2027 15:06:09.010             9.914               CapeTown           309.813
       325   03 Jun 2027 15:25:44.467   03 Jun 2027 15:26:24.384            39.917              Murmansk2          1247.406
       326   03 Jun 2027 15:27:26.929   03 Jun 2027 15:27:47.343            20.414              Murmansk2           637.937
       327   03 Jun 2027 15:27:47.343   03 Jun 2027 15:28:12.521            25.178              Murmansk1           786.812
       328   03 Jun 2027 15:30:19.720   03 Jun 2027 15:30:33.898            14.178              Murmansk1           443.063
       329   03 Jun 2027 15:32:37.757   03 Jun 2027 15:33:14.833            37.076              Murmansk1          1158.625
       330   03 Jun 2027 15:35:26.552   03 Jun 2027 15:37:08.655           102.103                Anadyr1          3190.719
       331   03 Jun 2027 15:38:39.742   03 Jun 2027 15:42:18.088           218.346               Magadan2          6823.312
       332   03 Jun 2027 15:42:18.088   03 Jun 2027 15:43:04.659            46.571               Magadan1          1455.344
       333   03 Jun 2027 15:43:04.659   03 Jun 2027 15:43:46.814            42.155               Magadan2          1317.344
       334   03 Jun 2027 17:11:21.506   03 Jun 2027 17:11:31.573            10.067                Anadyr1           314.594
       335   03 Jun 2027 17:12:03.578   03 Jun 2027 17:12:23.955            20.377                Anadyr2           636.781
       336   03 Jun 2027 17:13:08.504   03 Jun 2027 17:13:14.940             6.436                Anadyr1           201.125
       337   03 Jun 2027 17:13:41.544   03 Jun 2027 17:14:18.307            36.763               Magadan1          1148.844
       338   03 Jun 2027 17:14:18.307   03 Jun 2027 17:15:24.868            66.561               Magadan2          2080.031
       339   03 Jun 2027 17:16:47.075   03 Jun 2027 17:16:57.073             9.998               Magadan2           312.438
       340   03 Jun 2027 17:19:54.942   03 Jun 2027 17:20:59.481            64.539               Magadan1          2016.844
       341   03 Jun 2027 18:07:59.342   03 Jun 2027 18:10:24.799           145.457            RioGallegos          4545.531
       342   03 Jun 2027 18:48:00.308   03 Jun 2027 18:48:48.063            47.755                Anadyr2          1492.344
       343   03 Jun 2027 18:49:23.704   03 Jun 2027 18:52:06.046           162.342                Norilsk          5073.188
       344   03 Jun 2027 18:52:28.484   03 Jun 2027 18:53:25.120            56.636                Norilsk          1769.875
       345   03 Jun 2027 18:54:51.694   03 Jun 2027 18:57:47.679           175.985                Irkutsk          5499.531
       346   03 Jun 2027 19:00:52.757   03 Jun 2027 19:01:12.425            19.668                Irkutsk           614.625
       347   03 Jun 2027 19:09:36.205   03 Jun 2027 19:11:47.529           131.324                Sumatra          4103.875
       348   03 Jun 2027 19:13:08.691   03 Jun 2027 19:15:22.267           133.576                Sumatra          4174.250
       349   03 Jun 2027 20:29:47.442   03 Jun 2027 20:30:27.374            39.932                Novosib          1247.875
       350   03 Jun 2027 20:30:37.201   03 Jun 2027 20:31:55.464            78.263                Novosib          2445.719
       351   03 Jun 2027 20:35:10.716   03 Jun 2027 20:35:31.487            20.771                Novosib           649.094
       352   03 Jun 2027 20:36:47.622   03 Jun 2027 20:37:31.453            43.831                Novosib          1369.719
       353   03 Jun 2027 20:40:23.601   03 Jun 2027 20:41:44.033            80.432                  Delhi          2513.500
       354   03 Jun 2027 20:42:47.641   03 Jun 2027 20:44:20.497            92.856                  Delhi          2901.750
       355   03 Jun 2027 22:04:11.857   03 Jun 2027 22:08:59.407           287.550              Murmansk1          8985.937
       356   03 Jun 2027 22:15:23.803   03 Jun 2027 22:15:47.396            23.593                  Delhi           737.281
       357   03 Jun 2027 23:34:49.440   03 Jun 2027 23:34:51.325             1.885                Anadyr1            58.906
       358   03 Jun 2027 23:35:02.260   03 Jun 2027 23:35:29.957            27.697                Anadyr2           865.531
       359   03 Jun 2027 23:35:53.125   03 Jun 2027 23:36:09.916            16.791                Anadyr2           524.719
       360   03 Jun 2027 23:36:32.222   03 Jun 2027 23:38:10.008            97.786               Magadan1          3055.813
       361   03 Jun 2027 23:38:10.008   03 Jun 2027 23:38:44.085            34.077               Magadan2          1064.906
       362   03 Jun 2027 23:39:17.637   03 Jun 2027 23:43:52.409           274.772              Murmansk2          8586.625
       363   03 Jun 2027 23:43:55.296   03 Jun 2027 23:44:19.491            24.195                 Moscow           756.094
       364   03 Jun 2027 23:45:05.173   03 Jun 2027 23:45:29.361            24.188                 Moscow           755.875
       365   03 Jun 2027 23:45:46.969   03 Jun 2027 23:46:03.452            16.483                 Moscow           515.094
       366   04 Jun 2027 00:09:29.689   04 Jun 2027 00:11:43.298           133.609               CapeTown          4175.281
       367   04 Jun 2027 00:14:50.290   04 Jun 2027 00:15:02.179            11.889               CapeTown           371.531
       368   04 Jun 2027 01:07:44.093   04 Jun 2027 01:08:56.549            72.456               Magadan2          2264.250
       369   04 Jun 2027 01:15:11.993   04 Jun 2027 01:16:26.629            74.636              Murmansk1          2332.375
       370   04 Jun 2027 01:16:26.629   04 Jun 2027 01:17:28.213            61.584              Murmansk2          1924.500
       371   04 Jun 2027 01:20:31.491   04 Jun 2027 01:20:42.038            10.547              Murmansk2           329.594
       372   04 Jun 2027 01:26:51.074   04 Jun 2027 01:26:59.671             8.597                 Moscow           268.656
       373   04 Jun 2027 01:30:17.876   04 Jun 2027 01:30:57.932            40.056                 Moscow          1251.750
       374   04 Jun 2027 01:42:18.167   04 Jun 2027 01:42:23.485             5.318               CapeTown           166.188
       375   04 Jun 2027 01:43:40.705   04 Jun 2027 01:44:51.207            70.502               CapeTown          2203.188
       376   04 Jun 2027 02:39:03.228   04 Jun 2027 02:40:38.799            95.571                Anadyr1          2986.594
       377   04 Jun 2027 02:40:45.478   04 Jun 2027 02:41:56.571            71.093               Magadan1          2221.656
       378   04 Jun 2027 02:42:02.266   04 Jun 2027 02:42:13.203            10.937               Magadan2           341.781
       379   04 Jun 2027 02:42:24.396   04 Jun 2027 02:43:21.437            57.041               Magadan2          1782.531
       380   04 Jun 2027 02:51:09.088   04 Jun 2027 02:51:22.979            13.891              Murmansk1           434.094
       381   04 Jun 2027 02:51:49.623   04 Jun 2027 02:52:11.429            21.806              Murmansk1           681.437
       382   04 Jun 2027 02:52:11.429   04 Jun 2027 02:52:44.154            32.725              Murmansk2          1022.656
       383   04 Jun 2027 02:54:13.330   04 Jun 2027 02:54:26.549            13.219              Murmansk1           413.094
       384   04 Jun 2027 02:54:32.362   04 Jun 2027 02:55:16.503            44.141                 Moscow          1379.406
       385   04 Jun 2027 02:56:27.428   04 Jun 2027 02:56:34.119             6.691                 Moscow           209.094
       386   04 Jun 2027 04:22:10.218   04 Jun 2027 04:23:29.799            79.581               Magadan2          2486.906
       387   04 Jun 2027 04:23:42.195   04 Jun 2027 04:25:23.848           101.653                Norilsk          3176.656
       388   04 Jun 2027 05:06:45.410   04 Jun 2027 05:08:05.361            79.951            RioGallegos          2498.469
       389   04 Jun 2027 05:56:34.784   04 Jun 2027 05:57:11.167            36.383                Norilsk          1136.969
       390   04 Jun 2027 05:57:13.275   04 Jun 2027 06:00:20.400           187.125                Irkutsk          5847.656
       391   04 Jun 2027 06:00:38.487   04 Jun 2027 06:02:15.907            97.420                Anadyr2          3044.375
       392   04 Jun 2027 06:02:19.624   04 Jun 2027 06:02:55.685            36.061                Irkutsk          1126.906
       393   04 Jun 2027 06:03:00.527   04 Jun 2027 06:03:09.530             9.003                Norilsk           281.344
       394   04 Jun 2027 06:03:12.264   04 Jun 2027 06:03:15.145             2.881               Magadan2            90.031
       395   04 Jun 2027 06:03:24.757   04 Jun 2027 06:03:47.585            22.828              Murmansk2           713.375
       396   04 Jun 2027 06:03:47.585   04 Jun 2027 06:04:41.152            53.567              Murmansk1          1673.969
       397   04 Jun 2027 06:06:12.684   04 Jun 2027 06:06:55.314            42.630              Murmansk2          1332.187
       398   04 Jun 2027 06:38:16.231   04 Jun 2027 06:41:11.512           175.281            RioGallegos          5477.531
       399   04 Jun 2027 07:15:07.607   04 Jun 2027 07:16:24.007            76.400                Sumatra          2387.500
       400   04 Jun 2027 07:34:12.417   04 Jun 2027 07:35:15.958            63.541               Magadan1          1985.656
       401   04 Jun 2027 07:35:33.823   04 Jun 2027 07:36:00.080            26.257                Irkutsk           820.531
       402   04 Jun 2027 07:36:09.113   04 Jun 2027 07:36:21.041            11.928               Magadan1           372.750
       403   04 Jun 2027 07:36:22.670   04 Jun 2027 07:36:28.732             6.062                Novosib           189.438
       404   04 Jun 2027 07:36:32.760   04 Jun 2027 07:36:39.361             6.601                Irkutsk           206.281
       405   04 Jun 2027 07:36:47.410   04 Jun 2027 07:37:55.309            67.899              Murmansk2          2121.844
       406   04 Jun 2027 07:37:55.309   04 Jun 2027 07:39:17.511            82.202              Murmansk1          2568.812
       407   04 Jun 2027 07:45:54.522   04 Jun 2027 07:46:01.513             6.991              Murmansk1           218.469
       408   04 Jun 2027 08:14:31.400   04 Jun 2027 08:14:42.150            10.750            RioGallegos           335.938
       409   04 Jun 2027 08:15:23.457   04 Jun 2027 08:15:25.116             1.659            RioGallegos            51.844
       410   04 Jun 2027 08:16:15.634   04 Jun 2027 08:16:27.131            11.497            RioGallegos           359.281
       411   04 Jun 2027 08:16:35.237   04 Jun 2027 08:16:59.177            23.940            RioGallegos           748.125
       412   04 Jun 2027 08:23:55.427   04 Jun 2027 08:24:01.379             5.952            RioGallegos           186.000
       413   04 Jun 2027 08:48:55.671   04 Jun 2027 08:50:47.099           111.428                Sumatra          3482.125
       414   04 Jun 2027 08:58:02.682   04 Jun 2027 09:01:06.926           184.244                  Delhi          5757.625
       415   04 Jun 2027 09:10:14.359   04 Jun 2027 09:11:18.123            63.764                Novosib          1992.625
       416   04 Jun 2027 09:11:25.061   04 Jun 2027 09:11:59.376            34.315                 Moscow          1072.344
       417   04 Jun 2027 09:12:07.872   04 Jun 2027 09:12:30.513            22.641              Murmansk2           707.531
       418   04 Jun 2027 09:12:30.513   04 Jun 2027 09:12:41.493            10.980              Murmansk1           343.125
       419   04 Jun 2027 09:12:46.749   04 Jun 2027 09:13:30.351            43.602                 Moscow          1362.563
       420   04 Jun 2027 09:13:49.093   04 Jun 2027 09:14:14.784            25.691              Murmansk1           802.844
       421   04 Jun 2027 09:14:20.216   04 Jun 2027 09:14:26.879             6.663                Norilsk           208.219
       422   04 Jun 2027 09:14:40.235   04 Jun 2027 09:15:12.595            32.360              Murmansk1          1011.250
       423   04 Jun 2027 09:16:23.556   04 Jun 2027 09:16:38.699            15.143                 Moscow           473.219
       424   04 Jun 2027 09:21:31.294   04 Jun 2027 09:22:01.602            30.308              Murmansk2           947.125
       425   04 Jun 2027 10:33:32.114   04 Jun 2027 10:35:50.336           138.222                  Delhi          4319.438
       426   04 Jun 2027 10:46:18.749   04 Jun 2027 10:46:31.347            12.598              Murmansk1           393.687
       427   04 Jun 2027 10:46:35.933   04 Jun 2027 10:46:46.160            10.227                Norilsk           319.594
       428   04 Jun 2027 10:46:52.152   04 Jun 2027 10:47:11.111            18.959                 Moscow           592.469
       429   04 Jun 2027 10:47:16.319   04 Jun 2027 10:48:06.664            50.345                Norilsk          1573.281
       430   04 Jun 2027 10:48:17.816   04 Jun 2027 10:49:06.255            48.439              Murmansk1          1513.719
       431   04 Jun 2027 10:49:21.760   04 Jun 2027 10:49:54.995            33.235                Norilsk          1038.594
       432   04 Jun 2027 10:49:57.326   04 Jun 2027 10:50:35.214            37.888              Murmansk1          1184.000
       433   04 Jun 2027 10:50:40.086   04 Jun 2027 10:51:24.217            44.131                Novosib          1379.094
       434   04 Jun 2027 12:17:25.724   04 Jun 2027 12:21:26.230           240.506                 Moscow          7515.812
       435   04 Jun 2027 12:21:34.473   04 Jun 2027 12:22:24.055            49.582              Murmansk2          1549.438
       436   04 Jun 2027 12:22:24.533   04 Jun 2027 12:23:07.075            42.542              Murmansk1          1329.437
       437   04 Jun 2027 12:24:04.661   04 Jun 2027 12:24:12.329             7.668              Murmansk1           239.625
       438   04 Jun 2027 12:26:09.788   04 Jun 2027 12:26:52.128            42.340              Murmansk1          1323.125
       439   04 Jun 2027 13:31:26.140   04 Jun 2027 13:34:34.971           188.831               CapeTown          5900.969
       440   04 Jun 2027 13:42:29.374   04 Jun 2027 13:43:10.970            41.596               CapeTown          1299.875
       441   04 Jun 2027 13:58:27.239   04 Jun 2027 13:58:48.086            20.847              Murmansk2           651.469
       442   04 Jun 2027 13:58:54.930   04 Jun 2027 14:00:42.765           107.835              Murmansk1          3369.844
       443   04 Jun 2027 14:03:01.691   04 Jun 2027 14:03:22.093            20.402              Murmansk1           637.562
       444   04 Jun 2027 14:06:17.296   04 Jun 2027 14:06:20.628             3.332              Murmansk2           104.125
       445   04 Jun 2027 14:11:46.448   04 Jun 2027 14:13:58.467           132.019                Anadyr1          4125.594
       446   04 Jun 2027 14:14:09.878   04 Jun 2027 14:16:20.553           130.675                Anadyr2          4083.594
       447   04 Jun 2027 15:38:28.204   04 Jun 2027 15:38:34.879             6.675              Murmansk2           208.594
       448   04 Jun 2027 15:38:37.757   04 Jun 2027 15:39:49.043            71.286              Murmansk1          2227.688
       449   04 Jun 2027 15:41:26.367   04 Jun 2027 15:41:46.127            19.760              Murmansk1           617.500
       450   04 Jun 2027 15:47:27.415   04 Jun 2027 15:47:39.373            11.958                Anadyr2           373.688
       451   04 Jun 2027 15:48:12.031   04 Jun 2027 15:49:03.556            51.525                Anadyr2          1610.156
       452   04 Jun 2027 15:49:38.484   04 Jun 2027 15:50:34.346            55.862                Anadyr1          1745.688
       453   04 Jun 2027 15:50:44.488   04 Jun 2027 15:51:04.573            20.085                Anadyr1           627.656
       454   04 Jun 2027 15:51:05.534   04 Jun 2027 15:54:49.474           223.940               Magadan1          6998.125
       455   04 Jun 2027 15:56:07.974   04 Jun 2027 15:57:25.727            77.753               Magadan1          2429.781
       456   04 Jun 2027 17:23:22.746   04 Jun 2027 17:24:18.747            56.001                Anadyr2          1750.031
       457   04 Jun 2027 17:24:28.267   04 Jun 2027 17:25:14.449            46.182                Anadyr2          1443.188
       458   04 Jun 2027 17:25:41.104   04 Jun 2027 17:27:07.262            86.158               Magadan2          2692.438
       459   04 Jun 2027 17:33:49.360   04 Jun 2027 17:35:19.199            89.839               Magadan1          2807.469
       460   04 Jun 2027 18:19:09.183   04 Jun 2027 18:22:08.814           179.631            RioGallegos          5613.469
       461   04 Jun 2027 19:01:20.623   04 Jun 2027 19:03:33.603           132.980                Norilsk          4155.625
       462   04 Jun 2027 19:04:07.901   04 Jun 2027 19:04:30.081            22.180                Norilsk           693.125
       463   04 Jun 2027 19:05:19.715   04 Jun 2027 19:05:24.867             5.152                Norilsk           161.000
       464   04 Jun 2027 19:06:05.826   04 Jun 2027 19:07:19.678            73.852                Irkutsk          2307.875
       465   04 Jun 2027 19:08:06.536   04 Jun 2027 19:11:17.821           191.285                Irkutsk          5977.656
       466   04 Jun 2027 19:12:55.504   04 Jun 2027 19:13:50.930            55.426                Irkutsk          1732.063
       467   04 Jun 2027 19:20:43.784   04 Jun 2027 19:23:28.259           164.475                Sumatra          5139.844
       468   04 Jun 2027 19:25:53.237   04 Jun 2027 19:27:21.958            88.721                Sumatra          2772.531
       469   04 Jun 2027 20:43:27.512   04 Jun 2027 20:43:59.448            31.936                Novosib           998.000
       470   04 Jun 2027 20:50:58.053   04 Jun 2027 20:54:28.933           210.880                  Delhi          6590.000
       471   04 Jun 2027 22:15:57.468   04 Jun 2027 22:21:54.734           357.266              Murmansk1         11164.563
       472   04 Jun 2027 23:47:35.772   04 Jun 2027 23:48:23.918            48.146               Magadan1          1504.562
       473   04 Jun 2027 23:49:16.381   04 Jun 2027 23:49:38.039            21.658               Magadan2           676.813
       474   04 Jun 2027 23:50:12.487   04 Jun 2027 23:51:10.550            58.063               Magadan1          1814.469
       475   04 Jun 2027 23:51:17.893   04 Jun 2027 23:55:27.767           249.874              Murmansk2          7808.562
       476   04 Jun 2027 23:57:33.719   04 Jun 2027 23:57:58.439            24.720                 Moscow           772.500
       477   05 Jun 2027 00:02:56.712   05 Jun 2027 00:03:00.660             3.948                 Moscow           123.375
       478   05 Jun 2027 00:04:15.394   05 Jun 2027 00:05:17.009            61.615                 Moscow          1925.469
       479   05 Jun 2027 00:20:42.385   05 Jun 2027 00:21:45.897            63.512               CapeTown          1984.750
       480   05 Jun 2027 00:22:32.457   05 Jun 2027 00:23:19.838            47.381               CapeTown          1480.656
       481   05 Jun 2027 00:25:25.682   05 Jun 2027 00:26:55.427            89.745               CapeTown          2804.531
       482   05 Jun 2027 01:27:13.695   05 Jun 2027 01:28:19.914            66.219              Murmansk2          2069.344
