uniorb/output/strategy_1/Drop/Drop_KinoSat_111802.txt

KinoSat_111802
-------------------------
    Access    *     Start Time (UTCG)     *     Stop Time (UTCG)  *   Duration (s)        *       Station  *  Data (Mbytes)
         1   01 Jun 2027 03:36:15.261   01 Jun 2027 03:37:16.565            61.304                Novosib          1915.750
         2   01 Jun 2027 03:37:37.329   01 Jun 2027 03:40:58.388           201.059              Murmansk1          6283.094
         3   01 Jun 2027 03:41:16.455   01 Jun 2027 03:42:35.578            79.123                  Delhi          2472.594
         4   01 Jun 2027 03:45:02.945   01 Jun 2027 03:45:38.451            35.506                  Delhi          1109.562
         5   01 Jun 2027 05:13:01.377   01 Jun 2027 05:13:39.798            38.421                Novosib          1200.656
         6   01 Jun 2027 05:15:11.946   01 Jun 2027 05:15:33.982            22.036              Murmansk1           688.625
         7   01 Jun 2027 05:15:35.585   01 Jun 2027 05:16:00.424            24.839                Norilsk           776.219
         8   01 Jun 2027 05:16:17.794   01 Jun 2027 05:16:55.298            37.504              Murmansk1          1172.000
         9   01 Jun 2027 05:16:55.298   01 Jun 2027 05:17:11.727            16.429              Murmansk2           513.406
        10   01 Jun 2027 05:17:15.771   01 Jun 2027 05:18:28.314            72.543                Novosib          2266.969
        11   01 Jun 2027 05:18:39.007   01 Jun 2027 05:20:00.592            81.585              Murmansk2          2549.531
        12   01 Jun 2027 05:20:22.231   01 Jun 2027 05:23:39.003           196.772                 Moscow          6149.125
        13   01 Jun 2027 05:35:02.067   01 Jun 2027 05:37:50.922           168.855               CapeTown          5276.719
        14   01 Jun 2027 06:39:18.686   01 Jun 2027 06:42:33.212           194.526                Anadyr1          6078.937
        15   01 Jun 2027 06:42:43.140   01 Jun 2027 06:43:13.593            30.453                Anadyr1           951.656
        16   01 Jun 2027 06:43:22.453   01 Jun 2027 06:43:28.787             6.334               Magadan2           197.937
        17   01 Jun 2027 06:43:28.787   01 Jun 2027 06:43:46.511            17.724               Magadan1           553.875
        18   01 Jun 2027 06:49:59.933   01 Jun 2027 06:54:05.934           246.001                 Moscow          7687.531
        19   01 Jun 2027 07:12:10.208   01 Jun 2027 07:12:35.217            25.009               CapeTown           781.531
        20   01 Jun 2027 07:15:42.578   01 Jun 2027 07:17:06.035            83.457               CapeTown          2608.031
        21   01 Jun 2027 08:14:46.732   01 Jun 2027 08:17:48.910           182.178               Magadan1          5693.062
        22   01 Jun 2027 08:18:07.297   01 Jun 2027 08:20:19.849           132.552                Anadyr2          4142.250
        23   01 Jun 2027 09:47:27.708   01 Jun 2027 09:48:05.352            37.644               Magadan2          1176.375
        24   01 Jun 2027 09:48:13.583   01 Jun 2027 09:49:01.971            48.388               Magadan2          1512.125
        25   01 Jun 2027 09:49:20.026   01 Jun 2027 09:50:29.826            69.800                Anadyr2          2181.250
        26   01 Jun 2027 09:50:35.220   01 Jun 2027 09:52:07.507            92.287               Magadan2          2883.969
        27   01 Jun 2027 09:52:29.949   01 Jun 2027 09:55:34.944           184.995                Anadyr2          5781.094
        28   01 Jun 2027 11:23:51.341   01 Jun 2027 11:30:30.509           399.168               Magadan2         12474.000
        29   01 Jun 2027 14:37:39.588   01 Jun 2027 14:39:49.706           130.118                Irkutsk          4066.188
        30   01 Jun 2027 16:21:31.787   01 Jun 2027 16:22:37.086            65.299                Norilsk          2040.594
        31   01 Jun 2027 19:02:28.017   01 Jun 2027 19:03:26.611            58.594               CapeTown          1831.062
        32   01 Jun 2027 19:29:25.461   01 Jun 2027 19:34:49.698           324.237              Murmansk2         10132.406
        33   01 Jun 2027 19:35:23.727   01 Jun 2027 19:37:28.281           124.554              Murmansk1          3892.312
        34   01 Jun 2027 20:38:32.902   01 Jun 2027 20:42:14.627           221.725               CapeTown          6928.906
        35   01 Jun 2027 21:18:13.913   01 Jun 2027 21:19:22.560            68.647               Magadan2          2145.219
        36   01 Jun 2027 21:19:53.615   01 Jun 2027 21:20:23.553            29.938               Magadan2           935.563
        37   01 Jun 2027 21:22:13.862   01 Jun 2027 21:22:37.171            23.309               Magadan2           728.406
        38   01 Jun 2027 21:23:10.194   01 Jun 2027 21:23:32.823            22.629               Magadan2           707.156
        39   01 Jun 2027 22:51:44.834   01 Jun 2027 22:56:49.292           304.458                Anadyr2          9514.312
        40   01 Jun 2027 22:56:49.487   01 Jun 2027 22:59:13.711           144.224               Magadan2          4507.000
        41   01 Jun 2027 22:59:29.742   01 Jun 2027 23:00:25.567            55.825                Irkutsk          1744.531
        42   01 Jun 2027 23:01:44.056   01 Jun 2027 23:03:05.366            81.310                Irkutsk          2540.938
        43   01 Jun 2027 23:15:57.755   01 Jun 2027 23:16:52.545            54.790                Sumatra          1712.187
        44   01 Jun 2027 23:18:37.220   01 Jun 2027 23:19:27.775            50.555                Sumatra          1579.844
        45   01 Jun 2027 23:45:51.181   01 Jun 2027 23:46:46.017            54.836            RioGallegos          1713.625
        46   01 Jun 2027 23:47:54.540   01 Jun 2027 23:48:09.628            15.088            RioGallegos           471.500
        47   01 Jun 2027 23:50:56.856   01 Jun 2027 23:51:05.329             8.473            RioGallegos           264.781
        48   01 Jun 2027 23:55:21.633   01 Jun 2027 23:55:59.081            37.448            RioGallegos          1170.250
        49   01 Jun 2027 23:57:17.206   01 Jun 2027 23:57:30.772            13.566            RioGallegos           423.937
        50   02 Jun 2027 00:27:11.447   02 Jun 2027 00:28:37.340            85.893                Anadyr1          2684.156
        51   02 Jun 2027 00:29:34.867   02 Jun 2027 00:31:21.605           106.738                Norilsk          3335.562
        52   02 Jun 2027 00:31:43.936   02 Jun 2027 00:32:01.344            17.408               Magadan1           544.000
        53   02 Jun 2027 00:32:29.539   02 Jun 2027 00:33:05.646            36.107               Magadan2          1128.344
        54   02 Jun 2027 00:33:35.353   02 Jun 2027 00:35:14.736            99.383                Irkutsk          3105.719
        55   02 Jun 2027 00:36:23.198   02 Jun 2027 00:36:51.894            28.696                Novosib           896.750
        56   02 Jun 2027 00:43:22.821   02 Jun 2027 00:44:19.376            56.555                Irkutsk          1767.344
        57   02 Jun 2027 00:47:18.033   02 Jun 2027 00:49:52.295           154.262                Sumatra          4820.687
        58   02 Jun 2027 01:25:27.732   02 Jun 2027 01:26:22.897            55.165            RioGallegos          1723.906
        59   02 Jun 2027 01:30:30.845   02 Jun 2027 01:30:35.080             4.235            RioGallegos           132.344
        60   02 Jun 2027 01:31:09.598   02 Jun 2027 01:31:54.300            44.702            RioGallegos          1396.937
        61   02 Jun 2027 02:01:34.679   02 Jun 2027 02:01:38.114             3.435                Anadyr2           107.344
        62   02 Jun 2027 02:01:41.686   02 Jun 2027 02:02:24.308            42.622                Anadyr2          1331.938
        63   02 Jun 2027 02:03:37.325   02 Jun 2027 02:03:56.531            19.206                Anadyr1           600.187
        64   02 Jun 2027 02:05:35.162   02 Jun 2027 02:06:54.154            78.992                Norilsk          2468.500
        65   02 Jun 2027 02:07:04.706   02 Jun 2027 02:07:20.703            15.997                Norilsk           499.906
        66   02 Jun 2027 02:09:06.512   02 Jun 2027 02:09:25.117            18.605              Murmansk1           581.406
        67   02 Jun 2027 02:09:26.490   02 Jun 2027 02:11:49.277           142.787                Novosib          4462.094
        68   02 Jun 2027 02:16:29.959   02 Jun 2027 02:16:42.277            12.318                Novosib           384.937
        69   02 Jun 2027 02:16:52.668   02 Jun 2027 02:17:45.857            53.189                  Delhi          1662.156
        70   02 Jun 2027 02:24:49.724   02 Jun 2027 02:24:58.373             8.649                  Delhi           270.281
        71   02 Jun 2027 02:26:23.030   02 Jun 2027 02:27:11.882            48.852                  Delhi          1526.625
        72   02 Jun 2027 02:58:17.374   02 Jun 2027 02:58:39.076            21.702            RioGallegos           678.187
        73   02 Jun 2027 02:59:30.803   02 Jun 2027 03:00:25.978            55.175            RioGallegos          1724.219
        74   02 Jun 2027 03:00:58.992   02 Jun 2027 03:02:44.799           105.807            RioGallegos          3306.469
        75   02 Jun 2027 03:06:04.303   02 Jun 2027 03:06:51.640            47.337            RioGallegos          1479.281
        76   02 Jun 2027 03:48:23.959   02 Jun 2027 03:48:41.027            17.068                Norilsk           533.375
        77   02 Jun 2027 03:48:47.641   02 Jun 2027 03:50:22.299            94.658                Irkutsk          2958.062
        78   02 Jun 2027 03:50:31.489   02 Jun 2027 03:51:03.851            32.362              Murmansk2          1011.313
        79   02 Jun 2027 03:51:18.780   02 Jun 2027 03:53:53.627           154.847              Murmansk2          4838.969
        80   02 Jun 2027 03:54:07.881   02 Jun 2027 03:55:00.013            52.132                Novosib          1629.125
        81   02 Jun 2027 03:55:17.391   02 Jun 2027 03:56:40.391            83.000                Novosib          2593.750
        82   02 Jun 2027 05:26:53.149   02 Jun 2027 05:27:51.483            58.334              Murmansk1          1822.938
        83   02 Jun 2027 05:27:51.483   02 Jun 2027 05:28:30.602            39.119              Murmansk2          1222.469
        84   02 Jun 2027 05:28:48.762   02 Jun 2027 05:29:06.276            17.514                Norilsk           547.313
        85   02 Jun 2027 05:29:17.098   02 Jun 2027 05:32:13.131           176.033              Murmansk1          5501.031
        86   02 Jun 2027 05:32:27.902   02 Jun 2027 05:32:31.532             3.630                 Moscow           113.438
        87   02 Jun 2027 05:33:34.727   02 Jun 2027 05:33:39.593             4.866                 Moscow           152.063
        88   02 Jun 2027 05:35:14.438   02 Jun 2027 05:35:46.671            32.233                 Moscow          1007.281
        89   02 Jun 2027 05:49:37.546   02 Jun 2027 05:51:03.838            86.292               CapeTown          2696.625
        90   02 Jun 2027 05:51:45.093   02 Jun 2027 05:52:57.628            72.535               CapeTown          2266.719
        91   02 Jun 2027 05:55:34.055   02 Jun 2027 05:56:25.211            51.156               CapeTown          1598.625
        92   02 Jun 2027 06:50:57.978   02 Jun 2027 06:51:21.856            23.878               Magadan2           746.187
        93   02 Jun 2027 06:51:29.126   02 Jun 2027 06:55:00.114           210.988                Anadyr1          6593.375
        94   02 Jun 2027 07:02:06.481   02 Jun 2027 07:02:56.794            50.313                 Moscow          1572.281
        95   02 Jun 2027 07:04:27.864   02 Jun 2027 07:04:40.053            12.189                 Moscow           380.906
        96   02 Jun 2027 07:04:56.177   02 Jun 2027 07:05:05.921             9.744                 Moscow           304.500
        97   02 Jun 2027 07:31:03.707   02 Jun 2027 07:32:31.768            88.061               CapeTown          2751.906
        98   02 Jun 2027 08:26:18.803   02 Jun 2027 08:27:48.707            89.904               Magadan2          2809.500
        99   02 Jun 2027 08:27:48.707   02 Jun 2027 08:28:12.481            23.774               Magadan1           742.937
       100   02 Jun 2027 08:28:31.978   02 Jun 2027 08:30:25.562           113.584                Anadyr1          3549.500
       101   02 Jun 2027 08:30:25.562   02 Jun 2027 08:30:53.669            28.107                Anadyr2           878.344
       102   02 Jun 2027 08:31:04.473   02 Jun 2027 08:32:05.828            61.355               Magadan1          1917.344
       103   02 Jun 2027 09:59:16.463   02 Jun 2027 10:00:30.262            73.799               Magadan1          2306.219
       104   02 Jun 2027 10:00:40.939   02 Jun 2027 10:01:13.451            32.512               Magadan1          1016.000
       105   02 Jun 2027 10:01:40.939   02 Jun 2027 10:07:21.712           340.773                Anadyr2         10649.156
       106   02 Jun 2027 11:36:25.965   02 Jun 2027 11:42:11.366           345.401               Magadan1         10793.781
       107   02 Jun 2027 13:07:43.651   02 Jun 2027 13:07:48.246             4.595                Irkutsk           143.594
       108   02 Jun 2027 13:08:41.907   02 Jun 2027 13:09:47.543            65.636                Irkutsk          2051.125
       109   02 Jun 2027 13:11:57.151   02 Jun 2027 13:15:46.301           229.150                Irkutsk          7160.937
       110   02 Jun 2027 13:59:26.007   02 Jun 2027 14:04:38.515           312.508            RioGallegos          9765.875
       111   02 Jun 2027 14:49:24.119   02 Jun 2027 14:50:40.669            76.550                Novosib          2392.188
       112   02 Jun 2027 16:21:54.654   02 Jun 2027 16:24:31.340           156.686                 Moscow          4896.438
       113   02 Jun 2027 16:25:22.750   02 Jun 2027 16:26:35.856            73.106              Murmansk2          2284.562
       114   02 Jun 2027 16:29:43.185   02 Jun 2027 16:35:35.860           352.675                Norilsk         11021.094
       115   02 Jun 2027 17:45:19.436   02 Jun 2027 17:45:38.077            18.641               CapeTown           582.531
       116   02 Jun 2027 17:46:46.503   02 Jun 2027 17:47:12.124            25.621               CapeTown           800.656
       117   02 Jun 2027 17:59:30.859   02 Jun 2027 18:00:17.993            47.134                 Moscow          1472.937
       118   02 Jun 2027 18:02:34.071   02 Jun 2027 18:03:12.931            38.860              Murmansk1          1214.375
       119   02 Jun 2027 18:04:03.725   02 Jun 2027 18:04:45.102            41.377                 Moscow          1293.031
       120   02 Jun 2027 18:06:18.278   02 Jun 2027 18:07:25.957            67.679              Murmansk2          2114.969
       121   02 Jun 2027 18:09:30.808   02 Jun 2027 18:09:43.489            12.681                 Moscow           396.281
       122   02 Jun 2027 18:10:25.867   02 Jun 2027 18:10:56.110            30.243              Murmansk1           945.094
       123   02 Jun 2027 18:13:11.085   02 Jun 2027 18:13:56.159            45.074              Murmansk1          1408.562
       124   02 Jun 2027 18:22:47.563   02 Jun 2027 18:22:57.150             9.587                Anadyr1           299.594
       125   02 Jun 2027 18:24:49.767   02 Jun 2027 18:25:14.831            25.064                Anadyr2           783.250
       126   02 Jun 2027 18:25:47.599   02 Jun 2027 18:26:13.786            26.187                Anadyr2           818.344
       127   02 Jun 2027 19:11:28.183   02 Jun 2027 19:12:37.249            69.066               CapeTown          2158.312
       128   02 Jun 2027 19:13:15.379   02 Jun 2027 19:14:19.954            64.575               CapeTown          2017.969
       129   02 Jun 2027 19:19:49.036   02 Jun 2027 19:20:17.256            28.220               CapeTown           881.875
       130   02 Jun 2027 19:21:09.815   02 Jun 2027 19:22:47.385            97.570               CapeTown          3049.063
       131   02 Jun 2027 19:42:04.238   02 Jun 2027 19:47:39.646           335.408              Murmansk2         10481.500
       132   02 Jun 2027 19:49:29.058   02 Jun 2027 19:49:57.778            28.720              Murmansk1           897.500
       133   02 Jun 2027 21:27:53.938   02 Jun 2027 21:32:49.578           295.640                Anadyr2          9238.750
       134   02 Jun 2027 21:32:55.876   02 Jun 2027 21:34:36.767           100.891               Magadan1          3152.844
       135   02 Jun 2027 21:35:58.475   02 Jun 2027 21:36:41.986            43.511               Magadan1          1359.719
       136   02 Jun 2027 21:38:20.185   02 Jun 2027 21:40:01.271           101.086               Magadan1          3158.937
       137   02 Jun 2027 22:24:41.326   02 Jun 2027 22:26:01.711            80.385            RioGallegos          2512.031
       138   02 Jun 2027 22:26:37.807   02 Jun 2027 22:26:48.248            10.441            RioGallegos           326.281
       139   02 Jun 2027 22:28:22.503   02 Jun 2027 22:28:48.884            26.381            RioGallegos           824.406
       140   02 Jun 2027 23:03:44.898   02 Jun 2027 23:06:55.846           190.948                Anadyr2          5967.125
       141   02 Jun 2027 23:07:01.930   02 Jun 2027 23:07:33.100            31.170                Norilsk           974.062
       142   02 Jun 2027 23:07:41.107   02 Jun 2027 23:08:50.615            69.508               Magadan1          2172.125
       143   02 Jun 2027 23:09:31.830   02 Jun 2027 23:10:40.970            69.140               Magadan2          2160.625
       144   02 Jun 2027 23:12:07.698   02 Jun 2027 23:12:30.211            22.513                Irkutsk           703.531
       145   02 Jun 2027 23:14:03.877   02 Jun 2027 23:14:32.910            29.033                Irkutsk           907.281
       146   02 Jun 2027 23:15:23.601   02 Jun 2027 23:16:12.028            48.427                Irkutsk          1513.344
       147   02 Jun 2027 23:18:47.872   02 Jun 2027 23:18:56.477             8.605                Irkutsk           268.906
       148   02 Jun 2027 23:26:22.864   02 Jun 2027 23:28:12.672           109.808                Sumatra          3431.500
       149   03 Jun 2027 00:02:31.382   03 Jun 2027 00:02:51.265            19.883            RioGallegos           621.344
       150   03 Jun 2027 00:03:42.326   03 Jun 2027 00:04:33.795            51.469            RioGallegos          1608.406
       151   03 Jun 2027 00:05:53.897   03 Jun 2027 00:06:04.530            10.633            RioGallegos           332.281
       152   03 Jun 2027 00:07:13.816   03 Jun 2027 00:08:02.259            48.443            RioGallegos          1513.844
       153   03 Jun 2027 00:09:41.628   03 Jun 2027 00:10:04.516            22.888            RioGallegos           715.250
       154   03 Jun 2027 00:39:05.728   03 Jun 2027 00:39:49.788            44.060                Anadyr1          1376.875
       155   03 Jun 2027 00:40:51.378   03 Jun 2027 00:41:02.816            11.438                Anadyr2           357.437
       156   03 Jun 2027 00:41:19.620   03 Jun 2027 00:41:48.654            29.034                Anadyr1           907.313
       157   03 Jun 2027 00:42:03.194   03 Jun 2027 00:42:16.753            13.559                Anadyr1           423.719
       158   03 Jun 2027 00:42:33.302   03 Jun 2027 00:43:56.580            83.278               Magadan1          2602.437
       159   03 Jun 2027 00:44:07.503   03 Jun 2027 00:45:43.521            96.018               Magadan1          3000.563
       160   03 Jun 2027 00:48:37.083   03 Jun 2027 00:48:39.558             2.475                Irkutsk            77.344
       161   03 Jun 2027 00:48:48.695   03 Jun 2027 00:49:10.508            21.813                Irkutsk           681.656
       162   03 Jun 2027 00:50:06.722   03 Jun 2027 00:50:40.647            33.925                Novosib          1060.156
       163   03 Jun 2027 00:52:04.086   03 Jun 2027 00:52:19.369            15.283                Novosib           477.594
       164   03 Jun 2027 00:53:00.444   03 Jun 2027 00:54:12.951            72.507                Novosib          2265.844
       165   03 Jun 2027 00:57:14.883   03 Jun 2027 00:57:39.664            24.781                Irkutsk           774.406
       166   03 Jun 2027 01:02:25.970   03 Jun 2027 01:03:40.920            74.950                Sumatra          2342.188
       167   03 Jun 2027 01:08:11.382   03 Jun 2027 01:08:47.492            36.110                Sumatra          1128.438
       168   03 Jun 2027 01:09:03.592   03 Jun 2027 01:11:02.724           119.132                Sumatra          3722.875
       169   03 Jun 2027 02:15:20.553   03 Jun 2027 02:15:47.854            27.301                Anadyr2           853.156
       170   03 Jun 2027 02:16:48.628   03 Jun 2027 02:17:25.119            36.491                Anadyr1          1140.344
       171   03 Jun 2027 02:17:37.516   03 Jun 2027 02:18:31.135            53.619                Norilsk          1675.594
       172   03 Jun 2027 02:20:10.823   03 Jun 2027 02:20:13.507             2.684                Norilsk            83.875
       173   03 Jun 2027 02:20:39.002   03 Jun 2027 02:20:49.882            10.880                Norilsk           340.000
       174   03 Jun 2027 02:20:59.289   03 Jun 2027 02:21:27.949            28.660              Murmansk2           895.625
       175   03 Jun 2027 02:21:27.949   03 Jun 2027 02:21:38.724            10.775              Murmansk1           336.719
       176   03 Jun 2027 02:22:06.631   03 Jun 2027 02:22:55.007            48.376                Irkutsk          1511.750
       177   03 Jun 2027 02:26:26.671   03 Jun 2027 02:27:00.103            33.432                Irkutsk          1044.750
       178   03 Jun 2027 02:29:01.219   03 Jun 2027 02:29:12.230            11.011                Novosib           344.094
       179   03 Jun 2027 02:29:49.023   03 Jun 2027 02:30:07.044            18.021                Novosib           563.156
       180   03 Jun 2027 02:30:08.336   03 Jun 2027 02:31:00.634            52.298                Irkutsk          1634.313
       181   03 Jun 2027 02:35:41.793   03 Jun 2027 02:36:08.626            26.833                  Delhi           838.531
       182   03 Jun 2027 02:37:20.177   03 Jun 2027 02:38:21.315            61.138                  Delhi          1910.563
       183   03 Jun 2027 03:10:32.753   03 Jun 2027 03:11:30.067            57.314            RioGallegos          1791.062
       184   03 Jun 2027 03:13:11.264   03 Jun 2027 03:14:33.293            82.029            RioGallegos          2563.406
       185   03 Jun 2027 03:15:00.517   03 Jun 2027 03:15:14.455            13.938            RioGallegos           435.563
       186   03 Jun 2027 03:17:46.293   03 Jun 2027 03:18:11.173            24.880            RioGallegos           777.500
       187   03 Jun 2027 04:01:27.484   03 Jun 2027 04:04:48.528           201.044                Novosib          6282.625
       188   03 Jun 2027 04:04:59.651   03 Jun 2027 04:06:09.490            69.839                Norilsk          2182.469
       189   03 Jun 2027 04:11:19.542   03 Jun 2027 04:14:32.336           192.794                  Delhi          6024.812
       190   03 Jun 2027 05:38:56.270   03 Jun 2027 05:39:21.231            24.961                Novosib           780.031
       191   03 Jun 2027 05:39:53.789   03 Jun 2027 05:43:06.213           192.424              Murmansk2          6013.250
       192   03 Jun 2027 05:43:39.435   03 Jun 2027 05:44:00.909            21.474              Murmansk2           671.062
       193   03 Jun 2027 06:09:07.159   03 Jun 2027 06:10:53.537           106.378               CapeTown          3324.312
       194   03 Jun 2027 07:03:10.593   03 Jun 2027 07:03:20.500             9.907               Magadan2           309.594
       195   03 Jun 2027 07:03:32.278   03 Jun 2027 07:04:03.998            31.720               Magadan2           991.250
       196   03 Jun 2027 07:04:34.375   03 Jun 2027 07:05:43.594            69.219               Magadan2          2163.094
       197   03 Jun 2027 08:39:46.102   03 Jun 2027 08:44:07.859           261.757               Magadan2          8179.906
       198   03 Jun 2027 10:08:12.275   03 Jun 2027 10:09:05.736            53.461               Magadan1          1670.656
       199   03 Jun 2027 10:12:16.151   03 Jun 2027 10:13:53.091            96.940               Magadan2          3029.375
       200   03 Jun 2027 10:13:53.091   03 Jun 2027 10:18:04.775           251.684               Magadan1          7865.125
       201   03 Jun 2027 10:18:04.775   03 Jun 2027 10:18:09.326             4.551               Magadan2           142.219
       202   03 Jun 2027 10:18:47.533   03 Jun 2027 10:19:50.010            62.477               Magadan2          1952.406
       203   03 Jun 2027 11:00:14.054   03 Jun 2027 11:00:39.881            25.827            RioGallegos           807.094
       204   03 Jun 2027 11:31:51.486   03 Jun 2027 11:33:49.683           118.197                Sumatra          3693.656
       205   03 Jun 2027 11:48:54.958   03 Jun 2027 11:49:29.861            34.903                Novosib          1090.719
       206   03 Jun 2027 11:49:41.974   03 Jun 2027 11:50:52.742            70.768                Norilsk          2211.500
       207   03 Jun 2027 11:50:56.664   03 Jun 2027 11:51:12.463            15.799                Irkutsk           493.719
       208   03 Jun 2027 11:51:18.806   03 Jun 2027 11:53:24.538           125.732               Magadan1          3929.125
       209   03 Jun 2027 11:53:43.209   03 Jun 2027 11:54:41.418            58.209                Norilsk          1819.031
       210   03 Jun 2027 11:54:52.276   03 Jun 2027 11:55:09.239            16.963              Murmansk1           530.094
       211   03 Jun 2027 11:55:10.549   03 Jun 2027 11:56:19.260            68.711              Murmansk1          2147.219
       212   03 Jun 2027 12:01:20.436   03 Jun 2027 12:01:29.753             9.317              Murmansk2           291.156
       213   03 Jun 2027 12:02:20.416   03 Jun 2027 12:02:34.936            14.520              Murmansk2           453.750
       214   03 Jun 2027 12:02:34.936   03 Jun 2027 12:02:51.947            17.011              Murmansk1           531.594
       215   03 Jun 2027 12:32:14.751   03 Jun 2027 12:33:20.464            65.713            RioGallegos          2053.531
       216   03 Jun 2027 12:35:32.803   03 Jun 2027 12:35:39.974             7.171            RioGallegos           224.094
       217   03 Jun 2027 12:36:22.350   03 Jun 2027 12:36:25.030             2.680            RioGallegos            83.750
       218   03 Jun 2027 12:39:24.592   03 Jun 2027 12:40:17.516            52.924            RioGallegos          1653.875
       219   03 Jun 2027 12:40:49.272   03 Jun 2027 12:41:51.615            62.343            RioGallegos          1948.219
       220   03 Jun 2027 12:42:58.124   03 Jun 2027 12:43:04.607             6.483            RioGallegos           202.594
       221   03 Jun 2027 13:08:22.948   03 Jun 2027 13:09:53.587            90.639                Sumatra          2832.469
       222   03 Jun 2027 13:11:30.487   03 Jun 2027 13:13:47.191           136.704                Sumatra          4272.000
       223   03 Jun 2027 13:23:57.315   03 Jun 2027 13:25:07.574            70.259                Irkutsk          2195.594
       224   03 Jun 2027 13:25:15.126   03 Jun 2027 13:27:43.380           148.254                Irkutsk          4632.937
       225   03 Jun 2027 13:30:32.132   03 Jun 2027 13:31:10.925            38.793                Irkutsk          1212.281
       226   03 Jun 2027 14:14:07.923   03 Jun 2027 14:14:30.980            23.057            RioGallegos           720.531
       227   03 Jun 2027 14:50:00.022   03 Jun 2027 14:50:31.545            31.523                  Delhi           985.094
       228   03 Jun 2027 14:54:32.506   03 Jun 2027 14:54:56.906            24.400                  Delhi           762.500
       229   03 Jun 2027 14:57:40.854   03 Jun 2027 14:59:52.710           131.856                  Delhi          4120.500
       230   03 Jun 2027 15:01:23.566   03 Jun 2027 15:02:30.097            66.531                Novosib          2079.094
       231   03 Jun 2027 15:03:08.225   03 Jun 2027 15:03:24.513            16.288                Novosib           509.000
       232   03 Jun 2027 15:07:11.180   03 Jun 2027 15:08:09.230            58.050                Norilsk          1814.063
       233   03 Jun 2027 16:33:57.303   03 Jun 2027 16:37:02.282           184.979                 Moscow          5780.594
       234   03 Jun 2027 16:40:23.065   03 Jun 2027 16:40:44.898            21.833              Murmansk2           682.281
       235   03 Jun 2027 16:41:58.570   03 Jun 2027 16:42:19.656            21.086                 Moscow           658.938
       236   03 Jun 2027 16:42:31.555   03 Jun 2027 16:46:59.954           268.399                Norilsk          8387.469
       237   03 Jun 2027 16:47:21.634   03 Jun 2027 16:48:12.440            50.806                Norilsk          1587.688
       238   03 Jun 2027 18:12:03.912   03 Jun 2027 18:13:35.454            91.542                 Moscow          2860.687
       239   03 Jun 2027 18:14:54.095   03 Jun 2027 18:18:03.283           189.188              Murmansk1          5912.125
       240   03 Jun 2027 18:22:00.943   03 Jun 2027 18:22:01.785             0.842                 Moscow            26.313
       241   03 Jun 2027 18:34:08.955   03 Jun 2027 18:34:47.923            38.968                Anadyr2          1217.750
       242   03 Jun 2027 18:38:37.984   03 Jun 2027 18:38:44.480             6.496                Anadyr1           203.000
       243   03 Jun 2027 19:23:37.831   03 Jun 2027 19:25:12.906            95.075               CapeTown          2971.094
       244   03 Jun 2027 19:31:08.366   03 Jun 2027 19:32:13.049            64.683               CapeTown          2021.344
       245   03 Jun 2027 19:54:46.973   03 Jun 2027 19:57:10.908           143.935              Murmansk2          4497.969
       246   03 Jun 2027 19:57:29.975   03 Jun 2027 20:01:30.123           240.148              Murmansk1          7504.625
       247   03 Jun 2027 21:39:55.675   03 Jun 2027 21:43:57.187           241.512                Anadyr2          7547.250
       248   03 Jun 2027 21:43:59.008   03 Jun 2027 21:45:44.185           105.177               Magadan1          3286.781
       249   03 Jun 2027 21:45:54.209   03 Jun 2027 21:46:35.155            40.946               Magadan2          1279.563
       250   03 Jun 2027 21:50:12.395   03 Jun 2027 21:50:21.260             8.865               Magadan2           277.031
       251   03 Jun 2027 21:50:38.176   03 Jun 2027 21:51:44.661            66.485               Magadan1          2077.656
       252   03 Jun 2027 22:35:45.886   03 Jun 2027 22:37:47.628           121.742            RioGallegos          3804.438
       253   03 Jun 2027 22:37:58.174   03 Jun 2027 22:38:28.735            30.561            RioGallegos           955.031
       254   03 Jun 2027 23:15:44.512   03 Jun 2027 23:17:30.304           105.792                Anadyr1          3306.000
       255   03 Jun 2027 23:17:39.561   03 Jun 2027 23:17:55.664            16.103                Anadyr1           503.219
       256   03 Jun 2027 23:18:09.794   03 Jun 2027 23:19:18.022            68.228               Magadan1          2132.125
       257   03 Jun 2027 23:19:50.770   03 Jun 2027 23:20:23.154            32.384               Magadan2          1012.000
       258   03 Jun 2027 23:20:45.641   03 Jun 2027 23:21:11.136            25.495                Norilsk           796.719
       259   03 Jun 2027 23:21:12.573   03 Jun 2027 23:21:49.170            36.597               Magadan2          1143.656
       260   03 Jun 2027 23:22:39.576   03 Jun 2027 23:23:24.891            45.315                Irkutsk          1416.094
       261   03 Jun 2027 23:24:47.009   03 Jun 2027 23:25:37.161            50.152               Magadan2          1567.250
       262   03 Jun 2027 23:27:04.455   03 Jun 2027 23:27:55.040            50.585                Irkutsk          1580.781
       263   03 Jun 2027 23:37:25.699   03 Jun 2027 23:38:05.699            40.000                Sumatra          1250.000
       264   03 Jun 2027 23:39:22.154   03 Jun 2027 23:39:52.452            30.298                Sumatra           946.813
       265   03 Jun 2027 23:46:26.306   03 Jun 2027 23:46:27.314             1.008                Sumatra            31.500
       266   04 Jun 2027 00:12:05.025   04 Jun 2027 00:12:33.356            28.331            RioGallegos           885.344
       267   04 Jun 2027 00:12:50.529   04 Jun 2027 00:13:25.753            35.224            RioGallegos          1100.750
       268   04 Jun 2027 00:16:41.034   04 Jun 2027 00:17:11.551            30.517            RioGallegos           953.656
       269   04 Jun 2027 00:21:00.877   04 Jun 2027 00:21:31.426            30.549            RioGallegos           954.656
       270   04 Jun 2027 00:50:58.874   04 Jun 2027 00:51:18.433            19.559                Anadyr1           611.219
       271   04 Jun 2027 00:51:26.938   04 Jun 2027 00:51:57.513            30.575                Anadyr2           955.469
       272   04 Jun 2027 00:52:28.231   04 Jun 2027 00:52:50.877            22.646                Anadyr2           707.687
       273   04 Jun 2027 00:53:17.016   04 Jun 2027 00:53:31.603            14.587                Anadyr2           455.844
       274   04 Jun 2027 00:53:38.739   04 Jun 2027 00:55:26.084           107.345                Norilsk          3354.531
       275   04 Jun 2027 00:55:59.886   04 Jun 2027 00:56:27.573            27.687               Magadan1           865.219
       276   04 Jun 2027 00:57:33.501   04 Jun 2027 00:58:40.481            66.980                Irkutsk          2093.125
       277   04 Jun 2027 00:58:51.522   04 Jun 2027 00:59:39.485            47.963                Irkutsk          1498.844
       278   04 Jun 2027 01:01:35.179   04 Jun 2027 01:02:21.719            46.540                Novosib          1454.375
       279   04 Jun 2027 01:08:47.935   04 Jun 2027 01:09:38.153            50.218                  Delhi          1569.312
       280   04 Jun 2027 01:14:16.031   04 Jun 2027 01:14:24.025             7.994                  Delhi           249.812
       281   04 Jun 2027 01:16:06.571   04 Jun 2027 01:17:05.794            59.223                Sumatra          1850.719
       282   04 Jun 2027 01:20:14.870   04 Jun 2027 01:21:57.148           102.278                Sumatra          3196.187
       283   04 Jun 2027 01:56:57.764   04 Jun 2027 01:57:23.486            25.722            RioGallegos           803.813
       284   04 Jun 2027 02:25:02.410   04 Jun 2027 02:25:10.920             8.510                Anadyr2           265.938
       285   04 Jun 2027 02:26:36.311   04 Jun 2027 02:26:54.390            18.079                Anadyr1           564.969
       286   04 Jun 2027 02:27:04.775   04 Jun 2027 02:27:22.276            17.501                Anadyr2           546.906
       287   04 Jun 2027 02:29:39.806   04 Jun 2027 02:30:48.135            68.329                Norilsk          2135.281
       288   04 Jun 2027 02:30:56.992   04 Jun 2027 02:31:00.243             3.251                Norilsk           101.594
       289   04 Jun 2027 02:32:26.842   04 Jun 2027 02:33:28.653            61.811              Murmansk2          1931.594
       290   04 Jun 2027 02:33:43.834   04 Jun 2027 02:35:06.134            82.300                Irkutsk          2571.875
       291   04 Jun 2027 02:39:36.647   04 Jun 2027 02:41:07.069            90.422                Irkutsk          2825.687
       292   04 Jun 2027 02:52:55.625   04 Jun 2027 02:53:34.107            38.482                  Delhi          1202.562
       293   04 Jun 2027 03:22:51.986   04 Jun 2027 03:24:12.042            80.056            RioGallegos          2501.750
       294   04 Jun 2027 03:24:47.809   04 Jun 2027 03:26:06.372            78.563            RioGallegos          2455.094
       295   04 Jun 2027 03:26:15.990   04 Jun 2027 03:27:10.115            54.125            RioGallegos          1691.406
       296   04 Jun 2027 04:11:53.507   04 Jun 2027 04:12:35.004            41.497                Irkutsk          1296.781
       297   04 Jun 2027 04:13:41.802   04 Jun 2027 04:15:23.139           101.337                Irkutsk          3166.781
       298   04 Jun 2027 04:15:34.675   04 Jun 2027 04:17:01.408            86.733                Norilsk          2710.406
       299   04 Jun 2027 04:17:04.007   04 Jun 2027 04:17:19.913            15.906              Murmansk2           497.062
       300   04 Jun 2027 04:17:28.231   04 Jun 2027 04:18:04.038            35.807                Norilsk          1118.969
       301   04 Jun 2027 04:18:24.114   04 Jun 2027 04:18:27.821             3.707              Murmansk1           115.844
       302   04 Jun 2027 04:20:49.545   04 Jun 2027 04:20:50.709             1.164                Novosib            36.375
       303   04 Jun 2027 04:21:09.838   04 Jun 2027 04:23:31.031           141.193                  Delhi          4412.281
       304   04 Jun 2027 04:25:08.828   04 Jun 2027 04:25:27.394            18.566                  Delhi           580.188
       305   04 Jun 2027 05:51:52.246   04 Jun 2027 05:52:32.067            39.821                Novosib          1244.406
       306   04 Jun 2027 05:53:15.786   04 Jun 2027 05:56:32.658           196.872              Murmansk1          6152.250
       307   04 Jun 2027 05:56:34.368   04 Jun 2027 05:58:27.712           113.344                 Moscow          3542.000
       308   04 Jun 2027 06:10:52.611   04 Jun 2027 06:13:15.557           142.946               CapeTown          4467.062
       309   04 Jun 2027 07:15:05.082   04 Jun 2027 07:15:40.542            35.460               Magadan1          1108.125
       310   04 Jun 2027 07:15:40.542   04 Jun 2027 07:16:05.532            24.990               Magadan2           780.937
       311   04 Jun 2027 07:16:13.484   04 Jun 2027 07:18:28.355           134.871                Anadyr1          4214.719
       312   04 Jun 2027 07:18:36.103   04 Jun 2027 07:19:49.404            73.301               Magadan1          2290.656
       313   04 Jun 2027 07:54:18.789   04 Jun 2027 07:54:59.089            40.300               CapeTown          1259.375
       314   04 Jun 2027 08:50:14.682   04 Jun 2027 08:50:24.622             9.940                Anadyr1           310.625
       315   04 Jun 2027 08:50:24.622   04 Jun 2027 08:52:32.871           128.249                Anadyr2          4007.781
       316   04 Jun 2027 08:52:50.337   04 Jun 2027 08:54:03.729            73.392               Magadan2          2293.500
       317   04 Jun 2027 08:55:15.285   04 Jun 2027 08:55:28.640            13.355                Anadyr1           417.344
       318   04 Jun 2027 09:00:59.564   04 Jun 2027 09:01:15.133            15.569                 Moscow           486.531
       319   04 Jun 2027 09:35:03.374   04 Jun 2027 09:35:18.080            14.706            RioGallegos           459.562
       320   04 Jun 2027 09:37:16.198   04 Jun 2027 09:38:17.411            61.213            RioGallegos          1912.906
       321   04 Jun 2027 10:22:15.096   04 Jun 2027 10:22:38.739            23.643               Magadan2           738.844
       322   04 Jun 2027 10:24:16.750   04 Jun 2027 10:25:45.539            88.789               Magadan2          2774.656
       323   04 Jun 2027 10:26:13.633   04 Jun 2027 10:26:54.763            41.130                Norilsk          1285.312
       324   04 Jun 2027 10:26:57.284   04 Jun 2027 10:27:37.294            40.010                Irkutsk          1250.312
       325   04 Jun 2027 10:27:41.790   04 Jun 2027 10:30:26.109           164.319                Anadyr1          5134.969
       326   04 Jun 2027 10:30:31.295   04 Jun 2027 10:30:58.082            26.787               Magadan2           837.094
       327   04 Jun 2027 10:31:08.401   04 Jun 2027 10:31:43.846            35.445                Novosib          1107.656
       328   04 Jun 2027 10:31:45.979   04 Jun 2027 10:31:55.642             9.663              Murmansk2           301.969
       329   04 Jun 2027 10:32:22.752   04 Jun 2027 10:33:01.062            38.310              Murmansk1          1197.188
       330   04 Jun 2027 11:06:42.848   04 Jun 2027 11:07:47.077            64.229            RioGallegos          2007.156
       331   04 Jun 2027 11:43:04.092   04 Jun 2027 11:43:10.827             6.735                Sumatra           210.469
       332   04 Jun 2027 11:44:48.381   04 Jun 2027 11:45:42.911            54.530                Sumatra          1704.062
       333   04 Jun 2027 12:04:31.362   04 Jun 2027 12:05:41.067            69.705                Irkutsk          2178.281
       334   04 Jun 2027 12:10:01.462   04 Jun 2027 12:10:10.882             9.420                Norilsk           294.375
       335   04 Jun 2027 12:10:31.260   04 Jun 2027 12:10:40.633             9.373              Murmansk2           292.906
       336   04 Jun 2027 12:10:52.333   04 Jun 2027 12:11:27.736            35.403              Murmansk1          1106.344
       337   04 Jun 2027 12:14:36.504   04 Jun 2027 12:15:34.579            58.075              Murmansk2          1814.844
       338   04 Jun 2027 12:48:35.435   04 Jun 2027 12:48:54.293            18.858            RioGallegos           589.312
       339   04 Jun 2027 12:51:22.832   04 Jun 2027 12:53:13.154           110.322            RioGallegos          3447.563
       340   04 Jun 2027 13:17:39.248   04 Jun 2027 13:17:58.350            19.102                Sumatra           596.937
       341   04 Jun 2027 13:22:13.080   04 Jun 2027 13:23:02.000            48.920                Sumatra          1528.750
       342   04 Jun 2027 13:26:13.815   04 Jun 2027 13:27:28.788            74.973                Sumatra          2342.906
       343   04 Jun 2027 13:36:51.175   04 Jun 2027 13:37:38.179            47.004                Irkutsk          1468.875
       344   04 Jun 2027 13:42:46.258   04 Jun 2027 13:43:05.665            19.407                Irkutsk           606.469
       345   04 Jun 2027 13:44:55.665   04 Jun 2027 13:46:05.929            70.264                Norilsk          2195.750
       346   04 Jun 2027 15:02:24.119   04 Jun 2027 15:04:11.849           107.730                  Delhi          3366.562
       347   04 Jun 2027 15:07:00.451   04 Jun 2027 15:07:34.973            34.522                  Delhi          1078.813
       348   04 Jun 2027 15:10:19.524   04 Jun 2027 15:12:23.523           123.999                  Delhi          3874.969
       349   04 Jun 2027 15:14:12.510   04 Jun 2027 15:15:33.863            81.353                Novosib          2542.281
       350   04 Jun 2027 15:18:46.484   04 Jun 2027 15:18:57.384            10.900                Norilsk           340.625
       351   04 Jun 2027 15:22:36.928   04 Jun 2027 15:24:00.760            83.832                Norilsk          2619.750
       352   04 Jun 2027 16:46:02.980   04 Jun 2027 16:49:15.945           192.965                 Moscow          6030.156
       353   04 Jun 2027 16:55:26.524   04 Jun 2027 16:59:22.136           235.612                Norilsk          7362.875
       354   04 Jun 2027 16:59:36.912   04 Jun 2027 16:59:45.002             8.090                Norilsk           252.813
       355   04 Jun 2027 18:05:37.928   04 Jun 2027 18:05:58.631            20.703               CapeTown           646.969
       356   04 Jun 2027 18:06:27.342   04 Jun 2027 18:07:03.099            35.757               CapeTown          1117.406
       357   04 Jun 2027 18:11:31.442   04 Jun 2027 18:11:58.653            27.211               CapeTown           850.344
       358   04 Jun 2027 18:24:43.224   04 Jun 2027 18:27:08.143           144.919                 Moscow          4528.719
       359   04 Jun 2027 18:27:24.165   04 Jun 2027 18:29:27.989           123.824                 Moscow          3869.500
       360   04 Jun 2027 18:45:32.396   04 Jun 2027 18:45:35.854             3.458                Anadyr2           108.062
       361   04 Jun 2027 19:35:50.892   04 Jun 2027 19:37:47.923           117.031               CapeTown          3657.219
       362   04 Jun 2027 19:43:59.313   04 Jun 2027 19:45:38.348            99.035               CapeTown          3094.844
       363   04 Jun 2027 20:07:34.565   04 Jun 2027 20:13:44.857           370.292              Murmansk1         11571.625
       364   04 Jun 2027 21:51:57.304   04 Jun 2027 21:55:44.240           226.936                Anadyr2          7091.750
       365   04 Jun 2027 21:56:01.514   04 Jun 2027 21:57:23.926            82.412               Magadan1          2575.375
       366   04 Jun 2027 21:58:07.006   04 Jun 2027 21:58:59.364            52.358               Magadan2          1636.187
       367   04 Jun 2027 21:59:18.793   04 Jun 2027 22:00:02.230            43.437               Magadan1          1357.406
       368   04 Jun 2027 22:47:13.475   04 Jun 2027 22:49:08.990           115.515            RioGallegos          3609.844
       369   04 Jun 2027 22:50:12.566   04 Jun 2027 22:50:14.431             1.865            RioGallegos            58.281
       370   04 Jun 2027 22:51:51.108   04 Jun 2027 22:51:55.326             4.218            RioGallegos           131.813
       371   04 Jun 2027 22:52:18.355   04 Jun 2027 22:53:06.111            47.756            RioGallegos          1492.375
       372   04 Jun 2027 23:27:43.606   04 Jun 2027 23:28:52.458            68.852                Anadyr1          2151.625
       373   04 Jun 2027 23:28:54.766   04 Jun 2027 23:29:16.114            21.348                Anadyr2           667.125
       374   04 Jun 2027 23:29:48.814   04 Jun 2027 23:31:27.743            98.929                Norilsk          3091.531
       375   04 Jun 2027 23:31:49.393   04 Jun 2027 23:32:01.148            11.755                Norilsk           367.344
       376   04 Jun 2027 23:32:21.892   04 Jun 2027 23:33:48.215            86.323               Magadan2          2697.594
       377   04 Jun 2027 23:34:24.663   04 Jun 2027 23:35:23.622            58.959                Irkutsk          1842.469
       378   04 Jun 2027 23:36:46.013   04 Jun 2027 23:37:08.298            22.285                Irkutsk           696.406
       379   04 Jun 2027 23:48:45.812   04 Jun 2027 23:50:04.787            78.975                Sumatra          2467.969
       380   04 Jun 2027 23:53:31.696   04 Jun 2027 23:54:07.676            35.980                Sumatra          1124.375
       381   04 Jun 2027 23:55:01.294   04 Jun 2027 23:55:22.186            20.892                Sumatra           652.875
       382   04 Jun 2027 23:57:12.822   04 Jun 2027 23:57:45.322            32.500                Sumatra          1015.625
       383   05 Jun 2027 00:30:15.968   05 Jun 2027 00:31:03.326            47.358            RioGallegos          1479.938
       384   05 Jun 2027 01:02:50.798   05 Jun 2027 01:03:28.026            37.228                Anadyr1          1163.375
       385   05 Jun 2027 01:04:07.421   05 Jun 2027 01:04:50.780            43.359                Anadyr1          1354.969
       386   05 Jun 2027 01:05:33.080   05 Jun 2027 01:05:40.211             7.131                Anadyr2           222.844
       387   05 Jun 2027 01:05:40.931   05 Jun 2027 01:07:28.261           107.330                Norilsk          3354.063
       388   05 Jun 2027 01:09:34.132   05 Jun 2027 01:11:34.890           120.758                Irkutsk          3773.688
       389   05 Jun 2027 01:12:22.205   05 Jun 2027 01:13:02.446            40.241                Novosib          1257.531
       390   05 Jun 2027 01:15:11.253   05 Jun 2027 01:15:25.499            14.246                Novosib           445.187
       391   05 Jun 2027 01:18:27.546   05 Jun 2027 01:19:09.536            41.990                Irkutsk          1312.187
       392   05 Jun 2027 01:19:17.002   05 Jun 2027 01:21:08.508           111.506                  Delhi          3484.562
       393   05 Jun 2027 01:58:35.394   05 Jun 2027 01:58:46.627            11.233            RioGallegos           351.031
       394   05 Jun 2027 01:59:24.126   05 Jun 2027 01:59:40.121            15.995            RioGallegos           499.844
       395   05 Jun 2027 02:00:35.069   05 Jun 2027 02:01:49.992            74.923            RioGallegos          2341.344
       396   05 Jun 2027 02:09:18.214   05 Jun 2027 02:09:25.020             6.806            RioGallegos           212.687
       397   05 Jun 2027 02:38:23.229   05 Jun 2027 02:38:50.136            26.907                Anadyr2           840.844
       398   05 Jun 2027 02:38:50.136   05 Jun 2027 02:39:20.303            30.167                Anadyr1           942.719
       399   05 Jun 2027 02:41:42.000   05 Jun 2027 02:42:37.876            55.876                Norilsk          1746.125
       400   05 Jun 2027 02:44:18.088   05 Jun 2027 02:44:34.881            16.793              Murmansk1           524.781
       401   05 Jun 2027 02:44:34.881   05 Jun 2027 02:45:08.262            33.381              Murmansk2          1043.156
       402   05 Jun 2027 02:45:28.483   05 Jun 2027 02:46:04.627            36.144                Novosib          1129.500
       403   05 Jun 2027 02:46:32.360   05 Jun 2027 02:47:22.575            50.215                Irkutsk          1569.219
       404   05 Jun 2027 02:48:47.469   05 Jun 2027 02:49:34.339            46.870                Novosib          1464.688
       405   05 Jun 2027 02:52:49.491   05 Jun 2027 02:52:54.924             5.433                  Delhi           169.781
       406   05 Jun 2027 02:53:41.187   05 Jun 2027 02:54:09.252            28.065                Irkutsk           877.031
       407   05 Jun 2027 02:57:17.896   05 Jun 2027 02:58:34.542            76.646                  Delhi          2395.188
       408   05 Jun 2027 03:35:17.760   05 Jun 2027 03:36:09.872            52.112            RioGallegos          1628.500
       409   05 Jun 2027 03:37:42.992   05 Jun 2027 03:40:25.976           162.984            RioGallegos          5093.250
       410   05 Jun 2027 04:25:27.010   05 Jun 2027 04:26:27.787            60.777                Irkutsk          1899.281
       411   05 Jun 2027 04:26:50.510   05 Jun 2027 04:27:19.407            28.897                Novosib           903.031
       412   05 Jun 2027 04:27:25.295   05 Jun 2027 04:30:05.858           160.563                Norilsk          5017.594
       413   05 Jun 2027 04:30:09.851   05 Jun 2027 04:30:21.464            11.613              Murmansk1           362.906
       414   05 Jun 2027 04:32:19.226   05 Jun 2027 04:33:27.192            67.966                  Delhi          2123.938
       415   05 Jun 2027 04:34:58.782   05 Jun 2027 04:35:42.915            44.133                  Delhi          1379.156
       416   05 Jun 2027 06:04:57.315   05 Jun 2027 06:05:23.622            26.307              Murmansk2           822.094
       417   05 Jun 2027 06:05:46.657   05 Jun 2027 06:08:02.381           135.724                 Moscow          4241.375
       418   05 Jun 2027 06:08:17.208   05 Jun 2027 06:08:39.767            22.559              Murmansk1           704.969
       419   05 Jun 2027 06:08:48.892   05 Jun 2027 06:09:11.053            22.161                 Moscow           692.531
       420   05 Jun 2027 06:22:59.707   05 Jun 2027 06:25:00.894           121.187               CapeTown          3787.094
       421   05 Jun 2027 07:26:31.419   05 Jun 2027 07:27:00.074            28.655               Magadan2           895.469
       422   05 Jun 2027 07:27:13.168   05 Jun 2027 07:28:04.182            51.014               Magadan1          1594.187
       423   05 Jun 2027 07:28:11.166   05 Jun 2027 07:28:14.831             3.665                Anadyr2           114.531
       424   05 Jun 2027 07:29:56.920   05 Jun 2027 07:30:12.754            15.834               Magadan1           494.812
       425   05 Jun 2027 09:02:19.212   05 Jun 2027 09:07:45.039           325.827                Anadyr1         10182.094
       426   05 Jun 2027 10:37:34.815   05 Jun 2027 10:38:00.538            25.723                Irkutsk           803.844
       427   05 Jun 2027 10:38:06.552   05 Jun 2027 10:43:02.113           295.561               Magadan2          9236.281
       428   05 Jun 2027 10:43:28.467   05 Jun 2027 10:43:40.544            12.077                Irkutsk           377.406
       429   05 Jun 2027 10:43:41.753   05 Jun 2027 10:43:42.472             0.719                Norilsk            22.469
       430   05 Jun 2027 10:43:42.572   05 Jun 2027 10:44:46.380            63.808                Norilsk          1994.000
       431   05 Jun 2027 11:18:37.613   05 Jun 2027 11:19:46.706            69.093            RioGallegos          2159.156
       432   05 Jun 2027 11:54:30.306   05 Jun 2027 11:54:35.622             5.316                Sumatra           166.125
       433   05 Jun 2027 11:55:00.475   05 Jun 2027 11:55:19.549            19.074                Sumatra           596.063
       434   05 Jun 2027 12:07:00.331   05 Jun 2027 12:08:25.445            85.114                Irkutsk          2659.812
       435   05 Jun 2027 12:09:20.591   05 Jun 2027 12:09:48.058            27.467                Novosib           858.344
       436   05 Jun 2027 12:11:41.300   05 Jun 2027 12:12:16.254            34.954                Novosib          1092.312
       437   05 Jun 2027 12:15:14.894   05 Jun 2027 12:15:43.169            28.275                Norilsk           883.594
       438   05 Jun 2027 12:17:07.870   05 Jun 2027 12:18:08.089            60.219                Norilsk          1881.844
       439   05 Jun 2027 12:26:27.928   05 Jun 2027 12:26:38.148            10.220              Murmansk2           319.375
       440   05 Jun 2027 12:55:44.514   05 Jun 2027 12:56:22.417            37.903            RioGallegos          1184.469
       441   05 Jun 2027 12:57:23.102   05 Jun 2027 12:59:34.117           131.015            RioGallegos          4094.219
       442   05 Jun 2027 13:31:55.233   05 Jun 2027 13:31:59.182             3.949                Sumatra           123.406
       443   05 Jun 2027 13:34:21.447   05 Jun 2027 13:35:14.251            52.804                Sumatra          1650.125
       444   05 Jun 2027 13:40:48.461   05 Jun 2027 13:41:10.492            22.031                Sumatra           688.469
       445   05 Jun 2027 13:44:34.035   05 Jun 2027 13:45:30.930            56.895                Novosib          1777.969
       446   05 Jun 2027 13:47:54.306   05 Jun 2027 13:48:28.406            34.100                Irkutsk          1065.625
       447   05 Jun 2027 13:49:51.198   05 Jun 2027 13:51:03.265            72.067                Irkutsk          2252.094
       448   05 Jun 2027 15:14:56.929   05 Jun 2027 15:19:54.161           297.232                  Delhi          9288.500
       449   05 Jun 2027 15:23:21.976   05 Jun 2027 15:28:04.416           282.440                Novosib          8826.250
       450   05 Jun 2027 16:59:51.561   05 Jun 2027 17:01:16.044            84.483                 Moscow          2640.094
       451   05 Jun 2027 17:04:23.204   05 Jun 2027 17:04:49.225            26.021              Murmansk1           813.156
       452   05 Jun 2027 17:08:33.382   05 Jun 2027 17:11:23.022           169.640                Norilsk          5301.250
       453   05 Jun 2027 18:14:27.690   05 Jun 2027 18:14:44.165            16.475               CapeTown           514.844
       454   05 Jun 2027 18:15:50.849   05 Jun 2027 18:17:43.329           112.480               CapeTown          3515.000
       455   05 Jun 2027 18:37:30.493   05 Jun 2027 18:38:46.887            76.394                 Moscow          2387.312
       456   05 Jun 2027 18:39:40.974   05 Jun 2027 18:40:19.209            38.235              Murmansk2          1194.844
       457   05 Jun 2027 18:41:11.124   05 Jun 2027 18:42:02.974            51.850                 Moscow          1620.312
       458   05 Jun 2027 18:44:30.867   05 Jun 2027 18:44:53.471            22.604              Murmansk2           706.375
       459   05 Jun 2027 18:48:59.195   05 Jun 2027 18:49:44.820            45.625              Murmansk1          1425.781
       460   05 Jun 2027 19:48:08.046   05 Jun 2027 19:49:16.579            68.533               CapeTown          2141.656
       461   05 Jun 2027 19:52:21.944   05 Jun 2027 19:52:58.982            37.038               CapeTown          1157.438
       462   05 Jun 2027 19:55:48.341   05 Jun 2027 19:56:44.329            55.988               CapeTown          1749.625
       463   05 Jun 2027 20:20:28.785   05 Jun 2027 20:25:32.486           303.701              Murmansk2          9490.656
       464   05 Jun 2027 20:30:43.545   05 Jun 2027 20:30:54.853            11.308               Magadan1           353.375
       465   05 Jun 2027 20:37:20.942   05 Jun 2027 20:37:51.700            30.758               Magadan1           961.187
       466   05 Jun 2027 22:03:58.776   05 Jun 2027 22:07:45.318           226.542                Anadyr1          7079.438
       467   05 Jun 2027 22:07:47.829   05 Jun 2027 22:11:19.997           212.168               Magadan1          6630.250
       468   05 Jun 2027 22:11:19.997   05 Jun 2027 22:11:27.809             7.812               Magadan2           244.125
       469   05 Jun 2027 22:16:56.142   05 Jun 2027 22:16:59.441             3.299               Magadan2           103.094
       470   05 Jun 2027 22:17:07.825   05 Jun 2027 22:17:39.924            32.099               Magadan2          1003.094
       471   05 Jun 2027 22:58:51.302   05 Jun 2027 23:01:09.691           138.389            RioGallegos          4324.656
       472   05 Jun 2027 23:01:53.969   05 Jun 2027 23:02:03.814             9.845            RioGallegos           307.656
       473   05 Jun 2027 23:04:02.282   05 Jun 2027 23:04:11.455             9.173            RioGallegos           286.656
       474   05 Jun 2027 23:04:51.401   05 Jun 2027 23:05:11.781            20.380            RioGallegos           636.875
       475   05 Jun 2027 23:39:42.108   05 Jun 2027 23:41:00.775            78.667                Anadyr2          2458.344
       476   05 Jun 2027 23:41:48.435   05 Jun 2027 23:43:26.074            97.639                Norilsk          3051.219
       477   05 Jun 2027 23:44:16.717   05 Jun 2027 23:46:07.217           110.500               Magadan1          3453.125
       478   05 Jun 2027 23:46:13.608   05 Jun 2027 23:46:33.694            20.086                Irkutsk           627.687
       479   05 Jun 2027 23:47:10.476   05 Jun 2027 23:48:20.174            69.698                Irkutsk          2178.063
       480   06 Jun 2027 00:00:17.171   06 Jun 2027 00:01:25.757            68.586                Sumatra          2143.313
       481   06 Jun 2027 00:01:53.103   06 Jun 2027 00:03:24.411            91.308                Sumatra          2853.375
       482   06 Jun 2027 00:40:45.115   06 Jun 2027 00:41:04.220            19.105            RioGallegos           597.031
