uniorb/output/strategy_1/Drop/Drop_KinoSat_110105.txt

KinoSat_110105
-------------------------
    Access    *     Start Time (UTCG)     *     Stop Time (UTCG)  *   Duration (s)        *       Station  *  Data (Mbytes)
         1   01 Jun 2027 04:09:21.441   01 Jun 2027 04:10:11.828            50.387                Norilsk          6298.375
         2   01 Jun 2027 04:10:21.616   01 Jun 2027 04:12:41.173           139.557                Irkutsk         17444.625
         3   01 Jun 2027 04:12:52.572   01 Jun 2027 04:12:56.020             3.448                Norilsk           431.000
         4   01 Jun 2027 04:13:03.882   01 Jun 2027 04:13:37.812            33.930                Norilsk          4241.250
         5   01 Jun 2027 04:13:50.926   01 Jun 2027 04:13:58.769             7.843                Norilsk           980.375
         6   01 Jun 2027 04:14:58.743   01 Jun 2027 04:15:06.628             7.885                Norilsk           985.625
         7   01 Jun 2027 04:15:13.134   01 Jun 2027 04:15:17.348             4.214                Norilsk           526.750
         8   01 Jun 2027 04:50:43.042   01 Jun 2027 04:51:16.956            33.914            RioGallegos          4239.250
         9   01 Jun 2027 04:56:51.675   01 Jun 2027 04:57:07.469            15.794            RioGallegos          1974.250
        10   01 Jun 2027 05:25:03.687   01 Jun 2027 05:26:28.408            84.721                Sumatra         10590.125
        11   01 Jun 2027 05:31:13.286   01 Jun 2027 05:32:44.541            91.255                  Delhi         11406.875
        12   01 Jun 2027 05:36:28.850   01 Jun 2027 05:38:52.851           144.001                  Delhi         18000.125
        13   01 Jun 2027 05:48:21.745   01 Jun 2027 05:49:22.554            60.809                Novosib          7601.125
        14   01 Jun 2027 07:10:55.587   01 Jun 2027 07:12:15.835            80.248                  Delhi         10031.000
        15   01 Jun 2027 07:21:03.425   01 Jun 2027 07:22:24.522            81.097              Murmansk2         10137.125
        16   01 Jun 2027 07:22:41.154   01 Jun 2027 07:23:54.480            73.326                Norilsk          9165.750
        17   01 Jun 2027 07:24:45.387   01 Jun 2027 07:27:07.232           141.845              Murmansk1         17730.625
        18   01 Jun 2027 07:27:15.770   01 Jun 2027 07:27:39.541            23.771                 Moscow          2971.375
        19   01 Jun 2027 08:31:22.770   01 Jun 2027 08:32:31.942            69.172               CapeTown          8646.500
        20   01 Jun 2027 10:45:43.287   01 Jun 2027 10:46:10.373            27.086                Anadyr2          3385.750
        21   01 Jun 2027 10:47:32.031   01 Jun 2027 10:50:34.747           182.716                Anadyr1         22839.500
        22   01 Jun 2027 10:51:44.221   01 Jun 2027 10:51:44.817             0.596                Anadyr2            74.500
        23   01 Jun 2027 10:55:04.265   01 Jun 2027 10:55:17.840            13.575                Anadyr1          1696.875
        24   01 Jun 2027 12:24:03.906   01 Jun 2027 12:29:07.835           303.929               Magadan2         37991.125
        25   01 Jun 2027 12:32:03.124   01 Jun 2027 12:34:38.172           155.048               Magadan1         19381.000
        26   01 Jun 2027 14:55:37.764   01 Jun 2027 14:56:50.072            72.308            RioGallegos          9038.500
        27   01 Jun 2027 15:47:25.701   01 Jun 2027 15:48:58.342            92.641                Irkutsk         11580.125
        28   01 Jun 2027 15:53:08.668   01 Jun 2027 15:56:06.566           177.898                Sumatra         22237.250
        29   01 Jun 2027 17:15:15.223   01 Jun 2027 17:17:54.347           159.124                Novosib         19890.500
        30   01 Jun 2027 17:22:53.199   01 Jun 2027 17:27:50.587           297.388                  Delhi         18517.250
        31   02 Jun 2027 05:03:33.149   02 Jun 2027 05:04:59.960            86.811            RioGallegos         10851.375
        32   02 Jun 2027 05:38:23.110   02 Jun 2027 05:40:16.059           112.949                Sumatra         14118.625
        33   02 Jun 2027 05:43:15.537   02 Jun 2027 05:45:01.908           106.371                  Delhi         13296.375
        34   02 Jun 2027 05:47:38.572   02 Jun 2027 05:48:14.370            35.798                  Delhi          4474.750
        35   02 Jun 2027 06:00:13.056   02 Jun 2027 06:00:40.655            27.599                Norilsk          3449.875
        36   02 Jun 2027 06:00:42.813   02 Jun 2027 06:01:02.274            19.461                Novosib          2432.625
        37   02 Jun 2027 07:32:53.147   02 Jun 2027 07:34:40.670           107.523                 Moscow         13440.375
        38   02 Jun 2027 07:34:51.429   02 Jun 2027 07:35:21.698            30.269                 Moscow          3783.625
        39   02 Jun 2027 07:35:36.000   02 Jun 2027 07:35:57.408            21.408                 Moscow          2676.000
        40   02 Jun 2027 07:36:20.241   02 Jun 2027 07:37:10.277            50.036                Norilsk          6254.500
        41   02 Jun 2027 07:37:14.675   02 Jun 2027 07:38:33.260            78.585                 Moscow          9823.125
        42   02 Jun 2027 08:42:42.841   02 Jun 2027 08:46:14.534           211.693               CapeTown         26461.625
        43   02 Jun 2027 08:50:06.753   02 Jun 2027 08:51:54.276           107.523               CapeTown         13440.375
        44   02 Jun 2027 11:04:52.915   02 Jun 2027 11:05:14.495            21.580               Magadan1          2697.500
        45   02 Jun 2027 12:36:01.493   02 Jun 2027 12:36:25.250            23.757               Magadan1          2969.625
        46   02 Jun 2027 12:41:14.466   02 Jun 2027 12:41:56.148            41.682               Magadan1          5210.250
        47   02 Jun 2027 12:46:37.945   02 Jun 2027 12:48:11.047            93.102               Magadan2         11637.750
        48   02 Jun 2027 15:05:30.256   02 Jun 2027 15:07:05.739            95.483            RioGallegos         11935.375
        49   02 Jun 2027 15:51:23.164   02 Jun 2027 15:52:51.526            88.362                Irkutsk         11045.250
        50   02 Jun 2027 15:56:29.671   02 Jun 2027 15:57:40.099            70.428                Irkutsk          8803.500
        51   02 Jun 2027 16:00:30.708   02 Jun 2027 16:00:55.528            24.820                Irkutsk          3102.500
        52   02 Jun 2027 16:05:04.040   02 Jun 2027 16:08:12.578           188.538                Sumatra         23567.250
        53   02 Jun 2027 17:28:50.406   02 Jun 2027 17:30:08.477            78.071                Novosib          9758.875
        54   02 Jun 2027 17:34:00.756   02 Jun 2027 17:36:47.021           166.265                Novosib         20783.125
        55   02 Jun 2027 17:37:22.921   02 Jun 2027 17:40:21.841           178.920                  Delhi         22365.000
        56   02 Jun 2027 20:40:43.274   02 Jun 2027 20:41:26.613            43.339                 Moscow          5417.375
        57   02 Jun 2027 20:43:40.466   02 Jun 2027 20:45:38.633           118.167                 Moscow         14770.875
        58   02 Jun 2027 22:42:19.443   02 Jun 2027 22:42:27.185             7.742               CapeTown           967.750
        59   03 Jun 2027 04:11:03.829   03 Jun 2027 04:13:51.417           167.588                Sumatra         20948.500
        60   03 Jun 2027 04:37:08.562   03 Jun 2027 04:37:38.859            30.297                Novosib          3787.125
        61   03 Jun 2027 05:16:38.033   03 Jun 2027 05:17:03.784            25.751            RioGallegos          3218.875
        62   03 Jun 2027 05:55:23.278   03 Jun 2027 05:58:22.363           179.085                  Delhi         22385.625
        63   03 Jun 2027 06:03:10.391   03 Jun 2027 06:03:28.127            17.736                  Delhi          2217.000
        64   03 Jun 2027 06:11:26.409   03 Jun 2027 06:12:27.658            61.249              Murmansk1          7656.125
        65   03 Jun 2027 06:12:46.537   03 Jun 2027 06:13:20.477            33.940                 Moscow          4242.500
        66   03 Jun 2027 06:17:09.991   03 Jun 2027 06:17:17.694             7.703              Murmansk2           962.875
        67   03 Jun 2027 07:45:27.610   03 Jun 2027 07:47:31.596           123.986              Murmansk1         15498.250
        68   03 Jun 2027 07:47:39.412   03 Jun 2027 07:48:08.109            28.697                 Moscow          3587.125
        69   03 Jun 2027 07:48:32.032   03 Jun 2027 07:49:42.597            70.565              Murmansk1          8820.625
        70   03 Jun 2027 07:50:15.218   03 Jun 2027 07:51:12.960            57.742                 Moscow          7217.750
        71   03 Jun 2027 07:52:15.626   03 Jun 2027 07:52:22.380             6.754                 Moscow           844.250
        72   03 Jun 2027 08:54:14.822   03 Jun 2027 09:01:24.293           429.471               CapeTown         53683.875
        73   03 Jun 2027 12:49:26.901   03 Jun 2027 12:50:39.705            72.804               Magadan2          9100.500
        74   03 Jun 2027 12:54:24.411   03 Jun 2027 12:57:33.722           189.311               Magadan2         23663.875
        75   03 Jun 2027 15:21:12.821   03 Jun 2027 15:23:25.758           132.937            RioGallegos         16617.125
        76   03 Jun 2027 16:03:20.612   03 Jun 2027 16:04:27.523            66.911                Irkutsk          8363.875
        77   03 Jun 2027 16:06:17.093   03 Jun 2027 16:08:21.840           124.747                Irkutsk         15593.375
        78   03 Jun 2027 16:17:05.016   03 Jun 2027 16:19:22.116           137.100                Sumatra         17137.500
        79   03 Jun 2027 17:42:25.673   03 Jun 2027 17:44:07.061           101.388                Novosib         12673.500
        80   03 Jun 2027 17:46:35.684   03 Jun 2027 17:49:49.537           193.853                  Delhi         24231.625
        81   03 Jun 2027 20:52:42.972   03 Jun 2027 20:53:16.001            33.029                 Moscow          4128.625
        82   03 Jun 2027 20:55:56.171   03 Jun 2027 20:57:35.256            99.085                 Moscow         12385.625
        83   03 Jun 2027 21:19:50.781   03 Jun 2027 21:21:59.502           128.721               CapeTown         16090.125
        84   04 Jun 2027 02:50:35.770   04 Jun 2027 02:57:42.361           426.591                Sumatra         53323.875
        85   04 Jun 2027 04:23:07.611   04 Jun 2027 04:24:57.772           110.161                Sumatra         13770.125
        86   04 Jun 2027 04:26:11.034   04 Jun 2027 04:28:02.695           111.661                Sumatra         13957.625
        87   04 Jun 2027 04:45:46.768   04 Jun 2027 04:45:59.294            12.526                Novosib          1565.750
        88   04 Jun 2027 04:46:09.293   04 Jun 2027 04:46:32.884            23.591                Novosib          2948.875
        89   04 Jun 2027 04:46:42.052   04 Jun 2027 04:46:57.423            15.371                Norilsk          1921.375
        90   04 Jun 2027 04:46:59.024   04 Jun 2027 04:47:09.452            10.428              Murmansk1          1303.500
        91   04 Jun 2027 04:47:20.033   04 Jun 2027 04:48:25.137            65.104                 Moscow          8138.000
        92   04 Jun 2027 04:48:29.202   04 Jun 2027 04:48:43.070            13.868                Norilsk          1733.500
        93   04 Jun 2027 04:48:59.108   04 Jun 2027 04:49:36.650            37.542                Norilsk          4692.750
        94   04 Jun 2027 04:50:24.537   04 Jun 2027 04:51:06.180            41.643                Norilsk          5205.375
        95   04 Jun 2027 05:32:17.504   04 Jun 2027 05:32:54.754            37.250            RioGallegos          4656.250
        96   04 Jun 2027 06:07:36.906   04 Jun 2027 06:10:01.991           145.085                  Delhi         18135.625
        97   04 Jun 2027 06:10:15.336   04 Jun 2027 06:12:01.783           106.447                  Delhi         13305.875
        98   04 Jun 2027 06:23:04.472   04 Jun 2027 06:24:23.059            78.587                 Moscow          9823.375
        99   04 Jun 2027 06:24:26.466   04 Jun 2027 06:24:35.876             9.410                Novosib          1176.250
       100   04 Jun 2027 06:24:44.627   04 Jun 2027 06:25:23.541            38.914                 Moscow          4864.250
       101   04 Jun 2027 06:25:29.567   04 Jun 2027 06:25:46.198            16.631              Murmansk2          2078.875
       102   04 Jun 2027 07:57:44.715   04 Jun 2027 07:58:33.934            49.219                 Moscow          6152.375
       103   04 Jun 2027 07:58:55.215   04 Jun 2027 08:00:26.453            91.238              Murmansk2         11404.750
       104   04 Jun 2027 08:04:02.161   04 Jun 2027 08:04:21.434            19.273                 Moscow          2409.125
       105   04 Jun 2027 09:05:54.479   04 Jun 2027 09:12:16.504           382.025               CapeTown         47753.125
       106   04 Jun 2027 11:21:44.569   04 Jun 2027 11:21:56.452            11.883                Anadyr1          1485.375
       107   04 Jun 2027 11:22:42.930   04 Jun 2027 11:24:45.638           122.708                Anadyr2         15338.500
       108   04 Jun 2027 12:59:59.103   04 Jun 2027 13:02:50.754           171.651               Magadan1         21456.375
       109   04 Jun 2027 13:06:48.633   04 Jun 2027 13:10:19.035           210.402               Magadan2         26300.250
       110   04 Jun 2027 14:56:02.997   04 Jun 2027 14:57:27.027            84.030                Sumatra         10503.750
       111   04 Jun 2027 15:27:30.869   04 Jun 2027 15:29:05.540            94.671            RioGallegos         11833.875
       112   04 Jun 2027 16:29:11.659   04 Jun 2027 16:30:37.214            85.555                Sumatra         10694.375
       113   04 Jun 2027 16:31:02.556   04 Jun 2027 16:31:25.112            22.556                  Delhi          2819.500
       114   04 Jun 2027 16:32:07.700   04 Jun 2027 16:33:57.902           110.202                Sumatra         13775.250
       115   04 Jun 2027 17:51:12.252   04 Jun 2027 17:51:43.379            31.127                Novosib          3890.875
       116   04 Jun 2027 17:54:26.721   04 Jun 2027 17:56:03.942            97.221                Novosib         12152.625
       117   04 Jun 2027 17:58:32.590   04 Jun 2027 18:00:45.414           132.824                  Delhi         16603.000
       118   04 Jun 2027 18:05:49.229   04 Jun 2027 18:08:07.048           137.819                  Delhi         17227.375
       119   04 Jun 2027 21:04:43.401   04 Jun 2027 21:05:07.987            24.586                 Moscow          3073.250
       120   04 Jun 2027 21:08:01.253   04 Jun 2027 21:08:04.097             2.844                 Moscow           355.500
       121   04 Jun 2027 21:30:33.918   04 Jun 2027 21:31:49.943            76.025               CapeTown          9503.125
       122   04 Jun 2027 21:33:17.846   04 Jun 2027 21:33:43.074            25.228               CapeTown          3153.500
       123   04 Jun 2027 21:36:23.696   04 Jun 2027 21:36:31.892             8.196               CapeTown          1024.500
       124   05 Jun 2027 03:01:34.430   05 Jun 2027 03:04:05.391           150.961                Sumatra         18870.125
       125   05 Jun 2027 03:10:07.995   05 Jun 2027 03:10:11.716             3.721                Sumatra           465.125
       126   05 Jun 2027 03:23:47.450   05 Jun 2027 03:24:16.814            29.364                Irkutsk          3670.500
       127   05 Jun 2027 03:24:33.731   05 Jun 2027 03:25:21.388            47.657                Norilsk          5957.125
       128   05 Jun 2027 03:28:53.887   05 Jun 2027 03:29:11.819            17.932              Murmansk2          2241.500
       129   05 Jun 2027 04:00:55.296   05 Jun 2027 04:02:24.071            88.775            RioGallegos         11096.875
       130   05 Jun 2027 04:35:17.220   05 Jun 2027 04:36:19.734            62.514                Sumatra          7814.250
       131   05 Jun 2027 04:37:04.278   05 Jun 2027 04:38:02.901            58.623                Sumatra          7327.875
       132   05 Jun 2027 04:42:58.050   05 Jun 2027 04:43:56.017            57.967                Sumatra          7245.875
       133   05 Jun 2027 04:57:52.607   05 Jun 2027 04:58:12.024            19.417              Murmansk2          2427.125
       134   05 Jun 2027 04:58:24.245   05 Jun 2027 04:58:49.490            25.245                 Moscow          3155.625
       135   05 Jun 2027 04:58:53.317   05 Jun 2027 04:59:48.916            55.599                Novosib          6949.875
       136   05 Jun 2027 05:00:02.419   05 Jun 2027 05:00:27.498            25.079                Irkutsk          3134.875
       137   05 Jun 2027 05:00:51.861   05 Jun 2027 05:01:48.596            56.735                Novosib          7091.875
       138   05 Jun 2027 06:19:57.135   05 Jun 2027 06:24:03.449           246.314                  Delhi         30789.250
       139   05 Jun 2027 06:34:40.185   05 Jun 2027 06:35:26.443            46.258                 Moscow          5782.250
       140   05 Jun 2027 06:35:46.767   05 Jun 2027 06:36:47.393            60.626                 Moscow          7578.250
       141   05 Jun 2027 08:10:44.277   05 Jun 2027 08:11:40.681            56.404                 Moscow          7050.500
       142   05 Jun 2027 09:17:39.714   05 Jun 2027 09:23:34.863           355.149               CapeTown         44393.625
       143   05 Jun 2027 11:33:45.524   05 Jun 2027 11:35:08.185            82.661                Anadyr2         10332.625
       144   05 Jun 2027 13:11:58.873   05 Jun 2027 13:16:50.162           291.289               Magadan2         36411.125
       145   05 Jun 2027 15:06:59.027   05 Jun 2027 15:11:00.646           241.619                Sumatra         30202.375
       146   05 Jun 2027 15:15:09.730   05 Jun 2027 15:15:55.221            45.491                Sumatra          5686.375
       147   05 Jun 2027 15:42:25.166   05 Jun 2027 15:44:30.275           125.109            RioGallegos         15638.625
       148   05 Jun 2027 16:42:10.727   05 Jun 2027 16:44:46.680           155.953                  Delhi         19494.125
       149   05 Jun 2027 18:03:12.823   05 Jun 2027 18:03:35.821            22.998                Novosib          2874.750
       150   05 Jun 2027 18:05:00.808   05 Jun 2027 18:06:18.615            77.807                Novosib          9725.875
       151   05 Jun 2027 18:10:32.867   05 Jun 2027 18:12:04.457            91.590                  Delhi         11448.750
       152   05 Jun 2027 18:18:09.577   05 Jun 2027 18:20:09.937           120.360                  Delhi         15045.000
       153   05 Jun 2027 19:45:15.371   05 Jun 2027 19:46:39.371            84.000                 Moscow         10500.000
       154   05 Jun 2027 21:26:20.275   05 Jun 2027 21:26:32.874            12.599                 Moscow          1574.875
       155   05 Jun 2027 21:28:44.581   05 Jun 2027 21:29:37.483            52.902                 Moscow          6612.750
       156   05 Jun 2027 21:43:04.434   05 Jun 2027 21:43:48.992            44.558               CapeTown          5569.750
       157   05 Jun 2027 21:46:34.633   05 Jun 2027 21:48:31.360           116.727               CapeTown         14590.875
       158   06 Jun 2027 03:12:30.227   06 Jun 2027 03:20:39.790           489.563                Sumatra         61195.375
       159   06 Jun 2027 03:40:55.845   06 Jun 2027 03:41:10.105            14.260                Norilsk          1782.500
       160   06 Jun 2027 04:47:33.289   06 Jun 2027 04:49:35.204           121.915                Sumatra         15239.375
       161   06 Jun 2027 05:02:43.595   06 Jun 2027 05:05:16.325           152.730                  Delhi         19091.250
       162   06 Jun 2027 05:11:30.386   06 Jun 2027 05:12:16.935            46.549                Norilsk          5818.625
       163   06 Jun 2027 05:12:49.957   06 Jun 2027 05:13:39.818            49.861                Norilsk          6232.625
       164   06 Jun 2027 05:13:54.249   06 Jun 2027 05:14:47.337            53.088                Novosib          6636.000
       165   06 Jun 2027 06:32:25.145   06 Jun 2027 06:35:29.737           184.592                  Delhi         23074.000
       166   06 Jun 2027 06:46:47.011   06 Jun 2027 06:47:18.636            31.625              Murmansk2          3953.125
       167   06 Jun 2027 06:47:32.413   06 Jun 2027 06:48:43.529            71.116                 Moscow          8889.500
       168   06 Jun 2027 06:48:52.787   06 Jun 2027 06:49:31.186            38.399                 Moscow          4799.875
       169   06 Jun 2027 09:29:29.321   06 Jun 2027 09:32:04.398           155.077               CapeTown         19384.625
       170   06 Jun 2027 10:15:00.232   06 Jun 2027 10:16:48.618           108.386                Anadyr2         13548.250
       171   06 Jun 2027 11:45:46.657   06 Jun 2027 11:46:55.258            68.601                Anadyr1          8575.125
       172   06 Jun 2027 11:49:01.986   06 Jun 2027 11:50:32.201            90.215                Anadyr2         11276.875
       173   06 Jun 2027 13:23:59.159   06 Jun 2027 13:26:38.570           159.411               Magadan2         19926.375
       174   06 Jun 2027 13:28:41.216   06 Jun 2027 13:28:48.495             7.279               Magadan1           909.875
       175   06 Jun 2027 13:35:19.738   06 Jun 2027 13:36:51.528            91.790               Magadan1         11473.750
       176   06 Jun 2027 15:06:44.440   06 Jun 2027 15:08:08.568            84.128                Irkutsk         10516.000
       177   06 Jun 2027 15:20:24.419   06 Jun 2027 15:25:42.469           318.050                Sumatra         39756.250
       178   06 Jun 2027 16:43:03.143   06 Jun 2027 16:43:55.120            51.977                Novosib          6497.125
       179   06 Jun 2027 16:44:23.411   06 Jun 2027 16:45:05.096            41.685                Novosib          5210.625
       180   06 Jun 2027 16:48:15.023   06 Jun 2027 16:49:14.766            59.743                  Delhi          7467.875
       181   06 Jun 2027 16:52:32.450   06 Jun 2027 16:57:24.858           292.408                  Delhi         36551.000
       182   06 Jun 2027 18:30:23.324   06 Jun 2027 18:30:34.914            11.590                  Delhi          1448.750
       183   06 Jun 2027 18:32:16.163   06 Jun 2027 18:32:52.932            36.769                  Delhi          4596.125
       184   06 Jun 2027 19:56:05.276   06 Jun 2027 19:57:54.236           108.960              Murmansk1         13620.000
       185   06 Jun 2027 19:58:02.377   06 Jun 2027 19:58:24.282            21.905                 Moscow          2738.125
       186   06 Jun 2027 19:59:55.565   06 Jun 2027 20:01:15.349            79.784                 Moscow          9973.000
       187   06 Jun 2027 21:52:50.240   06 Jun 2027 21:53:35.506            45.266               CapeTown          5658.250
       188   06 Jun 2027 21:55:45.119   06 Jun 2027 21:57:25.713           100.594               CapeTown         12574.250
       189   07 Jun 2027 03:24:01.636   07 Jun 2027 03:25:38.733            97.097                Sumatra         12137.125
       190   07 Jun 2027 03:27:42.949   07 Jun 2027 03:31:01.678           198.729                Sumatra         24841.125
       191   07 Jun 2027 04:27:01.920   07 Jun 2027 04:27:31.543            29.623            RioGallegos          3702.875
       192   07 Jun 2027 04:27:45.843   07 Jun 2027 04:29:21.098            95.255            RioGallegos         11906.875
       193   07 Jun 2027 05:01:27.362   07 Jun 2027 05:03:55.302           147.940                Sumatra         18492.500
       194   07 Jun 2027 05:22:57.359   07 Jun 2027 05:23:02.006             4.647                Irkutsk           580.875
       195   07 Jun 2027 05:23:47.538   07 Jun 2027 05:24:11.784            24.246                Norilsk          3030.750
       196   07 Jun 2027 05:24:26.785   07 Jun 2027 05:25:23.782            56.997                 Moscow          7124.625
       197   07 Jun 2027 05:25:30.940   07 Jun 2027 05:26:27.670            56.730                Norilsk          7091.250
       198   07 Jun 2027 05:27:47.861   07 Jun 2027 05:28:01.666            13.805                Norilsk          1725.625
       199   07 Jun 2027 05:28:46.568   07 Jun 2027 05:29:07.629            21.061                Norilsk          2632.625
       200   07 Jun 2027 06:45:03.055   07 Jun 2027 06:46:30.152            87.097                  Delhi         10887.125
       201   07 Jun 2027 06:58:51.598   07 Jun 2027 06:59:05.687            14.089                Norilsk          1761.125
       202   07 Jun 2027 06:59:09.042   07 Jun 2027 06:59:33.107            24.065                 Moscow          3008.125
       203   07 Jun 2027 06:59:48.291   07 Jun 2027 06:59:52.293             4.002              Murmansk2           500.250
       204   07 Jun 2027 06:59:52.293   07 Jun 2027 07:00:02.839            10.546              Murmansk1          1318.250
       205   07 Jun 2027 07:00:12.850   07 Jun 2027 07:01:16.336            63.486              Murmansk1          7935.750
       206   07 Jun 2027 07:01:21.249   07 Jun 2027 07:01:35.753            14.504                 Moscow          1813.000
       207   07 Jun 2027 07:02:24.826   07 Jun 2027 07:03:03.294            38.468                 Moscow          4808.500
       208   07 Jun 2027 09:41:22.573   07 Jun 2027 09:44:19.121           176.548               CapeTown         22068.500
       209   07 Jun 2027 10:26:59.608   07 Jun 2027 10:28:16.989            77.381                Anadyr2          9672.625
       210   07 Jun 2027 10:31:26.768   07 Jun 2027 10:31:33.199             6.431                Anadyr1           803.875
       211   07 Jun 2027 11:57:47.909   07 Jun 2027 11:57:51.911             4.002                Anadyr2           500.250
       212   07 Jun 2027 11:59:55.857   07 Jun 2027 12:00:24.213            28.356                Anadyr2          3544.500
       213   07 Jun 2027 12:00:24.213   07 Jun 2027 12:01:06.994            42.781                Anadyr1          5347.625
       214   07 Jun 2027 12:01:26.499   07 Jun 2027 12:03:14.511           108.012               Magadan2         13501.500
       215   07 Jun 2027 12:06:40.856   07 Jun 2027 12:09:36.553           175.697               Magadan2         21962.125
       216   07 Jun 2027 13:37:50.364   07 Jun 2027 13:39:17.920            87.556               Magadan2         10944.500
       217   07 Jun 2027 15:17:11.500   07 Jun 2027 15:21:27.052           255.552                Irkutsk         31944.000
       218   07 Jun 2027 15:31:51.102   07 Jun 2027 15:36:29.540           278.438                Sumatra         34804.750
       219   07 Jun 2027 16:59:45.074   07 Jun 2027 17:07:05.322           440.248                  Delhi         55031.000
       220   07 Jun 2027 20:07:00.894   07 Jun 2027 20:10:12.999           192.105                 Moscow         24013.125
       221   07 Jun 2027 22:05:14.841   07 Jun 2027 22:07:35.645           140.804               CapeTown         17600.500
       222   08 Jun 2027 03:35:41.340   08 Jun 2027 03:38:01.395           140.055                Sumatra         17506.875
       223   08 Jun 2027 03:41:02.115   08 Jun 2027 03:42:03.142            61.027                Sumatra          7628.375
       224   08 Jun 2027 04:01:20.895   08 Jun 2027 04:01:46.137            25.242                Norilsk          3155.250
       225   08 Jun 2027 04:05:55.062   08 Jun 2027 04:06:16.264            21.202              Murmansk2          2650.250
       226   08 Jun 2027 04:38:18.302   08 Jun 2027 04:38:51.380            33.078            RioGallegos          4134.750
       227   08 Jun 2027 04:39:32.108   08 Jun 2027 04:39:47.716            15.608            RioGallegos          1951.000
       228   08 Jun 2027 04:39:57.896   08 Jun 2027 04:40:43.280            45.384            RioGallegos          5673.000
       229   08 Jun 2027 05:12:30.876   08 Jun 2027 05:14:11.163           100.287                Sumatra         12535.875
       230   08 Jun 2027 05:19:31.222   08 Jun 2027 05:20:09.087            37.865                  Delhi          4733.125
       231   08 Jun 2027 05:24:07.807   08 Jun 2027 05:25:03.708            55.901                  Delhi          6987.625
       232   08 Jun 2027 05:26:53.206   08 Jun 2027 05:29:02.937           129.731                  Delhi         16216.375
       233   08 Jun 2027 05:36:36.687   08 Jun 2027 05:37:19.799            43.112                Norilsk          5389.000
       234   08 Jun 2027 05:41:55.187   08 Jun 2027 05:42:32.716            37.529                Norilsk          4691.125
       235   08 Jun 2027 06:57:55.087   08 Jun 2027 07:00:36.311           161.224                  Delhi         20153.000
       236   08 Jun 2027 07:11:07.201   08 Jun 2027 07:11:32.932            25.731              Murmansk1          3216.375
       237   08 Jun 2027 07:11:42.651   08 Jun 2027 07:11:57.352            14.701                 Moscow          1837.625
       238   08 Jun 2027 07:12:00.183   08 Jun 2027 07:12:05.019             4.836              Murmansk1           604.500
       239   08 Jun 2027 07:12:05.019   08 Jun 2027 07:12:17.400            12.381              Murmansk2          1547.625
       240   08 Jun 2027 07:12:25.072   08 Jun 2027 07:12:49.333            24.261                Norilsk          3032.625
       241   08 Jun 2027 07:12:50.059   08 Jun 2027 07:13:20.824            30.765                Novosib          3845.625
       242   08 Jun 2027 07:13:33.281   08 Jun 2027 07:14:03.073            29.792              Murmansk1          3724.000
       243   08 Jun 2027 07:14:21.453   08 Jun 2027 07:14:28.872             7.419                Norilsk           927.375
       244   08 Jun 2027 07:14:56.062   08 Jun 2027 07:15:36.999            40.937                Norilsk          5117.125
       245   08 Jun 2027 09:53:18.995   08 Jun 2027 09:55:24.807           125.812               CapeTown         15726.500
       246   08 Jun 2027 10:34:26.078   08 Jun 2027 10:35:13.700            47.622                Anadyr2          5952.750
       247   08 Jun 2027 10:38:51.953   08 Jun 2027 10:42:39.281           227.328                Anadyr1         28416.000
       248   08 Jun 2027 12:09:49.258   08 Jun 2027 12:09:51.600             2.342                Anadyr1           292.750
       249   08 Jun 2027 12:12:22.246   08 Jun 2027 12:14:07.374           105.128               Magadan1         13141.000
       250   08 Jun 2027 12:17:00.643   08 Jun 2027 12:17:31.241            30.598               Magadan1          3824.750
       251   08 Jun 2027 12:19:11.358   08 Jun 2027 12:20:43.452            92.094               Magadan1         11511.750
       252   08 Jun 2027 12:20:43.452   08 Jun 2027 12:21:53.922            70.470               Magadan2          8808.750
       253   08 Jun 2027 13:57:36.616   08 Jun 2027 13:57:44.443             7.827               Magadan1           978.375
       254   08 Jun 2027 14:00:04.218   08 Jun 2027 14:00:55.836            51.618               Magadan2          6452.250
       255   08 Jun 2027 14:41:14.360   08 Jun 2027 14:43:50.547           156.187            RioGallegos         19523.375
       256   08 Jun 2027 15:29:37.877   08 Jun 2027 15:30:46.219            68.342                Irkutsk          8542.750
       257   08 Jun 2027 15:41:33.825   08 Jun 2027 15:44:09.831           156.006                Sumatra         19500.750
       258   08 Jun 2027 15:47:28.780   08 Jun 2027 15:47:40.988            12.208                Sumatra          1526.000
       259   08 Jun 2027 17:03:23.284   08 Jun 2027 17:03:34.769            11.485                Irkutsk          1435.625
       260   08 Jun 2027 17:04:59.756   08 Jun 2027 17:08:40.270           220.514                Novosib         27564.250
       261   08 Jun 2027 17:11:23.445   08 Jun 2027 17:17:51.972           388.527                  Delhi         48565.875
       262   08 Jun 2027 18:52:36.105   08 Jun 2027 18:52:58.878            22.773                  Delhi          2846.625
       263   08 Jun 2027 20:17:01.414   08 Jun 2027 20:18:14.395            72.981                 Moscow          9122.625
       264   08 Jun 2027 20:19:37.058   08 Jun 2027 20:22:04.492           147.434                 Moscow         18429.250
       265   08 Jun 2027 22:17:27.244   08 Jun 2027 22:17:40.858            13.614               CapeTown          1701.750
       266   08 Jun 2027 22:19:27.275   08 Jun 2027 22:19:45.628            18.353               CapeTown          2294.125
       267   09 Jun 2027 03:47:27.905   09 Jun 2027 03:53:22.199           354.294                Sumatra         44286.750
       268   09 Jun 2027 04:50:58.945   09 Jun 2027 04:51:31.653            32.708            RioGallegos          4088.500
       269   09 Jun 2027 04:56:52.582   09 Jun 2027 04:57:06.858            14.276            RioGallegos          1784.500
       270   09 Jun 2027 05:25:19.925   09 Jun 2027 05:26:42.155            82.230                Sumatra         10278.750
       271   09 Jun 2027 05:31:28.263   09 Jun 2027 05:32:59.817            91.554                  Delhi         11444.250
       272   09 Jun 2027 05:33:58.207   09 Jun 2027 05:34:40.761            42.554                  Delhi          5319.250
       273   09 Jun 2027 05:48:33.854   09 Jun 2027 05:48:57.585            23.731              Murmansk1          2966.375
       274   09 Jun 2027 05:48:57.585   09 Jun 2027 05:49:28.273            30.688              Murmansk2          3836.000
       275   09 Jun 2027 05:49:29.212   09 Jun 2027 05:49:36.264             7.052                Norilsk           881.500
       276   09 Jun 2027 05:49:36.936   09 Jun 2027 05:50:14.957            38.021                Novosib          4752.625
       277   09 Jun 2027 07:11:12.636   09 Jun 2027 07:12:30.358            77.722                  Delhi          9715.250
       278   09 Jun 2027 07:20:33.380   09 Jun 2027 07:20:50.053            16.673                 Moscow          2084.125
       279   09 Jun 2027 07:20:55.226   09 Jun 2027 07:21:20.613            25.387                 Moscow          3173.375
       280   09 Jun 2027 07:21:29.533   09 Jun 2027 07:22:23.247            53.714                Novosib          6714.250
       281   09 Jun 2027 07:22:43.823   09 Jun 2027 07:23:24.654            40.831              Murmansk1          5103.875
       282   09 Jun 2027 07:23:28.546   09 Jun 2027 07:23:32.265             3.719                 Moscow           464.875
       283   09 Jun 2027 07:23:47.005   09 Jun 2027 07:25:31.910           104.905                 Moscow         13113.125
       284   09 Jun 2027 07:25:46.412   09 Jun 2027 07:27:08.345            81.933                 Moscow         10241.625
       285   09 Jun 2027 08:31:36.720   09 Jun 2027 08:32:57.117            80.397               CapeTown         10049.625
       286   09 Jun 2027 10:05:18.307   09 Jun 2027 10:06:46.845            88.538               CapeTown         11067.250
       287   09 Jun 2027 10:47:47.526   09 Jun 2027 10:50:49.527           182.001                Anadyr2         22750.125
       288   09 Jun 2027 12:21:50.652   09 Jun 2027 12:21:51.698             1.046                Anadyr2           130.750
       289   09 Jun 2027 12:24:18.816   09 Jun 2027 12:25:35.307            76.491               Magadan2          9561.375
       290   09 Jun 2027 12:30:03.519   09 Jun 2027 12:36:08.882           365.363               Magadan1         45670.375
       291   09 Jun 2027 14:55:53.615   09 Jun 2027 14:57:18.348            84.733            RioGallegos         10591.625
       292   09 Jun 2027 15:39:41.959   09 Jun 2027 15:41:41.195           119.236                Irkutsk         14904.500
       293   09 Jun 2027 15:53:23.494   09 Jun 2027 15:56:21.737           178.243                Sumatra         22280.375
       294   09 Jun 2027 17:15:30.148   09 Jun 2027 17:18:09.667           159.519                Novosib         19939.875
       295   09 Jun 2027 17:23:07.906   09 Jun 2027 17:29:07.279           359.373                  Delhi         44921.625
       296   09 Jun 2027 19:01:33.221   09 Jun 2027 19:02:46.871            73.650                  Delhi          9206.250
       297   09 Jun 2027 20:28:59.349   09 Jun 2027 20:29:55.220            55.871                 Moscow          6983.875
       298   09 Jun 2027 20:31:51.845   09 Jun 2027 20:33:58.094           126.249                 Moscow         15781.125
       299   09 Jun 2027 22:12:51.126   09 Jun 2027 22:14:25.666            94.540                 Moscow         11817.500
       300   09 Jun 2027 22:31:52.560   09 Jun 2027 22:32:04.636            12.076               CapeTown          1509.500
       301   10 Jun 2027 03:59:20.533   10 Jun 2027 04:03:29.009           248.476                Sumatra         31059.500
       302   10 Jun 2027 05:38:40.442   10 Jun 2027 05:40:30.514           110.072                Sumatra         13759.000
       303   10 Jun 2027 05:43:30.620   10 Jun 2027 05:44:52.577            81.957                  Delhi         10244.625
       304   10 Jun 2027 05:47:55.075   10 Jun 2027 05:48:28.997            33.922                  Delhi          4240.250
       305   10 Jun 2027 06:00:25.020   10 Jun 2027 06:01:21.853            56.833              Murmansk1          7104.125
       306   10 Jun 2027 07:32:29.349   10 Jun 2027 07:33:07.778            38.429                 Moscow          4803.625
       307   10 Jun 2027 07:33:47.072   10 Jun 2027 07:36:09.094           142.022              Murmansk1         17752.750
       308   10 Jun 2027 07:36:19.647   10 Jun 2027 07:36:37.240            17.593                Norilsk          2199.125
       309   10 Jun 2027 07:36:52.969   10 Jun 2027 07:38:09.539            76.570              Murmansk1          9571.250
       310   10 Jun 2027 07:38:25.478   10 Jun 2027 07:39:01.666            36.188              Murmansk2          4523.500
       311   10 Jun 2027 08:42:57.119   10 Jun 2027 08:46:47.500           230.381               CapeTown         28797.625
       312   10 Jun 2027 08:50:11.470   10 Jun 2027 08:52:08.716           117.246               CapeTown         14655.750
       313   10 Jun 2027 11:00:35.547   10 Jun 2027 11:00:47.970            12.423                Anadyr1          1552.875
       314   10 Jun 2027 11:00:47.970   10 Jun 2027 11:02:47.929           119.959                Anadyr2         14994.875
       315   10 Jun 2027 11:05:09.468   10 Jun 2027 11:05:55.102            45.634               Magadan2          5704.250
       316   10 Jun 2027 12:36:16.425   10 Jun 2027 12:36:51.173            34.748               Magadan1          4343.500
       317   10 Jun 2027 12:41:27.977   10 Jun 2027 12:45:11.936           223.959               Magadan1         27994.875
       318   10 Jun 2027 15:03:55.892   10 Jun 2027 15:05:45.766           109.874            RioGallegos         13734.250
       319   10 Jun 2027 15:51:38.073   10 Jun 2027 15:53:05.818            87.745                Irkutsk         10968.125
       320   10 Jun 2027 15:56:44.332   10 Jun 2027 15:57:55.454            71.122                Irkutsk          8890.250
       321   10 Jun 2027 16:00:46.228   10 Jun 2027 16:01:10.460            24.232                Irkutsk          3029.000
       322   10 Jun 2027 16:05:18.987   10 Jun 2027 16:08:41.320           202.333                Sumatra         25291.625
       323   10 Jun 2027 17:29:06.697   10 Jun 2027 17:32:26.227           199.530                Novosib         24941.250
       324   10 Jun 2027 17:34:57.201   10 Jun 2027 17:40:36.209           339.008                  Delhi         42376.000
       325   10 Jun 2027 20:40:58.238   10 Jun 2027 20:43:56.114           177.876                 Moscow         22234.500
       326   10 Jun 2027 22:42:35.356   10 Jun 2027 22:42:40.058             4.702               CapeTown           587.750
       327   11 Jun 2027 04:11:18.833   11 Jun 2027 04:14:05.207           166.374                Sumatra         20796.750
       328   11 Jun 2027 04:35:15.456   11 Jun 2027 04:36:10.519            55.063              Murmansk2          6882.875
       329   11 Jun 2027 04:36:46.115   11 Jun 2027 04:37:21.551            35.436                 Moscow          4429.500
       330   11 Jun 2027 04:37:24.117   11 Jun 2027 04:37:57.166            33.049                Novosib          4131.125
       331   11 Jun 2027 04:39:02.604   11 Jun 2027 04:39:17.223            14.619                Novosib          1827.375
       332   11 Jun 2027 05:16:54.578   11 Jun 2027 05:18:20.334            85.756            RioGallegos         10719.500
       333   11 Jun 2027 05:55:38.484   11 Jun 2027 05:57:58.511           140.027                  Delhi         17503.375
       334   11 Jun 2027 05:58:37.241   11 Jun 2027 06:00:20.130           102.889                  Delhi         12861.125
       335   11 Jun 2027 06:12:37.189   11 Jun 2027 06:14:04.536            87.347                 Moscow         10918.375
       336   11 Jun 2027 06:15:00.379   11 Jun 2027 06:15:18.765            18.386              Murmansk2          2298.250
       337   11 Jun 2027 07:44:57.597   11 Jun 2027 07:47:13.207           135.610                 Moscow         16951.250
       338   11 Jun 2027 07:47:28.310   11 Jun 2027 07:47:36.133             7.823                Norilsk           977.875
       339   11 Jun 2027 07:47:43.053   11 Jun 2027 07:49:30.199           107.146                 Moscow         13393.250
       340   11 Jun 2027 07:50:35.346   11 Jun 2027 07:51:31.302            55.956                 Moscow          6994.500
       341   11 Jun 2027 08:54:29.296   11 Jun 2027 09:01:37.507           428.211               CapeTown         53526.375
       342   11 Jun 2027 12:48:14.890   11 Jun 2027 12:48:59.675            44.785               Magadan2          5598.125
       343   11 Jun 2027 12:49:42.880   11 Jun 2027 12:54:39.687           296.807               Magadan1         37100.875
       344   11 Jun 2027 15:15:49.957   11 Jun 2027 15:17:59.012           129.055            RioGallegos         16131.875
       345   11 Jun 2027 16:03:35.550   11 Jun 2027 16:06:32.333           176.783                Irkutsk         22097.875
       346   11 Jun 2027 16:17:20.079   11 Jun 2027 16:19:36.069           135.990                Sumatra         16998.750
       347   11 Jun 2027 16:20:27.874   11 Jun 2027 16:22:23.596           115.722                Sumatra         14465.250
       348   11 Jun 2027 17:42:34.384   11 Jun 2027 17:44:21.816           107.432                Novosib         13429.000
       349   11 Jun 2027 17:46:50.564   11 Jun 2027 17:49:51.242           180.678                  Delhi         22584.750
       350   11 Jun 2027 19:23:55.127   11 Jun 2027 19:24:47.031            51.904                  Delhi          6488.000
       351   11 Jun 2027 20:52:57.954   11 Jun 2027 20:53:30.574            32.620                 Moscow          4077.500
       352   11 Jun 2027 20:54:09.443   11 Jun 2027 20:56:11.292           121.849                 Moscow         15231.125
       353   11 Jun 2027 21:22:14.002   11 Jun 2027 21:23:09.975            55.973               CapeTown          6996.625
       354   12 Jun 2027 02:50:40.485   12 Jun 2027 02:51:20.259            39.774                Sumatra          4971.750
       355   12 Jun 2027 03:10:48.655   12 Jun 2027 03:11:42.684            54.029               Magadan2          6753.625
       356   12 Jun 2027 03:12:45.874   12 Jun 2027 03:13:49.717            63.843                Irkutsk          7980.375
       357   12 Jun 2027 03:17:34.518   12 Jun 2027 03:17:39.969             5.451              Murmansk1           681.375
       358   12 Jun 2027 03:48:52.859   12 Jun 2027 03:51:31.319           158.460            RioGallegos         19807.500
       359   12 Jun 2027 04:23:22.735   12 Jun 2027 04:25:11.847           109.112                Sumatra         13639.000
       360   12 Jun 2027 04:26:25.908   12 Jun 2027 04:28:17.331           111.423                Sumatra         13927.875
       361   12 Jun 2027 04:46:08.445   12 Jun 2027 04:46:14.707             6.262                Novosib           782.750
       362   12 Jun 2027 04:46:24.164   12 Jun 2027 04:47:59.610            95.446                Novosib         11930.750
       363   12 Jun 2027 04:48:24.995   12 Jun 2027 04:49:18.149            53.154                Irkutsk          6644.250
       364   12 Jun 2027 04:49:42.365   12 Jun 2027 04:49:53.856            11.491              Murmansk1          1436.375
       365   12 Jun 2027 04:50:01.829   12 Jun 2027 04:51:01.444            59.615                Novosib          7451.875
       366   12 Jun 2027 05:33:47.085   12 Jun 2027 05:33:48.434             1.349            RioGallegos           168.625
       367   12 Jun 2027 06:07:52.243   12 Jun 2027 06:10:16.920           144.677                  Delhi         18084.625
       368   12 Jun 2027 06:10:30.136   12 Jun 2027 06:12:16.593           106.457                  Delhi         13307.125
       369   12 Jun 2027 06:23:06.140   12 Jun 2027 06:23:41.900            35.760              Murmansk1          4470.000
       370   12 Jun 2027 06:24:07.984   12 Jun 2027 06:25:47.323            99.339              Murmansk2         12417.375
       371   12 Jun 2027 07:57:41.748   12 Jun 2027 07:58:32.075            50.327              Murmansk2          6290.875
       372   12 Jun 2027 07:58:43.934   12 Jun 2027 07:59:21.127            37.193              Murmansk2          4649.125
       373   12 Jun 2027 07:59:22.822   12 Jun 2027 07:59:36.190            13.368                 Moscow          1671.000
       374   12 Jun 2027 07:59:49.726   12 Jun 2027 07:59:57.207             7.481                 Moscow           935.125
       375   12 Jun 2027 08:00:06.688   12 Jun 2027 08:01:46.894           100.206              Murmansk1         12525.750
       376   12 Jun 2027 09:06:09.091   12 Jun 2027 09:12:30.450           381.359               CapeTown         47669.875
       377   12 Jun 2027 11:21:59.565   12 Jun 2027 11:23:41.596           102.031                Anadyr2         12753.875
       378   12 Jun 2027 11:25:27.326   12 Jun 2027 11:25:48.522            21.196               Magadan2          2649.500
       379   12 Jun 2027 11:26:21.856   12 Jun 2027 11:26:46.603            24.747                Anadyr1          3093.375
       380   12 Jun 2027 11:28:39.929   12 Jun 2027 11:30:28.682           108.753               Magadan1         13594.125
       381   12 Jun 2027 13:00:14.069   12 Jun 2027 13:00:48.776            34.707               Magadan1          4338.375
       382   12 Jun 2027 13:03:06.256   12 Jun 2027 13:07:03.843           237.587               Magadan2         29698.375
       383   12 Jun 2027 14:56:15.970   12 Jun 2027 14:57:51.296            95.326                Sumatra         11915.750
       384   12 Jun 2027 15:36:49.966   12 Jun 2027 15:38:32.885           102.919            RioGallegos         12864.875
       385   12 Jun 2027 16:29:26.846   12 Jun 2027 16:30:51.384            84.538                Sumatra         10567.250
       386   12 Jun 2027 16:31:16.488   12 Jun 2027 16:31:42.335            25.847                  Delhi          3230.875
       387   12 Jun 2027 16:32:22.514   12 Jun 2027 16:34:12.589           110.075                Sumatra         13759.375
       388   12 Jun 2027 17:51:27.238   12 Jun 2027 17:51:57.961            30.723                Novosib          3840.375
       389   12 Jun 2027 17:52:45.615   12 Jun 2027 17:54:41.830           116.215                Novosib         14526.875
       390   12 Jun 2027 17:58:47.549   12 Jun 2027 18:00:59.414           131.865                  Delhi         16483.125
       391   12 Jun 2027 21:03:52.728   12 Jun 2027 21:03:59.230             6.502              Murmansk1           812.750
       392   12 Jun 2027 21:04:58.399   12 Jun 2027 21:05:22.594            24.195                 Moscow          3024.375
       393   12 Jun 2027 21:06:40.844   12 Jun 2027 21:08:16.311            95.467                 Moscow         11933.375
       394   12 Jun 2027 21:16:36.800   12 Jun 2027 21:17:52.681            75.881                 Moscow          9485.125
       395   12 Jun 2027 21:30:42.704   12 Jun 2027 21:32:04.940            82.236               CapeTown         10279.500
       396   12 Jun 2027 21:33:34.015   12 Jun 2027 21:33:57.666            23.651               CapeTown          2956.375
       397   12 Jun 2027 21:36:38.673   12 Jun 2027 21:37:28.694            50.021               CapeTown          6252.625
       398   13 Jun 2027 03:01:46.322   13 Jun 2027 03:04:31.876           165.554                Sumatra         20694.250
       399   13 Jun 2027 03:10:16.757   13 Jun 2027 03:10:25.951             9.194                Sumatra          1149.250
       400   13 Jun 2027 03:24:32.472   13 Jun 2027 03:25:04.342            31.870                Novosib          3983.750
       401   13 Jun 2027 03:25:59.165   13 Jun 2027 03:26:01.561             2.396                Norilsk           299.500
       402   13 Jun 2027 03:26:07.057   13 Jun 2027 03:26:26.495            19.438                Norilsk          2429.750
       403   13 Jun 2027 04:01:10.694   13 Jun 2027 04:05:16.662           245.968            RioGallegos         30746.000
       404   13 Jun 2027 04:35:32.474   13 Jun 2027 04:36:33.985            61.511                Sumatra          7688.875
       405   13 Jun 2027 04:38:17.653   13 Jun 2027 04:38:24.753             7.100                Sumatra           887.500
       406   13 Jun 2027 04:57:47.636   13 Jun 2027 04:58:16.639            29.003                Novosib          3625.375
       407   13 Jun 2027 04:58:35.965   13 Jun 2027 04:59:00.696            24.731                Norilsk          3091.375
       408   13 Jun 2027 04:59:07.318   13 Jun 2027 04:59:42.104            34.786                 Moscow          4348.250
       409   13 Jun 2027 04:59:48.058   13 Jun 2027 05:00:06.367            18.309                 Moscow          2288.625
       410   13 Jun 2027 05:00:25.605   13 Jun 2027 05:01:08.768            43.163                Irkutsk          5395.375
       411   13 Jun 2027 05:01:24.439   13 Jun 2027 05:02:18.437            53.998              Murmansk1          6749.750
       412   13 Jun 2027 05:03:09.774   13 Jun 2027 05:03:19.159             9.385                Novosib          1173.125
       413   13 Jun 2027 05:03:21.132   13 Jun 2027 05:03:24.853             3.721                Norilsk           465.125
       414   13 Jun 2027 05:04:13.319   13 Jun 2027 05:04:23.917            10.598                Norilsk          1324.750
       415   13 Jun 2027 06:20:12.619   13 Jun 2027 06:24:18.349           245.730                  Delhi         30716.250
       416   13 Jun 2027 06:35:21.524   13 Jun 2027 06:35:39.198            17.674              Murmansk1          2209.250
       417   13 Jun 2027 06:35:41.366   13 Jun 2027 06:36:01.060            19.694                 Moscow          2461.750
       418   13 Jun 2027 06:36:05.234   13 Jun 2027 06:37:48.025           102.791                Novosib         12848.875
       419   13 Jun 2027 08:11:19.505   13 Jun 2027 08:11:42.848            23.343              Murmansk1          2917.875
       420   13 Jun 2027 08:11:55.388   13 Jun 2027 08:12:54.893            59.505                 Moscow          7438.125
       421   13 Jun 2027 09:17:54.431   13 Jun 2027 09:23:49.096           354.665               CapeTown         44333.125
       422   13 Jun 2027 10:05:23.371   13 Jun 2027 10:07:44.122           140.751                Anadyr1         17593.875
       423   13 Jun 2027 11:34:00.526   13 Jun 2027 11:34:08.880             8.354                Anadyr1          1044.250
       424   13 Jun 2027 11:40:14.450   13 Jun 2027 11:42:35.998           141.548               Magadan2         17693.500
       425   13 Jun 2027 13:12:13.854   13 Jun 2027 13:15:19.566           185.712               Magadan1         23214.000
       426   13 Jun 2027 15:07:09.275   13 Jun 2027 15:11:32.714           263.439                Sumatra         32929.875
       427   13 Jun 2027 15:15:12.850   13 Jun 2027 15:16:09.567            56.717                Sumatra          7089.625
       428   13 Jun 2027 16:30:49.349   13 Jun 2027 16:31:35.387            46.038                Irkutsk          5754.750
       429   13 Jun 2027 16:42:22.321   13 Jun 2027 16:45:03.004           160.683                  Delhi         20085.375
       430   13 Jun 2027 16:45:55.833   13 Jun 2027 16:46:07.443            11.610                Sumatra          1451.250
       431   13 Jun 2027 18:03:27.825   13 Jun 2027 18:03:50.434            22.609                Novosib          2826.125
       432   13 Jun 2027 18:05:15.914   13 Jun 2027 18:06:32.486            76.572                Novosib          9571.500
       433   13 Jun 2027 18:10:47.892   13 Jun 2027 18:12:18.682            90.790                  Delhi         11348.750
       434   13 Jun 2027 18:14:00.087   13 Jun 2027 18:15:46.428           106.341                  Delhi         13292.625
       435   13 Jun 2027 19:45:31.091   13 Jun 2027 19:46:53.884            82.793                 Moscow         10349.125
       436   13 Jun 2027 21:16:59.500   13 Jun 2027 21:17:16.610            17.110                 Moscow          2138.750
       437   13 Jun 2027 21:19:07.206   13 Jun 2027 21:20:18.359            71.153                 Moscow          8894.125
       438   13 Jun 2027 21:28:59.586   13 Jun 2027 21:29:52.428            52.842                 Moscow          6605.250
       439   13 Jun 2027 21:43:19.427   13 Jun 2027 21:44:03.928            44.501               CapeTown          5562.625
       440   13 Jun 2027 21:48:46.289   13 Jun 2027 21:49:16.127            29.838               CapeTown          3729.750
