uniorb/output/strategy_1/Drop/Drop_KinoSat_110201.txt

KinoSat_110201
-------------------------
    Access    *     Start Time (UTCG)     *     Stop Time (UTCG)  *   Duration (s)        *       Station  *  Data (Mbytes)
         1   01 Jun 2027 03:04:28.931   01 Jun 2027 03:04:44.483            15.552               Magadan1          1944.000
         2   01 Jun 2027 03:04:53.043   01 Jun 2027 03:05:37.230            44.187               Magadan1          5523.375
         3   01 Jun 2027 03:06:10.503   01 Jun 2027 03:07:21.090            70.587               Magadan2          8823.375
         4   01 Jun 2027 03:07:42.902   01 Jun 2027 03:08:35.747            52.845               Magadan1          6605.625
         5   01 Jun 2027 03:08:41.671   01 Jun 2027 03:08:56.296            14.625               Magadan2          1828.125
         6   01 Jun 2027 03:09:05.916   01 Jun 2027 03:09:15.695             9.779                Irkutsk          1222.375
         7   01 Jun 2027 03:09:22.119   01 Jun 2027 03:10:15.053            52.934                Novosib          6616.750
         8   01 Jun 2027 03:10:31.949   01 Jun 2027 03:10:34.036             2.087              Murmansk1           260.875
         9   01 Jun 2027 03:10:42.698   01 Jun 2027 03:11:16.529            33.831                Novosib          4228.875
        10   01 Jun 2027 03:11:18.661   01 Jun 2027 03:11:22.595             3.934              Murmansk1           491.750
        11   01 Jun 2027 03:45:37.567   01 Jun 2027 03:48:30.795           173.228            RioGallegos         21653.500
        12   01 Jun 2027 04:20:54.098   01 Jun 2027 04:25:26.990           272.892                Sumatra         19193.375
        13   01 Jun 2027 04:42:42.089   01 Jun 2027 04:43:00.239            18.150                Irkutsk          2268.750
        14   01 Jun 2027 04:43:24.698   01 Jun 2027 04:44:20.593            55.895                Novosib          6986.875
        15   01 Jun 2027 04:44:23.145   01 Jun 2027 04:44:31.014             7.869              Murmansk1           983.625
        16   01 Jun 2027 04:44:36.154   01 Jun 2027 04:45:16.659            40.505              Murmansk1          5063.125
        17   01 Jun 2027 04:45:38.035   01 Jun 2027 04:46:01.032            22.997              Murmansk2          2874.625
        18   01 Jun 2027 04:46:06.027   01 Jun 2027 04:46:53.942            47.915              Murmansk1          5989.375
        19   01 Jun 2027 05:25:01.642   01 Jun 2027 05:25:35.617            33.975            RioGallegos          4246.875
        20   01 Jun 2027 05:57:59.243   01 Jun 2027 06:00:32.594           153.351                Sumatra         19168.875
        21   01 Jun 2027 06:04:46.901   01 Jun 2027 06:06:10.948            84.047                  Delhi         10505.875
        22   01 Jun 2027 06:21:32.699   01 Jun 2027 06:22:47.328            74.629                Norilsk          9328.625
        23   01 Jun 2027 07:43:29.730   01 Jun 2027 07:44:03.932            34.202                  Delhi          4275.250
        24   01 Jun 2027 07:48:11.072   01 Jun 2027 07:49:01.930            50.858                  Delhi          6357.250
        25   01 Jun 2027 07:56:17.008   01 Jun 2027 07:57:02.779            45.771                 Moscow          5721.375
        26   01 Jun 2027 07:57:14.540   01 Jun 2027 07:57:17.928             3.388                 Moscow           423.500
        27   01 Jun 2027 07:57:29.743   01 Jun 2027 07:58:54.564            84.821              Murmansk2         10602.625
        28   01 Jun 2027 07:59:40.334   01 Jun 2027 08:00:47.524            67.190                 Moscow          8398.750
        29   01 Jun 2027 09:05:36.025   01 Jun 2027 09:08:09.276           153.251               CapeTown         19156.375
        30   01 Jun 2027 11:19:15.525   01 Jun 2027 11:19:57.988            42.463                Anadyr2          5307.875
        31   01 Jun 2027 11:24:02.745   01 Jun 2027 11:24:14.059            11.314                Anadyr1          1414.250
        32   01 Jun 2027 11:25:06.629   01 Jun 2027 11:27:05.589           118.960                Anadyr2         14870.000
        33   01 Jun 2027 12:57:38.303   01 Jun 2027 12:59:16.818            98.515               Magadan1         12314.375
        34   01 Jun 2027 12:59:17.980   01 Jun 2027 13:02:17.024           179.044               Magadan2         22380.500
        35   01 Jun 2027 15:25:28.627   01 Jun 2027 15:26:10.867            42.240            RioGallegos          5280.000
        36   01 Jun 2027 15:28:39.209   01 Jun 2027 15:31:17.812           158.603            RioGallegos         19825.375
        37   01 Jun 2027 16:15:01.358   01 Jun 2027 16:15:32.475            31.117                Irkutsk          3889.625
        38   01 Jun 2027 16:22:33.216   01 Jun 2027 16:24:30.339           117.123                Irkutsk         14640.375
        39   01 Jun 2027 16:26:47.447   01 Jun 2027 16:29:30.692           163.245                Sumatra         20405.625
        40   01 Jun 2027 17:51:14.081   01 Jun 2027 17:53:30.317           136.236                Novosib         17029.500
        41   01 Jun 2027 17:56:35.776   01 Jun 2027 17:58:16.778           101.002                  Delhi         12625.250
        42   01 Jun 2027 18:00:49.087   01 Jun 2027 18:00:50.398             1.311                  Delhi           163.875
        43   01 Jun 2027 20:58:56.355   01 Jun 2027 20:59:14.501            18.146              Murmansk1          2268.250
        44   01 Jun 2027 21:02:17.804   01 Jun 2027 21:03:32.348            74.544                 Moscow          9318.000
        45   01 Jun 2027 21:26:35.919   01 Jun 2027 21:27:54.974            79.055               CapeTown          5096.375
        46   02 Jun 2027 03:20:52.138   02 Jun 2027 03:20:59.045             6.907               Magadan1           863.375
        47   02 Jun 2027 03:21:22.396   02 Jun 2027 03:22:12.481            50.085               Magadan1          6260.625
        48   02 Jun 2027 03:57:41.312   02 Jun 2027 03:57:46.822             5.510            RioGallegos           688.750
        49   02 Jun 2027 04:00:12.960   02 Jun 2027 04:00:48.038            35.078            RioGallegos          4384.750
        50   02 Jun 2027 04:32:42.339   02 Jun 2027 04:37:37.778           295.439                Sumatra         36929.875
        51   02 Jun 2027 04:55:24.852   02 Jun 2027 04:56:16.654            51.802                Norilsk          6475.250
        52   02 Jun 2027 04:56:18.678   02 Jun 2027 04:56:42.465            23.787                Novosib          2973.375
        53   02 Jun 2027 04:57:02.650   02 Jun 2027 04:57:20.420            17.770                Novosib          2221.250
        54   02 Jun 2027 04:57:30.657   02 Jun 2027 04:57:35.277             4.620              Murmansk1           577.500
        55   02 Jun 2027 04:57:49.557   02 Jun 2027 04:57:58.333             8.776                 Moscow          1097.000
        56   02 Jun 2027 04:57:59.003   02 Jun 2027 04:59:14.195            75.192                Norilsk          9399.000
        57   02 Jun 2027 04:59:41.555   02 Jun 2027 05:00:05.260            23.705                Norilsk          2963.125
        58   02 Jun 2027 05:36:28.542   02 Jun 2027 05:37:39.990            71.448            RioGallegos          8931.000
        59   02 Jun 2027 05:38:19.482   02 Jun 2027 05:38:43.413            23.931            RioGallegos          2991.375
        60   02 Jun 2027 06:10:54.136   02 Jun 2027 06:11:31.104            36.968                Sumatra          4621.000
        61   02 Jun 2027 06:16:45.357   02 Jun 2027 06:18:50.541           125.184                  Delhi         15648.000
        62   02 Jun 2027 06:32:51.006   02 Jun 2027 06:33:45.590            54.584              Murmansk1          6823.000
        63   02 Jun 2027 06:34:01.460   02 Jun 2027 06:34:47.408            45.948                 Moscow          5743.500
        64   02 Jun 2027 07:56:59.665   02 Jun 2027 07:58:01.359            61.694                  Delhi          7711.750
        65   02 Jun 2027 08:06:04.261   02 Jun 2027 08:08:02.598           118.337                 Moscow         14792.125
        66   02 Jun 2027 08:08:28.350   02 Jun 2027 08:09:06.811            38.461                Norilsk          4807.625
        67   02 Jun 2027 08:09:09.385   02 Jun 2027 08:09:21.727            12.342              Murmansk1          1542.750
        68   02 Jun 2027 08:09:24.940   02 Jun 2027 08:10:47.994            83.054                 Moscow         10381.750
        69   02 Jun 2027 08:10:56.254   02 Jun 2027 08:12:09.309            73.055                 Moscow          9131.875
        70   02 Jun 2027 08:14:02.590   02 Jun 2027 08:14:03.244             0.654                 Moscow            81.750
        71   02 Jun 2027 09:16:41.614   02 Jun 2027 09:19:55.419           193.805               CapeTown         24225.625
        72   02 Jun 2027 11:34:09.768   02 Jun 2027 11:36:03.737           113.969                Anadyr1         14246.125
        73   02 Jun 2027 13:09:35.146   02 Jun 2027 13:14:16.899           281.753               Magadan2         35219.125
        74   02 Jun 2027 15:37:18.620   02 Jun 2027 15:42:53.441           334.821            RioGallegos         41852.625
        75   02 Jun 2027 16:38:38.705   02 Jun 2027 16:41:40.880           182.175                Sumatra         22771.875
        76   02 Jun 2027 18:07:24.234   02 Jun 2027 18:08:25.159            60.925                Novosib          7615.625
        77   02 Jun 2027 18:10:41.670   02 Jun 2027 18:12:51.298           129.628                  Delhi         16203.500
        78   02 Jun 2027 19:39:40.671   02 Jun 2027 19:39:46.513             5.842                 Moscow           730.250
        79   02 Jun 2027 19:46:51.968   02 Jun 2027 19:47:43.265            51.297                 Moscow          6412.125
        80   02 Jun 2027 21:11:06.200   02 Jun 2027 21:11:13.610             7.410              Murmansk1           926.250
        81   02 Jun 2027 21:17:10.407   02 Jun 2027 21:19:02.770           112.363                 Moscow         14045.375
        82   02 Jun 2027 21:38:21.594   02 Jun 2027 21:41:10.635           169.041               CapeTown         21130.125
        83   03 Jun 2027 03:34:42.814   03 Jun 2027 03:34:54.582            11.768                Irkutsk          1471.000
        84   03 Jun 2027 03:41:23.035   03 Jun 2027 03:41:32.736             9.701              Murmansk2          1212.625
        85   03 Jun 2027 04:09:48.534   03 Jun 2027 04:11:17.100            88.566            RioGallegos         11070.750
        86   03 Jun 2027 04:13:01.938   03 Jun 2027 04:13:22.730            20.792            RioGallegos          2599.000
        87   03 Jun 2027 04:18:21.025   03 Jun 2027 04:19:31.429            70.404            RioGallegos          8800.500
        88   03 Jun 2027 04:44:36.496   03 Jun 2027 04:47:43.744           187.248                Sumatra         23406.000
        89   03 Jun 2027 05:06:32.583   03 Jun 2027 05:06:50.795            18.212                Irkutsk          2276.500
        90   03 Jun 2027 05:07:32.345   03 Jun 2027 05:09:13.529           101.184                Novosib         12648.000
        91   03 Jun 2027 05:09:31.237   03 Jun 2027 05:09:42.738            11.501              Murmansk1          1437.625
        92   03 Jun 2027 05:09:47.921   03 Jun 2027 05:10:07.685            19.764                Norilsk          2470.500
        93   03 Jun 2027 05:10:27.397   03 Jun 2027 05:11:39.126            71.729              Murmansk1          8966.125
        94   03 Jun 2027 05:49:22.189   03 Jun 2027 05:49:43.505            21.316            RioGallegos          2664.500
        95   03 Jun 2027 06:24:32.815   03 Jun 2027 06:25:20.905            48.090                Sumatra          6011.250
        96   03 Jun 2027 06:28:49.153   03 Jun 2027 06:30:25.840            96.687                  Delhi         12085.875
        97   03 Jun 2027 06:31:57.052   03 Jun 2027 06:33:47.742           110.690                  Delhi         13836.250
        98   03 Jun 2027 06:44:59.019   03 Jun 2027 06:45:17.851            18.832                 Moscow          2354.000
        99   03 Jun 2027 06:46:00.586   03 Jun 2027 06:47:23.161            82.575              Murmansk2         10321.875
       100   03 Jun 2027 06:47:26.449   03 Jun 2027 06:48:10.244            43.795                Novosib          5474.375
       101   03 Jun 2027 06:48:10.720   03 Jun 2027 06:48:28.801            18.081                 Moscow          2260.125
       102   03 Jun 2027 08:18:10.829   03 Jun 2027 08:18:56.249            45.420              Murmansk2          5677.500
       103   03 Jun 2027 08:18:59.533   03 Jun 2027 08:19:39.316            39.783              Murmansk1          4972.875
       104   03 Jun 2027 08:19:58.281   03 Jun 2027 08:20:52.729            54.448              Murmansk1          6806.000
       105   03 Jun 2027 08:20:56.563   03 Jun 2027 08:21:15.517            18.954                 Moscow          2369.250
       106   03 Jun 2027 08:21:41.084   03 Jun 2027 08:24:06.626           145.542                 Moscow         18192.750
       107   03 Jun 2027 09:28:05.790   03 Jun 2027 09:34:25.693           379.903               CapeTown         47487.875
       108   03 Jun 2027 10:12:17.586   03 Jun 2027 10:12:18.419             0.833                Anadyr2           104.125
       109   03 Jun 2027 11:51:00.090   03 Jun 2027 11:51:18.806            18.716               Magadan1          2339.500
       110   03 Jun 2027 11:53:24.538   03 Jun 2027 11:53:51.563            27.025               Magadan1          3378.125
       111   03 Jun 2027 13:21:32.968   03 Jun 2027 13:22:35.132            62.164               Magadan1          7770.500
       112   03 Jun 2027 13:22:48.147   03 Jun 2027 13:26:17.278           209.131               Magadan2         26141.375
       113   03 Jun 2027 15:19:39.675   03 Jun 2027 15:21:47.950           128.275                Sumatra         16034.375
       114   03 Jun 2027 15:49:11.146   03 Jun 2027 15:51:09.253           118.107            RioGallegos         14763.375
       115   03 Jun 2027 16:36:54.274   03 Jun 2027 16:38:20.812            86.538                Irkutsk         10817.250
       116   03 Jun 2027 16:44:56.024   03 Jun 2027 16:45:31.129            35.105                Irkutsk          4388.125
       117   03 Jun 2027 16:50:35.688   03 Jun 2027 16:53:30.049           174.361                Sumatra         21795.125
       118   03 Jun 2027 18:17:32.341   03 Jun 2027 18:19:43.888           131.547                Novosib         16443.375
       119   03 Jun 2027 18:20:12.030   03 Jun 2027 18:22:59.298           167.268                  Delhi         20908.500
       120   03 Jun 2027 19:58:15.574   03 Jun 2027 20:00:28.534           132.960                 Moscow         16620.000
       121   03 Jun 2027 21:50:12.405   03 Jun 2027 21:51:37.315            84.910               CapeTown         10613.750
       122   03 Jun 2027 22:01:41.972   03 Jun 2027 22:02:19.822            37.850               CapeTown          4731.250
       123   04 Jun 2027 03:24:36.235   04 Jun 2027 03:26:15.169            98.934                Sumatra         12366.750
       124   04 Jun 2027 03:28:01.745   04 Jun 2027 03:30:20.619           138.874                Sumatra         17359.250
       125   04 Jun 2027 03:46:22.626   04 Jun 2027 03:46:36.535            13.909                Novosib          1738.625
       126   04 Jun 2027 03:46:51.599   04 Jun 2027 03:47:04.959            13.360                Irkutsk          1670.000
       127   04 Jun 2027 03:50:20.326   04 Jun 2027 03:50:41.319            20.993              Murmansk2          2624.125
       128   04 Jun 2027 03:54:26.566   04 Jun 2027 03:55:09.029            42.463              Murmansk2          5307.875
       129   04 Jun 2027 04:21:59.410   04 Jun 2027 04:22:26.544            27.134            RioGallegos          3391.750
       130   04 Jun 2027 04:26:32.025   04 Jun 2027 04:27:54.975            82.950            RioGallegos         10368.750
       131   04 Jun 2027 04:29:49.841   04 Jun 2027 04:31:31.488           101.647            RioGallegos         12705.875
       132   04 Jun 2027 04:56:36.272   04 Jun 2027 04:59:01.764           145.492                Sumatra         18186.500
       133   04 Jun 2027 05:15:34.947   04 Jun 2027 05:15:42.978             8.031                  Delhi          1003.875
       134   04 Jun 2027 05:19:15.862   04 Jun 2027 05:19:22.129             6.267                Norilsk           783.375
       135   04 Jun 2027 05:19:45.439   04 Jun 2027 05:21:15.739            90.300                Novosib         11287.500
       136   04 Jun 2027 05:21:25.975   04 Jun 2027 05:21:52.955            26.980              Murmansk2          3372.500
       137   04 Jun 2027 05:21:57.105   04 Jun 2027 05:22:06.232             9.127                Norilsk          1140.875
       138   04 Jun 2027 05:22:17.803   04 Jun 2027 05:23:13.660            55.857                Norilsk          6982.125
       139   04 Jun 2027 06:02:33.456   04 Jun 2027 06:02:35.917             2.461            RioGallegos           307.625
       140   04 Jun 2027 06:02:42.082   04 Jun 2027 06:02:59.991            17.909            RioGallegos          2238.625
       141   04 Jun 2027 06:40:58.528   04 Jun 2027 06:41:57.531            59.003                  Delhi          7375.375
       142   04 Jun 2027 06:43:39.462   04 Jun 2027 06:45:41.109           121.647                  Delhi         15205.875
       143   04 Jun 2027 06:57:21.621   04 Jun 2027 06:58:11.752            50.131                 Moscow          6266.375
       144   04 Jun 2027 06:58:28.394   04 Jun 2027 06:59:14.063            45.669                 Moscow          5708.625
       145   04 Jun 2027 07:00:09.823   04 Jun 2027 07:00:28.601            18.778                Norilsk          2347.250
       146   04 Jun 2027 08:30:44.983   04 Jun 2027 08:31:47.739            62.756              Murmansk1          7844.500
       147   04 Jun 2027 08:31:59.796   04 Jun 2027 08:32:13.418            13.622              Murmansk2          1702.750
       148   04 Jun 2027 08:32:30.926   04 Jun 2027 08:34:47.788           136.862                 Moscow         17107.750
       149   04 Jun 2027 09:39:40.265   04 Jun 2027 09:43:39.662           239.397               CapeTown         29924.625
       150   04 Jun 2027 10:22:05.530   04 Jun 2027 10:24:17.218           131.688                Anadyr2         16461.000
       151   04 Jun 2027 11:55:15.990   04 Jun 2027 11:56:15.032            59.042                Anadyr2          7380.250
       152   04 Jun 2027 11:59:30.810   04 Jun 2027 12:00:18.481            47.671               Magadan1          5958.875
       153   04 Jun 2027 13:33:31.600   04 Jun 2027 13:38:18.083           286.483               Magadan2         35810.375
       154   04 Jun 2027 15:19:21.576   04 Jun 2027 15:22:18.668           177.092                Irkutsk         22136.500
       155   04 Jun 2027 15:29:52.944   04 Jun 2027 15:32:04.824           131.880                Sumatra         16485.000
       156   04 Jun 2027 15:34:13.287   04 Jun 2027 15:37:00.594           167.307                Sumatra         20913.375
       157   04 Jun 2027 17:01:35.580   04 Jun 2027 17:02:49.499            73.919                  Delhi          9239.875
       158   04 Jun 2027 17:04:09.039   04 Jun 2027 17:04:38.172            29.133                Sumatra          3641.625
       159   04 Jun 2027 17:09:25.787   04 Jun 2027 17:10:25.600            59.813                Sumatra          7476.625
       160   04 Jun 2027 17:12:18.928   04 Jun 2027 17:13:41.038            82.110                Sumatra         10263.750
       161   04 Jun 2027 18:29:06.695   04 Jun 2027 18:29:34.234            27.539                Novosib          3442.375
       162   04 Jun 2027 18:32:06.367   04 Jun 2027 18:34:52.112           165.745                  Delhi         20718.125
       163   04 Jun 2027 20:03:02.998   04 Jun 2027 20:06:53.148           230.150                 Moscow         28768.750
       164   04 Jun 2027 22:02:08.190   04 Jun 2027 22:04:13.772           125.582               CapeTown         15697.750
       165   05 Jun 2027 03:35:19.305   05 Jun 2027 03:37:56.273           156.968                Sumatra         19621.000
       166   05 Jun 2027 03:58:21.346   05 Jun 2027 03:59:07.389            46.043              Murmansk2          5755.375
       167   05 Jun 2027 03:59:31.299   05 Jun 2027 03:59:56.801            25.502                Norilsk          3187.750
       168   05 Jun 2027 04:00:45.507   05 Jun 2027 04:01:06.712            21.205                Norilsk          2650.625
       169   05 Jun 2027 04:02:47.727   05 Jun 2027 04:03:27.535            39.808                Norilsk          4976.000
       170   05 Jun 2027 04:34:14.179   05 Jun 2027 04:34:58.523            44.344            RioGallegos          5543.000
       171   05 Jun 2027 04:39:38.728   05 Jun 2027 04:40:43.485            64.757            RioGallegos          8094.625
       172   05 Jun 2027 04:42:54.594   05 Jun 2027 04:43:34.205            39.611            RioGallegos          4951.375
       173   05 Jun 2027 05:08:41.667   05 Jun 2027 05:10:18.219            96.552                Sumatra         12069.000
       174   05 Jun 2027 05:18:02.727   05 Jun 2027 05:19:25.485            82.758                  Delhi         10344.750
       175   05 Jun 2027 05:31:57.359   05 Jun 2027 05:33:18.781            81.422                Irkutsk         10177.750
       176   05 Jun 2027 05:34:01.384   05 Jun 2027 05:34:35.805            34.421              Murmansk1          4302.625
       177   05 Jun 2027 05:34:38.131   05 Jun 2027 05:35:14.796            36.665              Murmansk1          4583.125
       178   05 Jun 2027 06:17:24.884   05 Jun 2027 06:18:07.313            42.429            RioGallegos          5303.625
       179   05 Jun 2027 06:53:13.951   05 Jun 2027 06:53:36.037            22.086                  Delhi          2760.750
       180   05 Jun 2027 06:55:44.420   05 Jun 2027 06:57:39.763           115.343                  Delhi         14417.875
       181   05 Jun 2027 07:08:13.975   05 Jun 2027 07:08:34.323            20.348              Murmansk2          2543.500
       182   05 Jun 2027 07:08:42.482   05 Jun 2027 07:09:36.745            54.263              Murmansk1          6782.875
       183   05 Jun 2027 07:09:46.816   05 Jun 2027 07:10:20.844            34.028              Murmansk1          4253.500
       184   05 Jun 2027 07:10:36.648   05 Jun 2027 07:10:57.536            20.888              Murmansk1          2611.000
       185   05 Jun 2027 07:11:11.334   05 Jun 2027 07:11:31.723            20.389                 Moscow          2548.625
       186   05 Jun 2027 07:11:40.726   05 Jun 2027 07:11:50.961            10.235                 Moscow          1279.375
       187   05 Jun 2027 08:41:13.109   05 Jun 2027 08:42:10.839            57.730                 Moscow          7216.250
       188   05 Jun 2027 08:42:45.369   05 Jun 2027 08:43:42.539            57.170              Murmansk1          7146.250
       189   05 Jun 2027 08:44:01.399   05 Jun 2027 08:44:30.822            29.423              Murmansk2          3677.875
       190   05 Jun 2027 08:44:43.371   05 Jun 2027 08:46:03.885            80.514              Murmansk2         10064.250
       191   05 Jun 2027 09:51:21.671   05 Jun 2027 09:55:36.654           254.983               CapeTown         31872.875
       192   05 Jun 2027 10:31:37.466   05 Jun 2027 10:31:56.141            18.675                Anadyr2          2334.375
       193   05 Jun 2027 10:32:39.769   05 Jun 2027 10:34:55.862           136.093                Anadyr2         17011.625
       194   05 Jun 2027 12:07:16.766   05 Jun 2027 12:08:43.811            87.045                Anadyr2         10880.625
       195   05 Jun 2027 12:11:18.417   05 Jun 2027 12:14:04.170           165.753               Magadan2         20719.125
       196   05 Jun 2027 12:14:04.170   05 Jun 2027 12:14:39.515            35.345               Magadan1          4418.125
       197   05 Jun 2027 13:45:30.919   05 Jun 2027 13:48:28.825           177.906               Magadan1         22238.250
       198   05 Jun 2027 15:26:02.578   05 Jun 2027 15:26:55.332            52.754                Irkutsk          6594.250
       199   05 Jun 2027 15:32:00.551   05 Jun 2027 15:32:46.711            46.160                Irkutsk          5770.000
       200   05 Jun 2027 15:40:51.854   05 Jun 2027 15:43:49.381           177.527                Sumatra         22190.875
       201   05 Jun 2027 15:46:30.618   05 Jun 2027 15:49:51.441           200.823                Sumatra         25102.875
       202   05 Jun 2027 17:03:58.855   05 Jun 2027 17:08:13.666           254.811                Novosib         31851.375
       203   05 Jun 2027 17:11:14.289   05 Jun 2027 17:13:38.053           143.764                  Delhi         17970.500
       204   05 Jun 2027 20:14:52.906   05 Jun 2027 20:18:21.884           208.978                 Moscow         26122.250
       205   05 Jun 2027 21:56:35.690   05 Jun 2027 21:56:38.609             2.919              Murmansk1           364.875
       206   05 Jun 2027 22:00:19.002   05 Jun 2027 22:02:20.054           121.052                 Moscow         15131.500
       207   06 Jun 2027 03:46:28.899   06 Jun 2027 03:49:44.047           195.148                Sumatra         24393.500
       208   06 Jun 2027 03:52:36.739   06 Jun 2027 03:55:33.787           177.048                Sumatra         22131.000
       209   06 Jun 2027 04:46:33.169   06 Jun 2027 04:48:00.265            87.096            RioGallegos         10887.000
       210   06 Jun 2027 05:20:53.030   06 Jun 2027 05:21:46.772            53.742                Sumatra          6717.750
       211   06 Jun 2027 05:29:38.486   06 Jun 2027 05:31:43.101           124.615                  Delhi         15576.875
       212   06 Jun 2027 05:36:59.011   06 Jun 2027 05:38:58.225           119.214                  Delhi         14901.750
       213   06 Jun 2027 05:43:49.905   06 Jun 2027 05:45:06.462            76.557                Irkutsk          9569.625
       214   06 Jun 2027 05:45:52.902   06 Jun 2027 05:46:02.959            10.057                Novosib          1257.125
       215   06 Jun 2027 05:47:05.639   06 Jun 2027 05:48:05.846            60.207                Novosib          7525.875
       216   06 Jun 2027 07:05:36.254   06 Jun 2027 07:06:00.603            24.349                  Delhi          3043.625
       217   06 Jun 2027 07:07:31.899   06 Jun 2027 07:08:06.138            34.239                  Delhi          4279.875
       218   06 Jun 2027 07:20:03.028   06 Jun 2027 07:20:15.864            12.836                 Moscow          1604.500
       219   06 Jun 2027 07:20:20.774   06 Jun 2027 07:20:27.440             6.666                Norilsk           833.250
       220   06 Jun 2027 07:20:32.132   06 Jun 2027 07:21:36.519            64.387              Murmansk2          8048.375
       221   06 Jun 2027 07:21:49.655   06 Jun 2027 07:22:12.352            22.697              Murmansk2          2837.125
       222   06 Jun 2027 07:22:24.306   06 Jun 2027 07:23:05.798            41.492                 Moscow          5186.500
       223   06 Jun 2027 07:23:35.997   06 Jun 2027 07:24:04.381            28.384                 Moscow          3548.000
       224   06 Jun 2027 08:56:19.015   06 Jun 2027 08:56:30.811            11.796              Murmansk2          1474.500
       225   06 Jun 2027 08:56:59.529   06 Jun 2027 08:59:06.151           126.622              Murmansk2         15827.750
       226   06 Jun 2027 10:03:08.238   06 Jun 2027 10:05:22.006           133.768               CapeTown         16721.000
       227   06 Jun 2027 10:07:36.500   06 Jun 2027 10:08:31.060            54.560               CapeTown          6820.000
       228   06 Jun 2027 10:43:34.441   06 Jun 2027 10:44:56.135            81.694                Anadyr1         10211.750
       229   06 Jun 2027 10:47:57.833   06 Jun 2027 10:48:16.259            18.426                Anadyr2          2303.250
       230   06 Jun 2027 10:50:18.537   06 Jun 2027 10:50:40.576            22.039                Anadyr2          2754.875
       231   06 Jun 2027 10:50:59.403   06 Jun 2027 10:54:22.630           203.227                Anadyr2         25403.375
       232   06 Jun 2027 12:22:11.055   06 Jun 2027 12:23:01.041            49.986               Magadan2          6248.250
       233   06 Jun 2027 12:23:01.041   06 Jun 2027 12:24:23.893            82.852               Magadan1         10356.500
       234   06 Jun 2027 12:24:36.630   06 Jun 2027 12:26:36.300           119.670               Magadan1         14958.750
       235   06 Jun 2027 13:57:30.817   06 Jun 2027 13:58:06.530            35.713               Magadan2          4464.125
       236   06 Jun 2027 14:55:41.742   06 Jun 2027 14:58:22.838           161.096            RioGallegos         20137.000
       237   06 Jun 2027 15:37:46.117   06 Jun 2027 15:39:33.179           107.062                Irkutsk         13382.750
       238   06 Jun 2027 15:52:09.455   06 Jun 2027 15:55:40.198           210.743                Sumatra         26342.875
       239   06 Jun 2027 15:58:41.322   06 Jun 2027 16:00:27.601           106.279                Sumatra         13284.875
       240   06 Jun 2027 17:13:20.383   06 Jun 2027 17:18:53.287           332.904                Novosib         41613.000
       241   06 Jun 2027 17:22:15.710   06 Jun 2027 17:25:23.519           187.809                  Delhi         23476.125
       242   06 Jun 2027 20:28:09.139   06 Jun 2027 20:29:42.165            93.026                 Moscow         11628.250
       243   06 Jun 2027 22:26:14.733   06 Jun 2027 22:27:30.027            75.294               CapeTown          9411.750
       244   06 Jun 2027 22:28:59.843   06 Jun 2027 22:29:20.035            20.192               CapeTown          2524.000
       245   06 Jun 2027 22:34:11.692   06 Jun 2027 22:34:13.100             1.408               CapeTown           176.000
       246   07 Jun 2027 03:57:52.911   07 Jun 2027 03:58:48.840            55.929                Sumatra          6991.125
       247   07 Jun 2027 03:59:42.630   07 Jun 2027 04:01:37.782           115.152                Sumatra         14394.000
       248   07 Jun 2027 04:04:44.427   07 Jun 2027 04:05:26.683            42.256                Sumatra          5282.000
       249   07 Jun 2027 04:22:40.619   07 Jun 2027 04:23:26.572            45.953              Murmansk2          5744.125
       250   07 Jun 2027 04:58:56.833   07 Jun 2027 04:59:39.823            42.990            RioGallegos          5373.750
       251   07 Jun 2027 05:33:11.117   07 Jun 2027 05:33:24.199            13.082                Sumatra          1635.250
       252   07 Jun 2027 05:35:15.108   07 Jun 2027 05:37:20.624           125.516                Sumatra         15689.500
       253   07 Jun 2027 05:41:20.571   07 Jun 2027 05:43:56.056           155.485                  Delhi         19435.625
       254   07 Jun 2027 05:57:30.500   07 Jun 2027 05:57:39.202             8.702                Novosib          1087.750
       255   07 Jun 2027 05:57:51.549   07 Jun 2027 05:57:58.137             6.588                Norilsk           823.500
       256   07 Jun 2027 05:58:17.420   07 Jun 2027 05:59:01.987            44.567                 Moscow          5570.875
       257   07 Jun 2027 05:59:16.606   07 Jun 2027 06:00:21.176            64.570                Novosib          8071.250
       258   07 Jun 2027 07:18:06.818   07 Jun 2027 07:19:14.131            67.313                  Delhi          8414.125
       259   07 Jun 2027 07:20:13.634   07 Jun 2027 07:20:32.423            18.789                  Delhi          2348.625
       260   07 Jun 2027 07:32:14.385   07 Jun 2027 07:33:02.112            47.727                Novosib          5965.875
       261   07 Jun 2027 07:33:30.005   07 Jun 2027 07:34:31.605            61.600                 Moscow          7700.000
       262   07 Jun 2027 10:14:58.933   07 Jun 2027 10:18:46.019           227.086               CapeTown         28385.750
       263   07 Jun 2027 10:55:32.363   07 Jun 2027 10:56:35.811            63.448                Anadyr2          7931.000
       264   07 Jun 2027 10:56:53.271   07 Jun 2027 10:59:44.936           171.665                Anadyr1         21458.125
       265   07 Jun 2027 11:04:48.820   07 Jun 2027 11:05:05.775            16.955                Anadyr1          2119.375
       266   07 Jun 2027 12:34:35.169   07 Jun 2027 12:39:29.329           294.160               Magadan2         36770.000
       267   07 Jun 2027 15:02:14.229   07 Jun 2027 15:02:52.100            37.871            RioGallegos          4733.875
       268   07 Jun 2027 15:05:31.207   07 Jun 2027 15:06:12.615            41.408            RioGallegos          5176.000
       269   07 Jun 2027 15:08:08.491   07 Jun 2027 15:09:12.994            64.503            RioGallegos          8062.875
       270   07 Jun 2027 15:49:33.806   07 Jun 2027 15:52:53.006           199.200                Irkutsk         24900.000
       271   07 Jun 2027 16:05:04.694   07 Jun 2027 16:07:36.774           152.080                Sumatra         19010.000
       272   07 Jun 2027 17:25:13.208   07 Jun 2027 17:29:46.056           272.848                Novosib         34106.000
       273   07 Jun 2027 17:33:37.305   07 Jun 2027 17:37:13.640           216.335                  Delhi         27041.875
       274   07 Jun 2027 20:38:39.605   07 Jun 2027 20:40:41.641           122.036                 Moscow         15254.500
       275   07 Jun 2027 22:11:42.894   07 Jun 2027 22:12:01.581            18.687              Murmansk2          2335.875
       276   07 Jun 2027 22:17:05.577   07 Jun 2027 22:17:33.716            28.139                 Moscow          3517.375
       277   07 Jun 2027 22:38:25.899   07 Jun 2027 22:41:14.929           169.030               CapeTown         21128.750
       278   08 Jun 2027 04:09:26.895   08 Jun 2027 04:11:18.007           111.112                Sumatra         13889.000
       279   08 Jun 2027 05:13:16.313   08 Jun 2027 05:13:45.090            28.777            RioGallegos          3597.125
       280   08 Jun 2027 05:45:37.422   08 Jun 2027 05:47:21.729           104.307                Sumatra         13038.375
       281   08 Jun 2027 05:47:50.418   08 Jun 2027 05:49:36.306           105.888                Sumatra         13236.000
       282   08 Jun 2027 05:53:08.404   08 Jun 2027 05:53:22.720            14.316                  Delhi          1789.500
       283   08 Jun 2027 05:56:05.103   08 Jun 2027 05:57:05.685            60.582                  Delhi          7572.750
       284   08 Jun 2027 06:09:31.487   08 Jun 2027 06:10:12.448            40.961              Murmansk2          5120.125
       285   08 Jun 2027 06:10:16.504   08 Jun 2027 06:10:41.002            24.498              Murmansk2          3062.250
       286   08 Jun 2027 06:11:14.030   08 Jun 2027 06:11:20.667             6.637                Norilsk           829.625
       287   08 Jun 2027 06:11:29.451   08 Jun 2027 06:11:55.586            26.135              Murmansk2          3266.875
       288   08 Jun 2027 07:30:48.177   08 Jun 2027 07:31:46.373            58.196                  Delhi          7274.500
       289   08 Jun 2027 07:37:06.817   08 Jun 2027 07:38:40.848            94.031                  Delhi         11753.875
       290   08 Jun 2027 07:44:42.551   08 Jun 2027 07:45:30.108            47.557                Norilsk          5944.625
       291   08 Jun 2027 07:45:31.762   08 Jun 2027 07:46:12.584            40.822                 Moscow          5102.750
       292   08 Jun 2027 07:46:27.865   08 Jun 2027 07:47:16.892            49.027              Murmansk1          6128.375
       293   08 Jun 2027 08:55:47.057   08 Jun 2027 08:56:42.929            55.872               CapeTown          6984.000
       294   08 Jun 2027 08:57:19.037   08 Jun 2027 08:57:48.197            29.160               CapeTown          3645.000
       295   08 Jun 2027 10:26:53.100   08 Jun 2027 10:29:29.823           156.723               CapeTown         19590.375
       296   08 Jun 2027 11:07:31.044   08 Jun 2027 11:12:16.959           285.915                Anadyr2         35739.375
       297   08 Jun 2027 12:45:57.401   08 Jun 2027 12:50:14.004           256.603               Magadan2         32075.375
       298   08 Jun 2027 14:21:32.024   08 Jun 2027 14:21:57.460            25.436               Magadan2          3179.500
       299   08 Jun 2027 15:13:56.478   08 Jun 2027 15:18:07.043           250.565            RioGallegos         31320.625
       300   08 Jun 2027 16:01:24.536   08 Jun 2027 16:02:50.694            86.158                Irkutsk         10769.750
       301   08 Jun 2027 16:05:51.039   08 Jun 2027 16:05:53.215             2.176                Irkutsk           272.000
       302   08 Jun 2027 16:15:16.900   08 Jun 2027 16:19:38.935           262.035                Sumatra         32754.375
       303   08 Jun 2027 17:37:07.866   08 Jun 2027 17:39:02.767           114.901                Novosib         14362.625
       304   08 Jun 2027 17:45:58.433   08 Jun 2027 17:49:07.723           189.290                  Delhi         23661.250
       305   08 Jun 2027 20:48:15.578   08 Jun 2027 20:49:11.006            55.428              Murmansk1          6928.500
       306   08 Jun 2027 20:50:35.459   08 Jun 2027 20:52:08.825            93.366                 Moscow         11670.750
       307   08 Jun 2027 21:15:10.136   08 Jun 2027 21:15:18.005             7.869               CapeTown           983.625
       308   08 Jun 2027 22:25:31.609   08 Jun 2027 22:25:31.697             0.088              Murmansk1            11.000
       309   08 Jun 2027 22:51:32.633   08 Jun 2027 22:53:07.132            94.499               CapeTown         11812.375
       310   09 Jun 2027 03:07:57.661   09 Jun 2027 03:08:14.062            16.401               Magadan1          2050.125
       311   09 Jun 2027 03:08:21.676   09 Jun 2027 03:08:50.567            28.891               Magadan1          3611.375
       312   09 Jun 2027 03:08:58.008   09 Jun 2027 03:09:11.373            13.365               Magadan1          1670.625
       313   09 Jun 2027 03:09:37.082   09 Jun 2027 03:10:40.017            62.935               Magadan1          7866.875
       314   09 Jun 2027 03:45:52.424   09 Jun 2027 03:48:45.704           173.280            RioGallegos         21660.000
       315   09 Jun 2027 03:49:13.522   09 Jun 2027 03:49:39.359            25.837            RioGallegos          3229.625
       316   09 Jun 2027 04:21:08.667   09 Jun 2027 04:25:42.141           273.474                Sumatra         34184.250
       317   09 Jun 2027 04:43:39.438   09 Jun 2027 04:45:06.420            86.982                Novosib         10872.750
       318   09 Jun 2027 04:45:34.932   09 Jun 2027 04:45:53.660            18.728              Murmansk2          2341.000
       319   09 Jun 2027 04:46:20.531   09 Jun 2027 04:47:08.739            48.208              Murmansk1          6026.000
       320   09 Jun 2027 04:47:24.443   09 Jun 2027 04:47:56.800            32.357                Norilsk          4044.625
       321   09 Jun 2027 04:48:50.284   09 Jun 2027 04:49:09.212            18.928                Norilsk          2366.000
       322   09 Jun 2027 05:24:19.456   09 Jun 2027 05:25:16.272            56.816            RioGallegos          7102.000
       323   09 Jun 2027 05:58:14.836   09 Jun 2027 06:00:00.964           106.128                Sumatra         13266.000
       324   09 Jun 2027 06:05:01.656   09 Jun 2027 06:06:26.185            84.529                  Delhi         10566.125
       325   09 Jun 2027 06:21:12.114   09 Jun 2027 06:21:38.254            26.140                Norilsk          3267.500
       326   09 Jun 2027 06:21:49.719   09 Jun 2027 06:22:16.813            27.094                Norilsk          3386.750
       327   09 Jun 2027 06:22:24.022   09 Jun 2027 06:23:02.569            38.547                Norilsk          4818.375
       328   09 Jun 2027 06:23:36.471   09 Jun 2027 06:24:32.648            56.177                Novosib          7022.125
       329   09 Jun 2027 07:43:45.722   09 Jun 2027 07:44:07.597            21.875                  Delhi          2734.375
       330   09 Jun 2027 07:49:16.644   09 Jun 2027 07:50:10.979            54.335                  Delhi          6791.875
       331   09 Jun 2027 07:56:10.467   09 Jun 2027 07:57:53.082           102.615              Murmansk1         12826.875
       332   09 Jun 2027 07:57:57.999   09 Jun 2027 07:58:37.905            39.906                Norilsk          4988.250
       333   09 Jun 2027 07:58:42.808   09 Jun 2027 07:59:01.135            18.327                Norilsk          2290.875
       334   09 Jun 2027 07:59:06.393   09 Jun 2027 07:59:20.462            14.069                Norilsk          1758.625
       335   09 Jun 2027 07:59:44.774   09 Jun 2027 08:00:29.627            44.853                Norilsk          5606.625
       336   09 Jun 2027 08:00:37.311   09 Jun 2027 08:00:47.498            10.187              Murmansk2          1273.375
       337   09 Jun 2027 08:02:05.394   09 Jun 2027 08:02:15.784            10.390                 Moscow          1298.750
       338   09 Jun 2027 09:05:49.639   09 Jun 2027 09:08:23.909           154.270               CapeTown         19283.750
       339   09 Jun 2027 09:49:35.503   09 Jun 2027 09:50:43.314            67.811                Anadyr2          8476.375
       340   09 Jun 2027 10:39:21.500   09 Jun 2027 10:40:45.133            83.633               CapeTown         10454.125
       341   09 Jun 2027 11:19:30.334   09 Jun 2027 11:20:12.527            42.193                Anadyr1          5274.125
       342   09 Jun 2027 11:21:21.053   09 Jun 2027 11:24:17.741           176.688                Anadyr2         22086.000
       343   09 Jun 2027 12:57:53.057   09 Jun 2027 13:02:31.992           278.935               Magadan2         34866.875
       344   09 Jun 2027 15:25:43.242   09 Jun 2027 15:28:54.927           191.685            RioGallegos         23960.625
       345   09 Jun 2027 16:13:17.606   09 Jun 2027 16:15:16.587           118.981                Irkutsk         14872.625
       346   09 Jun 2027 16:21:02.167   09 Jun 2027 16:22:47.959           105.792                Irkutsk         13224.000
       347   09 Jun 2027 16:27:02.071   09 Jun 2027 16:29:45.741           163.670                Sumatra         20458.750
       348   09 Jun 2027 17:49:04.003   09 Jun 2027 17:51:29.230           145.227                Novosib         18153.375
       349   09 Jun 2027 17:56:50.308   09 Jun 2027 17:58:32.097           101.789                  Delhi         12723.625
       350   09 Jun 2027 20:59:11.193   09 Jun 2027 20:59:54.725            43.532              Murmansk2          5441.500
       351   09 Jun 2027 21:02:32.584   09 Jun 2027 21:03:46.751            74.167                 Moscow          9270.875
       352   09 Jun 2027 21:05:13.461   09 Jun 2027 21:07:16.568           123.107                 Moscow         15388.375
       353   10 Jun 2027 03:19:52.865   10 Jun 2027 03:20:58.123            65.258               Magadan1          8157.250
       354   10 Jun 2027 03:21:14.118   10 Jun 2027 03:22:27.071            72.953               Magadan1          9119.125
       355   10 Jun 2027 03:57:56.233   10 Jun 2027 03:58:06.154             9.921            RioGallegos          1240.125
       356   10 Jun 2027 04:02:12.308   10 Jun 2027 04:02:48.880            36.572            RioGallegos          4571.500
       357   10 Jun 2027 04:32:57.015   10 Jun 2027 04:37:53.058           296.043                Sumatra         37005.375
       358   10 Jun 2027 04:55:48.490   10 Jun 2027 04:57:20.522            92.032                Novosib         11504.000
       359   10 Jun 2027 04:57:35.005   10 Jun 2027 04:58:15.158            40.153                Norilsk          5019.125
       360   10 Jun 2027 04:58:25.628   10 Jun 2027 04:58:58.566            32.938              Murmansk2          4117.250
       361   10 Jun 2027 04:59:17.341   10 Jun 2027 05:00:23.232            65.891                Norilsk          8236.375
       362   10 Jun 2027 05:01:02.850   10 Jun 2027 05:01:05.964             3.114                Norilsk           389.250
       363   10 Jun 2027 05:38:34.503   10 Jun 2027 05:38:59.385            24.882            RioGallegos          3110.250
       364   10 Jun 2027 06:11:10.139   10 Jun 2027 06:11:45.114            34.975                Sumatra          4371.875
       365   10 Jun 2027 06:17:00.201   10 Jun 2027 06:19:05.588           125.387                  Delhi         15673.375
       366   10 Jun 2027 06:20:49.763   10 Jun 2027 06:22:14.283            84.520                  Delhi         10565.000
       367   10 Jun 2027 06:33:15.406   10 Jun 2027 06:34:16.363            60.957                 Moscow          7619.625
       368   10 Jun 2027 06:34:42.222   10 Jun 2027 06:35:21.078            38.856                Norilsk          4857.000
       369   10 Jun 2027 06:35:29.170   10 Jun 2027 06:35:51.484            22.314                 Moscow          2789.250
       370   10 Jun 2027 06:36:26.567   10 Jun 2027 06:36:42.292            15.725                 Moscow          1965.625
       371   10 Jun 2027 07:57:16.604   10 Jun 2027 07:58:15.908            59.304                  Delhi          7413.000
       372   10 Jun 2027 08:04:55.802   10 Jun 2027 08:05:22.677            26.875              Murmansk2          3359.375
       373   10 Jun 2027 08:05:27.273   10 Jun 2027 08:06:19.370            52.097                 Moscow          6512.125
       374   10 Jun 2027 08:06:38.387   10 Jun 2027 08:07:22.583            44.196              Murmansk2          5524.500
       375   10 Jun 2027 08:07:28.118   10 Jun 2027 08:07:31.447             3.329                Novosib           416.125
       376   10 Jun 2027 08:07:50.711   10 Jun 2027 08:09:12.085            81.374                Norilsk         10171.750
       377   10 Jun 2027 08:09:19.086   10 Jun 2027 08:09:55.607            36.521              Murmansk2          4565.125
       378   10 Jun 2027 08:10:04.439   10 Jun 2027 08:10:16.273            11.834                 Moscow          1479.250
       379   10 Jun 2027 08:10:25.063   10 Jun 2027 08:11:02.440            37.377              Murmansk1          4672.125
       380   10 Jun 2027 08:11:06.331   10 Jun 2027 08:11:53.207            46.876              Murmansk1          5859.500
       381   10 Jun 2027 09:16:55.698   10 Jun 2027 09:20:10.154           194.456               CapeTown         24307.000
       382   10 Jun 2027 10:50:50.428   10 Jun 2027 10:51:33.788            43.360               CapeTown          5420.000
       383   10 Jun 2027 11:31:30.124   10 Jun 2027 11:33:55.946           145.822                Anadyr1         18227.750
       384   10 Jun 2027 11:34:25.064   10 Jun 2027 11:36:18.738           113.674                Anadyr2         14209.250
       385   10 Jun 2027 11:39:31.587   10 Jun 2027 11:41:03.169            91.582               Magadan1         11447.750
       386   10 Jun 2027 13:09:49.918   10 Jun 2027 13:14:31.880           281.962               Magadan1         35245.250
       387   10 Jun 2027 15:37:33.289   10 Jun 2027 15:41:55.631           262.342            RioGallegos         32792.750
       388   10 Jun 2027 16:34:06.087   10 Jun 2027 16:36:14.492           128.405                Irkutsk         16050.625
       389   10 Jun 2027 16:38:53.430   10 Jun 2027 16:41:55.826           182.396                Sumatra         22799.500
       390   10 Jun 2027 18:08:36.229   10 Jun 2027 18:13:06.335           270.106                  Delhi         33763.250
       391   10 Jun 2027 21:24:55.588   10 Jun 2027 21:27:10.284           134.696                 Moscow         16837.000
       392   10 Jun 2027 21:41:25.592   10 Jun 2027 21:42:38.731            73.139               CapeTown          9142.375
       393   11 Jun 2027 03:32:01.739   11 Jun 2027 03:32:59.104            57.365               Magadan2          7170.625
       394   11 Jun 2027 03:33:16.807   11 Jun 2027 03:34:09.182            52.375               Magadan2          6546.875
       395   11 Jun 2027 03:34:57.571   11 Jun 2027 03:35:13.134            15.563                Irkutsk          1945.375
       396   11 Jun 2027 04:13:10.086   11 Jun 2027 04:13:16.754             6.668            RioGallegos           833.500
       397   11 Jun 2027 04:13:36.946   11 Jun 2027 04:14:46.196            69.250            RioGallegos          8656.250
       398   11 Jun 2027 04:19:22.605   11 Jun 2027 04:19:46.457            23.852            RioGallegos          2981.500
       399   11 Jun 2027 04:44:51.270   11 Jun 2027 04:47:58.641           187.371                Sumatra         23421.375
       400   11 Jun 2027 05:07:47.465   11 Jun 2027 05:09:29.399           101.934                Novosib         12741.750
       401   11 Jun 2027 05:09:46.760   11 Jun 2027 05:10:47.672            60.912              Murmansk1          7614.000
       402   11 Jun 2027 05:10:48.838   11 Jun 2027 05:11:03.572            14.734              Murmansk1          1841.750
       403   11 Jun 2027 05:11:14.137   11 Jun 2027 05:11:53.618            39.481              Murmansk1          4935.125
       404   11 Jun 2027 05:50:43.313   11 Jun 2027 05:51:08.253            24.940            RioGallegos          3117.500
       405   11 Jun 2027 06:24:50.360   11 Jun 2027 06:25:38.658            48.298                Sumatra          6037.250
       406   11 Jun 2027 06:29:04.086   11 Jun 2027 06:30:40.078            95.992                  Delhi         11999.000
       407   11 Jun 2027 06:32:11.833   11 Jun 2027 06:34:02.320           110.487                  Delhi         13810.875
       408   11 Jun 2027 06:45:32.910   11 Jun 2027 06:46:23.880            50.970                 Moscow          6371.250
       409   11 Jun 2027 06:46:36.944   11 Jun 2027 06:47:40.628            63.684                Novosib          7960.500
       410   11 Jun 2027 08:17:18.075   11 Jun 2027 08:18:45.455            87.380              Murmansk1         10922.500
       411   11 Jun 2027 08:19:10.742   11 Jun 2027 08:20:50.260            99.518              Murmansk1         12439.750
       412   11 Jun 2027 08:21:04.220   11 Jun 2027 08:21:59.006            54.786                Norilsk          6848.250
       413   11 Jun 2027 08:22:19.695   11 Jun 2027 08:24:21.043           121.348                 Moscow         15168.500
       414   11 Jun 2027 09:28:20.094   11 Jun 2027 09:32:00.591           220.497               CapeTown         27562.125
       415   11 Jun 2027 09:34:41.018   11 Jun 2027 09:36:32.389           111.371               CapeTown         13921.375
       416   11 Jun 2027 11:43:30.308   11 Jun 2027 11:44:00.378            30.070                Anadyr1          3758.750
       417   11 Jun 2027 11:46:11.499   11 Jun 2027 11:46:14.838             3.339                Anadyr2           417.375
       418   11 Jun 2027 11:47:17.495   11 Jun 2027 11:48:19.903            62.408                Anadyr1          7801.000
       419   11 Jun 2027 13:21:47.757   11 Jun 2027 13:22:49.587            61.830               Magadan1          7728.750
       420   11 Jun 2027 13:23:04.360   11 Jun 2027 13:26:51.560           227.200               Magadan2         28400.000
       421   11 Jun 2027 15:19:51.676   11 Jun 2027 15:23:38.292           226.616                Sumatra         28327.000
       422   11 Jun 2027 15:49:25.855   11 Jun 2027 15:51:24.488           118.633            RioGallegos         14829.125
       423   11 Jun 2027 16:37:09.046   11 Jun 2027 16:38:35.161            86.115                Irkutsk         10764.375
       424   11 Jun 2027 16:45:29.984   11 Jun 2027 16:46:38.251            68.267                Novosib          8533.375
       425   11 Jun 2027 16:50:50.512   11 Jun 2027 16:53:43.910           173.398                Sumatra         21674.750
       426   11 Jun 2027 18:16:12.897   11 Jun 2027 18:17:47.359            94.462                Novosib         11807.750
       427   11 Jun 2027 18:20:26.724   11 Jun 2027 18:23:14.371           167.647                  Delhi         20955.875
       428   11 Jun 2027 19:51:30.967   11 Jun 2027 19:53:22.665           111.698                 Moscow         13962.250
       429   11 Jun 2027 21:50:27.120   11 Jun 2027 21:53:32.056           184.936               CapeTown         23117.000
       430   12 Jun 2027 03:24:49.355   12 Jun 2027 03:26:29.678           100.323                Sumatra         12540.375
       431   12 Jun 2027 03:28:17.250   12 Jun 2027 03:30:37.021           139.771                Sumatra         17471.375
       432   12 Jun 2027 03:45:19.412   12 Jun 2027 03:45:42.889            23.477               Magadan2          2934.625
       433   12 Jun 2027 03:47:03.269   12 Jun 2027 03:47:27.482            24.213                Norilsk          3026.625
       434   12 Jun 2027 03:47:37.075   12 Jun 2027 03:48:00.636            23.561              Murmansk2          2945.125
       435   12 Jun 2027 03:48:03.947   12 Jun 2027 03:48:36.852            32.905                Novosib          4113.125
       436   12 Jun 2027 04:22:14.451   12 Jun 2027 04:22:46.849            32.398            RioGallegos          4049.750
       437   12 Jun 2027 04:25:05.774   12 Jun 2027 04:25:08.332             2.558            RioGallegos           319.750
       438   12 Jun 2027 04:25:21.917   12 Jun 2027 04:25:28.291             6.374            RioGallegos           796.750
       439   12 Jun 2027 04:26:46.765   12 Jun 2027 04:28:09.376            82.611            RioGallegos         10326.375
       440   12 Jun 2027 04:28:30.925   12 Jun 2027 04:29:32.923            61.998            RioGallegos          7749.750
       441   12 Jun 2027 04:30:15.739   12 Jun 2027 04:31:45.621            89.882            RioGallegos         11235.250
       442   12 Jun 2027 04:57:55.624   12 Jun 2027 04:59:15.761            80.137                Sumatra         10017.125
       443   12 Jun 2027 05:18:51.719   12 Jun 2027 05:19:16.012            24.293                Irkutsk          3036.625
       444   12 Jun 2027 05:20:00.193   12 Jun 2027 05:20:37.405            37.212                Novosib          4651.500
       445   12 Jun 2027 05:20:48.887   12 Jun 2027 05:21:19.851            30.964                Norilsk          3870.500
       446   12 Jun 2027 05:21:29.021   12 Jun 2027 05:22:32.372            63.351                Norilsk          7918.875
       447   12 Jun 2027 05:22:34.389   12 Jun 2027 05:22:55.041            20.652                Irkutsk          2581.500
       448   12 Jun 2027 05:23:21.673   12 Jun 2027 05:23:41.262            19.589              Murmansk2          2448.625
       449   12 Jun 2027 05:27:16.814   12 Jun 2027 05:28:13.453            56.639                Norilsk          7079.875
       450   12 Jun 2027 05:29:57.385   12 Jun 2027 05:30:11.106            13.721              Murmansk1          1715.125
       451   12 Jun 2027 06:02:49.720   12 Jun 2027 06:03:14.707            24.987            RioGallegos          3123.375
       452   12 Jun 2027 06:41:13.563   12 Jun 2027 06:43:54.325           160.762                  Delhi         20095.250
       453   12 Jun 2027 06:56:58.396   12 Jun 2027 06:57:53.313            54.917              Murmansk1          6864.625
       454   12 Jun 2027 06:58:08.044   12 Jun 2027 06:58:44.813            36.769              Murmansk1          4596.125
       455   12 Jun 2027 06:59:02.565   12 Jun 2027 06:59:25.443            22.878              Murmansk1          2859.750
       456   12 Jun 2027 08:30:59.483   12 Jun 2027 08:32:28.062            88.579              Murmansk2         11072.375
       457   12 Jun 2027 08:32:33.173   12 Jun 2027 08:32:45.248            12.075                 Moscow          1509.375
       458   12 Jun 2027 08:32:50.617   12 Jun 2027 08:33:19.156            28.539              Murmansk1          3567.375
       459   12 Jun 2027 08:33:28.628   12 Jun 2027 08:33:59.900            31.272                Norilsk          3909.000
       460   12 Jun 2027 08:34:07.886   12 Jun 2027 08:34:47.981            40.095              Murmansk1          5011.875
       461   12 Jun 2027 08:35:02.660   12 Jun 2027 08:35:28.021            25.361                 Moscow          3170.125
       462   12 Jun 2027 09:39:54.713   12 Jun 2027 09:43:54.547           239.834               CapeTown         29979.250
       463   12 Jun 2027 10:22:21.025   12 Jun 2027 10:24:30.495           129.470                Anadyr1         16183.750
       464   12 Jun 2027 10:24:30.495   12 Jun 2027 10:25:15.183            44.688                Anadyr2          5586.000
       465   12 Jun 2027 11:55:30.823   12 Jun 2027 11:55:56.656            25.833                Anadyr2          3229.125
       466   12 Jun 2027 11:59:47.681   12 Jun 2027 12:00:40.595            52.914               Magadan2          6614.250
       467   12 Jun 2027 13:33:46.403   12 Jun 2027 13:36:39.440           173.037               Magadan1         21629.625
       468   12 Jun 2027 13:38:33.086   12 Jun 2027 13:38:47.240            14.154               Magadan2          1769.250
       469   12 Jun 2027 13:40:28.360   12 Jun 2027 13:41:51.735            83.375               Magadan1         10421.875
       470   12 Jun 2027 15:19:35.230   12 Jun 2027 15:22:34.429           179.199                Irkutsk         22399.875
       471   12 Jun 2027 15:30:06.484   12 Jun 2027 15:32:19.412           132.928                Sumatra         16616.000
       472   12 Jun 2027 16:10:51.807   12 Jun 2027 16:12:27.535            95.728            RioGallegos         11966.000
       473   12 Jun 2027 16:49:57.110   12 Jun 2027 16:52:11.493           134.383                Novosib         16797.875
       474   12 Jun 2027 17:01:43.034   12 Jun 2027 17:03:11.945            88.911                  Delhi         11113.875
       475   12 Jun 2027 17:09:40.110   12 Jun 2027 17:10:40.493            60.383                Sumatra          7547.875
       476   12 Jun 2027 18:32:21.125   12 Jun 2027 18:35:06.004           164.879                  Delhi         20609.875
       477   12 Jun 2027 18:40:03.198   12 Jun 2027 18:41:53.715           110.517                  Delhi         13814.625
       478   12 Jun 2027 20:03:17.614   12 Jun 2027 20:05:29.573           131.959                 Moscow         16494.875
       479   12 Jun 2027 21:43:21.912   12 Jun 2027 21:43:26.787             4.875                 Moscow           609.375
       480   12 Jun 2027 21:45:50.736   12 Jun 2027 21:46:08.264            17.528                 Moscow          2191.000
       481   12 Jun 2027 22:02:22.987   12 Jun 2027 22:04:28.792           125.805               CapeTown         15725.625
       482   13 Jun 2027 03:35:33.102   13 Jun 2027 03:38:10.934           157.832                Sumatra         19729.000
