uniorb/output/strategy_1/Drop/Drop_KinoSat_110406.txt

KinoSat_110406
-------------------------
    Access    *     Start Time (UTCG)     *     Stop Time (UTCG)  *   Duration (s)        *       Station  *  Data (Mbytes)
         1   01 Jun 2027 03:42:08.333   01 Jun 2027 03:42:16.178             7.845               Magadan1           980.625
         2   01 Jun 2027 03:42:23.230   01 Jun 2027 03:42:48.276            25.046               Magadan1          3130.750
         3   01 Jun 2027 03:43:17.507   01 Jun 2027 03:44:04.111            46.604               Magadan2          5825.500
         4   01 Jun 2027 03:44:04.111   01 Jun 2027 03:44:27.866            23.755               Magadan1          2969.375
         5   01 Jun 2027 03:44:27.866   01 Jun 2027 03:44:46.766            18.900               Magadan2          2362.500
         6   01 Jun 2027 03:44:54.359   01 Jun 2027 03:46:06.013            71.654                Anadyr1          8956.750
         7   01 Jun 2027 03:46:37.435   01 Jun 2027 03:47:39.106            61.671                Anadyr1          7708.875
         8   01 Jun 2027 03:47:58.178   01 Jun 2027 03:48:22.821            24.643               Magadan1          3080.375
         9   01 Jun 2027 03:48:57.009   01 Jun 2027 03:49:27.846            30.837               Magadan1          3854.625
        10   01 Jun 2027 03:55:12.502   01 Jun 2027 03:55:48.646            36.144              Murmansk2          4518.000
        11   01 Jun 2027 04:30:25.803   01 Jun 2027 04:30:32.994             7.191            RioGallegos           898.875
        12   01 Jun 2027 04:31:34.232   01 Jun 2027 04:31:56.948            22.716            RioGallegos          2839.500
        13   01 Jun 2027 04:32:20.424   01 Jun 2027 04:32:25.036             4.612            RioGallegos           576.500
        14   01 Jun 2027 04:33:42.068   01 Jun 2027 04:33:56.379            14.311            RioGallegos          1788.875
        15   01 Jun 2027 05:01:10.218   01 Jun 2027 05:04:03.279           173.061                Sumatra         21632.625
        16   01 Jun 2027 05:20:47.914   01 Jun 2027 05:20:55.988             8.074                Irkutsk          1009.250
        17   01 Jun 2027 05:21:10.792   01 Jun 2027 05:21:18.347             7.555               Magadan2           944.375
        18   01 Jun 2027 05:21:21.081   01 Jun 2027 05:23:51.255           150.174                Irkutsk         18771.750
        19   01 Jun 2027 05:24:34.025   01 Jun 2027 05:25:04.813            30.788                Norilsk          3848.500
        20   01 Jun 2027 06:35:11.884   01 Jun 2027 06:36:30.859            78.975                Sumatra          9871.875
        21   01 Jun 2027 06:44:10.978   01 Jun 2027 06:46:00.999           110.021                  Delhi         13752.625
        22   01 Jun 2027 06:57:49.203   01 Jun 2027 06:58:21.032            31.829                Irkutsk          3978.625
        23   01 Jun 2027 06:58:24.838   01 Jun 2027 06:58:45.409            20.571                 Moscow          2571.375
        24   01 Jun 2027 06:59:02.130   01 Jun 2027 06:59:40.294            38.164                 Moscow          4770.500
        25   01 Jun 2027 07:00:10.264   01 Jun 2027 07:00:45.716            35.452              Murmansk1          4431.500
        26   01 Jun 2027 07:00:50.615   01 Jun 2027 07:02:20.829            90.214                Novosib         11276.750
        27   01 Jun 2027 08:19:50.781   01 Jun 2027 08:20:08.170            17.389                  Delhi          2173.625
        28   01 Jun 2027 08:34:10.926   01 Jun 2027 08:35:16.304            65.378                Novosib          8172.250
        29   01 Jun 2027 08:35:43.924   01 Jun 2027 08:35:55.949            12.025                 Moscow          1503.125
        30   01 Jun 2027 08:36:12.703   01 Jun 2027 08:37:38.789            86.086              Murmansk2         10760.750
        31   01 Jun 2027 08:37:58.322   01 Jun 2027 08:38:13.587            15.265                Novosib          1908.125
        32   01 Jun 2027 10:07:31.206   01 Jun 2027 10:07:37.505             6.299                 Moscow           787.375
        33   01 Jun 2027 10:11:25.931   01 Jun 2027 10:11:46.725            20.794                 Moscow          2599.250
        34   01 Jun 2027 11:17:36.925   01 Jun 2027 11:21:47.796           250.871               CapeTown         31358.875
        35   01 Jun 2027 11:22:46.457   01 Jun 2027 11:23:38.273            51.816               CapeTown          6477.000
        36   01 Jun 2027 11:57:59.609   01 Jun 2027 11:59:40.666           101.057                Anadyr2         12632.125
        37   01 Jun 2027 12:00:29.929   01 Jun 2027 12:03:19.473           169.544                Anadyr1         21193.000
        38   01 Jun 2027 12:05:25.274   01 Jun 2027 12:07:09.349           104.075                Anadyr2         13009.375
        39   01 Jun 2027 13:36:38.866   01 Jun 2027 13:40:50.010           251.144               Magadan1         31393.000
        40   01 Jun 2027 16:05:15.164   01 Jun 2027 16:08:38.577           203.413            RioGallegos         25426.625
        41   01 Jun 2027 16:11:19.476   01 Jun 2027 16:12:23.828            64.352            RioGallegos          8044.000
        42   01 Jun 2027 16:54:03.299   01 Jun 2027 16:56:14.078           130.779                Irkutsk         16347.375
        43   01 Jun 2027 16:58:19.184   01 Jun 2027 16:58:31.184            12.000                Irkutsk          1500.000
        44   01 Jun 2027 17:06:48.142   01 Jun 2027 17:11:37.543           289.401                Sumatra         36175.125
        45   01 Jun 2027 17:12:46.122   01 Jun 2027 17:14:39.057           112.935                Sumatra         14116.875
        46   01 Jun 2027 18:31:36.264   01 Jun 2027 18:31:52.669            16.405                Novosib          2050.625
        47   01 Jun 2027 18:36:59.130   01 Jun 2027 18:39:44.518           165.388                  Delhi         20673.500
        48   01 Jun 2027 18:43:56.829   01 Jun 2027 18:44:36.186            39.357                  Delhi          4919.625
        49   01 Jun 2027 21:39:41.574   01 Jun 2027 21:41:50.190           128.616              Murmansk2          5532.001
        50   02 Jun 2027 03:59:28.204   02 Jun 2027 03:59:42.296            14.092               Magadan1          1761.500
        51   02 Jun 2027 04:00:14.352   02 Jun 2027 04:01:22.967            68.615               Magadan2          8576.875
        52   02 Jun 2027 05:12:29.411   02 Jun 2027 05:13:39.355            69.944                Sumatra          8743.000
        53   02 Jun 2027 05:13:57.798   02 Jun 2027 05:15:52.937           115.139                Sumatra         14392.375
        54   02 Jun 2027 05:33:29.711   02 Jun 2027 05:35:42.820           133.109                Irkutsk         16638.625
        55   02 Jun 2027 05:36:03.343   02 Jun 2027 05:36:31.615            28.272                Novosib          3534.000
        56   02 Jun 2027 05:36:49.018   02 Jun 2027 05:37:32.973            43.955                Irkutsk          5494.375
        57   02 Jun 2027 06:20:53.785   02 Jun 2027 06:21:22.165            28.380            RioGallegos          3547.500
        58   02 Jun 2027 06:47:27.211   02 Jun 2027 06:48:10.258            43.047                Sumatra          5380.875
        59   02 Jun 2027 07:02:06.702   02 Jun 2027 07:02:32.700            25.998                  Delhi          3249.750
        60   02 Jun 2027 07:10:23.839   02 Jun 2027 07:11:00.670            36.831                Irkutsk          4603.875
        61   02 Jun 2027 07:11:43.496   02 Jun 2027 07:14:05.936           142.440                 Moscow         17805.000
        62   02 Jun 2027 08:33:45.542   02 Jun 2027 08:34:13.345            27.803                  Delhi          3475.375
        63   02 Jun 2027 08:46:39.701   02 Jun 2027 08:47:07.628            27.927                 Moscow          3490.875
        64   02 Jun 2027 08:47:18.857   02 Jun 2027 08:48:34.024            75.167                Novosib          9395.875
        65   02 Jun 2027 08:48:48.706   02 Jun 2027 08:49:30.616            41.910              Murmansk2          5238.750
        66   02 Jun 2027 10:35:40.439   02 Jun 2027 10:35:52.351            11.912                Anadyr1          1489.000
        67   02 Jun 2027 10:37:22.898   02 Jun 2027 10:39:38.332           135.434                Anadyr2         16929.250
        68   02 Jun 2027 12:09:57.154   02 Jun 2027 12:11:22.486            85.332                Anadyr2         10666.500
        69   02 Jun 2027 12:12:40.326   02 Jun 2027 12:15:13.536           153.210                Anadyr1         19151.250
        70   02 Jun 2027 13:48:30.119   02 Jun 2027 13:52:16.314           226.195               Magadan1         28274.375
        71   02 Jun 2027 13:52:37.526   02 Jun 2027 13:54:57.965           140.439               Magadan2         17554.875
        72   02 Jun 2027 13:55:57.265   02 Jun 2027 13:57:23.405            86.140               Magadan2         10767.500
        73   02 Jun 2027 16:16:46.873   02 Jun 2027 16:22:02.014           315.141            RioGallegos         39392.625
        74   02 Jun 2027 17:07:25.519   02 Jun 2027 17:08:09.364            43.845                Irkutsk          5480.625
        75   02 Jun 2027 17:18:13.456   02 Jun 2027 17:19:16.729            63.273                Sumatra          7909.125
        76   02 Jun 2027 17:21:42.408   02 Jun 2027 17:25:26.602           224.194                Sumatra         28024.250
        77   02 Jun 2027 18:39:39.806   02 Jun 2027 18:40:57.175            77.369                Novosib          9671.125
        78   02 Jun 2027 18:48:14.573   02 Jun 2027 18:51:31.479           196.906                  Delhi         24613.250
        79   02 Jun 2027 21:49:32.490   02 Jun 2027 21:50:23.388            50.898              Murmansk2          6362.250
        80   02 Jun 2027 21:52:35.496   02 Jun 2027 21:52:37.439             1.943              Murmansk1           242.875
        81   02 Jun 2027 21:53:05.651   02 Jun 2027 21:54:49.328           103.677                 Moscow         12959.625
        82   02 Jun 2027 21:59:00.929   02 Jun 2027 22:00:57.785           116.856              Murmansk1         14607.000
        83   02 Jun 2027 22:23:58.019   02 Jun 2027 22:24:24.903            26.884               CapeTown          3360.500
        84   03 Jun 2027 04:48:16.595   03 Jun 2027 04:48:55.435            38.840            RioGallegos          4855.000
        85   03 Jun 2027 04:56:33.877   03 Jun 2027 04:56:34.335             0.458            RioGallegos            57.250
        86   03 Jun 2027 04:56:51.169   03 Jun 2027 04:57:50.212            59.043            RioGallegos          7380.375
        87   03 Jun 2027 05:23:59.886   03 Jun 2027 05:25:31.935            92.049                Sumatra         11506.125
        88   03 Jun 2027 05:30:21.234   03 Jun 2027 05:30:52.546            31.312                Sumatra          3914.000
        89   03 Jun 2027 05:45:02.357   03 Jun 2027 05:46:07.776            65.419                Irkutsk          8177.375
        90   03 Jun 2027 05:47:53.270   03 Jun 2027 05:48:53.516            60.246                Norilsk          7530.750
        91   03 Jun 2027 05:49:19.282   03 Jun 2027 05:50:31.608            72.326              Murmansk2          9040.750
        92   03 Jun 2027 05:50:31.622   03 Jun 2027 05:50:43.926            12.304                Norilsk          1538.000
        93   03 Jun 2027 05:50:54.171   03 Jun 2027 05:51:02.241             8.070                Novosib          1008.750
        94   03 Jun 2027 05:54:03.056   03 Jun 2027 05:54:22.722            19.666                Norilsk          2458.250
        95   03 Jun 2027 06:25:37.959   03 Jun 2027 06:26:27.315            49.356            RioGallegos          6169.500
        96   03 Jun 2027 07:02:44.387   03 Jun 2027 07:03:04.832            20.445                Sumatra          2555.625
        97   03 Jun 2027 07:07:36.371   03 Jun 2027 07:08:33.764            57.393                  Delhi          7174.125
        98   03 Jun 2027 07:09:46.980   03 Jun 2027 07:10:26.022            39.042                  Delhi          4880.250
        99   03 Jun 2027 07:23:26.361   03 Jun 2027 07:23:46.198            19.837                 Moscow          2479.625
       100   03 Jun 2027 07:23:50.449   03 Jun 2027 07:24:16.642            26.193                Norilsk          3274.125
       101   03 Jun 2027 07:24:28.928   03 Jun 2027 07:25:50.581            81.653              Murmansk2         10206.625
       102   03 Jun 2027 07:26:00.888   03 Jun 2027 07:26:59.118            58.230                Novosib          7278.750
       103   03 Jun 2027 08:59:15.695   03 Jun 2027 08:59:49.855            34.160              Murmansk2          4270.000
       104   03 Jun 2027 08:59:49.855   03 Jun 2027 09:00:35.907            46.052              Murmansk1          5756.500
       105   03 Jun 2027 09:00:53.726   03 Jun 2027 09:01:39.923            46.197                Norilsk          5774.625
       106   03 Jun 2027 10:47:09.561   03 Jun 2027 10:52:48.951           339.390                Anadyr2         42423.750
       107   03 Jun 2027 12:23:52.614   03 Jun 2027 12:24:48.508            55.894                Anadyr2          6986.750
       108   03 Jun 2027 12:26:27.204   03 Jun 2027 12:27:09.207            42.003                Anadyr2          5250.375
       109   03 Jun 2027 14:00:23.534   03 Jun 2027 14:02:49.256           145.722               Magadan2         18215.250
       110   03 Jun 2027 14:02:58.553   03 Jun 2027 14:05:53.479           174.926               Magadan1         21865.750
       111   03 Jun 2027 14:07:33.825   03 Jun 2027 14:09:54.020           140.195               Magadan2         17524.375
       112   03 Jun 2027 16:28:26.809   03 Jun 2027 16:34:48.340           381.531            RioGallegos         47691.375
       113   03 Jun 2027 17:18:26.282   03 Jun 2027 17:19:39.623            73.341                Irkutsk          9167.625
       114   03 Jun 2027 17:29:48.410   03 Jun 2027 17:31:38.870           110.460                Sumatra         13807.500
       115   03 Jun 2027 17:33:48.237   03 Jun 2027 17:36:24.800           156.563                Sumatra         19570.375
       116   03 Jun 2027 18:51:33.766   03 Jun 2027 18:53:23.633           109.867                Novosib         13733.375
       117   03 Jun 2027 18:59:43.565   03 Jun 2027 19:00:06.376            22.811                  Delhi          2851.375
       118   03 Jun 2027 19:01:34.037   03 Jun 2027 19:03:22.847           108.810                  Delhi         13601.250
       119   03 Jun 2027 20:31:43.849   03 Jun 2027 20:33:34.837           110.988                 Moscow         13873.500
       120   03 Jun 2027 22:01:33.582   03 Jun 2027 22:03:27.307           113.725              Murmansk2         14215.625
       121   03 Jun 2027 22:07:12.225   03 Jun 2027 22:07:53.288            41.063                 Moscow          5132.875
       122   03 Jun 2027 22:29:43.191   03 Jun 2027 22:31:21.261            98.070               CapeTown         12258.750
       123   04 Jun 2027 04:21:02.206   04 Jun 2027 04:21:23.885            21.679                Irkutsk          2709.875
       124   04 Jun 2027 04:25:27.200   04 Jun 2027 04:25:30.692             3.492                Irkutsk           436.500
       125   04 Jun 2027 04:25:43.023   04 Jun 2027 04:26:59.019            75.996              Murmansk2          9499.500
       126   04 Jun 2027 05:00:15.773   04 Jun 2027 05:01:54.365            98.592            RioGallegos         12324.000
       127   04 Jun 2027 05:35:38.817   04 Jun 2027 05:37:29.246           110.429                Sumatra         13803.625
       128   04 Jun 2027 05:37:55.332   04 Jun 2027 05:39:22.536            87.204                Sumatra         10900.500
       129   04 Jun 2027 05:57:58.072   04 Jun 2027 05:58:11.620            13.548                Novosib          1693.500
       130   04 Jun 2027 05:58:23.264   04 Jun 2027 05:59:31.610            68.346              Murmansk1          8543.250
       131   04 Jun 2027 05:59:44.336   04 Jun 2027 06:00:08.209            23.873                Norilsk          2984.125
       132   04 Jun 2027 06:00:08.662   04 Jun 2027 06:02:26.871           138.209                Novosib         17276.125
       133   04 Jun 2027 07:19:27.540   04 Jun 2027 07:19:31.126             3.586                  Delhi           448.250
       134   04 Jun 2027 07:27:03.468   04 Jun 2027 07:27:14.165            10.697                  Delhi          1337.125
       135   04 Jun 2027 07:35:17.432   04 Jun 2027 07:35:31.928            14.496                 Moscow          1812.000
       136   04 Jun 2027 07:35:35.559   04 Jun 2027 07:36:14.191            38.632                Novosib          4829.000
       137   04 Jun 2027 07:36:47.410   04 Jun 2027 07:37:55.309            67.899              Murmansk1          8487.375
       138   04 Jun 2027 07:38:27.153   04 Jun 2027 07:39:22.063            54.910                 Moscow          6863.750
       139   04 Jun 2027 08:57:44.951   04 Jun 2027 08:58:02.682            17.731                  Delhi          2216.375
       140   04 Jun 2027 09:08:57.346   04 Jun 2027 09:09:23.336            25.990                Novosib          3248.750
       141   04 Jun 2027 09:09:25.679   04 Jun 2027 09:10:12.998            47.319                Norilsk          5914.875
       142   04 Jun 2027 09:10:23.163   04 Jun 2027 09:10:33.872            10.709              Murmansk2          1338.625
       143   04 Jun 2027 09:10:43.949   04 Jun 2027 09:11:10.705            26.756                Norilsk          3344.500
       144   04 Jun 2027 09:11:18.123   04 Jun 2027 09:11:53.214            35.091                Novosib          4386.375
       145   04 Jun 2027 09:11:57.778   04 Jun 2027 09:12:41.192            43.414                Novosib          5426.750
       146   04 Jun 2027 09:13:10.676   04 Jun 2027 09:13:18.930             8.254                Novosib          1031.750
       147   04 Jun 2027 09:13:30.351   04 Jun 2027 09:15:16.477           106.126                 Moscow         13265.750
       148   04 Jun 2027 10:20:44.500   04 Jun 2027 10:22:47.893           123.393               CapeTown         15424.125
       149   04 Jun 2027 10:25:05.139   04 Jun 2027 10:25:50.250            45.111               CapeTown          5638.875
       150   04 Jun 2027 10:58:50.894   04 Jun 2027 11:05:17.143           386.249                Anadyr2         48281.125
       151   04 Jun 2027 12:40:09.937   04 Jun 2027 12:40:26.948            17.011               Magadan2          2126.375
       152   04 Jun 2027 14:12:18.607   04 Jun 2027 14:16:40.884           262.277               Magadan1         32784.625
       153   04 Jun 2027 16:40:11.971   04 Jun 2027 16:46:11.348           359.377            RioGallegos         44922.125
       154   04 Jun 2027 17:27:44.050   04 Jun 2027 17:29:31.031           106.981                Irkutsk         13372.625
       155   04 Jun 2027 17:29:59.034   04 Jun 2027 17:32:51.812           172.778                Novosib         21597.250
       156   04 Jun 2027 17:41:30.955   04 Jun 2027 17:43:17.724           106.769                Sumatra         13346.125
       157   04 Jun 2027 17:45:52.100   04 Jun 2027 17:47:41.981           109.881                Sumatra         13735.125
       158   04 Jun 2027 19:11:21.172   04 Jun 2027 19:12:44.155            82.983                  Delhi         10372.875
       159   04 Jun 2027 20:38:41.885   04 Jun 2027 20:39:12.935            31.050              Murmansk1          3881.250
       160   04 Jun 2027 20:41:40.571   04 Jun 2027 20:42:18.586            38.015              Murmansk2          4751.875
       161   04 Jun 2027 20:42:52.126   04 Jun 2027 20:45:34.054           161.928                 Moscow         20241.000
       162   04 Jun 2027 22:41:21.271   04 Jun 2027 22:43:32.016           130.745               CapeTown         16343.125
       163   05 Jun 2027 04:35:46.039   05 Jun 2027 04:36:12.671            26.632              Murmansk1          3329.000
       164   05 Jun 2027 04:36:18.339   05 Jun 2027 04:36:37.583            19.244               Magadan2          2405.500
       165   05 Jun 2027 04:36:56.570   05 Jun 2027 04:37:26.621            30.051                Irkutsk          3756.375
       166   05 Jun 2027 04:37:41.785   05 Jun 2027 04:38:06.215            24.430                Norilsk          3053.750
       167   05 Jun 2027 05:12:18.255   05 Jun 2027 05:13:37.844            79.589            RioGallegos          9948.625
       168   05 Jun 2027 05:47:24.703   05 Jun 2027 05:48:01.718            37.015                Sumatra          4626.875
       169   05 Jun 2027 05:48:39.763   05 Jun 2027 05:49:04.094            24.331                Sumatra          3041.375
       170   05 Jun 2027 05:50:11.107   05 Jun 2027 05:51:56.187           105.080                Sumatra         13135.000
       171   05 Jun 2027 05:59:09.965   05 Jun 2027 06:00:19.044            69.079                  Delhi          8634.875
       172   05 Jun 2027 06:09:57.041   05 Jun 2027 06:10:42.995            45.954              Murmansk1          5744.250
       173   05 Jun 2027 06:10:55.282   05 Jun 2027 06:11:06.337            11.055                Norilsk          1381.875
       174   05 Jun 2027 06:11:07.075   05 Jun 2027 06:11:25.771            18.696              Murmansk2          2337.000
       175   05 Jun 2027 06:11:36.029   05 Jun 2027 06:12:01.269            25.240                Norilsk          3155.000
       176   05 Jun 2027 06:12:04.711   05 Jun 2027 06:13:29.689            84.978                Irkutsk         10622.250
       177   05 Jun 2027 07:31:24.024   05 Jun 2027 07:33:01.377            97.353                  Delhi         12169.125
       178   05 Jun 2027 07:47:22.520   05 Jun 2027 07:47:31.490             8.970                Norilsk          1121.250
       179   05 Jun 2027 07:47:32.985   05 Jun 2027 07:48:24.451            51.466                 Moscow          6433.250
       180   05 Jun 2027 07:48:44.954   05 Jun 2027 07:49:33.425            48.471              Murmansk1          6058.875
       181   05 Jun 2027 07:50:21.183   05 Jun 2027 07:50:39.191            18.008                Novosib          2251.000
       182   05 Jun 2027 09:10:58.870   05 Jun 2027 09:11:58.991            60.121                  Delhi          7515.125
       183   05 Jun 2027 09:18:48.708   05 Jun 2027 09:19:04.702            15.994                 Moscow          1999.250
       184   05 Jun 2027 09:19:14.123   05 Jun 2027 09:20:24.160            70.037              Murmansk1          8754.625
       185   05 Jun 2027 09:20:27.184   05 Jun 2027 09:21:30.521            63.337                 Moscow          7917.125
       186   05 Jun 2027 09:21:55.640   05 Jun 2027 09:23:06.524            70.884                 Moscow          8860.500
       187   05 Jun 2027 09:23:43.630   05 Jun 2027 09:24:41.343            57.713                Novosib          7214.125
       188   05 Jun 2027 09:25:00.031   05 Jun 2027 09:26:51.859           111.828                Norilsk         13978.500
       189   05 Jun 2027 09:28:19.280   05 Jun 2027 09:28:32.606            13.326              Murmansk2          1665.750
       190   05 Jun 2027 10:31:37.697   05 Jun 2027 10:34:30.606           172.909               CapeTown         21613.625
       191   05 Jun 2027 10:38:42.948   05 Jun 2027 10:39:13.768            30.820               CapeTown          3852.500
       192   05 Jun 2027 11:10:38.192   05 Jun 2027 11:11:39.311            61.119                Anadyr1          7639.875
       193   05 Jun 2027 11:13:38.054   05 Jun 2027 11:14:49.188            71.134                Anadyr1          8891.750
       194   05 Jun 2027 11:15:15.873   05 Jun 2027 11:16:34.775            78.902                Anadyr2          9862.750
       195   05 Jun 2027 11:17:30.051   05 Jun 2027 11:18:32.287            62.236                Anadyr1          7779.500
       196   05 Jun 2027 12:50:19.656   05 Jun 2027 12:54:56.063           276.407               Magadan2         34550.875
       197   05 Jun 2027 14:27:09.524   05 Jun 2027 14:28:42.924            93.400               Magadan2         11675.000
       198   05 Jun 2027 16:07:16.365   05 Jun 2027 16:09:31.374           135.009                Irkutsk         16876.125
       199   05 Jun 2027 16:53:10.442   05 Jun 2027 16:54:33.689            83.247            RioGallegos         10405.875
       200   05 Jun 2027 16:56:11.889   05 Jun 2027 16:56:23.229            11.340            RioGallegos          1417.500
       201   05 Jun 2027 17:39:38.276   05 Jun 2027 17:41:45.401           127.125                Irkutsk         15890.625
       202   05 Jun 2027 17:44:03.242   05 Jun 2027 17:47:13.621           190.379                Novosib         23797.375
       203   05 Jun 2027 17:56:16.539   05 Jun 2027 17:57:29.356            72.817                Sumatra          9102.125
       204   05 Jun 2027 19:23:05.036   05 Jun 2027 19:25:16.501           131.465                  Delhi         16433.125
       205   05 Jun 2027 19:28:16.511   05 Jun 2027 19:28:43.815            27.304                  Delhi          3413.000
       206   05 Jun 2027 20:50:30.204   05 Jun 2027 20:51:29.384            59.180              Murmansk2          7397.500
       207   05 Jun 2027 20:54:22.026   05 Jun 2027 20:57:34.062           192.036                 Moscow         24004.500
       208   05 Jun 2027 22:55:46.223   05 Jun 2027 22:57:11.834            85.611               CapeTown         10701.375
       209   06 Jun 2027 03:09:23.990   06 Jun 2027 03:09:37.609            13.619               Magadan1          1702.375
       210   06 Jun 2027 03:09:37.609   06 Jun 2027 03:09:46.283             8.674               Magadan2          1084.250
       211   06 Jun 2027 03:09:47.787   06 Jun 2027 03:10:04.195            16.408                Anadyr2          2051.000
       212   06 Jun 2027 03:10:16.202   06 Jun 2027 03:10:27.895            11.693               Magadan1          1461.625
       213   06 Jun 2027 03:10:31.332   06 Jun 2027 03:11:53.453            82.121                Anadyr2         10265.125
       214   06 Jun 2027 03:11:56.025   06 Jun 2027 03:12:54.914            58.889                Anadyr2          7361.125
       215   06 Jun 2027 04:44:22.814   06 Jun 2027 04:49:12.499           289.685                Irkutsk         36210.625
       216   06 Jun 2027 05:59:16.698   06 Jun 2027 05:59:46.903            30.205                Sumatra          3775.625
       217   06 Jun 2027 06:10:11.235   06 Jun 2027 06:12:35.230           143.995                  Delhi         17999.375
       218   06 Jun 2027 06:22:06.588   06 Jun 2027 06:22:16.850            10.262              Murmansk1          1282.750
       219   06 Jun 2027 06:22:28.413   06 Jun 2027 06:22:32.650             4.237                Norilsk           529.625
       220   06 Jun 2027 06:22:33.520   06 Jun 2027 06:23:56.424            82.904                Novosib         10363.000
       221   06 Jun 2027 06:24:17.623   06 Jun 2027 06:25:41.692            84.069                Novosib         10508.625
       222   06 Jun 2027 07:43:25.802   06 Jun 2027 07:44:25.213            59.411                  Delhi          7426.375
       223   06 Jun 2027 07:58:28.765   06 Jun 2027 07:59:43.848            75.083              Murmansk2          9385.375
       224   06 Jun 2027 08:00:03.854   06 Jun 2027 08:00:22.902            19.048              Murmansk1          2381.000
       225   06 Jun 2027 08:00:27.919   06 Jun 2027 08:00:51.724            23.805                Novosib          2975.625
       226   06 Jun 2027 08:00:54.048   06 Jun 2027 08:02:07.803            73.755                Novosib          9219.375
       227   06 Jun 2027 09:31:07.077   06 Jun 2027 09:32:10.915            63.838                 Moscow          7979.750
       228   06 Jun 2027 09:32:17.333   06 Jun 2027 09:32:43.018            25.685              Murmansk1          3210.625
       229   06 Jun 2027 09:32:58.569   06 Jun 2027 09:34:39.345           100.776                 Moscow         12597.000
       230   06 Jun 2027 09:35:02.740   06 Jun 2027 09:36:10.214            67.474                Norilsk          8434.250
       231   06 Jun 2027 09:36:23.408   06 Jun 2027 09:36:49.600            26.192              Murmansk2          3274.000
       232   06 Jun 2027 09:37:00.002   06 Jun 2027 09:37:58.164            58.162                Norilsk          7270.250
       233   06 Jun 2027 09:38:03.175   06 Jun 2027 09:39:07.211            64.036                 Moscow          8004.500
       234   06 Jun 2027 10:42:56.420   06 Jun 2027 10:46:18.183           201.763               CapeTown         25220.375
       235   06 Jun 2027 10:50:43.003   06 Jun 2027 10:51:28.377            45.374               CapeTown          5671.750
       236   06 Jun 2027 11:22:29.124   06 Jun 2027 11:27:45.310           316.186                Anadyr1         39523.250
       237   06 Jun 2027 13:01:43.585   06 Jun 2027 13:05:21.120           217.535               Magadan1         27191.875
       238   06 Jun 2027 16:17:54.030   06 Jun 2027 16:23:21.602           327.572                Irkutsk         40946.500
       239   06 Jun 2027 17:52:46.384   06 Jun 2027 17:57:34.247           287.863                Novosib         35982.875
       240   06 Jun 2027 19:36:59.340   06 Jun 2027 19:38:51.853           112.513                  Delhi         14064.125
       241   06 Jun 2027 21:01:47.042   06 Jun 2027 21:02:19.800            32.758              Murmansk2          4094.750
       242   06 Jun 2027 21:06:01.395   06 Jun 2027 21:09:34.759           213.364                 Moscow         26670.500
       243   06 Jun 2027 21:36:40.896   06 Jun 2027 21:38:28.911           108.015               CapeTown         13501.875
       244   07 Jun 2027 03:20:11.135   07 Jun 2027 03:20:41.362            30.227                Anadyr2          3778.375
       245   07 Jun 2027 03:21:14.640   07 Jun 2027 03:22:05.423            50.783               Magadan1          6347.875
       246   07 Jun 2027 03:22:23.315   07 Jun 2027 03:23:53.824            90.509                Anadyr1         11313.625
       247   07 Jun 2027 03:23:57.292   07 Jun 2027 03:24:46.205            48.913                Anadyr1          6114.125
       248   07 Jun 2027 03:25:05.741   07 Jun 2027 03:25:20.945            15.204                Anadyr2          1900.500
       249   07 Jun 2027 04:39:58.593   07 Jun 2027 04:40:13.880            15.287                Sumatra          1910.875
       250   07 Jun 2027 04:40:58.500   07 Jun 2027 04:42:08.990            70.490                Sumatra          8811.250
       251   07 Jun 2027 04:56:15.091   07 Jun 2027 04:57:06.690            51.599               Magadan2          6449.875
       252   07 Jun 2027 04:57:14.131   07 Jun 2027 04:58:04.788            50.657                Irkutsk          6332.125
       253   07 Jun 2027 04:58:09.269   07 Jun 2027 04:58:19.071             9.802               Magadan2          1225.250
       254   07 Jun 2027 04:58:20.479   07 Jun 2027 04:58:44.866            24.387                Novosib          3048.375
       255   07 Jun 2027 04:59:13.180   07 Jun 2027 04:59:39.427            26.247                Novosib          3280.875
       256   07 Jun 2027 05:00:07.907   07 Jun 2027 05:01:41.448            93.541              Murmansk2         11692.625
       257   07 Jun 2027 05:01:58.189   07 Jun 2027 05:02:14.236            16.047                Norilsk          2005.875
       258   07 Jun 2027 05:36:33.627   07 Jun 2027 05:37:14.371            40.744            RioGallegos          5093.000
       259   07 Jun 2027 05:43:25.967   07 Jun 2027 05:43:50.097            24.130            RioGallegos          3016.250
       260   07 Jun 2027 06:11:14.375   07 Jun 2027 06:13:01.870           107.495                Sumatra         13436.875
       261   07 Jun 2027 06:21:26.740   07 Jun 2027 06:22:31.008            64.268                  Delhi          8033.500
       262   07 Jun 2027 06:33:31.345   07 Jun 2027 06:34:17.751            46.406              Murmansk2          5800.750
       263   07 Jun 2027 06:34:37.084   07 Jun 2027 06:35:53.986            76.902                Novosib          9612.750
       264   07 Jun 2027 06:36:17.577   07 Jun 2027 06:37:21.852            64.275              Murmansk2          8034.375
       265   07 Jun 2027 06:37:24.833   07 Jun 2027 06:38:03.316            38.483                 Moscow          4810.375
       266   07 Jun 2027 06:38:30.699   07 Jun 2027 06:38:46.794            16.095                Novosib          2011.875
       267   07 Jun 2027 07:55:33.047   07 Jun 2027 07:56:56.395            83.348                  Delhi         10418.500
       268   07 Jun 2027 08:10:28.569   07 Jun 2027 08:11:06.642            38.073              Murmansk2          4759.125
       269   07 Jun 2027 08:11:15.858   07 Jun 2027 08:12:30.172            74.314                 Moscow          9289.250
       270   07 Jun 2027 08:12:41.983   07 Jun 2027 08:13:19.263            37.280              Murmansk2          4660.000
       271   07 Jun 2027 09:43:08.920   07 Jun 2027 09:43:37.830            28.910                 Moscow          3613.750
       272   07 Jun 2027 09:43:53.007   07 Jun 2027 09:44:22.554            29.547              Murmansk1          3693.375
       273   07 Jun 2027 09:44:39.854   07 Jun 2027 09:46:00.154            80.300              Murmansk1         10037.500
       274   07 Jun 2027 09:46:07.350   07 Jun 2027 09:46:37.879            30.529              Murmansk2          3816.125
       275   07 Jun 2027 09:46:46.762   07 Jun 2027 09:47:18.829            32.067              Murmansk2          4008.375
       276   07 Jun 2027 09:47:32.633   07 Jun 2027 09:48:46.883            74.250                 Moscow          9281.250
       277   07 Jun 2027 09:48:56.226   07 Jun 2027 09:49:12.869            16.643                Norilsk          2080.375
       278   07 Jun 2027 09:49:19.510   07 Jun 2027 09:49:57.700            38.190                Norilsk          4773.750
       279   07 Jun 2027 10:54:27.579   07 Jun 2027 10:56:21.984           114.405               CapeTown         14300.625
       280   07 Jun 2027 10:56:22.332   07 Jun 2027 10:58:09.708           107.376               CapeTown         13422.000
       281   07 Jun 2027 11:00:25.519   07 Jun 2027 11:00:57.045            31.526               CapeTown          3940.750
       282   07 Jun 2027 11:34:22.517   07 Jun 2027 11:36:17.217           114.700                Anadyr1         14337.500
       283   07 Jun 2027 11:36:17.217   07 Jun 2027 11:38:18.851           121.634                Anadyr2         15204.250
       284   07 Jun 2027 13:13:20.907   07 Jun 2027 13:16:49.927           209.020               Magadan2         26127.500
       285   07 Jun 2027 14:55:03.718   07 Jun 2027 14:55:31.756            28.038               Magadan2          3504.750
       286   07 Jun 2027 15:44:15.311   07 Jun 2027 15:44:50.563            35.252            RioGallegos          4406.500
       287   07 Jun 2027 16:29:14.777   07 Jun 2027 16:33:39.480           264.703                Irkutsk         33087.875
       288   07 Jun 2027 16:35:27.055   07 Jun 2027 16:36:36.121            69.066                Irkutsk          8633.250
       289   07 Jun 2027 16:45:02.498   07 Jun 2027 16:46:45.441           102.943                Sumatra         12867.875
       290   07 Jun 2027 16:48:23.591   07 Jun 2027 16:50:43.099           139.508                Sumatra         17438.500
       291   07 Jun 2027 18:05:08.573   07 Jun 2027 18:06:06.690            58.117                Novosib          7264.625
       292   07 Jun 2027 18:08:04.236   07 Jun 2027 18:08:24.280            20.044                Novosib          2505.500
       293   07 Jun 2027 18:10:02.561   07 Jun 2027 18:10:47.321            44.760                Novosib          5595.000
       294   07 Jun 2027 21:13:46.295   07 Jun 2027 21:15:15.061            88.766              Murmansk1         11095.750
       295   07 Jun 2027 21:19:47.549   07 Jun 2027 21:21:50.966           123.417                 Moscow         15427.125
       296   07 Jun 2027 21:23:52.462   07 Jun 2027 21:24:54.387            61.925                 Moscow          7740.625
       297   07 Jun 2027 21:44:43.450   07 Jun 2027 21:46:41.647           118.197               CapeTown         14774.625
       298   08 Jun 2027 03:33:08.091   08 Jun 2027 03:34:10.246            62.155                Anadyr1          7769.375
       299   08 Jun 2027 03:34:20.203   08 Jun 2027 03:34:43.393            23.190               Magadan1          2898.750
       300   08 Jun 2027 03:35:16.337   08 Jun 2027 03:36:22.984            66.647               Magadan2          8330.875
       301   08 Jun 2027 03:36:22.984   08 Jun 2027 03:37:42.474            79.490               Magadan1          9936.250
       302   08 Jun 2027 04:50:22.243   08 Jun 2027 04:52:32.869           130.626                Sumatra         16328.250
       303   08 Jun 2027 05:08:03.407   08 Jun 2027 05:08:46.934            43.527                Irkutsk          5440.875
       304   08 Jun 2027 05:09:58.513   08 Jun 2027 05:11:21.222            82.709               Magadan2         10338.625
       305   08 Jun 2027 05:11:50.748   08 Jun 2027 05:12:46.920            56.172                Novosib          7021.500
       306   08 Jun 2027 05:13:03.511   08 Jun 2027 05:13:23.634            20.123              Murmansk2          2515.375
       307   08 Jun 2027 05:13:26.498   08 Jun 2027 05:13:45.305            18.807                Norilsk          2350.875
       308   08 Jun 2027 05:48:46.896   08 Jun 2027 05:49:07.386            20.490            RioGallegos          2561.250
       309   08 Jun 2027 06:23:17.634   08 Jun 2027 06:24:25.679            68.045                Sumatra          8505.625
       310   08 Jun 2027 06:32:52.135   08 Jun 2027 06:33:56.263            64.128                  Delhi          8016.000
       311   08 Jun 2027 06:34:29.309   08 Jun 2027 06:36:18.744           109.435                  Delhi         13679.375
       312   08 Jun 2027 06:45:48.977   08 Jun 2027 06:46:30.181            41.204                 Moscow          5150.500
       313   08 Jun 2027 06:46:40.167   08 Jun 2027 06:47:17.293            37.126                Novosib          4640.750
       314   08 Jun 2027 06:47:30.832   08 Jun 2027 06:47:51.675            20.843                 Moscow          2605.375
       315   08 Jun 2027 06:47:54.985   08 Jun 2027 06:48:41.908            46.923                 Moscow          5865.375
       316   08 Jun 2027 06:49:11.078   08 Jun 2027 06:50:33.850            82.772              Murmansk1         10346.500
       317   08 Jun 2027 08:07:46.126   08 Jun 2027 08:08:36.592            50.466                  Delhi          6308.250
       318   08 Jun 2027 08:10:26.528   08 Jun 2027 08:11:03.661            37.133                  Delhi          4641.625
       319   08 Jun 2027 08:21:02.388   08 Jun 2027 08:21:26.642            24.254              Murmansk1          3031.750
       320   08 Jun 2027 08:21:40.607   08 Jun 2027 08:22:27.258            46.651                Norilsk          5831.375
       321   08 Jun 2027 08:22:36.400   08 Jun 2027 08:23:23.795            47.395                 Moscow          5924.375
       322   08 Jun 2027 08:23:38.989   08 Jun 2027 08:24:18.137            39.148              Murmansk1          4893.500
       323   08 Jun 2027 08:24:27.353   08 Jun 2027 08:25:19.400            52.047                 Moscow          6505.875
       324   08 Jun 2027 09:55:42.101   08 Jun 2027 09:57:02.894            80.793                 Moscow         10099.125
       325   08 Jun 2027 09:57:16.357   08 Jun 2027 09:58:44.616            88.259                 Moscow         11032.375
       326   08 Jun 2027 09:59:14.447   08 Jun 2027 09:59:51.190            36.743                 Moscow          4592.875
       327   08 Jun 2027 10:00:04.489   08 Jun 2027 10:01:28.763            84.274                 Moscow         10534.250
       328   08 Jun 2027 10:03:19.206   08 Jun 2027 10:03:19.904             0.698              Murmansk1            87.250
       329   08 Jun 2027 10:03:41.490   08 Jun 2027 10:03:43.007             1.517              Murmansk1           189.625
       330   08 Jun 2027 10:03:51.764   08 Jun 2027 10:03:59.053             7.289              Murmansk2           911.125
       331   08 Jun 2027 11:06:06.641   08 Jun 2027 11:10:04.597           237.956               CapeTown         29744.500
       332   08 Jun 2027 11:46:17.696   08 Jun 2027 11:48:24.560           126.864                Anadyr1         15858.000
       333   08 Jun 2027 11:48:32.288   08 Jun 2027 11:50:38.147           125.859                Anadyr2         15732.375
       334   08 Jun 2027 13:25:05.022   08 Jun 2027 13:28:50.399           225.377               Magadan2         28172.125
       335   08 Jun 2027 15:54:13.242   08 Jun 2027 15:59:25.615           312.373            RioGallegos         39046.625
       336   08 Jun 2027 16:40:48.961   08 Jun 2027 16:44:11.030           202.069                Irkutsk         25258.625
       337   08 Jun 2027 16:55:50.430   08 Jun 2027 16:58:25.265           154.835                Sumatra         19354.375
       338   08 Jun 2027 18:18:46.366   08 Jun 2027 18:20:05.684            79.318                Novosib          9914.750
       339   08 Jun 2027 18:26:25.430   08 Jun 2027 18:28:17.320           111.890                  Delhi         13986.250
       340   08 Jun 2027 18:29:19.527   08 Jun 2027 18:30:29.692            70.165                  Delhi          8770.625
       341   08 Jun 2027 21:29:35.111   08 Jun 2027 21:31:57.299           142.188                 Moscow         17773.500
       342   08 Jun 2027 21:33:10.283   08 Jun 2027 21:33:37.987            27.704                 Moscow          3463.000
       343   08 Jun 2027 21:33:47.113   08 Jun 2027 21:36:12.803           145.690                 Moscow         18211.250
       344   09 Jun 2027 03:45:19.217   09 Jun 2027 03:45:52.276            33.059               Magadan1          4132.375
       345   09 Jun 2027 03:46:11.694   09 Jun 2027 03:47:18.521            66.827               Magadan2          8353.375
       346   09 Jun 2027 03:47:37.897   09 Jun 2027 03:47:54.303            16.406               Magadan2          2050.750
       347   09 Jun 2027 03:47:55.453   09 Jun 2027 03:48:35.717            40.264                Anadyr2          5033.000
       348   09 Jun 2027 03:48:51.831   09 Jun 2027 03:49:11.641            19.810               Magadan2          2476.250
       349   09 Jun 2027 03:49:27.372   09 Jun 2027 03:49:42.435            15.063               Magadan1          1882.875
       350   09 Jun 2027 05:01:24.259   09 Jun 2027 05:04:17.798           173.539                Sumatra         21692.375
       351   09 Jun 2027 05:20:46.086   09 Jun 2027 05:21:02.224            16.138                Irkutsk          2017.250
       352   09 Jun 2027 05:21:10.654   09 Jun 2027 05:21:35.947            25.293                Irkutsk          3161.625
       353   09 Jun 2027 05:22:18.944   09 Jun 2027 05:23:48.796            89.852                Novosib         11231.500
       354   09 Jun 2027 05:24:05.675   09 Jun 2027 05:25:11.799            66.124                Irkutsk          8265.500
       355   09 Jun 2027 05:25:38.494   09 Jun 2027 05:25:46.774             8.280                Irkutsk          1035.000
       356   09 Jun 2027 06:05:03.373   09 Jun 2027 06:05:10.283             6.910            RioGallegos           863.750
       357   09 Jun 2027 06:05:25.206   09 Jun 2027 06:05:34.535             9.329            RioGallegos          1166.125
       358   09 Jun 2027 06:35:26.674   09 Jun 2027 06:36:45.192            78.518                Sumatra          9814.750
       359   09 Jun 2027 06:46:15.852   09 Jun 2027 06:48:13.216           117.364                  Delhi         14670.500
       360   09 Jun 2027 06:58:25.169   09 Jun 2027 06:59:09.225            44.056              Murmansk1          5507.000
       361   09 Jun 2027 06:59:15.647   09 Jun 2027 07:00:10.905            55.258              Murmansk1          6907.250
       362   09 Jun 2027 07:00:17.716   09 Jun 2027 07:00:19.915             2.199                Irkutsk           274.875
       363   09 Jun 2027 07:00:24.825   09 Jun 2027 07:01:01.036            36.211              Murmansk2          4526.375
       364   09 Jun 2027 07:01:05.115   09 Jun 2027 07:01:16.816            11.701                Novosib          1462.625
       365   09 Jun 2027 07:01:27.561   09 Jun 2027 07:02:35.538            67.977                Novosib          8497.125
       366   09 Jun 2027 07:02:43.616   09 Jun 2027 07:03:14.613            30.997                Novosib          3874.625
       367   09 Jun 2027 08:20:05.715   09 Jun 2027 08:20:22.677            16.962                  Delhi          2120.250
       368   09 Jun 2027 08:33:00.874   09 Jun 2027 08:33:15.508            14.634              Murmansk2          1829.250
       369   09 Jun 2027 08:33:23.597   09 Jun 2027 08:34:21.271            57.674              Murmansk2          7209.250
       370   09 Jun 2027 08:34:46.281   09 Jun 2027 08:35:49.751            63.470              Murmansk2          7933.750
       371   09 Jun 2027 08:35:57.331   09 Jun 2027 08:36:18.017            20.686                Norilsk          2585.750
       372   09 Jun 2027 08:36:24.547   09 Jun 2027 08:36:48.572            24.025                Norilsk          3003.125
       373   09 Jun 2027 08:36:55.322   09 Jun 2027 08:37:38.618            43.296                Norilsk          5412.000
       374   09 Jun 2027 10:10:24.318   09 Jun 2027 10:11:40.608            76.290                 Moscow          9536.250
       375   09 Jun 2027 10:12:13.008   09 Jun 2027 10:12:32.620            19.612              Murmansk2          2451.500
       376   09 Jun 2027 10:13:34.906   09 Jun 2027 10:13:52.762            17.856                 Moscow          2232.000
       377   09 Jun 2027 11:17:51.402   09 Jun 2027 11:22:02.491           251.089               CapeTown         31386.125
       378   09 Jun 2027 11:23:01.955   09 Jun 2027 11:23:19.843            17.888               CapeTown          2236.000
       379   09 Jun 2027 11:23:30.143   09 Jun 2027 11:23:52.531            22.388               CapeTown          2798.500
       380   09 Jun 2027 11:58:14.213   09 Jun 2027 12:00:44.953           150.740                Anadyr1         18842.500
       381   09 Jun 2027 12:02:28.817   09 Jun 2027 12:02:39.440            10.623                Anadyr1          1327.875
       382   09 Jun 2027 13:36:53.382   09 Jun 2027 13:41:04.664           251.282               Magadan2         31410.250
       383   09 Jun 2027 13:44:10.385   09 Jun 2027 13:45:38.326            87.941               Magadan1         10992.625
       384   09 Jun 2027 16:05:29.372   09 Jun 2027 16:08:53.127           203.755            RioGallegos         25469.375
       385   09 Jun 2027 16:54:19.150   09 Jun 2027 16:58:34.212           255.062                Irkutsk         31882.750
       386   09 Jun 2027 17:07:02.279   09 Jun 2027 17:10:11.917           189.638                Sumatra         23704.750
       387   09 Jun 2027 17:13:01.001   09 Jun 2027 17:14:54.076           113.075                Sumatra         14134.375
       388   09 Jun 2027 18:37:13.085   09 Jun 2027 18:39:38.145           145.060                  Delhi         18132.500
       389   09 Jun 2027 18:44:11.645   09 Jun 2027 18:44:51.657            40.012                  Delhi          5001.500
       390   09 Jun 2027 21:39:57.099   09 Jun 2027 21:42:51.601           174.502              Murmansk2         21812.750
       391   09 Jun 2027 21:48:30.931   09 Jun 2027 21:48:47.812            16.881                 Moscow          2110.125
       392   09 Jun 2027 21:50:22.971   09 Jun 2027 21:50:55.897            32.926                 Moscow          4115.750
       393   09 Jun 2027 22:07:54.185   09 Jun 2027 22:09:36.495           102.310               CapeTown         12788.750
       394   10 Jun 2027 03:59:01.408   10 Jun 2027 04:00:30.494            89.086               Magadan1         11135.750
       395   10 Jun 2027 04:00:41.178   10 Jun 2027 04:01:37.534            56.356               Magadan1          7044.500
       396   10 Jun 2027 05:12:43.623   10 Jun 2027 05:13:13.745            30.122                Sumatra          3765.250
       397   10 Jun 2027 05:17:33.473   10 Jun 2027 05:17:39.388             5.915                Sumatra           739.375
       398   10 Jun 2027 05:19:06.077   10 Jun 2027 05:20:23.991            77.914                Sumatra          9739.250
       399   10 Jun 2027 05:34:08.465   10 Jun 2027 05:35:58.175           109.710                Irkutsk         13713.750
       400   10 Jun 2027 05:36:18.341   10 Jun 2027 05:36:37.932            19.591                Norilsk          2448.875
       401   10 Jun 2027 05:36:39.258   10 Jun 2027 05:37:13.909            34.651                Norilsk          4331.375
       402   10 Jun 2027 05:37:33.023   10 Jun 2027 05:39:08.702            95.679                Novosib         11959.875
       403   10 Jun 2027 06:20:07.962   10 Jun 2027 06:20:39.611            31.649            RioGallegos          3956.125
       404   10 Jun 2027 06:47:42.087   10 Jun 2027 06:48:24.689            42.602                Sumatra          5325.250
       405   10 Jun 2027 06:58:30.377   10 Jun 2027 07:00:12.972           102.595                  Delhi         12824.375
       406   10 Jun 2027 07:10:56.808   10 Jun 2027 07:11:27.506            30.698                Novosib          3837.250
       407   10 Jun 2027 07:11:34.984   10 Jun 2027 07:11:58.534            23.550                 Moscow          2943.750
       408   10 Jun 2027 07:12:09.571   10 Jun 2027 07:12:27.779            18.208              Murmansk2          2276.000
       409   10 Jun 2027 07:12:27.779   10 Jun 2027 07:12:51.821            24.042              Murmansk1          3005.250
       410   10 Jun 2027 07:13:02.882   10 Jun 2027 07:13:27.663            24.781                Norilsk          3097.625
       411   10 Jun 2027 07:13:44.930   10 Jun 2027 07:14:00.516            15.586                 Moscow          1948.250
       412   10 Jun 2027 07:14:26.922   10 Jun 2027 07:15:14.571            47.649                Novosib          5956.125
       413   10 Jun 2027 08:40:20.571   10 Jun 2027 08:41:02.294            41.723                  Delhi          5215.375
       414   10 Jun 2027 08:45:05.057   10 Jun 2027 08:45:17.048            11.991              Murmansk2          1498.875
       415   10 Jun 2027 08:45:42.939   10 Jun 2027 08:47:23.094           100.155                 Moscow         12519.375
       416   10 Jun 2027 08:47:33.578   10 Jun 2027 08:48:48.784            75.206                Novosib          9400.750
       417   10 Jun 2027 08:49:03.480   10 Jun 2027 08:49:47.552            44.072              Murmansk2          5509.000
       418   10 Jun 2027 10:35:54.545   10 Jun 2027 10:39:54.018           239.473                Anadyr2         29934.125
       419   10 Jun 2027 11:31:56.290   10 Jun 2027 11:33:25.001            88.711               CapeTown         11088.875
       420   10 Jun 2027 12:10:11.767   10 Jun 2027 12:14:40.814           269.047                Anadyr1         33630.875
       421   10 Jun 2027 13:48:44.662   10 Jun 2027 13:52:52.537           247.875               Magadan1         30984.375
       422   10 Jun 2027 16:17:01.222   10 Jun 2027 16:23:36.277           395.055            RioGallegos         49381.875
       423   10 Jun 2027 17:07:40.940   10 Jun 2027 17:08:24.014            43.074                Irkutsk          5384.250
       424   10 Jun 2027 17:18:27.732   10 Jun 2027 17:19:31.780            64.048                Sumatra          8006.000
       425   10 Jun 2027 17:21:58.531   10 Jun 2027 17:24:05.294           126.763                Sumatra         15845.375
       426   10 Jun 2027 17:25:09.662   10 Jun 2027 17:25:40.308            30.646                Sumatra          3830.750
       427   10 Jun 2027 18:39:54.357   10 Jun 2027 18:41:12.173            77.816                Novosib          9727.000
       428   10 Jun 2027 18:42:34.104   10 Jun 2027 18:42:41.740             7.636                Novosib           954.500
       429   10 Jun 2027 18:48:28.754   10 Jun 2027 18:51:46.038           197.284                  Delhi         24660.500
       430   10 Jun 2027 21:52:50.908   10 Jun 2027 21:52:51.737             0.829              Murmansk1           103.625
       431   10 Jun 2027 21:53:20.221   10 Jun 2027 21:55:04.282           104.061                 Moscow         13007.625
       432   10 Jun 2027 21:56:07.449   10 Jun 2027 21:57:42.870            95.421                 Moscow         11927.625
       433   10 Jun 2027 22:18:25.633   10 Jun 2027 22:19:17.396            51.763               CapeTown          6470.375
       434   10 Jun 2027 22:19:54.590   10 Jun 2027 22:21:46.008           111.418               CapeTown         13927.250
       435   11 Jun 2027 04:12:13.300   11 Jun 2027 04:13:13.769            60.469               Magadan1          7558.625
       436   11 Jun 2027 04:13:27.631   11 Jun 2027 04:13:30.988             3.357               Magadan1           419.625
       437   11 Jun 2027 04:48:31.204   11 Jun 2027 04:49:10.630            39.426            RioGallegos          4928.250
       438   11 Jun 2027 04:51:46.758   11 Jun 2027 04:52:06.079            19.321            RioGallegos          2415.125
       439   11 Jun 2027 04:56:48.613   11 Jun 2027 04:57:06.055            17.442            RioGallegos          2180.250
       440   11 Jun 2027 05:24:14.209   11 Jun 2027 05:25:46.923            92.714                Sumatra         11589.250
       441   11 Jun 2027 05:45:52.026   11 Jun 2027 05:46:21.342            29.316                Irkutsk          3664.500
       442   11 Jun 2027 05:46:26.385   11 Jun 2027 05:47:36.819            70.434                Irkutsk          8804.250
       443   11 Jun 2027 05:48:08.017   11 Jun 2027 05:49:47.548            99.531                Irkutsk         12441.375
       444   11 Jun 2027 07:07:50.866   11 Jun 2027 07:08:49.328            58.462                  Delhi          7307.750
       445   11 Jun 2027 07:10:40.767   11 Jun 2027 07:11:52.022            71.255                  Delhi          8906.875
       446   11 Jun 2027 07:23:20.646   11 Jun 2027 07:23:31.803            11.157                Irkutsk          1394.625
       447   11 Jun 2027 07:23:42.343   11 Jun 2027 07:24:01.272            18.929                Norilsk          2366.125
       448   11 Jun 2027 07:24:09.647   11 Jun 2027 07:24:43.528            33.881              Murmansk1          4235.125
       449   11 Jun 2027 07:24:54.126   11 Jun 2027 07:25:36.264            42.138                 Moscow          5267.250
       450   11 Jun 2027 07:25:38.683   11 Jun 2027 07:26:06.083            27.400                 Moscow          3425.000
       451   11 Jun 2027 08:45:09.840   11 Jun 2027 08:45:38.122            28.282                  Delhi          3535.250
       452   11 Jun 2027 08:57:32.315   11 Jun 2027 08:58:55.130            82.815                 Moscow         10351.875
       453   11 Jun 2027 08:59:06.236   11 Jun 2027 08:59:44.569            38.333                 Moscow          4791.625
       454   11 Jun 2027 08:59:56.767   11 Jun 2027 09:00:09.432            12.665                 Moscow          1583.125
       455   11 Jun 2027 09:00:20.172   11 Jun 2027 09:01:02.207            42.035                Norilsk          5254.375
       456   11 Jun 2027 09:01:10.031   11 Jun 2027 09:01:36.967            26.936                Norilsk          3367.000
       457   11 Jun 2027 09:01:38.374   11 Jun 2027 09:01:46.477             8.103              Murmansk1          1012.875
       458   11 Jun 2027 09:01:55.844   11 Jun 2027 09:02:55.489            59.645                 Moscow          7455.625
       459   11 Jun 2027 10:47:23.909   11 Jun 2027 10:51:13.198           229.289                Anadyr2         28661.125
       460   11 Jun 2027 11:43:37.265   11 Jun 2027 11:44:21.158            43.893               CapeTown          5486.625
       461   11 Jun 2027 12:22:10.147   11 Jun 2027 12:23:46.985            96.838                Anadyr2         12104.750
       462   11 Jun 2027 12:24:08.509   11 Jun 2027 12:26:42.218           153.709                Anadyr2         19213.625
       463   11 Jun 2027 14:00:38.101   11 Jun 2027 14:03:03.351           145.250               Magadan1         18156.250
       464   11 Jun 2027 14:03:13.518   11 Jun 2027 14:04:54.088           100.570               Magadan2         12571.250
       465   11 Jun 2027 14:08:11.714   11 Jun 2027 14:09:38.624            86.910               Magadan1         10863.750
       466   11 Jun 2027 16:28:41.234   11 Jun 2027 16:32:36.830           235.596            RioGallegos         29449.500
       467   11 Jun 2027 16:34:42.119   11 Jun 2027 16:35:02.409            20.290            RioGallegos          2536.250
       468   11 Jun 2027 17:16:06.386   11 Jun 2027 17:17:18.161            71.775                Irkutsk          8971.875
       469   11 Jun 2027 17:18:41.167   11 Jun 2027 17:19:52.607            71.440                Irkutsk          8930.000
       470   11 Jun 2027 17:30:02.783   11 Jun 2027 17:31:53.398           110.615                Sumatra         13826.875
       471   11 Jun 2027 17:34:02.962   11 Jun 2027 17:35:24.376            81.414                Sumatra         10176.750
       472   11 Jun 2027 18:51:48.340   11 Jun 2027 18:53:38.572           110.232                Novosib         13779.000
       473   11 Jun 2027 18:59:57.876   11 Jun 2027 19:01:48.803           110.927                  Delhi         13865.875
       474   11 Jun 2027 19:08:17.368   11 Jun 2027 19:09:14.045            56.677                  Delhi          7084.625
       475   11 Jun 2027 20:31:57.552   11 Jun 2027 20:33:49.789           112.237                 Moscow         14029.625
       476   11 Jun 2027 22:01:48.660   11 Jun 2027 22:02:35.583            46.923              Murmansk2          5865.375
       477   11 Jun 2027 22:07:27.124   11 Jun 2027 22:08:08.100            40.976                 Moscow          5122.000
       478   11 Jun 2027 22:29:57.518   11 Jun 2027 22:33:38.052           220.534               CapeTown         27566.750
       479   12 Jun 2027 04:21:16.962   12 Jun 2027 04:21:45.918            28.956                Irkutsk          3619.500
       480   12 Jun 2027 04:24:57.203   12 Jun 2027 04:25:13.358            16.155              Murmansk1          2019.375
       481   12 Jun 2027 04:25:39.320   12 Jun 2027 04:26:54.908            75.588                Norilsk          9448.500
       482   12 Jun 2027 05:00:30.422   12 Jun 2027 05:01:35.348            64.926            RioGallegos          8115.750
