uniorb/output/strategy_1/Drop/Drop_KinoSat_111002.txt

KinoSat_111002
-------------------------
    Access    *     Start Time (UTCG)     *     Stop Time (UTCG)  *   Duration (s)        *       Station  *  Data (Mbytes)
         1   01 Jun 2027 03:57:31.173   01 Jun 2027 03:57:50.818            19.645                Anadyr2           613.906
         2   01 Jun 2027 03:58:07.571   01 Jun 2027 03:58:34.989            27.418               Magadan2           856.813
         3   01 Jun 2027 03:59:02.396   01 Jun 2027 04:02:56.660           234.264                Anadyr1          7320.750
         4   01 Jun 2027 05:33:54.739   01 Jun 2027 05:34:14.751            20.012               Magadan1           625.375
         5   01 Jun 2027 05:34:19.890   01 Jun 2027 05:35:07.403            47.513                Irkutsk          1484.781
         6   01 Jun 2027 05:35:37.023   01 Jun 2027 05:35:56.655            19.632                Irkutsk           613.500
         7   01 Jun 2027 05:36:33.096   01 Jun 2027 05:38:40.003           126.907                Anadyr1          3965.844
         8   01 Jun 2027 06:18:56.028   01 Jun 2027 06:19:53.912            57.884            RioGallegos          1808.875
         9   01 Jun 2027 06:24:47.892   01 Jun 2027 06:25:02.150            14.258            RioGallegos           445.563
        10   01 Jun 2027 07:07:50.265   01 Jun 2027 07:08:01.626            11.361                Novosib           355.031
        11   01 Jun 2027 07:08:11.282   01 Jun 2027 07:08:47.744            36.462               Magadan2          1139.437
        12   01 Jun 2027 07:08:49.891   01 Jun 2027 07:10:11.416            81.525                Novosib          2547.656
        13   01 Jun 2027 07:10:26.195   01 Jun 2027 07:10:47.050            20.855               Magadan1           651.719
        14   01 Jun 2027 07:10:47.050   01 Jun 2027 07:10:51.679             4.629               Magadan2           144.656
        15   01 Jun 2027 07:10:58.613   01 Jun 2027 07:12:22.200            83.587                Norilsk          2612.094
        16   01 Jun 2027 07:12:26.159   01 Jun 2027 07:13:51.693            85.534                Irkutsk          2672.937
        17   01 Jun 2027 07:13:58.880   01 Jun 2027 07:14:07.802             8.922               Magadan1           278.813
        18   01 Jun 2027 07:14:08.278   01 Jun 2027 07:14:13.144             4.866              Murmansk2           152.062
        19   01 Jun 2027 07:14:27.106   01 Jun 2027 07:15:17.028            49.922              Murmansk1          1560.063
        20   01 Jun 2027 07:15:38.775   01 Jun 2027 07:15:53.140            14.365                Norilsk           448.906
        21   01 Jun 2027 07:16:39.990   01 Jun 2027 07:17:03.685            23.695                Norilsk           740.469
        22   01 Jun 2027 07:49:05.200   01 Jun 2027 07:50:39.836            94.636            RioGallegos          2957.375
        23   01 Jun 2027 07:52:13.140   01 Jun 2027 07:52:26.188            13.048            RioGallegos           407.750
        24   01 Jun 2027 08:25:18.291   01 Jun 2027 08:26:47.284            88.993                Sumatra          2781.031
        25   01 Jun 2027 08:44:53.295   01 Jun 2027 08:45:02.706             9.411                Novosib           294.094
        26   01 Jun 2027 08:45:25.257   01 Jun 2027 08:45:38.166            12.909                Norilsk           403.406
        27   01 Jun 2027 08:45:55.440   01 Jun 2027 08:46:57.374            61.934                Norilsk          1935.438
        28   01 Jun 2027 08:46:59.250   01 Jun 2027 08:50:16.553           197.303                Irkutsk          6165.719
        29   01 Jun 2027 08:53:41.691   01 Jun 2027 08:53:47.635             5.944              Murmansk1           185.750
        30   01 Jun 2027 09:25:51.003   01 Jun 2027 09:26:13.096            22.093            RioGallegos           690.406
        31   01 Jun 2027 09:26:45.322   01 Jun 2027 09:26:46.264             0.942            RioGallegos            29.437
        32   01 Jun 2027 09:27:50.975   01 Jun 2027 09:28:08.806            17.831            RioGallegos           557.219
        33   01 Jun 2027 09:29:59.754   01 Jun 2027 09:30:45.553            45.799            RioGallegos          1431.219
        34   01 Jun 2027 10:00:08.132   01 Jun 2027 10:01:44.412            96.280                Sumatra          3008.750
        35   01 Jun 2027 10:09:41.272   01 Jun 2027 10:10:56.615            75.343                  Delhi          2354.469
        36   01 Jun 2027 10:22:29.395   01 Jun 2027 10:25:12.480           163.085                Irkutsk          5096.406
        37   01 Jun 2027 11:44:56.824   01 Jun 2027 11:45:49.506            52.682                  Delhi          1646.312
        38   01 Jun 2027 11:58:43.275   01 Jun 2027 11:58:51.420             8.145              Murmansk2           254.531
        39   01 Jun 2027 11:58:51.420   01 Jun 2027 12:00:31.817           100.397              Murmansk1          3137.406
        40   01 Jun 2027 12:01:03.401   01 Jun 2027 12:01:18.480            15.079              Murmansk2           471.219
        41   01 Jun 2027 12:01:25.920   01 Jun 2027 12:02:10.708            44.788                Norilsk          1399.625
        42   01 Jun 2027 12:02:20.857   01 Jun 2027 12:03:13.979            53.122              Murmansk2          1660.063
        43   01 Jun 2027 12:03:50.104   01 Jun 2027 12:05:15.147            85.043                 Moscow          2657.594
        44   01 Jun 2027 12:05:30.538   01 Jun 2027 12:05:57.498            26.960                Norilsk           842.500
        45   01 Jun 2027 12:07:03.129   01 Jun 2027 12:07:16.710            13.581              Murmansk1           424.406
        46   01 Jun 2027 12:07:19.094   01 Jun 2027 12:08:03.765            44.671              Murmansk2          1395.969
        47   01 Jun 2027 12:08:03.765   01 Jun 2027 12:08:16.181            12.416              Murmansk1           388.000
        48   01 Jun 2027 12:08:21.913   01 Jun 2027 12:08:50.753            28.840              Murmansk1           901.250
        49   01 Jun 2027 13:28:29.604   01 Jun 2027 13:35:31.900           422.296                 Moscow         13196.750
        50   01 Jun 2027 13:35:55.017   01 Jun 2027 13:36:07.158            12.141              Murmansk1           379.406
        51   01 Jun 2027 13:36:20.771   01 Jun 2027 13:37:14.975            54.204                 Moscow          1693.875
        52   01 Jun 2027 13:37:33.597   01 Jun 2027 13:37:34.976             1.379              Murmansk1            43.094
        53   01 Jun 2027 13:37:34.976   01 Jun 2027 13:37:51.916            16.940              Murmansk2           529.375
        54   01 Jun 2027 13:38:03.467   01 Jun 2027 13:38:15.409            11.942              Murmansk2           373.187
        55   01 Jun 2027 13:38:32.659   01 Jun 2027 13:39:04.543            31.884              Murmansk1           996.375
        56   01 Jun 2027 13:39:04.543   01 Jun 2027 13:40:51.993           107.450              Murmansk2          3357.812
        57   01 Jun 2027 13:40:51.993   01 Jun 2027 13:41:08.575            16.582              Murmansk1           518.188
        58   01 Jun 2027 13:41:10.665   01 Jun 2027 13:41:14.046             3.381                 Moscow           105.656
        59   01 Jun 2027 13:41:15.437   01 Jun 2027 13:43:15.201           119.764              Murmansk1          3742.625
        60   01 Jun 2027 13:43:17.088   01 Jun 2027 13:44:47.399            90.311              Murmansk1          2822.219
        61   01 Jun 2027 13:48:28.927   01 Jun 2027 13:49:26.087            57.160                Anadyr2          1786.250
        62   01 Jun 2027 13:50:22.657   01 Jun 2027 13:52:10.635           107.978                Anadyr1          3374.313
        63   01 Jun 2027 14:49:37.109   01 Jun 2027 14:51:39.116           122.007               CapeTown          3812.719
        64   01 Jun 2027 14:52:58.642   01 Jun 2027 14:54:27.204            88.562               CapeTown          2767.562
        65   01 Jun 2027 15:16:50.003   01 Jun 2027 15:17:05.661            15.658              Murmansk1           489.312
        66   01 Jun 2027 15:17:32.379   01 Jun 2027 15:20:37.089           184.710              Murmansk1          5772.188
        67   01 Jun 2027 15:27:30.468   01 Jun 2027 15:28:22.081            51.613                Anadyr2          1612.906
        68   01 Jun 2027 15:28:44.150   01 Jun 2027 15:29:46.738            62.588                Anadyr1          1955.875
        69   01 Jun 2027 15:30:35.299   01 Jun 2027 15:31:04.396            29.097                Anadyr1           909.281
        70   01 Jun 2027 15:31:04.396   01 Jun 2027 15:31:35.368            30.972                Anadyr2           967.875
        71   01 Jun 2027 15:32:13.841   01 Jun 2027 15:32:48.114            34.273                Anadyr2          1071.031
        72   01 Jun 2027 15:33:22.042   01 Jun 2027 15:33:28.772             6.730                Anadyr2           210.313
        73   01 Jun 2027 16:52:29.916   01 Jun 2027 16:53:30.383            60.467              Murmansk2          1889.594
        74   01 Jun 2027 16:54:15.231   01 Jun 2027 16:54:36.805            21.574              Murmansk2           674.188
        75   01 Jun 2027 16:54:41.028   01 Jun 2027 16:55:04.433            23.405              Murmansk2           731.406
        76   01 Jun 2027 16:56:00.796   01 Jun 2027 16:56:01.116             0.320              Murmansk1            10.000
        77   01 Jun 2027 17:00:35.299   01 Jun 2027 17:01:05.222            29.923                Anadyr2           935.094
        78   01 Jun 2027 17:01:39.911   01 Jun 2027 17:01:43.698             3.787                Anadyr1           118.344
        79   01 Jun 2027 17:01:48.029   01 Jun 2027 17:02:10.678            22.649               Magadan2           707.781
        80   01 Jun 2027 17:02:29.074   01 Jun 2027 17:03:22.803            53.729               Magadan2          1679.031
        81   01 Jun 2027 17:05:21.168   01 Jun 2027 17:05:27.946             6.778                Anadyr1           211.812
        82   01 Jun 2027 17:05:37.744   01 Jun 2027 17:05:55.012            17.268               Magadan2           539.625
        83   01 Jun 2027 17:06:30.017   01 Jun 2027 17:06:46.339            16.322                Anadyr1           510.063
        84   01 Jun 2027 17:07:00.919   01 Jun 2027 17:07:15.741            14.822               Magadan1           463.188
        85   01 Jun 2027 17:07:38.509   01 Jun 2027 17:07:45.961             7.452                Anadyr2           232.875
        86   01 Jun 2027 17:08:00.822   01 Jun 2027 17:08:09.052             8.230                Anadyr2           257.188
        87   01 Jun 2027 17:08:18.562   01 Jun 2027 17:08:27.001             8.439                Anadyr2           263.719
        88   01 Jun 2027 17:08:49.813   01 Jun 2027 17:08:54.434             4.621                Anadyr1           144.406
        89   01 Jun 2027 17:08:54.434   01 Jun 2027 17:09:40.871            46.437                Anadyr2          1451.156
        90   01 Jun 2027 17:10:43.405   01 Jun 2027 17:10:58.633            15.228               Magadan1           475.875
        91   01 Jun 2027 18:34:21.349   01 Jun 2027 18:36:12.172           110.823                Anadyr1          3463.219
        92   01 Jun 2027 18:36:38.483   01 Jun 2027 18:37:47.906            69.423               Magadan2          2169.469
        93   01 Jun 2027 18:38:14.515   01 Jun 2027 18:38:34.338            19.823               Magadan2           619.469
        94   01 Jun 2027 18:38:52.935   01 Jun 2027 18:39:31.708            38.773               Magadan2          1211.656
        95   01 Jun 2027 18:41:04.717   01 Jun 2027 18:41:44.091            39.374               Magadan1          1230.437
        96   01 Jun 2027 18:42:54.126   01 Jun 2027 18:43:10.068            15.942               Magadan2           498.187
        97   01 Jun 2027 18:43:37.878   01 Jun 2027 18:44:05.994            28.116                Anadyr2           878.625
        98   01 Jun 2027 18:44:17.009   01 Jun 2027 18:44:33.259            16.250               Magadan1           507.812
        99   01 Jun 2027 18:45:34.220   01 Jun 2027 18:45:54.869            20.649               Magadan2           645.281
       100   01 Jun 2027 18:47:12.767   01 Jun 2027 18:47:49.767            37.000               Magadan1          1156.250
       101   01 Jun 2027 18:48:10.988   01 Jun 2027 18:48:48.328            37.340               Magadan1          1166.875
       102   01 Jun 2027 19:29:33.509   01 Jun 2027 19:30:27.833            54.324            RioGallegos          1697.625
       103   01 Jun 2027 19:33:34.987   01 Jun 2027 19:34:42.511            67.524            RioGallegos          2110.125
       104   01 Jun 2027 19:35:45.535   01 Jun 2027 19:36:20.706            35.171            RioGallegos          1099.094
       105   01 Jun 2027 20:12:36.954   01 Jun 2027 20:13:26.197            49.243               Magadan2          1538.844
       106   01 Jun 2027 20:13:29.047   01 Jun 2027 20:15:41.236           132.189                Norilsk          4130.906
       107   01 Jun 2027 20:17:07.597   01 Jun 2027 20:18:42.909            95.312                Irkutsk          2978.500
       108   01 Jun 2027 20:20:30.363   01 Jun 2027 20:20:41.326            10.963                Irkutsk           342.594
       109   01 Jun 2027 20:23:51.638   01 Jun 2027 20:25:15.639            84.001                Irkutsk          2625.031
       110   01 Jun 2027 20:26:33.395   01 Jun 2027 20:27:10.365            36.970                Irkutsk          1155.312
       111   01 Jun 2027 20:32:55.947   01 Jun 2027 20:34:03.700            67.753                Sumatra          2117.281
       112   01 Jun 2027 20:36:51.006   01 Jun 2027 20:37:50.506            59.500                Sumatra          1859.375
       113   01 Jun 2027 21:48:54.957   01 Jun 2027 21:49:20.991            26.034                Norilsk           813.562
       114   01 Jun 2027 21:49:56.638   01 Jun 2027 21:50:09.455            12.817                Norilsk           400.531
       115   01 Jun 2027 21:50:44.477   01 Jun 2027 21:51:56.305            71.828                Norilsk          2244.625
       116   01 Jun 2027 21:53:53.004   01 Jun 2027 21:55:01.904            68.900                Novosib          2153.125
       117   01 Jun 2027 21:55:53.854   01 Jun 2027 21:56:06.817            12.963                Novosib           405.094
       118   01 Jun 2027 21:58:34.825   01 Jun 2027 21:59:13.425            38.600                Novosib          1206.250
       119   01 Jun 2027 21:59:45.531   01 Jun 2027 22:01:53.574           128.043                Novosib          4001.344
       120   01 Jun 2027 22:07:25.724   01 Jun 2027 22:08:31.027            65.303                  Delhi          2040.719
       121   01 Jun 2027 23:23:41.091   01 Jun 2027 23:24:31.244            50.153                Anadyr2          1567.281
       122   01 Jun 2027 23:24:33.523   01 Jun 2027 23:26:33.089           119.566               Magadan1          3736.437
       123   01 Jun 2027 23:26:44.400   01 Jun 2027 23:30:23.814           219.414              Murmansk1          6856.687
       124   01 Jun 2027 23:43:36.575   01 Jun 2027 23:44:06.191            29.616                  Delhi           925.500
       125   02 Jun 2027 00:22:17.757   02 Jun 2027 00:22:40.082            22.325            RioGallegos           697.656
       126   02 Jun 2027 00:52:19.718   02 Jun 2027 00:53:40.410            80.692                Anadyr2          2521.625
       127   02 Jun 2027 00:54:25.606   02 Jun 2027 00:54:49.011            23.405                Anadyr1           731.406
       128   02 Jun 2027 00:55:03.385   02 Jun 2027 00:55:14.351            10.966                Anadyr1           342.687
       129   02 Jun 2027 00:55:17.463   02 Jun 2027 00:55:33.773            16.310                Anadyr2           509.688
       130   02 Jun 2027 00:57:58.479   02 Jun 2027 00:58:08.240             9.761                Anadyr2           305.031
       131   02 Jun 2027 00:58:20.371   02 Jun 2027 00:58:34.506            14.135                Anadyr1           441.719
       132   02 Jun 2027 00:59:08.131   02 Jun 2027 01:00:43.766            95.635               Magadan2          2988.594
       133   02 Jun 2027 01:00:43.766   02 Jun 2027 01:00:56.287            12.521               Magadan1           391.281
       134   02 Jun 2027 01:01:16.094   02 Jun 2027 01:01:43.576            27.482               Magadan2           858.812
       135   02 Jun 2027 01:02:15.686   02 Jun 2027 01:03:31.287            75.601              Murmansk2          2362.531
       136   02 Jun 2027 01:05:36.188   02 Jun 2027 01:05:43.536             7.348                Novosib           229.625
       137   02 Jun 2027 01:06:36.013   02 Jun 2027 01:06:42.062             6.049                 Moscow           189.031
       138   02 Jun 2027 01:07:08.313   02 Jun 2027 01:07:43.776            35.463                Novosib          1108.219
       139   02 Jun 2027 01:08:46.655   02 Jun 2027 01:09:15.190            28.535              Murmansk2           891.719
       140   02 Jun 2027 01:12:10.373   02 Jun 2027 01:12:57.435            47.062                 Moscow          1470.687
       141   02 Jun 2027 01:16:49.110   02 Jun 2027 01:16:57.911             8.801                 Moscow           275.031
       142   02 Jun 2027 01:31:42.487   02 Jun 2027 01:32:08.029            25.542               CapeTown           798.188
       143   02 Jun 2027 01:35:11.392   02 Jun 2027 01:36:21.082            69.690               CapeTown          2177.812
       144   02 Jun 2027 01:40:40.146   02 Jun 2027 01:41:33.135            52.989               CapeTown          1655.906
       145   02 Jun 2027 02:26:25.840   02 Jun 2027 02:26:47.259            21.419                Anadyr2           669.344
       146   02 Jun 2027 02:27:35.741   02 Jun 2027 02:27:55.491            19.750                Anadyr2           617.188
       147   02 Jun 2027 02:28:55.031   02 Jun 2027 02:29:05.143            10.112                Anadyr1           316.000
       148   02 Jun 2027 02:29:41.522   02 Jun 2027 02:31:20.824            99.302               Magadan1          3103.187
       149   02 Jun 2027 02:34:54.912   02 Jun 2027 02:35:04.348             9.436               Magadan1           294.875
       150   02 Jun 2027 02:35:25.756   02 Jun 2027 02:36:03.046            37.290               Magadan1          1165.313
       151   02 Jun 2027 02:38:12.779   02 Jun 2027 02:39:49.842            97.063              Murmansk2          3033.219
       152   02 Jun 2027 02:41:41.088   02 Jun 2027 02:42:12.325            31.237                Novosib           976.156
       153   02 Jun 2027 02:45:13.071   02 Jun 2027 02:45:25.696            12.625                Novosib           394.531
       154   02 Jun 2027 02:48:32.858   02 Jun 2027 02:48:33.516             0.658                 Moscow            20.562
       155   02 Jun 2027 02:48:51.780   02 Jun 2027 02:49:23.143            31.363              Murmansk1           980.094
       156   02 Jun 2027 02:51:46.153   02 Jun 2027 02:51:49.946             3.793                 Moscow           118.531
       157   02 Jun 2027 02:52:23.047   02 Jun 2027 02:52:53.303            30.256                 Moscow           945.500
       158   02 Jun 2027 03:10:14.249   02 Jun 2027 03:10:15.936             1.687               CapeTown            52.719
       159   02 Jun 2027 03:10:57.822   02 Jun 2027 03:10:59.242             1.420               CapeTown            44.375
       160   02 Jun 2027 03:11:25.420   02 Jun 2027 03:11:56.333            30.913               CapeTown           966.031
       161   02 Jun 2027 03:13:37.438   02 Jun 2027 03:14:12.928            35.490               CapeTown          1109.062
       162   02 Jun 2027 04:08:40.500   02 Jun 2027 04:10:26.280           105.780               Magadan2          3305.625
       163   02 Jun 2027 04:10:26.280   02 Jun 2027 04:10:37.843            11.563               Magadan1           361.344
       164   02 Jun 2027 04:10:44.719   02 Jun 2027 04:13:49.031           184.312               Magadan1          5759.750
       165   02 Jun 2027 05:46:41.271   02 Jun 2027 05:46:45.840             4.569               Magadan1           142.781
       166   02 Jun 2027 05:46:47.644   02 Jun 2027 05:48:21.354            93.710               Magadan1          2928.438
       167   02 Jun 2027 05:48:56.116   02 Jun 2027 05:49:52.290            56.174                Anadyr2          1755.438
       168   02 Jun 2027 05:50:02.458   02 Jun 2027 05:50:35.003            32.545               Magadan1          1017.031
       169   02 Jun 2027 07:22:00.475   02 Jun 2027 07:24:50.243           169.768                Irkutsk          5305.250
       170   02 Jun 2027 07:24:50.289   02 Jun 2027 07:25:07.516            17.227              Murmansk2           538.344
       171   02 Jun 2027 07:25:07.516   02 Jun 2027 07:25:55.946            48.430              Murmansk1          1513.437
       172   02 Jun 2027 07:26:07.772   02 Jun 2027 07:26:41.916            34.144                Novosib          1067.000
       173   02 Jun 2027 07:27:09.529   02 Jun 2027 07:27:12.254             2.725                Novosib            85.156
       174   02 Jun 2027 07:28:33.785   02 Jun 2027 07:28:55.688            21.903                Norilsk           684.469
       175   02 Jun 2027 07:29:48.449   02 Jun 2027 07:30:07.668            19.219                Norilsk           600.594
       176   02 Jun 2027 08:01:00.707   02 Jun 2027 08:03:14.801           134.094            RioGallegos          4190.438
       177   02 Jun 2027 08:03:31.875   02 Jun 2027 08:03:38.410             6.535            RioGallegos           204.219
       178   02 Jun 2027 08:36:47.323   02 Jun 2027 08:38:11.190            83.867                Sumatra          2620.844
       179   02 Jun 2027 08:57:52.765   02 Jun 2027 08:58:05.307            12.542                Novosib           391.937
       180   02 Jun 2027 08:58:10.884   02 Jun 2027 08:58:43.601            32.717                Irkutsk          1022.406
       181   02 Jun 2027 08:58:57.174   02 Jun 2027 08:59:31.818            34.644                Norilsk          1082.625
       182   02 Jun 2027 08:59:36.925   02 Jun 2027 09:02:18.748           161.823              Murmansk1          5056.969
       183   02 Jun 2027 09:02:19.618   02 Jun 2027 09:02:47.717            28.099                Novosib           878.094
       184   02 Jun 2027 09:06:21.195   02 Jun 2027 09:07:15.117            53.922                Norilsk          1685.062
       185   02 Jun 2027 09:38:17.089   02 Jun 2027 09:38:54.329            37.240            RioGallegos          1163.750
       186   02 Jun 2027 09:40:14.142   02 Jun 2027 09:40:35.336            21.194            RioGallegos           662.312
       187   02 Jun 2027 10:12:29.884   02 Jun 2027 10:13:39.887            70.003                Sumatra          2187.594
       188   02 Jun 2027 10:20:21.874   02 Jun 2027 10:20:53.404            31.530                  Delhi           985.313
       189   02 Jun 2027 10:34:48.308   02 Jun 2027 10:35:52.194            63.886                Novosib          1996.437
       190   02 Jun 2027 10:36:12.824   02 Jun 2027 10:37:09.281            56.457                Irkutsk          1764.281
       191   02 Jun 2027 10:37:18.396   02 Jun 2027 10:37:25.374             6.978                Novosib           218.062
       192   02 Jun 2027 10:37:28.517   02 Jun 2027 10:37:54.214            25.697                Norilsk           803.031
       193   02 Jun 2027 10:38:00.539   02 Jun 2027 10:38:42.830            42.291              Murmansk2          1321.594
       194   02 Jun 2027 10:38:47.911   02 Jun 2027 10:39:56.804            68.893                 Moscow          2152.906
       195   02 Jun 2027 11:57:32.047   02 Jun 2027 12:00:14.451           162.404                  Delhi          5075.125
       196   02 Jun 2027 12:06:15.769   02 Jun 2027 12:07:42.889            87.120                Novosib          2722.500
       197   02 Jun 2027 12:09:58.518   02 Jun 2027 12:10:32.776            34.258                Novosib          1070.562
       198   02 Jun 2027 13:44:10.713   02 Jun 2027 13:44:53.253            42.540                 Moscow          1329.375
       199   02 Jun 2027 13:45:33.407   02 Jun 2027 13:46:08.004            34.597                 Moscow          1081.156
       200   02 Jun 2027 13:47:22.588   02 Jun 2027 13:47:51.277            28.689              Murmansk1           896.531
       201   02 Jun 2027 13:48:37.673   02 Jun 2027 13:49:33.946            56.273              Murmansk2          1758.531
       202   02 Jun 2027 13:50:24.603   02 Jun 2027 13:50:56.405            31.802              Murmansk2           993.813
       203   02 Jun 2027 13:51:13.402   02 Jun 2027 13:51:29.640            16.238              Murmansk2           507.437
       204   02 Jun 2027 13:51:33.022   02 Jun 2027 13:53:00.776            87.754                Norilsk          2742.312
       205   02 Jun 2027 13:53:32.350   02 Jun 2027 13:53:41.162             8.812                Norilsk           275.375
       206   02 Jun 2027 13:59:55.592   02 Jun 2027 14:02:11.363           135.771                Anadyr1          4242.844
       207   02 Jun 2027 14:03:24.087   02 Jun 2027 14:04:41.084            76.997                Anadyr1          2406.156
       208   02 Jun 2027 15:27:54.535   02 Jun 2027 15:28:05.486            10.951              Murmansk2           342.219
       209   02 Jun 2027 15:28:51.163   02 Jun 2027 15:30:48.863           117.700              Murmansk1          3678.125
       210   02 Jun 2027 15:38:33.435   02 Jun 2027 15:39:26.022            52.587                Anadyr2          1643.344
       211   02 Jun 2027 15:40:24.501   02 Jun 2027 15:40:28.216             3.715                Anadyr1           116.094
       212   02 Jun 2027 15:40:48.094   02 Jun 2027 15:41:01.889            13.795                Anadyr1           431.094
       213   02 Jun 2027 15:41:28.671   02 Jun 2027 15:42:36.075            67.404                Anadyr1          2106.375
       214   02 Jun 2027 17:03:15.138   02 Jun 2027 17:06:40.721           205.583              Murmansk2          6424.469
       215   02 Jun 2027 17:15:23.237   02 Jun 2027 17:15:53.004            29.767               Magadan1           930.219
       216   02 Jun 2027 17:16:08.113   02 Jun 2027 17:16:26.682            18.569                Anadyr1           580.281
       217   02 Jun 2027 17:16:52.827   02 Jun 2027 17:17:31.083            38.256               Magadan2          1195.500
       218   02 Jun 2027 17:19:02.467   02 Jun 2027 17:19:40.577            38.110               Magadan1          1190.937
       219   02 Jun 2027 17:21:18.772   02 Jun 2027 17:22:32.979            74.207               Magadan2          2318.969
       220   02 Jun 2027 18:46:22.361   02 Jun 2027 18:48:13.698           111.337                Anadyr2          3479.281
       221   02 Jun 2027 18:48:39.149   02 Jun 2027 18:49:35.412            56.263               Magadan2          1758.219
       222   02 Jun 2027 18:50:10.243   02 Jun 2027 18:51:09.330            59.087                Norilsk          1846.469
       223   02 Jun 2027 18:53:37.642   02 Jun 2027 18:53:52.396            14.754               Magadan1           461.062
       224   02 Jun 2027 18:54:06.150   02 Jun 2027 18:54:50.867            44.717               Magadan2          1397.406
       225   02 Jun 2027 18:57:16.149   02 Jun 2027 18:58:26.666            70.517               Magadan2          2203.656
       226   02 Jun 2027 18:59:50.318   02 Jun 2027 19:00:13.559            23.241               Magadan1           726.281
       227   02 Jun 2027 19:41:12.622   02 Jun 2027 19:41:18.947             6.325            RioGallegos           197.656
       228   02 Jun 2027 19:41:56.604   02 Jun 2027 19:42:50.175            53.571            RioGallegos          1674.094
       229   02 Jun 2027 19:44:26.677   02 Jun 2027 19:44:47.286            20.609            RioGallegos           644.031
       230   02 Jun 2027 19:46:02.417   02 Jun 2027 19:47:38.710            96.293            RioGallegos          3009.156
       231   02 Jun 2027 19:50:20.465   02 Jun 2027 19:50:34.506            14.041            RioGallegos           438.781
       232   02 Jun 2027 20:24:14.820   02 Jun 2027 20:24:27.206            12.386                Norilsk           387.063
       233   02 Jun 2027 20:25:37.351   02 Jun 2027 20:26:52.629            75.278                Norilsk          2352.438
       234   02 Jun 2027 20:27:08.884   02 Jun 2027 20:28:03.888            55.004                Norilsk          1718.875
       235   02 Jun 2027 20:28:51.073   02 Jun 2027 20:29:39.214            48.141                Irkutsk          1504.406
       236   02 Jun 2027 20:30:43.855   02 Jun 2027 20:32:15.070            91.215                Irkutsk          2850.469
       237   02 Jun 2027 20:37:52.718   02 Jun 2027 20:38:01.647             8.929                Irkutsk           279.031
       238   02 Jun 2027 20:39:20.881   02 Jun 2027 20:39:40.281            19.400                Irkutsk           606.250
       239   02 Jun 2027 20:46:52.502   02 Jun 2027 20:48:12.997            80.495                Sumatra          2515.469
       240   02 Jun 2027 20:50:05.760   02 Jun 2027 20:51:54.480           108.720                Sumatra          3397.500
       241   02 Jun 2027 22:01:57.855   02 Jun 2027 22:02:22.010            24.155                Norilsk           754.844
       242   02 Jun 2027 22:03:13.633   02 Jun 2027 22:03:32.581            18.948               Magadan2           592.125
       243   02 Jun 2027 22:04:09.643   02 Jun 2027 22:04:46.289            36.646               Magadan2          1145.188
       244   02 Jun 2027 22:05:55.285   02 Jun 2027 22:06:58.519            63.234                Novosib          1976.062
       245   02 Jun 2027 22:09:56.207   02 Jun 2027 22:10:13.770            17.563                Novosib           548.844
       246   02 Jun 2027 22:10:40.902   02 Jun 2027 22:10:51.443            10.541                Novosib           329.406
       247   02 Jun 2027 22:11:21.462   02 Jun 2027 22:11:30.991             9.529                Novosib           297.781
       248   02 Jun 2027 22:12:30.979   02 Jun 2027 22:12:56.954            25.975                  Delhi           811.719
       249   02 Jun 2027 22:13:28.179   02 Jun 2027 22:13:48.733            20.554                Novosib           642.313
       250   02 Jun 2027 22:14:02.785   02 Jun 2027 22:14:56.479            53.694                  Delhi          1677.938
       251   02 Jun 2027 22:18:03.344   02 Jun 2027 22:19:23.559            80.215                  Delhi          2506.719
       252   02 Jun 2027 23:30:43.537   02 Jun 2027 23:31:23.665            40.128                Anadyr1          1254.000
       253   02 Jun 2027 23:33:01.141   02 Jun 2027 23:33:08.092             6.951                Anadyr1           217.219
       254   02 Jun 2027 23:33:31.026   02 Jun 2027 23:33:32.818             1.792                Anadyr1            56.000
       255   02 Jun 2027 23:35:42.149   02 Jun 2027 23:35:54.485            12.336                Anadyr2           385.500
       256   02 Jun 2027 23:36:08.583   02 Jun 2027 23:36:40.496            31.913                Norilsk           997.281
       257   02 Jun 2027 23:36:41.282   02 Jun 2027 23:38:19.033            97.751               Magadan2          3054.719
       258   02 Jun 2027 23:38:33.930   02 Jun 2027 23:38:34.260             0.330               Magadan1            10.313
       259   02 Jun 2027 23:38:38.546   02 Jun 2027 23:41:00.928           142.382              Murmansk1          4449.437
       260   02 Jun 2027 23:41:57.421   02 Jun 2027 23:42:45.912            48.491              Murmansk2          1515.344
       261   02 Jun 2027 23:44:37.875   02 Jun 2027 23:44:53.577            15.702                 Moscow           490.688
       262   02 Jun 2027 23:45:18.608   02 Jun 2027 23:46:26.504            67.896              Murmansk1          2121.750
       263   02 Jun 2027 23:47:54.424   02 Jun 2027 23:48:02.019             7.595                 Moscow           237.344
       264   03 Jun 2027 01:04:03.278   03 Jun 2027 01:05:05.691            62.413                Anadyr2          1950.406
       265   03 Jun 2027 01:05:39.337   03 Jun 2027 01:06:18.429            39.092                Anadyr2          1221.625
       266   03 Jun 2027 01:06:47.350   03 Jun 2027 01:07:18.724            31.374                Anadyr2           980.438
       267   03 Jun 2027 01:09:32.010   03 Jun 2027 01:10:59.554            87.544               Magadan1          2735.750
       268   03 Jun 2027 01:11:04.038   03 Jun 2027 01:11:19.621            15.583               Magadan1           486.969
       269   03 Jun 2027 01:11:34.417   03 Jun 2027 01:12:00.959            26.542               Magadan1           829.437
       270   03 Jun 2027 01:12:53.092   03 Jun 2027 01:13:02.168             9.076               Magadan1           283.625
       271   03 Jun 2027 01:13:19.312   03 Jun 2027 01:13:30.933            11.621               Magadan1           363.156
       272   03 Jun 2027 01:14:16.735   03 Jun 2027 01:15:02.381            45.646              Murmansk1          1426.438
       273   03 Jun 2027 01:15:58.841   03 Jun 2027 01:16:05.121             6.280              Murmansk2           196.250
       274   03 Jun 2027 01:16:17.307   03 Jun 2027 01:16:39.899            22.592              Murmansk2           706.000
       275   03 Jun 2027 01:18:16.217   03 Jun 2027 01:19:21.346            65.129              Murmansk1          2035.281
       276   03 Jun 2027 01:24:54.607   03 Jun 2027 01:24:56.592             1.985                Novosib            62.031
       277   03 Jun 2027 01:25:09.653   03 Jun 2027 01:25:42.679            33.026                Novosib          1032.063
       278   03 Jun 2027 01:29:40.660   03 Jun 2027 01:29:41.494             0.834                 Moscow            26.063
       279   03 Jun 2027 01:47:06.096   03 Jun 2027 01:47:39.842            33.746               CapeTown          1054.563
       280   03 Jun 2027 01:48:30.115   03 Jun 2027 01:49:06.338            36.223               CapeTown          1131.969
       281   03 Jun 2027 01:53:48.509   03 Jun 2027 01:53:49.050             0.541               CapeTown            16.906
       282   03 Jun 2027 02:38:19.799   03 Jun 2027 02:40:46.366           146.567                Anadyr2          4580.219
       283   03 Jun 2027 02:41:14.401   03 Jun 2027 02:42:21.640            67.239               Magadan2          2101.219
       284   03 Jun 2027 02:44:19.376   03 Jun 2027 02:44:53.712            34.336               Magadan2          1073.000
       285   03 Jun 2027 02:48:39.531   03 Jun 2027 02:49:01.776            22.245                Norilsk           695.156
       286   03 Jun 2027 02:49:46.160   03 Jun 2027 02:50:14.249            28.089                Norilsk           877.781
       287   03 Jun 2027 02:50:20.343   03 Jun 2027 02:50:21.801             1.458              Murmansk1            45.562
       288   03 Jun 2027 02:50:30.685   03 Jun 2027 02:50:48.299            17.614              Murmansk2           550.437
       289   03 Jun 2027 02:51:25.438   03 Jun 2027 02:51:48.246            22.808              Murmansk1           712.750
       290   03 Jun 2027 02:53:27.314   03 Jun 2027 02:53:45.727            18.413                 Moscow           575.406
       291   03 Jun 2027 02:54:13.272   03 Jun 2027 02:54:21.256             7.984                Novosib           249.500
       292   03 Jun 2027 02:55:21.361   03 Jun 2027 02:55:56.637            35.276                Novosib          1102.375
       293   03 Jun 2027 04:21:16.605   03 Jun 2027 04:21:50.167            33.562               Magadan1          1048.812
       294   03 Jun 2027 04:21:50.167   03 Jun 2027 04:22:40.660            50.493               Magadan2          1577.906
       295   03 Jun 2027 04:22:55.766   03 Jun 2027 04:23:24.528            28.762                Anadyr2           898.813
       296   03 Jun 2027 05:58:13.791   03 Jun 2027 05:58:20.435             6.644                Anadyr1           207.625
       297   03 Jun 2027 05:58:20.435   03 Jun 2027 05:58:32.765            12.330                Anadyr2           385.313
       298   03 Jun 2027 05:58:35.468   03 Jun 2027 05:58:49.977            14.509               Magadan1           453.406
       299   03 Jun 2027 05:58:49.977   03 Jun 2027 05:59:08.262            18.285               Magadan2           571.406
       300   03 Jun 2027 05:59:11.433   03 Jun 2027 05:59:46.985            35.552                Norilsk          1111.000
       301   03 Jun 2027 05:59:49.650   03 Jun 2027 06:01:50.375           120.725                Anadyr2          3772.656
       302   03 Jun 2027 07:33:40.768   03 Jun 2027 07:34:56.542            75.774               Magadan1          2367.937
       303   03 Jun 2027 07:35:04.522   03 Jun 2027 07:35:23.641            19.119                Novosib           597.469
       304   03 Jun 2027 07:35:45.427   03 Jun 2027 07:38:13.465           148.038                Irkutsk          4626.187
       305   03 Jun 2027 07:38:19.582   03 Jun 2027 07:39:02.480            42.898              Murmansk2          1340.562
       306   03 Jun 2027 07:39:34.414   03 Jun 2027 07:40:12.716            38.302              Murmansk1          1196.938
       307   03 Jun 2027 07:41:10.306   03 Jun 2027 07:42:59.233           108.927              Murmansk1          3403.969
       308   03 Jun 2027 08:12:59.451   03 Jun 2027 08:13:19.502            20.051            RioGallegos           626.594
       309   03 Jun 2027 08:14:34.543   03 Jun 2027 08:15:23.574            49.031            RioGallegos          1532.219
       310   03 Jun 2027 08:48:25.159   03 Jun 2027 08:48:34.367             9.208                Sumatra           287.750
       311   03 Jun 2027 08:49:24.547   03 Jun 2027 08:50:36.040            71.493                Sumatra          2234.156
       312   03 Jun 2027 09:01:38.129   03 Jun 2027 09:02:25.374            47.245                  Delhi          1476.406
       313   03 Jun 2027 09:09:50.873   03 Jun 2027 09:11:07.913            77.040                Norilsk          2407.500
       314   03 Jun 2027 09:11:09.485   03 Jun 2027 09:14:04.022           174.537                Irkutsk          5454.281
       315   03 Jun 2027 09:15:36.283   03 Jun 2027 09:15:57.501            21.218              Murmansk2           663.062
       316   03 Jun 2027 09:17:23.035   03 Jun 2027 09:17:33.212            10.177              Murmansk2           318.031
       317   03 Jun 2027 09:17:43.064   03 Jun 2027 09:18:11.628            28.564              Murmansk2           892.625
       318   03 Jun 2027 09:50:48.892   03 Jun 2027 09:51:06.100            17.208            RioGallegos           537.750
       319   03 Jun 2027 09:52:18.592   03 Jun 2027 09:52:49.005            30.413            RioGallegos           950.406
       320   03 Jun 2027 09:54:21.723   03 Jun 2027 09:54:43.118            21.395            RioGallegos           668.594
       321   03 Jun 2027 10:25:00.954   03 Jun 2027 10:25:40.984            40.030                Sumatra          1250.938
       322   03 Jun 2027 10:33:27.178   03 Jun 2027 10:35:14.885           107.707                  Delhi          3365.844
       323   03 Jun 2027 10:46:37.056   03 Jun 2027 10:48:11.945            94.889              Murmansk2          2965.281
       324   03 Jun 2027 10:48:18.757   03 Jun 2027 10:48:23.434             4.677                Norilsk           146.156
       325   03 Jun 2027 10:48:25.883   03 Jun 2027 10:48:33.593             7.710                Irkutsk           240.938
       326   03 Jun 2027 10:48:35.235   03 Jun 2027 10:50:01.443            86.208              Murmansk1          2694.000
       327   03 Jun 2027 12:10:20.019   03 Jun 2027 12:12:03.634           103.615                  Delhi          3237.969
       328   03 Jun 2027 12:12:55.430   03 Jun 2027 12:13:34.941            39.511                  Delhi          1234.719
       329   03 Jun 2027 12:17:23.570   03 Jun 2027 12:18:02.075            38.505                 Moscow          1203.281
       330   03 Jun 2027 12:18:52.421   03 Jun 2027 12:20:19.608            87.187                Novosib          2724.594
       331   03 Jun 2027 12:20:41.314   03 Jun 2027 12:22:39.080           117.766              Murmansk1          3680.188
       332   03 Jun 2027 12:22:53.692   03 Jun 2027 12:22:56.806             3.114                Norilsk            97.313
       333   03 Jun 2027 12:28:37.766   03 Jun 2027 12:28:59.349            21.583              Murmansk1           674.469
       334   03 Jun 2027 13:33:41.900   03 Jun 2027 13:35:18.935            97.035               CapeTown          3032.344
       335   03 Jun 2027 13:36:59.897   03 Jun 2027 13:37:46.684            46.787               CapeTown          1462.094
       336   03 Jun 2027 13:52:51.856   03 Jun 2027 13:54:16.192            84.336                 Moscow          2635.500
       337   03 Jun 2027 13:56:20.228   03 Jun 2027 13:59:15.035           174.807              Murmansk1          5462.719
       338   03 Jun 2027 14:11:36.013   03 Jun 2027 14:13:22.879           106.866                Anadyr2          3339.563
       339   03 Jun 2027 14:13:57.918   03 Jun 2027 14:15:04.453            66.535                Anadyr1          2079.219
       340   03 Jun 2027 14:15:12.249   03 Jun 2027 14:15:33.170            20.921                Anadyr2           653.781
       341   03 Jun 2027 14:16:41.974   03 Jun 2027 14:18:02.140            80.166                Anadyr2          2505.187
       342   03 Jun 2027 15:34:40.958   03 Jun 2027 15:34:57.091            16.133              Murmansk2           504.156
       343   03 Jun 2027 15:35:08.808   03 Jun 2027 15:35:53.508            44.700              Murmansk2          1396.875
       344   03 Jun 2027 15:37:02.547   03 Jun 2027 15:37:22.961            20.414              Murmansk2           637.938
       345   03 Jun 2027 15:39:20.142   03 Jun 2027 15:39:37.380            17.238              Murmansk2           538.687
       346   03 Jun 2027 15:46:38.153   03 Jun 2027 15:49:06.407           148.254                Anadyr2          4632.937
       347   03 Jun 2027 16:42:59.492   03 Jun 2027 16:43:49.648            50.156               CapeTown          1567.375
       348   03 Jun 2027 17:16:28.887   03 Jun 2027 17:19:15.025           166.138              Murmansk2          5191.812
       349   03 Jun 2027 17:22:28.436   03 Jun 2027 17:25:06.992           158.556                Anadyr2          4954.875
       350   03 Jun 2027 17:25:22.672   03 Jun 2027 17:26:33.435            70.763               Magadan1          2211.344
       351   03 Jun 2027 17:27:06.875   03 Jun 2027 17:27:24.093            17.218               Magadan2           538.062
       352   03 Jun 2027 17:31:05.661   03 Jun 2027 17:31:09.255             3.594               Magadan2           112.312
       353   03 Jun 2027 17:31:16.833   03 Jun 2027 17:31:21.138             4.305               Magadan2           134.531
       354   03 Jun 2027 17:35:52.721   03 Jun 2027 17:35:57.372             4.651               Magadan1           145.344
       355   03 Jun 2027 17:36:09.891   03 Jun 2027 17:36:21.909            12.018               Magadan1           375.563
       356   03 Jun 2027 18:58:23.167   03 Jun 2027 19:00:15.186           112.019                Anadyr1          3500.594
       357   03 Jun 2027 19:00:40.213   03 Jun 2027 19:04:45.604           245.391               Magadan2          7668.469
       358   03 Jun 2027 19:10:47.400   03 Jun 2027 19:10:54.330             6.930               Magadan1           216.563
       359   03 Jun 2027 19:52:57.265   03 Jun 2027 19:56:28.227           210.962            RioGallegos          6592.563
       360   03 Jun 2027 20:35:36.169   03 Jun 2027 20:36:05.284            29.115                Anadyr1           909.844
       361   03 Jun 2027 20:36:14.748   03 Jun 2027 20:38:54.470           159.722                Norilsk          4991.313
       362   03 Jun 2027 20:40:28.562   03 Jun 2027 20:41:29.487            60.925                Irkutsk          1903.906
       363   03 Jun 2027 20:42:09.160   03 Jun 2027 20:42:45.630            36.470                Irkutsk          1139.687
       364   03 Jun 2027 20:42:50.981   03 Jun 2027 20:45:09.174           138.193                Novosib          4318.531
       365   03 Jun 2027 20:54:16.832   03 Jun 2027 20:55:16.995            60.163                Sumatra          1880.094
       366   03 Jun 2027 20:55:41.321   03 Jun 2027 20:56:45.394            64.073                Sumatra          2002.281
       367   03 Jun 2027 22:12:48.083   03 Jun 2027 22:14:07.354            79.271               Magadan2          2477.219
       368   03 Jun 2027 22:15:36.579   03 Jun 2027 22:15:47.243            10.664                Norilsk           333.250
       369   03 Jun 2027 22:16:02.199   03 Jun 2027 22:16:38.884            36.685                Irkutsk          1146.406
       370   03 Jun 2027 22:16:46.482   03 Jun 2027 22:16:53.852             7.370                Irkutsk           230.313
       371   03 Jun 2027 22:17:45.922   03 Jun 2027 22:18:42.803            56.881                Novosib          1777.531
       372   03 Jun 2027 22:21:53.599   03 Jun 2027 22:22:38.708            45.109                Novosib          1409.656
       373   03 Jun 2027 22:24:07.594   03 Jun 2027 22:27:28.987           201.393                  Delhi          6293.531
       374   03 Jun 2027 23:44:23.349   03 Jun 2027 23:44:38.475            15.126                Anadyr2           472.687
       375   03 Jun 2027 23:44:44.836   03 Jun 2027 23:44:49.228             4.392                Anadyr2           137.250
       376   03 Jun 2027 23:45:13.246   03 Jun 2027 23:45:29.376            16.130                Anadyr2           504.063
       377   03 Jun 2027 23:48:10.082   03 Jun 2027 23:48:13.449             3.367                Norilsk           105.219
       378   03 Jun 2027 23:48:21.667   03 Jun 2027 23:48:50.152            28.485               Magadan1           890.156
       379   03 Jun 2027 23:48:50.152   03 Jun 2027 23:50:15.944            85.792               Magadan2          2681.000
       380   03 Jun 2027 23:50:34.639   03 Jun 2027 23:53:02.043           147.404              Murmansk1          4606.375
       381   03 Jun 2027 23:54:15.607   03 Jun 2027 23:54:29.806            14.199              Murmansk1           443.719
       382   03 Jun 2027 23:55:40.590   03 Jun 2027 23:56:26.895            46.305                 Moscow          1447.031
       383   03 Jun 2027 23:57:16.928   03 Jun 2027 23:58:41.224            84.296                 Moscow          2634.250
       384   04 Jun 2027 01:15:47.792   04 Jun 2027 01:15:57.633             9.841                Anadyr1           307.531
       385   04 Jun 2027 01:16:05.787   04 Jun 2027 01:16:06.003             0.216                Anadyr1             6.750
       386   04 Jun 2027 01:16:58.193   04 Jun 2027 01:17:38.744            40.551                Anadyr2          1267.219
       387   04 Jun 2027 01:17:38.744   04 Jun 2027 01:18:08.517            29.773                Anadyr1           930.406
       388   04 Jun 2027 01:18:42.827   04 Jun 2027 01:18:48.219             5.392                Anadyr2           168.500
       389   04 Jun 2027 01:19:07.311   04 Jun 2027 01:19:19.879            12.568                Anadyr1           392.750
       390   04 Jun 2027 01:21:00.229   04 Jun 2027 01:23:04.201           123.972               Magadan2          3874.125
       391   04 Jun 2027 01:23:20.134   04 Jun 2027 01:23:29.880             9.746               Magadan2           304.563
       392   04 Jun 2027 01:26:18.014   04 Jun 2027 01:26:54.584            36.570              Murmansk1          1142.813
       393   04 Jun 2027 01:26:59.491   04 Jun 2027 01:28:41.626           102.135              Murmansk2          3191.719
       394   04 Jun 2027 01:28:56.445   04 Jun 2027 01:29:51.418            54.973                Novosib          1717.906
       395   04 Jun 2027 01:36:02.243   04 Jun 2027 01:36:24.385            22.142                 Moscow           691.938
       396   04 Jun 2027 01:41:13.903   04 Jun 2027 01:41:35.888            21.985                 Moscow           687.031
       397   04 Jun 2027 01:54:08.000   04 Jun 2027 01:54:51.954            43.954               CapeTown          1373.562
       398   04 Jun 2027 02:00:36.179   04 Jun 2027 02:00:36.443             0.264               CapeTown             8.250
       399   04 Jun 2027 02:01:30.926   04 Jun 2027 02:01:33.959             3.033               CapeTown            94.781
       400   04 Jun 2027 02:03:28.429   04 Jun 2027 02:04:39.384            70.955               CapeTown          2217.344
       401   04 Jun 2027 02:50:15.431   04 Jun 2027 02:51:35.522            80.091                Anadyr1          2502.844
       402   04 Jun 2027 02:52:38.529   04 Jun 2027 02:52:41.892             3.363                Anadyr2           105.094
       403   04 Jun 2027 02:52:48.777   04 Jun 2027 02:53:50.110            61.333               Magadan2          1916.656
       404   04 Jun 2027 02:54:57.517   04 Jun 2027 02:55:13.174            15.657               Magadan2           489.281
       405   04 Jun 2027 02:59:21.290   04 Jun 2027 02:59:34.283            12.993                Norilsk           406.031
       406   04 Jun 2027 03:10:19.452   04 Jun 2027 03:11:11.107            51.655              Murmansk1          1614.219
       407   04 Jun 2027 03:11:25.806   04 Jun 2027 03:12:26.154            60.348                 Moscow          1885.875
       408   04 Jun 2027 03:12:33.419   04 Jun 2027 03:13:18.665            45.246              Murmansk2          1413.938
       409   04 Jun 2027 03:30:28.665   04 Jun 2027 03:31:12.043            43.378               CapeTown          1355.562
       410   04 Jun 2027 03:32:09.908   04 Jun 2027 03:32:38.876            28.968               CapeTown           905.250
       411   04 Jun 2027 04:26:13.753   04 Jun 2027 04:26:58.263            44.510               Magadan2          1390.937
       412   04 Jun 2027 04:27:28.631   04 Jun 2027 04:27:56.801            28.170                Anadyr2           880.313
       413   04 Jun 2027 04:31:52.736   04 Jun 2027 04:32:45.077            52.341               Magadan2          1635.656
       414   04 Jun 2027 04:32:45.533   04 Jun 2027 04:33:18.639            33.106                Anadyr2          1034.563
       415   04 Jun 2027 04:33:33.219   04 Jun 2027 04:34:18.575            45.356               Magadan2          1417.375
       416   04 Jun 2027 04:34:18.575   04 Jun 2027 04:34:43.400            24.825               Magadan1           775.781
       417   04 Jun 2027 04:34:47.807   04 Jun 2027 04:37:11.133           143.326               Magadan1          4478.938
       418   04 Jun 2027 06:09:43.634   04 Jun 2027 06:12:36.428           172.794                Irkutsk          5399.813
       419   04 Jun 2027 06:12:56.999   04 Jun 2027 06:13:22.466            25.467                Anadyr1           795.844
       420   04 Jun 2027 07:44:46.080   04 Jun 2027 07:45:10.054            23.974                Irkutsk           749.187
       421   04 Jun 2027 07:45:24.884   04 Jun 2027 07:47:29.038           124.154                Irkutsk          3879.812
       422   04 Jun 2027 07:47:37.964   04 Jun 2027 07:48:53.557            75.593                Irkutsk          2362.281
       423   04 Jun 2027 07:48:54.399   04 Jun 2027 07:49:07.114            12.715              Murmansk1           397.344
       424   04 Jun 2027 07:49:16.124   04 Jun 2027 07:50:06.056            49.932                Norilsk          1560.375
       425   04 Jun 2027 07:50:17.403   04 Jun 2027 07:50:34.344            16.941                Novosib           529.406
       426   04 Jun 2027 07:50:56.319   04 Jun 2027 07:52:05.914            69.595              Murmansk1          2174.844
       427   04 Jun 2027 07:53:00.503   04 Jun 2027 07:53:37.328            36.825              Murmansk2          1150.781
       428   04 Jun 2027 07:55:21.266   04 Jun 2027 07:55:36.667            15.401              Murmansk1           481.281
       429   04 Jun 2027 08:25:01.490   04 Jun 2027 08:25:33.332            31.842            RioGallegos           995.063
       430   04 Jun 2027 08:26:29.652   04 Jun 2027 08:26:40.113            10.461            RioGallegos           326.906
       431   04 Jun 2027 08:28:35.881   04 Jun 2027 08:29:19.857            43.976            RioGallegos          1374.250
       432   04 Jun 2027 09:00:10.151   04 Jun 2027 09:01:13.526            63.375                Sumatra          1980.469
       433   04 Jun 2027 09:02:52.982   04 Jun 2027 09:03:55.022            62.040                Sumatra          1938.750
       434   04 Jun 2027 09:20:13.392   04 Jun 2027 09:20:16.280             2.888                Norilsk            90.250
       435   04 Jun 2027 09:20:28.037   04 Jun 2027 09:21:20.368            52.331                Irkutsk          1635.344
       436   04 Jun 2027 09:21:34.672   04 Jun 2027 09:22:03.962            29.290                Novosib           915.313
       437   04 Jun 2027 09:22:06.433   04 Jun 2027 09:22:32.930            26.497                Norilsk           828.031
       438   04 Jun 2027 09:22:42.396   04 Jun 2027 09:22:45.717             3.321                Norilsk           103.781
       439   04 Jun 2027 09:22:58.414   04 Jun 2027 09:23:15.099            16.685              Murmansk2           521.406
       440   04 Jun 2027 09:23:20.014   04 Jun 2027 09:23:52.031            32.017                Novosib          1000.531
       441   04 Jun 2027 09:24:05.029   04 Jun 2027 09:24:21.024            15.995                Irkutsk           499.844
       442   04 Jun 2027 09:24:26.018   04 Jun 2027 09:24:48.097            22.079                Irkutsk           689.969
       443   04 Jun 2027 09:24:48.395   04 Jun 2027 09:25:14.277            25.882              Murmansk2           808.813
       444   04 Jun 2027 09:25:21.041   04 Jun 2027 09:26:15.251            54.210                 Moscow          1694.063
       445   04 Jun 2027 09:27:16.109   04 Jun 2027 09:27:19.319             3.210                 Moscow           100.313
       446   04 Jun 2027 10:04:04.683   04 Jun 2027 10:04:50.358            45.675            RioGallegos          1427.344
       447   04 Jun 2027 10:06:11.817   04 Jun 2027 10:07:15.530            63.713            RioGallegos          1991.031
       448   04 Jun 2027 10:45:13.738   04 Jun 2027 10:47:01.212           107.474                  Delhi          3358.563
       449   04 Jun 2027 10:58:07.645   04 Jun 2027 10:58:40.679            33.034                Irkutsk          1032.312
       450   04 Jun 2027 10:58:42.250   04 Jun 2027 10:58:56.419            14.169              Murmansk2           442.781
       451   04 Jun 2027 10:59:09.453   04 Jun 2027 11:00:07.248            57.795                Irkutsk          1806.094
       452   04 Jun 2027 11:00:13.495   04 Jun 2027 11:00:53.883            40.388                 Moscow          1262.125
       453   04 Jun 2027 11:01:10.263   04 Jun 2027 11:02:02.544            52.281              Murmansk2          1633.781
       454   04 Jun 2027 12:23:29.262   04 Jun 2027 12:27:02.371           213.109                  Delhi          6659.656
       455   04 Jun 2027 12:30:36.869   04 Jun 2027 12:31:46.961            70.092                 Moscow          2190.375
       456   04 Jun 2027 12:31:57.990   04 Jun 2027 12:33:14.904            76.914              Murmansk2          2403.562
       457   04 Jun 2027 12:33:48.184   04 Jun 2027 12:34:32.834            44.650              Murmansk2          1395.312
       458   04 Jun 2027 13:44:28.577   04 Jun 2027 13:46:54.810           146.233               CapeTown          4569.781
       459   04 Jun 2027 13:50:18.338   04 Jun 2027 13:51:47.916            89.578               CapeTown          2799.312
       460   04 Jun 2027 14:08:32.505   04 Jun 2027 14:09:17.993            45.488              Murmansk1          1421.500
       461   04 Jun 2027 14:09:17.993   04 Jun 2027 14:10:45.282            87.289              Murmansk2          2727.781
       462   04 Jun 2027 14:12:29.257   04 Jun 2027 14:13:06.020            36.763              Murmansk2          1148.844
       463   04 Jun 2027 14:23:22.850   04 Jun 2027 14:25:22.231           119.381                Anadyr1          3730.656
       464   04 Jun 2027 14:25:43.310   04 Jun 2027 14:27:05.543            82.233                Anadyr2          2569.781
       465   04 Jun 2027 15:47:11.143   04 Jun 2027 15:48:18.911            67.768              Murmansk2          2117.750
       466   04 Jun 2027 15:50:58.492   04 Jun 2027 15:51:21.268            22.776              Murmansk1           711.750
       467   04 Jun 2027 15:53:11.381   04 Jun 2027 15:54:00.178            48.797              Murmansk1          1524.906
       468   04 Jun 2027 15:58:37.763   04 Jun 2027 16:00:54.456           136.693                Anadyr1          4271.656
       469   04 Jun 2027 16:03:09.386   04 Jun 2027 16:03:44.469            35.083               Magadan1          1096.344
       470   04 Jun 2027 16:03:55.867   04 Jun 2027 16:05:50.812           114.945               Magadan2          3592.031
       471   04 Jun 2027 16:07:02.365   04 Jun 2027 16:07:28.276            25.911               Magadan1           809.719
       472   04 Jun 2027 17:34:29.862   04 Jun 2027 17:37:07.553           157.691                Anadyr2          4927.844
       473   04 Jun 2027 17:37:18.909   04 Jun 2027 17:39:22.223           123.314               Magadan2          3853.562
       474   04 Jun 2027 17:42:44.997   04 Jun 2027 17:43:01.914            16.917               Magadan2           528.656
       475   04 Jun 2027 17:43:07.677   04 Jun 2027 17:43:11.934             4.257               Magadan2           133.031
       476   04 Jun 2027 17:44:44.816   04 Jun 2027 17:44:50.523             5.707               Magadan1           178.344
       477   04 Jun 2027 19:10:23.730   04 Jun 2027 19:14:19.069           235.339                Anadyr2          7354.344
       478   04 Jun 2027 19:14:34.820   04 Jun 2027 19:16:47.973           133.153               Magadan2          4161.031
       479   04 Jun 2027 19:20:28.259   04 Jun 2027 19:21:41.743            73.484                Irkutsk          2296.375
       480   04 Jun 2027 20:04:45.770   04 Jun 2027 20:06:48.667           122.897            RioGallegos          3840.531
       481   04 Jun 2027 20:06:51.249   04 Jun 2027 20:08:08.605            77.356            RioGallegos          2417.375
       482   04 Jun 2027 20:48:15.208   04 Jun 2027 20:50:05.800           110.592                Norilsk          3456.000
