uniorb/output/strategy_1/Drop/Drop_KinoSat_112002.txt

KinoSat_112002
-------------------------
    Access    *     Start Time (UTCG)     *     Stop Time (UTCG)  *   Duration (s)        *       Station  *  Data (Mbytes)
         1   01 Jun 2027 03:26:55.288   01 Jun 2027 03:27:38.878            43.590               Magadan2          1362.188
         2   01 Jun 2027 03:27:50.323   01 Jun 2027 03:29:35.371           105.048                Irkutsk          3282.750
         3   01 Jun 2027 03:30:36.608   01 Jun 2027 03:32:42.347           125.739                Novosib          3929.344
         4   01 Jun 2027 03:32:51.201   01 Jun 2027 03:36:03.576           192.375                  Delhi          6011.719
         5   01 Jun 2027 03:36:14.764   01 Jun 2027 03:37:09.537            54.773                Irkutsk          1711.656
         6   01 Jun 2027 03:39:44.460   01 Jun 2027 03:41:16.455            91.995                  Delhi          2874.844
         7   01 Jun 2027 04:15:13.507   01 Jun 2027 04:15:41.218            27.711            RioGallegos           865.969
         8   01 Jun 2027 04:16:24.692   01 Jun 2027 04:19:14.903           170.211            RioGallegos          5319.094
         9   01 Jun 2027 05:05:14.206   01 Jun 2027 05:05:56.761            42.555                Irkutsk          1329.844
        10   01 Jun 2027 05:06:20.684   01 Jun 2027 05:06:31.271            10.587                Norilsk           330.844
        11   01 Jun 2027 05:06:38.330   01 Jun 2027 05:07:46.528            68.198                Irkutsk          2131.188
        12   01 Jun 2027 05:07:49.406   01 Jun 2027 05:07:58.655             9.249                Norilsk           289.031
        13   01 Jun 2027 05:08:02.084   01 Jun 2027 05:08:21.116            19.032                 Moscow           594.750
        14   01 Jun 2027 05:08:31.653   01 Jun 2027 05:11:18.015           166.362                Novosib          5198.812
        15   01 Jun 2027 05:11:54.914   01 Jun 2027 05:17:40.084           345.170                  Delhi         10786.563
        16   01 Jun 2027 06:43:46.745   01 Jun 2027 06:44:20.584            33.839                 Moscow          1057.469
        17   01 Jun 2027 06:44:32.049   01 Jun 2027 06:44:50.196            18.147                Norilsk           567.094
        18   01 Jun 2027 06:44:58.322   01 Jun 2027 06:47:37.307           158.985                 Moscow          4968.281
        19   01 Jun 2027 06:48:13.587   01 Jun 2027 06:48:35.936            22.349              Murmansk1           698.406
        20   01 Jun 2027 06:48:38.296   01 Jun 2027 06:49:32.694            54.398                 Moscow          1699.938
        21   01 Jun 2027 07:02:56.277   01 Jun 2027 07:04:13.878            77.601               CapeTown          2425.031
        22   01 Jun 2027 07:06:09.182   01 Jun 2027 07:07:15.206            66.024               CapeTown          2063.250
        23   01 Jun 2027 08:06:55.769   01 Jun 2027 08:07:37.688            41.919                Anadyr1          1309.969
        24   01 Jun 2027 08:07:55.694   01 Jun 2027 08:09:05.572            69.878               Magadan2          2183.687
        25   01 Jun 2027 08:09:15.236   01 Jun 2027 08:09:22.046             6.810                Anadyr2           212.813
        26   01 Jun 2027 08:10:45.291   01 Jun 2027 08:12:07.964            82.673                Anadyr1          2583.531
        27   01 Jun 2027 08:12:07.964   01 Jun 2027 08:12:35.055            27.091                Anadyr2           846.594
        28   01 Jun 2027 08:43:20.632   01 Jun 2027 08:48:04.909           284.277               CapeTown          8883.656
        29   01 Jun 2027 09:42:34.992   01 Jun 2027 09:46:08.220           213.228                Anadyr2          6663.375
        30   01 Jun 2027 11:17:45.204   01 Jun 2027 11:19:23.426            98.222               Magadan2          3069.438
        31   01 Jun 2027 11:19:57.988   01 Jun 2027 11:22:37.743           159.755                Anadyr1          4992.344
        32   01 Jun 2027 11:23:23.992   01 Jun 2027 11:23:51.341            27.349               Magadan2           854.656
        33   01 Jun 2027 13:35:21.060   01 Jun 2027 13:42:42.948           441.888            RioGallegos         13809.000
        34   01 Jun 2027 13:46:01.558   01 Jun 2027 13:47:04.047            62.489            RioGallegos          1952.781
        35   01 Jun 2027 14:09:41.626   01 Jun 2027 14:19:30.495           588.869                Sumatra         18402.156
        36   01 Jun 2027 14:25:45.194   01 Jun 2027 14:26:25.254            40.060                Irkutsk          1251.875
        37   01 Jun 2027 14:30:16.701   01 Jun 2027 14:31:14.804            58.103                Irkutsk          1815.719
        38   01 Jun 2027 14:31:27.861   01 Jun 2027 14:34:40.249           192.388                Irkutsk          6012.125
        39   01 Jun 2027 15:56:19.502   01 Jun 2027 15:56:58.643            39.141                  Delhi          1223.156
        40   01 Jun 2027 16:00:04.784   01 Jun 2027 16:04:23.581           258.797                  Delhi          8087.406
        41   01 Jun 2027 16:08:32.291   01 Jun 2027 16:09:25.114            52.823                Novosib          1650.719
        42   01 Jun 2027 17:51:44.348   01 Jun 2027 17:52:09.891            25.543                Norilsk           798.219
        43   01 Jun 2027 19:16:42.153   01 Jun 2027 19:22:55.752           373.599                 Moscow         11674.969
        44   01 Jun 2027 19:28:47.170   01 Jun 2027 19:30:18.908            91.738              Murmansk1          2866.813
        45   01 Jun 2027 20:33:59.994   01 Jun 2027 20:36:08.771           128.777               CapeTown          4024.281
        46   01 Jun 2027 20:37:40.678   01 Jun 2027 20:38:32.902            52.224               CapeTown          1632.000
        47   01 Jun 2027 20:59:32.079   01 Jun 2027 21:05:51.150           379.071              Murmansk1         11845.969
        48   01 Jun 2027 23:39:20.130   01 Jun 2027 23:41:27.947           127.817            RioGallegos          3994.281
        49   01 Jun 2027 23:41:38.374   01 Jun 2027 23:42:24.605            46.231            RioGallegos          1444.719
        50   02 Jun 2027 00:19:48.280   02 Jun 2027 00:21:16.259            87.979                Anadyr2          2749.344
        51   02 Jun 2027 00:21:52.498   02 Jun 2027 00:23:31.148            98.650                Norilsk          3082.812
        52   02 Jun 2027 00:24:52.060   02 Jun 2027 00:25:26.814            34.754               Magadan2          1086.063
        53   02 Jun 2027 00:25:57.723   02 Jun 2027 00:26:10.014            12.291               Magadan1           384.094
        54   02 Jun 2027 00:26:29.940   02 Jun 2027 00:27:43.456            73.516                Irkutsk          2297.375
        55   02 Jun 2027 00:28:39.626   02 Jun 2027 00:29:57.687            78.061                Irkutsk          2439.406
        56   02 Jun 2027 00:40:53.875   02 Jun 2027 00:43:45.587           171.712                Sumatra          5366.000
        57   02 Jun 2027 01:13:46.148   02 Jun 2027 01:14:04.734            18.586            RioGallegos           580.812
        58   02 Jun 2027 01:15:07.563   02 Jun 2027 01:15:49.081            41.518            RioGallegos          1297.437
        59   02 Jun 2027 01:23:19.904   02 Jun 2027 01:23:46.770            26.866            RioGallegos           839.562
        60   02 Jun 2027 01:55:04.011   02 Jun 2027 01:55:18.726            14.715                Anadyr1           459.844
        61   02 Jun 2027 01:55:53.080   02 Jun 2027 01:56:27.249            34.169                Anadyr1          1067.781
        62   02 Jun 2027 01:56:48.881   02 Jun 2027 01:57:16.154            27.273                Anadyr2           852.281
        63   02 Jun 2027 01:57:44.622   02 Jun 2027 01:59:43.591           118.969                Norilsk          3717.781
        64   02 Jun 2027 02:01:38.179   02 Jun 2027 02:04:41.666           183.487                Irkutsk          5733.969
        65   02 Jun 2027 02:10:57.508   02 Jun 2027 02:13:32.164           154.656                  Delhi          4833.000
        66   02 Jun 2027 02:15:50.354   02 Jun 2027 02:17:22.506            92.152                Sumatra          2879.750
        67   02 Jun 2027 02:20:53.010   02 Jun 2027 02:21:02.336             9.326                Sumatra           291.437
        68   02 Jun 2027 02:50:55.145   02 Jun 2027 02:52:09.769            74.624            RioGallegos          2332.000
        69   02 Jun 2027 03:38:03.997   02 Jun 2027 03:39:06.556            62.559               Magadan2          1954.969
        70   02 Jun 2027 03:40:52.777   02 Jun 2027 03:42:56.521           123.744              Murmansk2          3867.000
        71   02 Jun 2027 03:43:15.279   02 Jun 2027 03:43:21.851             6.572                Norilsk           205.375
        72   02 Jun 2027 03:43:27.845   02 Jun 2027 03:44:22.635            54.790                Norilsk          1712.188
        73   02 Jun 2027 03:44:28.270   02 Jun 2027 03:48:47.641           259.371                Irkutsk          8105.344
        74   02 Jun 2027 03:49:21.752   02 Jun 2027 03:49:55.782            34.030                Novosib          1063.437
        75   02 Jun 2027 03:51:30.629   02 Jun 2027 03:52:29.846            59.217                  Delhi          1850.531
        76   02 Jun 2027 03:54:16.179   02 Jun 2027 03:57:34.454           198.275                  Delhi          6196.094
        77   02 Jun 2027 04:27:19.534   02 Jun 2027 04:32:31.763           312.229            RioGallegos          9757.156
        78   02 Jun 2027 05:17:30.856   02 Jun 2027 05:18:22.108            51.252                Norilsk          1601.625
        79   02 Jun 2027 05:18:22.137   02 Jun 2027 05:18:47.458            25.321                Irkutsk           791.281
        80   02 Jun 2027 05:19:09.843   02 Jun 2027 05:22:10.714           180.871                Norilsk          5652.219
        81   02 Jun 2027 05:22:59.806   02 Jun 2027 05:23:24.096            24.290                Novosib           759.063
        82   02 Jun 2027 05:24:10.542   02 Jun 2027 05:28:03.063           232.521                  Delhi          7266.281
        83   02 Jun 2027 06:56:40.710   02 Jun 2027 06:57:17.240            36.530              Murmansk1          1141.563
        84   02 Jun 2027 06:57:27.516   02 Jun 2027 06:57:42.133            14.617              Murmansk2           456.781
        85   02 Jun 2027 06:57:51.665   02 Jun 2027 07:00:43.295           171.630              Murmansk2          5363.437
        86   02 Jun 2027 07:01:12.840   02 Jun 2027 07:02:06.481            53.641                 Moscow          1676.281
        87   02 Jun 2027 07:15:02.818   02 Jun 2027 07:17:50.535           167.717               CapeTown          5241.156
        88   02 Jun 2027 07:18:07.841   02 Jun 2027 07:19:36.919            89.078               CapeTown          2783.688
        89   02 Jun 2027 08:20:07.928   02 Jun 2027 08:24:02.113           234.185                Anadyr2          7318.281
        90   02 Jun 2027 08:24:02.113   02 Jun 2027 08:24:37.900            35.787                Anadyr1          1118.344
        91   02 Jun 2027 08:24:58.612   02 Jun 2027 08:26:57.971           119.359              Murmansk1          3729.969
        92   02 Jun 2027 08:28:23.103   02 Jun 2027 08:28:27.940             4.837                Norilsk           151.156
        93   02 Jun 2027 08:29:13.304   02 Jun 2027 08:29:45.949            32.645              Murmansk1          1020.156
        94   02 Jun 2027 08:33:16.696   02 Jun 2027 08:33:27.057            10.361                 Moscow           323.781
        95   02 Jun 2027 08:34:15.707   02 Jun 2027 08:35:11.497            55.790                 Moscow          1743.437
        96   02 Jun 2027 08:35:40.477   02 Jun 2027 08:36:59.817            79.340                 Moscow          2479.375
        97   02 Jun 2027 09:49:47.603   02 Jun 2027 09:50:28.504            40.901                Anadyr1          1278.156
        98   02 Jun 2027 09:53:59.769   02 Jun 2027 09:57:58.321           238.552                Anadyr2          7454.750
        99   02 Jun 2027 09:57:58.321   02 Jun 2027 09:59:45.346           107.025                Anadyr1          3344.531
       100   02 Jun 2027 11:29:31.657   02 Jun 2027 11:29:49.684            18.027               Magadan1           563.344
       101   02 Jun 2027 11:29:49.684   02 Jun 2027 11:32:58.956           189.272               Magadan2          5914.750
       102   02 Jun 2027 11:32:58.956   02 Jun 2027 11:35:02.288           123.332               Magadan1          3854.125
       103   02 Jun 2027 14:26:31.127   02 Jun 2027 14:27:29.199            58.072                Sumatra          1814.750
       104   02 Jun 2027 14:40:38.936   02 Jun 2027 14:43:17.966           159.030                Irkutsk          4969.688
       105   02 Jun 2027 14:44:11.880   02 Jun 2027 14:45:12.070            60.190                Irkutsk          1880.937
       106   02 Jun 2027 16:10:27.184   02 Jun 2027 16:13:17.288           170.104                  Delhi          5315.750
       107   02 Jun 2027 16:17:03.867   02 Jun 2027 16:17:17.339            13.472                  Delhi           421.000
       108   02 Jun 2027 16:17:57.927   02 Jun 2027 16:23:01.694           303.767                Novosib          9492.719
       109   02 Jun 2027 18:02:54.600   02 Jun 2027 18:03:50.485            55.885                Norilsk          1746.406
       110   02 Jun 2027 19:30:58.594   02 Jun 2027 19:36:33.375           334.781                 Moscow         10461.906
       111   02 Jun 2027 19:41:12.223   02 Jun 2027 19:42:04.238            52.015              Murmansk2          1625.469
       112   02 Jun 2027 20:44:08.574   02 Jun 2027 20:45:13.335            64.761               CapeTown          2023.781
       113   02 Jun 2027 20:48:21.330   02 Jun 2027 20:50:40.863           139.533               CapeTown          4360.406
       114   02 Jun 2027 21:12:25.272   02 Jun 2027 21:17:39.747           314.475              Murmansk2          9827.344
       115   03 Jun 2027 00:37:45.774   03 Jun 2027 00:38:03.357            17.583               Magadan2           549.469
       116   03 Jun 2027 00:38:18.621   03 Jun 2027 00:38:53.120            34.499                Irkutsk          1078.094
       117   03 Jun 2027 00:39:11.063   03 Jun 2027 00:39:43.463            32.400                Irkutsk          1012.500
       118   03 Jun 2027 00:40:43.730   03 Jun 2027 00:41:52.639            68.909                Irkutsk          2153.406
       119   03 Jun 2027 00:46:44.605   03 Jun 2027 00:47:46.004            61.399                Irkutsk          1918.719
       120   03 Jun 2027 00:52:24.150   03 Jun 2027 00:52:53.559            29.409                Sumatra           919.031
       121   03 Jun 2027 00:55:35.295   03 Jun 2027 00:56:20.768            45.473                Sumatra          1421.031
       122   03 Jun 2027 00:59:07.917   03 Jun 2027 01:00:46.063            98.146                Sumatra          3067.063
       123   03 Jun 2027 01:34:21.454   03 Jun 2027 01:34:58.848            37.394            RioGallegos          1168.562
       124   03 Jun 2027 01:37:21.764   03 Jun 2027 01:37:34.084            12.320            RioGallegos           385.000
       125   03 Jun 2027 01:38:14.528   03 Jun 2027 01:38:36.922            22.394            RioGallegos           699.813
       126   03 Jun 2027 02:06:47.386   03 Jun 2027 02:06:57.888            10.502                Anadyr1           328.187
       127   03 Jun 2027 02:07:16.195   03 Jun 2027 02:07:49.019            32.824                Anadyr1          1025.750
       128   03 Jun 2027 02:09:10.385   03 Jun 2027 02:09:44.866            34.481                Anadyr1          1077.531
       129   03 Jun 2027 02:09:47.006   03 Jun 2027 02:10:42.801            55.795                Norilsk          1743.594
       130   03 Jun 2027 02:13:05.734   03 Jun 2027 02:13:30.378            24.644                Norilsk           770.125
       131   03 Jun 2027 02:13:39.717   03 Jun 2027 02:15:27.246           107.529                Irkutsk          3360.281
       132   03 Jun 2027 02:18:40.217   03 Jun 2027 02:18:53.236            13.019                Novosib           406.844
       133   03 Jun 2027 02:20:28.839   03 Jun 2027 02:20:40.782            11.943                Irkutsk           373.219
       134   03 Jun 2027 02:21:20.341   03 Jun 2027 02:22:10.261            49.920                Novosib          1560.000
       135   03 Jun 2027 02:25:55.913   03 Jun 2027 02:25:58.656             2.743                Irkutsk            85.719
       136   03 Jun 2027 02:26:55.530   03 Jun 2027 02:27:29.313            33.783                  Delhi          1055.719
       137   03 Jun 2027 02:28:13.713   03 Jun 2027 02:38:13.179           599.466                Sumatra         18733.312
       138   03 Jun 2027 03:50:24.576   03 Jun 2027 03:50:35.271            10.695               Magadan2           334.219
       139   03 Jun 2027 03:51:54.578   03 Jun 2027 03:52:54.194            59.616                Norilsk          1863.000
       140   03 Jun 2027 03:52:59.261   03 Jun 2027 03:53:34.288            35.027                Norilsk          1094.594
       141   03 Jun 2027 03:53:36.186   03 Jun 2027 03:55:55.587           139.401                Irkutsk          4356.281
       142   03 Jun 2027 03:56:15.170   03 Jun 2027 04:00:22.361           247.191                Irkutsk          7724.719
       143   03 Jun 2027 04:01:07.650   03 Jun 2027 04:01:47.572            39.922                  Delhi          1247.562
       144   03 Jun 2027 04:03:10.744   03 Jun 2027 04:05:37.148           146.404                  Delhi          4575.125
       145   03 Jun 2027 04:39:58.175   03 Jun 2027 04:43:28.849           210.674            RioGallegos          6583.562
       146   03 Jun 2027 05:29:58.450   03 Jun 2027 05:31:00.183            61.733                 Moscow          1929.156
       147   03 Jun 2027 05:31:14.527   03 Jun 2027 05:34:03.838           169.311                Norilsk          5290.969
       148   03 Jun 2027 05:34:12.400   03 Jun 2027 05:36:17.610           125.210                Novosib          3912.813
       149   03 Jun 2027 05:38:13.622   03 Jun 2027 05:39:16.863            63.241                 Moscow          1976.281
       150   03 Jun 2027 07:08:05.058   03 Jun 2027 07:08:34.684            29.626              Murmansk1           925.813
       151   03 Jun 2027 07:08:44.724   03 Jun 2027 07:12:43.563           238.839                 Moscow          7463.719
       152   03 Jun 2027 07:27:14.843   03 Jun 2027 07:32:06.202           291.359               CapeTown          9104.969
       153   03 Jun 2027 07:36:07.941   03 Jun 2027 07:37:02.772            54.831               CapeTown          1713.469
       154   03 Jun 2027 08:31:38.412   03 Jun 2027 08:36:39.339           300.927                Anadyr2          9403.969
       155   03 Jun 2027 10:03:09.668   03 Jun 2027 10:04:00.399            50.731                Anadyr1          1585.344
       156   03 Jun 2027 10:06:24.925   03 Jun 2027 10:07:44.515            79.590                Anadyr2          2487.187
       157   03 Jun 2027 10:07:47.541   03 Jun 2027 10:12:17.586           270.045                Anadyr2          8438.906
       158   03 Jun 2027 11:38:11.070   03 Jun 2027 11:41:15.697           184.627               Magadan2          5769.594
       159   03 Jun 2027 11:41:38.109   03 Jun 2027 11:43:11.834            93.725               Magadan2          2928.906
       160   03 Jun 2027 11:43:27.001   03 Jun 2027 11:47:39.862           252.861               Magadan2          7901.906
       161   03 Jun 2027 14:35:37.998   03 Jun 2027 14:36:49.216            71.218                Sumatra          2225.563
       162   03 Jun 2027 14:37:33.072   03 Jun 2027 14:40:48.592           195.520                Sumatra          6110.000
       163   03 Jun 2027 14:49:57.124   03 Jun 2027 14:56:44.412           407.288                Irkutsk         12727.750
       164   03 Jun 2027 16:21:17.378   03 Jun 2027 16:28:45.115           447.737                  Delhi         13991.781
       165   03 Jun 2027 16:29:17.332   03 Jun 2027 16:35:37.103           379.771                Novosib         11867.844
       166   03 Jun 2027 19:42:25.368   03 Jun 2027 19:49:11.535           406.167                 Moscow         12692.719
       167   03 Jun 2027 20:54:46.952   03 Jun 2027 20:58:06.444           199.492               CapeTown          6234.125
       168   03 Jun 2027 21:25:28.590   03 Jun 2027 21:29:20.314           231.724              Murmansk1          7241.375
       169   04 Jun 2027 00:02:40.723   04 Jun 2027 00:03:51.409            70.686            RioGallegos          2208.938
       170   04 Jun 2027 00:07:57.375   04 Jun 2027 00:08:10.567            13.192            RioGallegos           412.250
       171   04 Jun 2027 00:08:31.950   04 Jun 2027 00:09:00.489            28.539            RioGallegos           891.844
       172   04 Jun 2027 00:11:21.097   04 Jun 2027 00:12:05.025            43.928            RioGallegos          1372.750
       173   04 Jun 2027 00:43:44.925   04 Jun 2027 00:45:09.765            84.840                Anadyr1          2651.250
       174   04 Jun 2027 00:45:12.663   04 Jun 2027 00:45:29.092            16.429                Anadyr2           513.406
       175   04 Jun 2027 00:45:52.520   04 Jun 2027 00:47:06.968            74.448                Norilsk          2326.500
       176   04 Jun 2027 00:48:30.230   04 Jun 2027 00:49:24.450            54.220               Magadan1          1694.375
       177   04 Jun 2027 00:49:48.011   04 Jun 2027 00:50:06.039            18.028               Magadan1           563.375
       178   04 Jun 2027 00:50:10.250   04 Jun 2027 00:50:56.003            45.753                Irkutsk          1429.781
       179   04 Jun 2027 00:51:04.992   04 Jun 2027 00:51:20.313            15.321                Irkutsk           478.781
       180   04 Jun 2027 00:51:42.377   04 Jun 2027 00:51:44.779             2.402                Irkutsk            75.062
       181   04 Jun 2027 00:52:34.851   04 Jun 2027 00:53:49.243            74.392                Irkutsk          2324.750
       182   04 Jun 2027 00:58:40.481   04 Jun 2027 00:58:51.522            11.041                Irkutsk           345.031
       183   04 Jun 2027 00:59:39.485   04 Jun 2027 01:00:46.062            66.577                Irkutsk          2080.531
       184   04 Jun 2027 01:04:03.157   04 Jun 2027 01:04:50.633            47.476                Sumatra          1483.625
       185   04 Jun 2027 01:08:02.857   04 Jun 2027 01:08:12.062             9.205                Sumatra           287.656
       186   04 Jun 2027 01:10:27.584   04 Jun 2027 01:10:34.405             6.821                Sumatra           213.156
       187   04 Jun 2027 01:10:39.414   04 Jun 2027 01:11:31.907            52.493                Sumatra          1640.406
       188   04 Jun 2027 01:41:43.245   04 Jun 2027 01:42:04.148            20.903            RioGallegos           653.219
       189   04 Jun 2027 01:44:54.632   04 Jun 2027 01:45:06.232            11.600            RioGallegos           362.500
       190   04 Jun 2027 01:45:41.421   04 Jun 2027 01:46:28.957            47.536            RioGallegos          1485.500
       191   04 Jun 2027 02:19:06.460   04 Jun 2027 02:19:50.699            44.239                Anadyr1          1382.469
       192   04 Jun 2027 02:20:56.689   04 Jun 2027 02:21:18.643            21.954                Anadyr2           686.062
       193   04 Jun 2027 02:21:39.173   04 Jun 2027 02:21:41.545             2.372                Anadyr1            74.125
       194   04 Jun 2027 02:21:49.454   04 Jun 2027 02:22:34.706            45.252                Norilsk          1414.125
       195   04 Jun 2027 02:23:21.675   04 Jun 2027 02:23:23.384             1.709                Norilsk            53.406
       196   04 Jun 2027 02:23:25.799   04 Jun 2027 02:23:53.097            27.298                Norilsk           853.062
       197   04 Jun 2027 02:25:42.097   04 Jun 2027 02:27:51.131           129.034                Irkutsk          4032.313
       198   04 Jun 2027 02:31:34.433   04 Jun 2027 02:31:52.853            18.420                Novosib           575.625
       199   04 Jun 2027 02:33:54.730   04 Jun 2027 02:34:21.933            27.203                  Delhi           850.094
       200   04 Jun 2027 02:36:50.908   04 Jun 2027 02:37:08.878            17.970                  Delhi           561.563
       201   04 Jun 2027 02:40:46.913   04 Jun 2027 02:48:06.118           439.205                Sumatra         13725.156
       202   04 Jun 2027 04:02:42.418   04 Jun 2027 04:02:58.949            16.531                Irkutsk           516.594
       203   04 Jun 2027 04:03:53.642   04 Jun 2027 04:04:00.316             6.674              Murmansk2           208.563
       204   04 Jun 2027 04:04:21.924   04 Jun 2027 04:11:53.507           451.583                Irkutsk         14111.969
       205   04 Jun 2027 04:11:53.687   04 Jun 2027 04:12:17.481            23.794                Novosib           743.563
       206   04 Jun 2027 04:12:36.335   04 Jun 2027 04:13:33.809            57.474                Novosib          1796.062
       207   04 Jun 2027 04:16:46.268   04 Jun 2027 04:18:57.101           130.833                  Delhi          4088.531
       208   04 Jun 2027 05:42:51.089   04 Jun 2027 05:45:56.078           184.989                Norilsk          5780.906
       209   04 Jun 2027 05:46:03.002   04 Jun 2027 05:46:55.359            52.357              Murmansk1          1636.156
       210   04 Jun 2027 05:47:02.560   04 Jun 2027 05:47:34.738            32.178              Murmansk2          1005.563
       211   04 Jun 2027 05:47:38.204   04 Jun 2027 05:47:51.556            13.352                Novosib           417.250
       212   04 Jun 2027 05:47:56.743   04 Jun 2027 05:48:43.247            46.504                 Moscow          1453.250
       213   04 Jun 2027 06:03:56.911   04 Jun 2027 06:05:51.524           114.613               CapeTown          3581.656
       214   04 Jun 2027 07:19:57.611   04 Jun 2027 07:20:16.357            18.746                Norilsk           585.813
       215   04 Jun 2027 07:20:27.558   04 Jun 2027 07:22:56.954           149.396              Murmansk2          4668.625
       216   04 Jun 2027 07:22:59.762   04 Jun 2027 07:24:40.158           100.396                 Moscow          3137.375
       217   04 Jun 2027 07:27:41.368   04 Jun 2027 07:27:45.657             4.289                 Moscow           134.031
       218   04 Jun 2027 07:39:32.874   04 Jun 2027 07:44:45.010           312.136               CapeTown          9754.250
       219   04 Jun 2027 08:42:37.417   04 Jun 2027 08:43:14.140            36.723               Magadan1          1147.594
       220   04 Jun 2027 08:44:23.556   04 Jun 2027 08:45:04.088            40.532                Anadyr2          1266.625
       221   04 Jun 2027 08:45:20.385   04 Jun 2027 08:45:25.575             5.190               Magadan1           162.187
       222   04 Jun 2027 08:45:48.911   04 Jun 2027 08:46:33.988            45.077               Magadan1          1408.656
       223   04 Jun 2027 08:46:44.734   04 Jun 2027 08:47:42.423            57.689                Anadyr2          1802.781
       224   04 Jun 2027 08:58:50.098   04 Jun 2027 08:59:46.657            56.559                 Moscow          1767.469
       225   04 Jun 2027 10:14:51.639   04 Jun 2027 10:24:13.130           561.491                Anadyr1         17546.594
       226   04 Jun 2027 11:50:11.352   04 Jun 2027 11:53:22.017           190.665               Magadan1          5958.281
       227   04 Jun 2027 11:53:22.017   04 Jun 2027 11:56:28.296           186.279               Magadan2          5821.219
       228   04 Jun 2027 11:56:28.296   04 Jun 2027 11:59:30.810           182.514               Magadan1          5703.562
       229   04 Jun 2027 14:16:09.296   04 Jun 2027 14:19:00.354           171.058            RioGallegos          5345.563
       230   04 Jun 2027 14:47:08.498   04 Jun 2027 14:56:02.997           534.499                Sumatra         16703.094
       231   04 Jun 2027 15:03:01.868   04 Jun 2027 15:10:15.877           434.009                Irkutsk         13562.781
       232   04 Jun 2027 16:32:39.692   04 Jun 2027 16:39:57.886           438.194                  Delhi         13693.563
       233   04 Jun 2027 16:41:08.944   04 Jun 2027 16:47:34.044           385.100                Novosib         12034.375
       234   04 Jun 2027 19:55:40.739   04 Jun 2027 20:00:30.721           289.982                 Moscow          9061.937
       235   04 Jun 2027 20:00:40.527   04 Jun 2027 20:01:58.273            77.746              Murmansk1          2429.563
       236   04 Jun 2027 21:05:23.580   04 Jun 2027 21:13:16.271           472.691               CapeTown         14771.594
       237   04 Jun 2027 21:39:01.225   04 Jun 2027 21:40:33.620            92.395              Murmansk2          2887.344
       238   05 Jun 2027 00:55:42.156   05 Jun 2027 00:56:20.070            37.914                Anadyr1          1184.812
       239   05 Jun 2027 00:57:53.431   05 Jun 2027 00:58:21.539            28.108                Norilsk           878.375
       240   05 Jun 2027 00:58:26.374   05 Jun 2027 00:59:36.164            69.790               Magadan2          2180.938
       241   05 Jun 2027 01:00:19.193   05 Jun 2027 01:00:24.345             5.152               Magadan2           161.000
       242   05 Jun 2027 01:00:53.268   05 Jun 2027 01:01:48.019            54.751               Magadan2          1710.969
       243   05 Jun 2027 01:02:04.171   05 Jun 2027 01:02:14.526            10.355                Irkutsk           323.594
       244   05 Jun 2027 01:03:13.228   05 Jun 2027 01:03:46.767            33.539                Irkutsk          1048.094
       245   05 Jun 2027 01:03:51.756   05 Jun 2027 01:04:49.361            57.605                Novosib          1800.156
       246   05 Jun 2027 01:05:22.515   05 Jun 2027 01:05:40.866            18.351                Novosib           573.469
       247   05 Jun 2027 01:05:58.443   05 Jun 2027 01:06:13.809            15.366                Novosib           480.187
       248   05 Jun 2027 01:15:49.310   05 Jun 2027 01:18:35.288           165.978                Sumatra          5186.813
       249   05 Jun 2027 01:23:48.342   05 Jun 2027 01:24:43.435            55.093                Sumatra          1721.656
       250   05 Jun 2027 02:30:25.084   05 Jun 2027 02:31:07.817            42.733                Anadyr1          1335.406
       251   05 Jun 2027 02:32:44.284   05 Jun 2027 02:32:50.452             6.168                Anadyr2           192.750
       252   05 Jun 2027 02:33:10.121   05 Jun 2027 02:33:22.571            12.450                Anadyr2           389.062
       253   05 Jun 2027 02:33:51.948   05 Jun 2027 02:34:54.476            62.528                Norilsk          1954.000
       254   05 Jun 2027 02:35:05.138   05 Jun 2027 02:35:23.621            18.483               Magadan2           577.594
       255   05 Jun 2027 02:36:49.841   05 Jun 2027 02:36:52.217             2.376               Magadan1            74.250
       256   05 Jun 2027 02:37:31.473   05 Jun 2027 02:37:49.252            17.779                Norilsk           555.594
       257   05 Jun 2027 02:37:51.115   05 Jun 2027 02:39:53.062           121.947                Novosib          3810.844
       258   05 Jun 2027 02:40:24.667   05 Jun 2027 02:40:53.344            28.677                Irkutsk           896.156
       259   05 Jun 2027 02:43:44.757   05 Jun 2027 02:44:12.804            28.047                Irkutsk           876.469
       260   05 Jun 2027 02:45:36.140   05 Jun 2027 02:46:10.664            34.524                  Delhi          1078.875
       261   05 Jun 2027 02:53:34.730   05 Jun 2027 03:01:34.430           479.700                Sumatra         14990.625
       262   05 Jun 2027 04:15:01.203   05 Jun 2027 04:16:03.885            62.682                Irkutsk          1958.813
       263   05 Jun 2027 04:17:32.220   05 Jun 2027 04:18:38.719            66.499              Murmansk2          2078.094
       264   05 Jun 2027 04:18:52.926   05 Jun 2027 04:22:48.985           236.059                Irkutsk          7376.844
       265   05 Jun 2027 04:23:16.775   05 Jun 2027 04:24:04.906            48.131                Novosib          1504.094
       266   05 Jun 2027 04:24:23.399   05 Jun 2027 04:26:13.392           109.993                Novosib          3437.281
       267   05 Jun 2027 05:54:48.355   05 Jun 2027 05:55:40.540            52.185                Novosib          1630.781
       268   05 Jun 2027 05:55:51.887   05 Jun 2027 05:56:42.234            50.347                Norilsk          1573.344
       269   05 Jun 2027 05:56:57.067   05 Jun 2027 05:57:47.506            50.439                Norilsk          1576.219
       270   05 Jun 2027 05:57:54.019   05 Jun 2027 06:00:07.609           133.590              Murmansk2          4174.687
       271   05 Jun 2027 06:00:49.616   05 Jun 2027 06:03:49.603           179.987                 Moscow          5624.594
       272   05 Jun 2027 06:15:37.824   05 Jun 2027 06:19:04.445           206.621               CapeTown          6456.906
       273   05 Jun 2027 06:20:03.491   05 Jun 2027 06:22:15.301           131.810               CapeTown          4119.063
       274   05 Jun 2027 07:22:12.409   05 Jun 2027 07:22:37.657            25.248                Anadyr2           789.000
       275   05 Jun 2027 07:30:37.361   05 Jun 2027 07:33:02.090           144.729                 Moscow          4522.781
       276   05 Jun 2027 07:33:14.167   05 Jun 2027 07:33:17.215             3.048                 Moscow            95.250
       277   05 Jun 2027 07:36:18.958   05 Jun 2027 07:36:30.704            11.746                 Moscow           367.063
       278   05 Jun 2027 07:37:58.452   05 Jun 2027 07:38:14.268            15.816                 Moscow           494.250
       279   05 Jun 2027 07:51:57.771   05 Jun 2027 07:54:29.983           152.212               CapeTown          4756.625
       280   05 Jun 2027 07:56:37.899   05 Jun 2027 08:01:57.442           319.543               CapeTown          9985.719
       281   05 Jun 2027 08:53:23.015   05 Jun 2027 08:53:45.416            22.401               Magadan1           700.031
       282   05 Jun 2027 08:54:00.945   05 Jun 2027 08:54:07.050             6.105               Magadan1           190.781
       283   05 Jun 2027 08:54:43.868   05 Jun 2027 08:55:16.856            32.988               Magadan1          1030.875
       284   05 Jun 2027 08:56:16.312   05 Jun 2027 08:58:06.028           109.716                Anadyr1          3428.625
       285   05 Jun 2027 08:59:25.496   05 Jun 2027 09:00:41.436            75.940                Anadyr2          2373.125
       286   05 Jun 2027 10:27:29.813   05 Jun 2027 10:33:31.240           361.427                Anadyr1         11294.594
       287   05 Jun 2027 10:34:03.146   05 Jun 2027 10:36:16.786           133.640               Magadan2          4176.250
       288   05 Jun 2027 12:02:05.465   05 Jun 2027 12:02:23.356            17.891                Irkutsk           559.094
       289   05 Jun 2027 12:02:53.717   05 Jun 2027 12:11:18.417           504.700               Magadan2         15771.875
       290   05 Jun 2027 13:41:54.646   05 Jun 2027 13:42:48.514            53.868                Novosib          1683.375
       291   05 Jun 2027 13:51:32.494   05 Jun 2027 13:51:49.308            16.814                Norilsk           525.437
       292   05 Jun 2027 14:25:35.773   05 Jun 2027 14:32:35.083           419.310            RioGallegos         13103.437
       293   05 Jun 2027 15:00:07.557   05 Jun 2027 15:06:59.027           411.470                Sumatra         12858.438
       294   05 Jun 2027 15:16:00.067   05 Jun 2027 15:21:37.663           337.596                Irkutsk         10549.875
       295   05 Jun 2027 16:46:16.089   05 Jun 2027 16:50:36.195           260.106                  Delhi          8128.312
       296   05 Jun 2027 16:54:30.748   05 Jun 2027 16:58:47.482           256.734                Novosib          8022.938
       297   05 Jun 2027 20:09:50.827   05 Jun 2027 20:10:40.521            49.694              Murmansk2          1552.937
       298   05 Jun 2027 20:11:43.866   05 Jun 2027 20:12:03.493            19.627              Murmansk2           613.344
       299   05 Jun 2027 20:12:37.750   05 Jun 2027 20:15:28.903           171.153              Murmansk2          5348.531
       300   05 Jun 2027 20:16:08.479   05 Jun 2027 20:16:37.097            28.618              Murmansk2           894.313
       301   05 Jun 2027 21:17:42.782   05 Jun 2027 21:24:13.842           391.060               CapeTown         12220.625
       302   05 Jun 2027 23:32:06.453   05 Jun 2027 23:34:42.332           155.879                Anadyr1          4871.219
       303   05 Jun 2027 23:34:46.322   05 Jun 2027 23:36:47.284           120.962               Magadan2          3780.062
       304   05 Jun 2027 23:37:56.439   05 Jun 2027 23:38:06.156             9.717               Magadan1           303.656
       305   05 Jun 2027 23:39:06.943   05 Jun 2027 23:39:26.800            19.857               Magadan1           620.531
       306   05 Jun 2027 23:40:41.152   05 Jun 2027 23:41:31.385            50.233                Irkutsk          1569.781
       307   05 Jun 2027 23:42:06.459   05 Jun 2027 23:42:19.835            13.376                Irkutsk           418.000
       308   05 Jun 2027 23:43:47.643   05 Jun 2027 23:44:49.597            61.954                Irkutsk          1936.063
       309   06 Jun 2027 00:26:19.589   06 Jun 2027 00:28:39.935           140.346            RioGallegos          4385.812
       310   06 Jun 2027 00:31:41.070   06 Jun 2027 00:31:45.901             4.831            RioGallegos           150.969
       311   06 Jun 2027 00:32:45.984   06 Jun 2027 00:33:33.095            47.111            RioGallegos          1472.219
       312   06 Jun 2027 01:07:38.536   06 Jun 2027 01:08:02.165            23.629                Anadyr1           738.406
       313   06 Jun 2027 01:08:25.961   06 Jun 2027 01:09:05.766            39.805                Anadyr2          1243.906
       314   06 Jun 2027 01:09:54.769   06 Jun 2027 01:11:56.876           122.107                Norilsk          3815.844
       315   06 Jun 2027 01:12:01.483   06 Jun 2027 01:12:07.821             6.338               Magadan1           198.062
       316   06 Jun 2027 01:12:20.834   06 Jun 2027 01:12:22.931             2.097               Magadan1            65.531
       317   06 Jun 2027 01:13:09.115   06 Jun 2027 01:13:34.367            25.252                Norilsk           789.125
       318   06 Jun 2027 01:13:37.453   06 Jun 2027 01:13:51.900            14.447               Magadan1           451.469
       319   06 Jun 2027 01:13:59.934   06 Jun 2027 01:15:49.566           109.632                Irkutsk          3426.000
       320   06 Jun 2027 01:17:40.970   06 Jun 2027 01:18:06.041            25.071                Novosib           783.469
       321   06 Jun 2027 01:19:00.220   06 Jun 2027 01:20:37.020            96.800                Irkutsk          3025.000
       322   06 Jun 2027 01:27:41.718   06 Jun 2027 01:28:26.721            45.003                Sumatra          1406.344
       323   06 Jun 2027 01:30:45.427   06 Jun 2027 01:31:01.084            15.657                Sumatra           489.281
       324   06 Jun 2027 01:39:56.781   06 Jun 2027 01:40:23.429            26.648                Sumatra           832.750
       325   06 Jun 2027 02:02:26.824   06 Jun 2027 02:02:49.010            22.186            RioGallegos           693.312
       326   06 Jun 2027 02:05:27.632   06 Jun 2027 02:05:51.899            24.267            RioGallegos           758.344
       327   06 Jun 2027 02:10:59.595   06 Jun 2027 02:11:27.387            27.792            RioGallegos           868.500
       328   06 Jun 2027 02:13:59.894   06 Jun 2027 02:14:34.668            34.774            RioGallegos          1086.687
       329   06 Jun 2027 02:45:03.716   06 Jun 2027 02:45:06.101             2.385                Anadyr2            74.531
       330   06 Jun 2027 02:45:18.043   06 Jun 2027 02:45:23.451             5.408                Anadyr2           169.000
       331   06 Jun 2027 02:45:30.773   06 Jun 2027 02:45:33.500             2.727                Anadyr2            85.219
       332   06 Jun 2027 02:45:54.452   06 Jun 2027 02:47:28.470            94.018                Norilsk          2938.062
       333   06 Jun 2027 02:49:45.773   06 Jun 2027 02:49:51.622             5.849                Norilsk           182.781
       334   06 Jun 2027 02:49:58.329   06 Jun 2027 02:51:58.783           120.454                Novosib          3764.187
       335   06 Jun 2027 02:52:05.313   06 Jun 2027 02:52:24.744            19.431                Irkutsk           607.219
       336   06 Jun 2027 02:53:22.872   06 Jun 2027 02:54:10.039            47.167                Irkutsk          1473.969
       337   06 Jun 2027 02:57:23.136   06 Jun 2027 02:57:56.824            33.688                  Delhi          1052.750
       338   06 Jun 2027 02:59:48.183   06 Jun 2027 03:01:42.470           114.287                  Delhi          3571.469
       339   06 Jun 2027 03:06:51.331   06 Jun 2027 03:12:12.410           321.079                Sumatra         10033.719
       340   06 Jun 2027 04:26:36.370   06 Jun 2027 04:26:46.258             9.888                Irkutsk           309.000
       341   06 Jun 2027 04:27:42.476   06 Jun 2027 04:30:18.053           155.577                Irkutsk          4861.781
       342   06 Jun 2027 04:30:23.625   06 Jun 2027 04:30:51.470            27.845                Irkutsk           870.156
       343   06 Jun 2027 04:31:15.966   06 Jun 2027 04:31:54.140            38.174                Irkutsk          1192.938
       344   06 Jun 2027 04:32:38.268   06 Jun 2027 04:33:25.249            46.981              Murmansk2          1468.156
       345   06 Jun 2027 04:33:25.249   06 Jun 2027 04:33:36.091            10.842              Murmansk1           338.813
       346   06 Jun 2027 04:33:37.999   06 Jun 2027 04:35:19.286           101.287                  Delhi          3165.219
       347   06 Jun 2027 04:37:18.706   06 Jun 2027 04:38:46.588            87.882                  Delhi          2746.312
       348   06 Jun 2027 06:07:49.811   06 Jun 2027 06:09:45.767           115.956              Murmansk2          3623.625
       349   06 Jun 2027 06:09:59.913   06 Jun 2027 06:10:29.018            29.105                 Moscow           909.531
       350   06 Jun 2027 06:10:40.603   06 Jun 2027 06:12:22.213           101.610              Murmansk1          3175.313
       351   06 Jun 2027 06:12:28.097   06 Jun 2027 06:16:00.679           212.582                 Moscow          6643.187
       352   06 Jun 2027 06:27:24.288   06 Jun 2027 06:28:28.191            63.903               CapeTown          1996.969
       353   06 Jun 2027 06:29:55.234   06 Jun 2027 06:30:56.623            61.389               CapeTown          1918.406
       354   06 Jun 2027 06:34:17.742   06 Jun 2027 06:34:48.943            31.201               CapeTown           975.031
       355   06 Jun 2027 07:31:54.934   06 Jun 2027 07:32:54.343            59.409                Anadyr1          1856.531
       356   06 Jun 2027 07:32:54.343   06 Jun 2027 07:34:06.534            72.191                Anadyr2          2255.969
       357   06 Jun 2027 07:34:36.433   06 Jun 2027 07:35:10.489            34.056               Magadan2          1064.250
       358   06 Jun 2027 07:42:17.036   06 Jun 2027 07:42:24.509             7.473                Norilsk           233.531
       359   06 Jun 2027 07:42:29.202   06 Jun 2027 07:44:09.125            99.923              Murmansk1          3122.594
       360   06 Jun 2027 07:46:56.849   06 Jun 2027 07:47:23.190            26.341                 Moscow           823.156
       361   06 Jun 2027 07:47:35.231   06 Jun 2027 07:48:00.399            25.168                 Moscow           786.500
       362   06 Jun 2027 08:04:30.968   06 Jun 2027 08:10:52.478           381.510               CapeTown         11922.188
       363   06 Jun 2027 09:05:21.150   06 Jun 2027 09:06:58.231            97.081                Anadyr2          3033.781
       364   06 Jun 2027 09:06:58.231   06 Jun 2027 09:09:51.591           173.360                Anadyr1          5417.500
       365   06 Jun 2027 10:40:01.954   06 Jun 2027 10:40:37.165            35.211               Magadan2          1100.344
       366   06 Jun 2027 10:40:46.720   06 Jun 2027 10:43:06.445           139.725               Magadan1          4366.406
       367   06 Jun 2027 10:43:34.441   06 Jun 2027 10:47:57.833           263.392                Anadyr2          8231.000
       368   06 Jun 2027 12:13:24.144   06 Jun 2027 12:13:30.751             6.607                Irkutsk           206.469
       369   06 Jun 2027 12:14:28.303   06 Jun 2027 12:15:11.714            43.411                Irkutsk          1356.594
       370   06 Jun 2027 12:15:43.848   06 Jun 2027 12:23:01.041           437.193               Magadan1         13662.281
       371   06 Jun 2027 13:47:44.941   06 Jun 2027 13:50:19.485           154.544                Irkutsk          4829.500
       372   06 Jun 2027 14:38:31.079   06 Jun 2027 14:45:45.625           434.546            RioGallegos         13579.562
       373   06 Jun 2027 15:14:01.853   06 Jun 2027 15:16:58.751           176.898                Sumatra          5528.063
       374   06 Jun 2027 15:29:54.043   06 Jun 2027 15:32:18.377           144.334                Irkutsk          4510.438
       375   06 Jun 2027 17:09:19.699   06 Jun 2027 17:11:16.051           116.352                Norilsk          3636.000
       376   06 Jun 2027 18:39:24.147   06 Jun 2027 18:40:07.336            43.189                 Moscow          1349.656
       377   06 Jun 2027 18:41:11.717   06 Jun 2027 18:43:52.883           161.166                 Moscow          5036.437
       378   06 Jun 2027 18:46:56.490   06 Jun 2027 18:47:06.878            10.388              Murmansk1           324.625
       379   06 Jun 2027 18:47:50.627   06 Jun 2027 18:49:19.876            89.249                 Moscow          2789.031
       380   06 Jun 2027 19:51:43.397   06 Jun 2027 19:53:52.059           128.662               CapeTown          4020.687
       381   06 Jun 2027 19:59:16.921   06 Jun 2027 20:00:03.287            46.366               CapeTown          1448.938
       382   06 Jun 2027 20:21:45.934   06 Jun 2027 20:23:06.972            81.038              Murmansk2          2532.438
       383   06 Jun 2027 20:23:07.942   06 Jun 2027 20:30:23.590           435.648              Murmansk1         13614.000
       384   06 Jun 2027 21:30:53.096   06 Jun 2027 21:34:39.240           226.144               CapeTown          7067.000
       385   06 Jun 2027 22:12:48.737   06 Jun 2027 22:13:05.836            17.099               Magadan1           534.344
       386   06 Jun 2027 22:19:20.571   06 Jun 2027 22:19:29.523             8.952               Magadan1           279.750
       387   06 Jun 2027 23:44:07.004   06 Jun 2027 23:47:57.196           230.192                Anadyr1          7193.500
       388   06 Jun 2027 23:47:58.366   06 Jun 2027 23:50:14.774           136.408                Norilsk          4262.750
       389   06 Jun 2027 23:50:58.258   06 Jun 2027 23:51:48.023            49.765               Magadan1          1555.156
       390   06 Jun 2027 23:51:50.216   06 Jun 2027 23:52:15.284            25.068               Magadan2           783.375
       391   06 Jun 2027 23:53:04.767   06 Jun 2027 23:54:06.858            62.091                Irkutsk          1940.344
       392   06 Jun 2027 23:54:26.811   06 Jun 2027 23:54:53.480            26.669                Irkutsk           833.406
       393   06 Jun 2027 23:56:48.880   06 Jun 2027 23:58:05.423            76.543                Irkutsk          2391.969
       394   07 Jun 2027 00:08:23.368   07 Jun 2027 00:09:15.605            52.237                Sumatra          1632.406
       395   07 Jun 2027 00:10:56.615   07 Jun 2027 00:11:57.005            60.390                Sumatra          1887.188
       396   07 Jun 2027 00:39:54.927   07 Jun 2027 00:40:17.326            22.399            RioGallegos           699.969
       397   07 Jun 2027 00:43:25.353   07 Jun 2027 00:43:45.205            19.852            RioGallegos           620.375
       398   07 Jun 2027 00:46:38.834   07 Jun 2027 00:47:11.024            32.190            RioGallegos          1005.938
       399   07 Jun 2027 01:19:33.962   07 Jun 2027 01:19:44.944            10.982                Anadyr1           343.188
       400   07 Jun 2027 01:19:50.116   07 Jun 2027 01:20:05.653            15.537                Anadyr2           485.531
       401   07 Jun 2027 01:20:57.635   07 Jun 2027 01:21:31.389            33.754                Anadyr2          1054.812
       402   07 Jun 2027 01:21:56.436   07 Jun 2027 01:23:59.237           122.801                Norilsk          3837.531
       403   07 Jun 2027 01:24:19.083   07 Jun 2027 01:25:45.416            86.333               Magadan1          2697.906
       404   07 Jun 2027 01:25:57.213   07 Jun 2027 01:27:19.491            82.278                Irkutsk          2571.187
       405   07 Jun 2027 01:27:37.675   07 Jun 2027 01:27:49.619            11.944                Irkutsk           373.250
       406   07 Jun 2027 01:29:13.192   07 Jun 2027 01:29:57.587            44.395                Novosib          1387.344
       407   07 Jun 2027 01:37:07.222   07 Jun 2027 01:38:30.696            83.474                Irkutsk          2608.562
       408   07 Jun 2027 01:39:39.938   07 Jun 2027 01:42:10.369           150.431                Sumatra          4700.969
       409   07 Jun 2027 02:55:10.433   07 Jun 2027 02:56:01.468            51.035                Anadyr2          1594.844
       410   07 Jun 2027 02:57:56.942   07 Jun 2027 02:58:51.788            54.846                Norilsk          1713.938
       411   07 Jun 2027 02:59:31.832   07 Jun 2027 02:59:57.667            25.835                Norilsk           807.344
       412   07 Jun 2027 03:02:02.298   07 Jun 2027 03:02:14.481            12.183               Magadan2           380.719
       413   07 Jun 2027 03:02:14.481   07 Jun 2027 03:03:31.088            76.607               Magadan1          2393.969
       414   07 Jun 2027 03:03:42.639   07 Jun 2027 03:04:07.011            24.372               Magadan2           761.625
       415   07 Jun 2027 03:04:19.252   07 Jun 2027 03:04:59.097            39.845               Magadan2          1245.156
       416   07 Jun 2027 03:05:38.836   07 Jun 2027 03:08:01.150           142.314                Irkutsk          4447.313
       417   07 Jun 2027 03:08:17.016   07 Jun 2027 03:08:49.144            32.128                Norilsk          1004.000
       418   07 Jun 2027 03:08:57.743   07 Jun 2027 03:10:08.846            71.103                Irkutsk          2221.969
       419   07 Jun 2027 03:10:17.385   07 Jun 2027 03:11:37.331            79.946                  Delhi          2498.313
       420   07 Jun 2027 03:12:05.486   07 Jun 2027 03:13:21.617            76.131                  Delhi          2379.094
       421   07 Jun 2027 03:50:39.436   07 Jun 2027 03:53:21.958           162.522            RioGallegos          5078.812
       422   07 Jun 2027 03:53:51.005   07 Jun 2027 03:55:18.072            87.067            RioGallegos          2720.844
       423   07 Jun 2027 04:39:57.580   07 Jun 2027 04:42:09.069           131.489                Irkutsk          4109.031
       424   07 Jun 2027 04:42:17.058   07 Jun 2027 04:42:28.058            11.000                Irkutsk           343.750
       425   07 Jun 2027 04:42:35.881   07 Jun 2027 04:43:50.515            74.634                Irkutsk          2332.313
       426   07 Jun 2027 04:44:19.502   07 Jun 2027 04:44:58.261            38.759                 Moscow          1211.219
       427   07 Jun 2027 04:45:38.108   07 Jun 2027 04:45:43.560             5.452              Murmansk2           170.375
       428   07 Jun 2027 04:46:01.310   07 Jun 2027 04:51:46.043           344.733                  Delhi         10772.906
       429   07 Jun 2027 06:19:16.706   07 Jun 2027 06:19:22.507             5.801              Murmansk1           181.281
       430   07 Jun 2027 06:19:41.469   07 Jun 2027 06:22:11.714           150.245                 Moscow          4695.156
       431   07 Jun 2027 06:22:21.516   07 Jun 2027 06:24:24.497           122.981                 Moscow          3843.156
       432   07 Jun 2027 06:24:53.413   07 Jun 2027 06:26:08.541            75.128                 Moscow          2347.750
       433   07 Jun 2027 06:39:15.981   07 Jun 2027 06:42:25.697           189.716               CapeTown          5928.625
       434   07 Jun 2027 07:42:32.512   07 Jun 2027 07:42:43.062            10.550                Anadyr1           329.687
       435   07 Jun 2027 07:43:34.917   07 Jun 2027 07:43:53.171            18.254               Magadan2           570.438
       436   07 Jun 2027 07:43:57.943   07 Jun 2027 07:44:41.035            43.092               Magadan2          1346.625
       437   07 Jun 2027 07:44:54.063   07 Jun 2027 07:45:30.226            36.163                Anadyr2          1130.094
       438   07 Jun 2027 07:45:30.226   07 Jun 2027 07:45:58.378            28.152                Anadyr1           879.750
       439   07 Jun 2027 07:45:58.378   07 Jun 2027 07:47:01.052            62.674                Anadyr2          1958.562
       440   07 Jun 2027 07:52:22.992   07 Jun 2027 07:52:29.765             6.773                 Moscow           211.656
       441   07 Jun 2027 07:53:02.694   07 Jun 2027 07:53:32.817            30.123                 Moscow           941.344
       442   07 Jun 2027 07:54:30.181   07 Jun 2027 07:55:08.093            37.912              Murmansk1          1184.750
       443   07 Jun 2027 07:55:08.093   07 Jun 2027 07:55:42.247            34.154              Murmansk2          1067.313
       444   07 Jun 2027 07:59:29.351   07 Jun 2027 08:00:11.409            42.058              Murmansk1          1314.313
       445   07 Jun 2027 08:17:15.040   07 Jun 2027 08:26:13.401           538.361               CapeTown         16823.781
       446   07 Jun 2027 09:16:37.476   07 Jun 2027 09:21:01.781           264.305                Anadyr1          8259.531
       447   07 Jun 2027 09:21:51.506   07 Jun 2027 09:22:37.266            45.760                Anadyr1          1430.000
       448   07 Jun 2027 09:22:37.266   07 Jun 2027 09:22:51.735            14.469                Anadyr2           452.156
       449   07 Jun 2027 09:23:03.105   07 Jun 2027 09:23:44.758            41.653               Magadan2          1301.656
       450   07 Jun 2027 09:23:44.758   07 Jun 2027 09:24:27.699            42.941               Magadan1          1341.906
       451   07 Jun 2027 10:50:41.725   07 Jun 2027 10:51:49.653            67.928               Magadan1          2122.750
       452   07 Jun 2027 10:53:02.686   07 Jun 2027 10:54:26.264            83.578               Magadan1          2611.812
       453   07 Jun 2027 10:54:30.274   07 Jun 2027 10:55:24.374            54.100                Norilsk          1690.625
       454   07 Jun 2027 10:55:29.455   07 Jun 2027 10:55:52.332            22.877                Norilsk           714.906
       455   07 Jun 2027 10:55:53.124   07 Jun 2027 10:56:22.971            29.847                Irkutsk           932.719
       456   07 Jun 2027 10:56:30.562   07 Jun 2027 10:57:01.168            30.606                Norilsk           956.438
       457   07 Jun 2027 10:57:12.956   07 Jun 2027 10:57:36.659            23.703                Norilsk           740.719
       458   07 Jun 2027 10:57:50.372   07 Jun 2027 10:58:07.003            16.631                Irkutsk           519.719
       459   07 Jun 2027 10:58:11.772   07 Jun 2027 11:00:14.742           122.970               Magadan1          3842.812
       460   07 Jun 2027 12:13:26.853   07 Jun 2027 12:14:52.045            85.192                Sumatra          2662.250
       461   07 Jun 2027 12:23:26.691   07 Jun 2027 12:25:45.285           138.594                Irkutsk          4331.062
       462   07 Jun 2027 12:28:19.976   07 Jun 2027 12:28:38.101            18.125                Norilsk           566.406
       463   07 Jun 2027 12:28:45.349   07 Jun 2027 12:34:35.169           349.820               Magadan2         10931.875
       464   07 Jun 2027 13:47:36.332   07 Jun 2027 13:48:49.575            73.243                Sumatra          2288.844
       465   07 Jun 2027 14:00:04.937   07 Jun 2027 14:00:34.747            29.810                Irkutsk           931.562
       466   07 Jun 2027 14:02:11.113   07 Jun 2027 14:05:09.728           178.615                Irkutsk          5581.719
       467   07 Jun 2027 14:51:44.918   07 Jun 2027 14:57:02.977           318.059            RioGallegos          9939.344
       468   07 Jun 2027 15:42:00.385   07 Jun 2027 15:42:29.391            29.006                Norilsk           906.438
       469   07 Jun 2027 15:46:14.815   07 Jun 2027 15:47:55.704           100.889                Novosib          3152.781
       470   07 Jun 2027 17:15:40.763   07 Jun 2027 17:17:22.381           101.618                 Moscow          3175.563
       471   07 Jun 2027 17:22:03.252   07 Jun 2027 17:25:49.945           226.693                Norilsk          7084.156
       472   07 Jun 2027 17:26:23.040   07 Jun 2027 17:27:18.916            55.876                Norilsk          1746.125
       473   07 Jun 2027 18:51:51.882   07 Jun 2027 18:53:08.993            77.111                 Moscow          2409.719
       474   07 Jun 2027 18:54:55.403   07 Jun 2027 18:56:26.381            90.978              Murmansk1          2843.063
       475   07 Jun 2027 18:56:31.103   07 Jun 2027 18:56:59.289            28.186                 Moscow           880.812
       476   07 Jun 2027 18:58:47.226   07 Jun 2027 18:59:25.866            38.640              Murmansk1          1207.500
       477   07 Jun 2027 19:04:47.177   07 Jun 2027 19:05:03.371            16.194              Murmansk1           506.062
       478   07 Jun 2027 19:15:22.310   07 Jun 2027 19:15:58.621            36.311                Anadyr1          1134.719
       479   07 Jun 2027 20:03:50.057   07 Jun 2027 20:04:51.494            61.437               CapeTown          1919.906
       480   07 Jun 2027 20:06:42.189   07 Jun 2027 20:08:12.589            90.400               CapeTown          2825.000
       481   07 Jun 2027 20:12:11.303   07 Jun 2027 20:13:00.503            49.200               CapeTown          1537.500
       482   07 Jun 2027 20:34:24.648   07 Jun 2027 20:36:16.130           111.482              Murmansk1          3483.813
