uniorb/output/strategy_1/Drop/Drop_KinoSat_110705.txt

KinoSat_110705
-------------------------
    Access    *     Start Time (UTCG)     *     Stop Time (UTCG)  *   Duration (s)        *       Station  *  Data (Mbytes)
         1   01 Jun 2027 03:38:29.226   01 Jun 2027 03:38:49.485            20.259               Magadan2           633.094
         2   01 Jun 2027 03:38:52.668   01 Jun 2027 03:39:33.572            40.904                Anadyr2          1278.250
         3   01 Jun 2027 03:39:51.131   01 Jun 2027 03:43:45.719           234.588                Anadyr2          7330.875
         4   01 Jun 2027 03:43:45.719   01 Jun 2027 03:44:54.359            68.640                Anadyr1          2145.000
         5   01 Jun 2027 05:14:31.723   01 Jun 2027 05:15:27.486            55.763                Irkutsk          1742.594
         6   01 Jun 2027 05:15:31.004   01 Jun 2027 05:15:45.480            14.476               Magadan2           452.375
         7   01 Jun 2027 05:15:56.305   01 Jun 2027 05:16:18.481            22.176                Irkutsk           693.000
         8   01 Jun 2027 05:16:19.398   01 Jun 2027 05:19:19.434           180.036               Magadan1          5626.125
         9   01 Jun 2027 05:19:19.434   01 Jun 2027 05:21:00.502           101.068               Magadan2          3158.375
        10   01 Jun 2027 05:21:18.347   01 Jun 2027 05:21:50.521            32.174               Magadan2          1005.438
        11   01 Jun 2027 05:24:22.942   01 Jun 2027 05:24:34.025            11.083                Norilsk           346.344
        12   01 Jun 2027 05:56:57.853   01 Jun 2027 05:57:43.054            45.201            RioGallegos          1412.531
        13   01 Jun 2027 05:58:52.804   01 Jun 2027 06:00:48.963           116.159            RioGallegos          3629.969
        14   01 Jun 2027 06:34:31.524   01 Jun 2027 06:35:11.884            40.360                Sumatra          1261.250
        15   01 Jun 2027 06:50:18.089   01 Jun 2027 06:50:48.021            29.932                Irkutsk           935.375
        16   01 Jun 2027 06:51:23.605   01 Jun 2027 06:52:31.023            67.418                Irkutsk          2106.813
        17   01 Jun 2027 06:53:52.999   01 Jun 2027 06:54:27.682            34.683                Novosib          1083.844
        18   01 Jun 2027 06:54:37.938   01 Jun 2027 06:54:49.992            12.054                Norilsk           376.688
        19   01 Jun 2027 06:55:04.328   01 Jun 2027 06:57:49.203           164.875                Irkutsk          5152.344
        20   01 Jun 2027 06:57:57.071   01 Jun 2027 06:58:05.536             8.465                Novosib           264.531
        21   01 Jun 2027 06:58:09.929   01 Jun 2027 06:59:55.964           106.035              Murmansk2          3313.594
        22   01 Jun 2027 07:32:50.081   01 Jun 2027 07:33:47.119            57.038            RioGallegos          1782.437
        23   01 Jun 2027 08:07:21.470   01 Jun 2027 08:09:31.668           130.198                Sumatra          4068.688
        24   01 Jun 2027 08:16:58.552   01 Jun 2027 08:19:50.781           172.229                  Delhi          5382.156
        25   01 Jun 2027 08:29:23.843   01 Jun 2027 08:30:33.921            70.078                Irkutsk          2189.938
        26   01 Jun 2027 08:30:40.655   01 Jun 2027 08:31:56.805            76.150                 Moscow          2379.687
        27   01 Jun 2027 08:31:59.870   01 Jun 2027 08:32:14.467            14.597              Murmansk2           456.156
        28   01 Jun 2027 08:32:14.467   01 Jun 2027 08:33:08.726            54.259              Murmansk1          1695.594
        29   01 Jun 2027 08:33:12.390   01 Jun 2027 08:34:32.599            80.209                 Moscow          2506.531
        30   01 Jun 2027 08:34:44.390   01 Jun 2027 08:35:32.491            48.101                 Moscow          1503.156
        31   01 Jun 2027 09:51:49.255   01 Jun 2027 09:53:07.433            78.178                  Delhi          2443.062
        32   01 Jun 2027 09:54:31.397   01 Jun 2027 09:55:20.504            49.107                  Delhi          1534.594
        33   01 Jun 2027 10:06:06.559   01 Jun 2027 10:07:11.700            65.141              Murmansk2          2035.656
        34   01 Jun 2027 10:07:25.046   01 Jun 2027 10:09:48.472           143.426                Novosib          4482.063
        35   01 Jun 2027 10:10:16.103   01 Jun 2027 10:11:05.526            49.423              Murmansk1          1544.469
        36   01 Jun 2027 10:11:46.725   01 Jun 2027 10:11:57.783            11.058                 Moscow           345.562
        37   01 Jun 2027 11:42:28.776   01 Jun 2027 11:44:20.726           111.950              Murmansk2          3498.438
        38   01 Jun 2027 11:44:30.550   01 Jun 2027 11:47:23.362           172.812                 Moscow          5400.375
        39   01 Jun 2027 12:50:12.123   01 Jun 2027 12:53:23.030           190.907               CapeTown          5965.844
        40   01 Jun 2027 12:55:08.505   01 Jun 2027 12:56:36.257            87.752               CapeTown          2742.250
        41   01 Jun 2027 13:16:42.918   01 Jun 2027 13:17:41.514            58.596              Murmansk1          1831.125
        42   01 Jun 2027 13:17:41.514   01 Jun 2027 13:19:14.988            93.474              Murmansk2          2921.063
        43   01 Jun 2027 13:24:52.587   01 Jun 2027 13:25:20.854            28.267              Murmansk2           883.344
        44   01 Jun 2027 13:30:22.183   01 Jun 2027 13:32:40.525           138.342                Anadyr1          4323.188
        45   01 Jun 2027 13:33:29.037   01 Jun 2027 13:36:06.017           156.980                Anadyr2          4905.625
        46   01 Jun 2027 13:38:16.333   01 Jun 2027 13:40:14.544           118.211                Anadyr2          3694.094
        47   01 Jun 2027 14:56:24.153   01 Jun 2027 14:56:27.885             3.732              Murmansk2           116.625
        48   01 Jun 2027 14:57:38.813   01 Jun 2027 14:57:54.460            15.647              Murmansk1           488.969
        49   01 Jun 2027 14:58:08.393   01 Jun 2027 14:59:35.172            86.779              Murmansk1          2711.844
        50   01 Jun 2027 15:05:59.320   01 Jun 2027 15:07:25.763            86.443                Anadyr1          2701.344
        51   01 Jun 2027 15:08:24.880   01 Jun 2027 15:09:28.274            63.394                Anadyr2          1981.062
        52   01 Jun 2027 15:09:41.233   01 Jun 2027 15:17:51.068           489.835               Magadan1         15307.344
        53   01 Jun 2027 16:44:14.073   01 Jun 2027 16:46:34.608           140.535               Magadan1          4391.719
        54   01 Jun 2027 16:47:54.747   01 Jun 2027 16:48:28.177            33.430               Magadan1          1044.687
        55   01 Jun 2027 16:52:34.000   01 Jun 2027 16:52:43.557             9.557               Magadan2           298.656
        56   01 Jun 2027 16:52:53.005   01 Jun 2027 16:53:48.263            55.258               Magadan2          1726.813
        57   01 Jun 2027 17:38:21.508   01 Jun 2027 17:43:23.617           302.109            RioGallegos          9440.906
        58   01 Jun 2027 18:21:06.009   01 Jun 2027 18:24:04.096           178.087                Norilsk          5565.219
        59   01 Jun 2027 18:24:08.938   01 Jun 2027 18:25:21.090            72.152                Norilsk          2254.750
        60   01 Jun 2027 18:25:21.945   01 Jun 2027 18:28:23.819           181.874                Irkutsk          5683.562
        61   01 Jun 2027 18:29:37.553   01 Jun 2027 18:30:29.591            52.038                Irkutsk          1626.188
        62   01 Jun 2027 18:39:58.747   01 Jun 2027 18:42:19.624           140.877                Sumatra          4402.406
        63   01 Jun 2027 18:46:07.192   01 Jun 2027 18:48:17.246           130.054                Sumatra          4064.187
        64   01 Jun 2027 20:03:04.959   01 Jun 2027 20:04:05.963            61.004                Novosib          1906.375
        65   01 Jun 2027 20:05:27.088   01 Jun 2027 20:05:57.642            30.554                Novosib           954.813
        66   01 Jun 2027 20:06:26.726   01 Jun 2027 20:07:48.932            82.206                Novosib          2568.938
        67   01 Jun 2027 20:10:36.874   01 Jun 2027 20:12:14.462            97.588                  Delhi          3049.625
        68   01 Jun 2027 21:34:41.856   01 Jun 2027 21:39:41.574           299.718              Murmansk2          9366.188
        69   01 Jun 2027 21:54:33.468   01 Jun 2027 21:55:34.395            60.927                  Delhi          1903.969
        70   01 Jun 2027 23:06:03.162   01 Jun 2027 23:06:06.639             3.477                Anadyr1           108.656
        71   01 Jun 2027 23:06:30.330   01 Jun 2027 23:07:01.464            31.134               Magadan2           972.937
        72   01 Jun 2027 23:08:10.191   01 Jun 2027 23:08:43.408            33.217                Norilsk          1038.031
        73   01 Jun 2027 23:09:12.167   01 Jun 2027 23:09:53.403            41.236               Magadan2          1288.625
        74   01 Jun 2027 23:10:34.549   01 Jun 2027 23:14:19.010           224.461              Murmansk1          7014.406
        75   01 Jun 2027 23:14:49.857   01 Jun 2027 23:17:33.178           163.321                 Moscow          5103.781
        76   01 Jun 2027 23:17:57.906   01 Jun 2027 23:18:45.320            47.414                 Moscow          1481.687
        77   01 Jun 2027 23:39:53.581   01 Jun 2027 23:42:14.156           140.575               CapeTown          4392.969
        78   01 Jun 2027 23:43:33.860   01 Jun 2027 23:43:45.014            11.154               CapeTown           348.562
        79   01 Jun 2027 23:43:54.790   01 Jun 2027 23:45:44.073           109.283               CapeTown          3415.094
        80   01 Jun 2027 23:47:49.535   01 Jun 2027 23:48:03.966            14.431               CapeTown           450.969
        81   02 Jun 2027 00:48:20.542   02 Jun 2027 00:48:44.997            24.455              Murmansk1           764.219
        82   02 Jun 2027 00:48:51.487   02 Jun 2027 00:48:56.673             5.186              Murmansk1           162.063
        83   02 Jun 2027 00:48:58.105   02 Jun 2027 00:49:43.241            45.136                 Moscow          1410.500
        84   02 Jun 2027 00:52:15.455   02 Jun 2027 00:52:41.488            26.033                 Moscow           813.531
        85   02 Jun 2027 00:56:17.642   02 Jun 2027 00:56:27.512             9.870                 Moscow           308.438
        86   02 Jun 2027 00:57:03.489   02 Jun 2027 00:57:49.441            45.952              Murmansk1          1436.000
        87   02 Jun 2027 01:15:15.090   02 Jun 2027 01:16:23.935            68.845               CapeTown          2151.406
        88   02 Jun 2027 01:20:06.522   02 Jun 2027 01:20:27.161            20.639               CapeTown           644.969
        89   02 Jun 2027 01:22:57.765   02 Jun 2027 01:23:33.097            35.332               CapeTown          1104.125
        90   02 Jun 2027 02:09:36.487   02 Jun 2027 02:10:16.176            39.689                Anadyr2          1240.281
        91   02 Jun 2027 02:10:42.045   02 Jun 2027 02:11:18.557            36.512               Magadan1          1141.000
        92   02 Jun 2027 02:11:34.326   02 Jun 2027 02:12:29.687            55.361               Magadan2          1730.031
        93   02 Jun 2027 02:15:21.468   02 Jun 2027 02:15:51.698            30.230               Magadan2           944.688
        94   02 Jun 2027 02:17:54.583   02 Jun 2027 02:18:05.661            11.078               Magadan2           346.188
        95   02 Jun 2027 02:20:09.505   02 Jun 2027 02:20:54.264            44.759                Norilsk          1398.719
        96   02 Jun 2027 02:21:41.844   02 Jun 2027 02:22:46.062            64.218              Murmansk2          2006.812
        97   02 Jun 2027 02:24:16.216   02 Jun 2027 02:24:58.785            42.569              Murmansk2          1330.281
        98   02 Jun 2027 02:27:03.850   02 Jun 2027 02:27:14.309            10.459                 Moscow           326.844
        99   02 Jun 2027 02:29:25.932   02 Jun 2027 02:29:36.798            10.866                 Moscow           339.563
       100   02 Jun 2027 02:29:50.814   02 Jun 2027 02:30:04.288            13.474                 Moscow           421.063
       101   02 Jun 2027 02:31:49.399   02 Jun 2027 02:32:05.008            15.609                 Moscow           487.781
       102   02 Jun 2027 02:32:54.211   02 Jun 2027 02:33:03.592             9.381                 Moscow           293.156
       103   02 Jun 2027 02:33:37.527   02 Jun 2027 02:33:53.409            15.882              Murmansk1           496.312
       104   02 Jun 2027 02:34:23.524   02 Jun 2027 02:34:44.198            20.674                 Moscow           646.063
       105   02 Jun 2027 02:52:28.041   02 Jun 2027 02:52:55.966            27.925               CapeTown           872.656
       106   02 Jun 2027 02:54:59.578   02 Jun 2027 02:55:06.766             7.188               CapeTown           224.625
       107   02 Jun 2027 02:55:45.300   02 Jun 2027 02:55:48.247             2.947               CapeTown            92.094
       108   02 Jun 2027 02:56:26.034   02 Jun 2027 02:57:58.854            92.820               CapeTown          2900.625
       109   02 Jun 2027 03:52:14.606   02 Jun 2027 03:52:32.434            17.828                Anadyr1           557.125
       110   02 Jun 2027 03:52:47.871   02 Jun 2027 03:54:19.757            91.886                Anadyr1          2871.438
       111   02 Jun 2027 03:54:19.757   02 Jun 2027 03:55:46.998            87.241                Anadyr2          2726.281
       112   02 Jun 2027 03:57:57.507   02 Jun 2027 03:58:08.497            10.990               Magadan2           343.438
       113   02 Jun 2027 05:27:34.037   02 Jun 2027 05:28:05.021            30.984               Magadan2           968.250
       114   02 Jun 2027 05:28:24.671   02 Jun 2027 05:29:54.504            89.833                Irkutsk          2807.281
       115   02 Jun 2027 05:30:08.184   02 Jun 2027 05:32:42.685           154.501                Anadyr1          4828.156
       116   02 Jun 2027 05:32:51.371   02 Jun 2027 05:33:00.637             9.266              Murmansk1           289.563
       117   02 Jun 2027 05:33:00.637   02 Jun 2027 05:33:55.311            54.674              Murmansk2          1708.562
       118   02 Jun 2027 05:33:55.311   02 Jun 2027 05:34:47.128            51.817              Murmansk1          1619.281
       119   02 Jun 2027 05:35:40.389   02 Jun 2027 05:36:02.780            22.391                Norilsk           699.719
       120   02 Jun 2027 05:36:20.717   02 Jun 2027 05:36:58.838            38.121                Norilsk          1191.281
       121   02 Jun 2027 06:08:47.289   02 Jun 2027 06:09:36.604            49.315            RioGallegos          1541.094
       122   02 Jun 2027 06:09:41.243   02 Jun 2027 06:10:51.978            70.735            RioGallegos          2210.469
       123   02 Jun 2027 06:12:18.111   02 Jun 2027 06:12:39.762            21.651            RioGallegos           676.594
       124   02 Jun 2027 06:17:30.558   02 Jun 2027 06:17:58.448            27.890            RioGallegos           871.563
       125   02 Jun 2027 06:20:25.024   02 Jun 2027 06:20:53.785            28.761            RioGallegos           898.781
       126   02 Jun 2027 06:45:31.890   02 Jun 2027 06:47:27.211           115.321                Sumatra          3603.781
       127   02 Jun 2027 06:49:46.079   02 Jun 2027 06:50:29.039            42.960                Sumatra          1342.500
       128   02 Jun 2027 06:52:18.773   02 Jun 2027 06:54:09.803           111.030                Sumatra          3469.688
       129   02 Jun 2027 07:05:01.582   02 Jun 2027 07:06:28.366            86.784               Magadan1          2712.000
       130   02 Jun 2027 07:06:32.776   02 Jun 2027 07:09:38.788           186.012                Irkutsk          5812.875
       131   02 Jun 2027 07:47:54.959   02 Jun 2027 07:48:03.177             8.218            RioGallegos           256.813
       132   02 Jun 2027 08:19:30.108   02 Jun 2027 08:20:45.820            75.712                Sumatra          2366.000
       133   02 Jun 2027 08:22:19.275   02 Jun 2027 08:23:02.095            42.820                Sumatra          1338.125
       134   02 Jun 2027 08:28:31.246   02 Jun 2027 08:29:40.795            69.549                  Delhi          2173.406
       135   02 Jun 2027 08:41:56.736   02 Jun 2027 08:43:06.255            69.519                Novosib          2172.469
       136   02 Jun 2027 08:43:17.462   02 Jun 2027 08:44:02.902            45.440                Novosib          1420.000
       137   02 Jun 2027 08:44:03.130   02 Jun 2027 08:44:41.856            38.726              Murmansk1          1210.187
       138   02 Jun 2027 08:44:50.057   02 Jun 2027 08:45:24.478            34.421                 Moscow          1075.656
       139   02 Jun 2027 08:45:29.663   02 Jun 2027 08:46:52.470            82.807                Norilsk          2587.719
       140   02 Jun 2027 08:46:58.585   02 Jun 2027 08:47:20.738            22.153              Murmansk2           692.281
       141   02 Jun 2027 08:47:32.904   02 Jun 2027 08:47:39.958             7.054                 Moscow           220.438
       142   02 Jun 2027 10:04:08.367   02 Jun 2027 10:08:02.906           234.539                  Delhi          7329.344
       143   02 Jun 2027 10:18:32.043   02 Jun 2027 10:20:23.270           111.227                Novosib          3475.844
       144   02 Jun 2027 10:20:25.037   02 Jun 2027 10:20:43.442            18.405                 Moscow           575.156
       145   02 Jun 2027 10:20:50.014   02 Jun 2027 10:21:16.349            26.335              Murmansk2           822.969
       146   02 Jun 2027 10:21:40.509   02 Jun 2027 10:23:08.871            88.362                 Moscow          2761.312
       147   02 Jun 2027 11:56:04.270   02 Jun 2027 11:59:03.961           179.691              Murmansk2          5615.344
       148   02 Jun 2027 11:59:03.961   02 Jun 2027 12:00:28.853            84.892              Murmansk1          2652.875
       149   02 Jun 2027 12:00:52.900   02 Jun 2027 12:01:17.956            25.056              Murmansk1           783.000
       150   02 Jun 2027 12:01:41.292   02 Jun 2027 12:02:15.732            34.440              Murmansk1          1076.250
       151   02 Jun 2027 12:02:57.023   02 Jun 2027 12:03:25.926            28.903              Murmansk1           903.219
       152   02 Jun 2027 12:03:29.651   02 Jun 2027 12:03:36.919             7.268              Murmansk1           227.125
       153   02 Jun 2027 13:01:56.550   02 Jun 2027 13:06:19.761           263.211               CapeTown          8225.344
       154   02 Jun 2027 13:11:14.526   02 Jun 2027 13:13:10.980           116.454               CapeTown          3639.188
       155   02 Jun 2027 13:29:03.435   02 Jun 2027 13:31:55.342           171.907              Murmansk1          5372.094
       156   02 Jun 2027 13:32:01.769   02 Jun 2027 13:32:22.438            20.669              Murmansk1           645.906
       157   02 Jun 2027 13:32:40.784   02 Jun 2027 13:33:42.070            61.286              Murmansk1          1915.187
       158   02 Jun 2027 13:34:36.178   02 Jun 2027 13:34:57.020            20.842              Murmansk2           651.312
       159   02 Jun 2027 13:35:39.574   02 Jun 2027 13:36:05.319            25.745              Murmansk2           804.531
       160   02 Jun 2027 13:36:20.361   02 Jun 2027 13:37:08.138            47.777              Murmansk2          1493.031
       161   02 Jun 2027 13:37:47.919   02 Jun 2027 13:38:19.771            31.852              Murmansk2           995.375
       162   02 Jun 2027 13:38:19.771   02 Jun 2027 13:38:31.859            12.088              Murmansk1           377.750
       163   02 Jun 2027 13:39:11.939   02 Jun 2027 13:40:17.531            65.592              Murmansk2          2049.750
       164   02 Jun 2027 13:42:18.631   02 Jun 2027 13:43:21.168            62.537                Anadyr2          1954.281
       165   02 Jun 2027 13:43:55.550   02 Jun 2027 13:44:21.593            26.043                Anadyr1           813.844
       166   02 Jun 2027 13:45:30.292   02 Jun 2027 13:50:19.946           289.654                Anadyr2          9051.687
       167   02 Jun 2027 13:50:19.946   02 Jun 2027 13:50:45.744            25.798                Anadyr1           806.187
       168   02 Jun 2027 13:51:12.780   02 Jun 2027 13:52:53.694           100.914                Anadyr1          3153.563
       169   02 Jun 2027 15:13:53.451   02 Jun 2027 15:14:15.686            22.235              Murmansk1           694.844
       170   02 Jun 2027 15:14:48.970   02 Jun 2027 15:15:25.296            36.326              Murmansk2          1135.187
       171   02 Jun 2027 15:15:25.296   02 Jun 2027 15:15:44.763            19.467              Murmansk1           608.344
       172   02 Jun 2027 15:19:24.835   02 Jun 2027 15:19:56.065            31.230                Anadyr1           975.937
       173   02 Jun 2027 15:20:23.233   02 Jun 2027 15:21:07.888            44.655                Anadyr2          1395.469
       174   02 Jun 2027 15:21:14.059   02 Jun 2027 15:26:56.861           342.802               Magadan2         10712.562
       175   02 Jun 2027 15:27:07.603   02 Jun 2027 15:30:25.533           197.930               Magadan1          6185.313
       176   02 Jun 2027 17:00:10.987   02 Jun 2027 17:00:29.206            18.219               Magadan1           569.344
       177   02 Jun 2027 17:01:07.829   02 Jun 2027 17:01:20.648            12.819                Anadyr1           400.594
       178   02 Jun 2027 17:01:42.623   02 Jun 2027 17:02:13.055            30.432               Magadan1           951.000
       179   02 Jun 2027 17:02:13.055   02 Jun 2027 17:02:31.074            18.019               Magadan2           563.094
       180   02 Jun 2027 17:02:32.216   02 Jun 2027 17:02:44.421            12.205                Anadyr2           381.406
       181   02 Jun 2027 17:03:30.909   02 Jun 2027 17:04:05.816            34.907                Anadyr2          1090.844
       182   02 Jun 2027 17:04:16.863   02 Jun 2027 17:04:36.694            19.831               Magadan2           619.719
       183   02 Jun 2027 17:04:36.694   02 Jun 2027 17:04:45.516             8.822               Magadan1           275.688
       184   02 Jun 2027 17:05:17.184   02 Jun 2027 17:05:26.518             9.334                Anadyr1           291.687
       185   02 Jun 2027 17:05:48.323   02 Jun 2027 17:07:20.587            92.264               Magadan1          2883.250
       186   02 Jun 2027 17:08:02.048   02 Jun 2027 17:08:59.158            57.110               Magadan1          1784.688
       187   02 Jun 2027 17:49:35.956   02 Jun 2027 17:51:15.709            99.753            RioGallegos          3117.281
       188   02 Jun 2027 17:52:43.698   02 Jun 2027 17:53:54.174            70.476            RioGallegos          2202.375
       189   02 Jun 2027 17:54:30.295   02 Jun 2027 17:55:59.107            88.812            RioGallegos          2775.375
       190   02 Jun 2027 18:33:53.512   02 Jun 2027 18:34:02.276             8.764                Norilsk           273.875
       191   02 Jun 2027 18:36:35.797   02 Jun 2027 18:39:15.269           159.472                Irkutsk          4983.500
       192   02 Jun 2027 18:40:16.152   02 Jun 2027 18:41:19.711            63.559                Irkutsk          1986.219
       193   02 Jun 2027 18:42:33.345   02 Jun 2027 18:43:57.519            84.174                Irkutsk          2630.438
       194   02 Jun 2027 18:45:58.830   02 Jun 2027 18:46:13.017            14.187                Irkutsk           443.344
       195   02 Jun 2027 18:51:09.384   02 Jun 2027 18:53:37.594           148.210                Sumatra          4631.563
       196   02 Jun 2027 18:55:36.718   02 Jun 2027 18:56:37.562            60.844                Sumatra          1901.375
       197   02 Jun 2027 18:57:46.255   02 Jun 2027 18:58:57.757            71.502                Sumatra          2234.437
       198   02 Jun 2027 20:13:17.603   02 Jun 2027 20:13:42.693            25.090                Novosib           784.062
       199   02 Jun 2027 20:15:09.425   02 Jun 2027 20:15:32.138            22.713                Novosib           709.781
       200   02 Jun 2027 20:18:28.480   02 Jun 2027 20:19:51.828            83.348                Novosib          2604.625
       201   02 Jun 2027 20:21:21.138   02 Jun 2027 20:23:52.516           151.378                  Delhi          4730.562
       202   02 Jun 2027 20:25:18.674   02 Jun 2027 20:25:38.002            19.328                  Delhi           604.000
       203   02 Jun 2027 20:27:37.970   02 Jun 2027 20:28:51.253            73.283                  Delhi          2290.094
       204   02 Jun 2027 21:46:28.489   02 Jun 2027 21:52:35.496           367.007              Murmansk1         11468.969
       205   02 Jun 2027 23:18:03.426   02 Jun 2027 23:19:57.487           114.061               Magadan1          3564.406
       206   02 Jun 2027 23:21:29.297   02 Jun 2027 23:21:58.943            29.646               Magadan1           926.438
       207   02 Jun 2027 23:23:00.451   02 Jun 2027 23:26:07.261           186.810              Murmansk2          5837.812
       208   02 Jun 2027 23:26:39.090   02 Jun 2027 23:27:21.024            41.934                 Moscow          1310.437
       209   02 Jun 2027 23:29:29.879   02 Jun 2027 23:30:27.155            57.276                 Moscow          1789.875
       210   02 Jun 2027 23:32:04.609   02 Jun 2027 23:33:25.474            80.865                 Moscow          2527.031
       211   02 Jun 2027 23:51:08.158   02 Jun 2027 23:52:44.883            96.725               CapeTown          3022.656
       212   02 Jun 2027 23:54:41.522   02 Jun 2027 23:55:41.362            59.840               CapeTown          1870.000
       213   02 Jun 2027 23:57:12.427   02 Jun 2027 23:58:31.608            79.181               CapeTown          2474.406
       214   03 Jun 2027 00:57:16.720   03 Jun 2027 00:57:30.199            13.479               Magadan1           421.219
       215   03 Jun 2027 00:57:51.200   03 Jun 2027 00:59:04.859            73.659              Murmansk2          2301.844
       216   03 Jun 2027 01:02:28.001   03 Jun 2027 01:02:40.055            12.054                 Moscow           376.688
       217   03 Jun 2027 01:04:32.221   03 Jun 2027 01:05:25.778            53.557              Murmansk2          1673.656
       218   03 Jun 2027 01:07:15.615   03 Jun 2027 01:07:22.456             6.841              Murmansk2           213.781
       219   03 Jun 2027 01:08:23.388   03 Jun 2027 01:08:54.829            31.441                 Moscow           982.531
       220   03 Jun 2027 01:09:59.996   03 Jun 2027 01:10:34.744            34.748                 Moscow          1085.875
       221   03 Jun 2027 01:13:21.515   03 Jun 2027 01:13:52.458            30.943                 Moscow           966.969
       222   03 Jun 2027 01:31:18.591   03 Jun 2027 01:31:55.823            37.232               CapeTown          1163.500
       223   03 Jun 2027 01:34:12.462   03 Jun 2027 01:34:35.470            23.008               CapeTown           719.000
       224   03 Jun 2027 01:36:13.663   03 Jun 2027 01:36:31.739            18.076               CapeTown           564.875
       225   03 Jun 2027 02:21:41.577   03 Jun 2027 02:22:16.641            35.064                Anadyr2          1095.750
       226   03 Jun 2027 02:22:25.466   03 Jun 2027 02:22:49.344            23.878               Magadan2           746.187
       227   03 Jun 2027 02:23:02.902   03 Jun 2027 02:23:33.478            30.576               Magadan2           955.500
       228   03 Jun 2027 02:23:44.635   03 Jun 2027 02:24:02.042            17.407               Magadan1           543.969
       229   03 Jun 2027 02:24:59.290   03 Jun 2027 02:25:33.027            33.737               Magadan1          1054.281
       230   03 Jun 2027 02:27:48.415   03 Jun 2027 02:28:13.280            24.865               Magadan2           777.031
       231   03 Jun 2027 02:28:53.736   03 Jun 2027 02:29:08.409            14.673               Magadan2           458.531
       232   03 Jun 2027 02:29:53.842   03 Jun 2027 02:30:02.787             8.945               Magadan1           279.531
       233   03 Jun 2027 02:30:06.988   03 Jun 2027 02:30:26.857            19.869                Norilsk           620.906
       234   03 Jun 2027 02:31:57.874   03 Jun 2027 02:32:07.340             9.466                Norilsk           295.812
       235   03 Jun 2027 02:32:12.882   03 Jun 2027 02:32:40.092            27.210                Norilsk           850.313
       236   03 Jun 2027 02:34:12.600   03 Jun 2027 02:34:54.802            42.202              Murmansk2          1318.812
       237   03 Jun 2027 02:36:43.157   03 Jun 2027 02:36:55.730            12.573              Murmansk1           392.906
       238   03 Jun 2027 02:38:39.684   03 Jun 2027 02:39:06.230            26.546              Murmansk1           829.562
       239   03 Jun 2027 02:40:41.607   03 Jun 2027 02:40:47.099             5.492              Murmansk2           171.625
       240   03 Jun 2027 02:41:19.927   03 Jun 2027 02:42:15.021            55.094              Murmansk1          1721.687
       241   03 Jun 2027 02:44:48.108   03 Jun 2027 02:44:50.175             2.067                 Moscow            64.594
       242   03 Jun 2027 02:45:05.702   03 Jun 2027 02:45:37.896            32.194              Murmansk2          1006.063
       243   03 Jun 2027 03:07:03.175   03 Jun 2027 03:07:54.690            51.515               CapeTown          1609.844
       244   03 Jun 2027 04:04:14.839   03 Jun 2027 04:04:39.899            25.060                Anadyr2           783.125
       245   03 Jun 2027 04:04:44.234   03 Jun 2027 04:05:51.437            67.203                Anadyr2          2100.094
       246   03 Jun 2027 04:05:58.356   03 Jun 2027 04:07:20.053            81.697               Magadan1          2553.031
       247   03 Jun 2027 04:07:48.141   03 Jun 2027 04:08:21.971            33.830                Anadyr2          1057.188
       248   03 Jun 2027 04:10:06.672   03 Jun 2027 04:10:14.684             8.012                Anadyr1           250.375
       249   03 Jun 2027 04:47:24.818   03 Jun 2027 04:48:16.595            51.777            RioGallegos          1618.031
       250   03 Jun 2027 04:51:32.093   03 Jun 2027 04:51:51.332            19.239            RioGallegos           601.219
       251   03 Jun 2027 04:52:53.413   03 Jun 2027 04:53:03.216             9.803            RioGallegos           306.344
       252   03 Jun 2027 04:55:52.931   03 Jun 2027 04:56:07.413            14.482            RioGallegos           452.563
       253   03 Jun 2027 05:40:15.929   03 Jun 2027 05:41:25.704            69.775               Magadan1          2180.469
       254   03 Jun 2027 05:41:25.704   03 Jun 2027 05:43:25.613           119.909               Magadan2          3747.156
       255   03 Jun 2027 05:43:25.662   03 Jun 2027 05:44:27.417            61.755               Magadan2          1929.844
       256   03 Jun 2027 05:44:43.323   03 Jun 2027 05:44:52.882             9.559               Magadan2           298.719
       257   03 Jun 2027 05:44:52.882   03 Jun 2027 05:45:15.551            22.669               Magadan1           708.406
       258   03 Jun 2027 05:45:21.458   03 Jun 2027 05:45:42.680            21.222              Murmansk1           663.188
       259   03 Jun 2027 05:46:09.660   03 Jun 2027 05:46:39.254            29.594                Novosib           924.812
       260   03 Jun 2027 05:47:28.911   03 Jun 2027 05:47:53.270            24.359                Norilsk           761.219
       261   03 Jun 2027 05:48:53.516   03 Jun 2027 05:49:35.456            41.940                Norilsk          1310.625
       262   03 Jun 2027 06:20:39.886   03 Jun 2027 06:22:28.367           108.481            RioGallegos          3390.031
       263   03 Jun 2027 06:29:41.282   03 Jun 2027 06:29:45.188             3.906            RioGallegos           122.062
       264   03 Jun 2027 06:32:21.980   03 Jun 2027 06:32:32.920            10.940            RioGallegos           341.875
       265   03 Jun 2027 06:56:50.302   03 Jun 2027 06:57:41.873            51.571                Sumatra          1611.594
       266   03 Jun 2027 06:59:50.063   03 Jun 2027 06:59:56.547             6.484                Sumatra           202.625
       267   03 Jun 2027 07:01:25.501   03 Jun 2027 07:02:44.387            78.886                Sumatra          2465.187
       268   03 Jun 2027 07:17:34.351   03 Jun 2027 07:21:15.026           220.675                Norilsk          6896.094
       269   03 Jun 2027 07:21:24.607   03 Jun 2027 07:23:54.647           150.040              Murmansk2          4688.750
       270   03 Jun 2027 07:24:05.831   03 Jun 2027 07:24:28.928            23.097              Murmansk2           721.781
       271   03 Jun 2027 07:24:35.811   03 Jun 2027 07:25:06.844            31.033                Norilsk           969.781
       272   03 Jun 2027 07:57:28.668   03 Jun 2027 07:58:41.086            72.418            RioGallegos          2263.063
       273   03 Jun 2027 08:00:46.154   03 Jun 2027 08:01:01.053            14.899            RioGallegos           465.594
       274   03 Jun 2027 08:31:45.066   03 Jun 2027 08:32:55.751            70.685                Sumatra          2208.906
       275   03 Jun 2027 08:34:52.995   03 Jun 2027 08:35:40.809            47.814                Sumatra          1494.187
       276   03 Jun 2027 08:40:10.619   03 Jun 2027 08:41:22.234            71.615                  Delhi          2237.969
       277   03 Jun 2027 08:41:48.361   03 Jun 2027 08:42:33.760            45.399                  Delhi          1418.719
       278   03 Jun 2027 08:54:40.844   03 Jun 2027 08:55:07.787            26.943                Irkutsk           841.969
       279   03 Jun 2027 08:55:28.966   03 Jun 2027 08:56:09.475            40.509                Novosib          1265.906
       280   03 Jun 2027 08:56:24.916   03 Jun 2027 09:00:12.171           227.255                 Moscow          7101.719
       281   03 Jun 2027 09:00:35.907   03 Jun 2027 09:01:47.027            71.120              Murmansk2          2222.500
       282   03 Jun 2027 09:01:47.027   03 Jun 2027 09:02:25.467            38.440              Murmansk1          1201.250
       283   03 Jun 2027 09:02:27.554   03 Jun 2027 09:02:48.179            20.625                Norilsk           644.531
       284   03 Jun 2027 10:16:35.036   03 Jun 2027 10:19:54.278           199.242                  Delhi          6226.312
       285   03 Jun 2027 10:20:06.642   03 Jun 2027 10:20:39.961            33.319                  Delhi          1041.219
       286   03 Jun 2027 10:29:46.746   03 Jun 2027 10:29:56.979            10.233              Murmansk2           319.781
       287   03 Jun 2027 10:29:57.204   03 Jun 2027 10:30:52.206            55.002                 Moscow          1718.812
       288   03 Jun 2027 10:31:12.845   03 Jun 2027 10:32:25.368            72.523                Novosib          2266.344
       289   03 Jun 2027 10:32:30.546   03 Jun 2027 10:34:11.638           101.092                 Moscow          3159.125
       290   03 Jun 2027 12:03:15.128   03 Jun 2027 12:04:10.919            55.791                 Moscow          1743.469
       291   03 Jun 2027 12:04:34.953   03 Jun 2027 12:05:00.853            25.900                 Moscow           809.375
       292   03 Jun 2027 12:05:52.735   03 Jun 2027 12:05:58.262             5.527              Murmansk1           172.719
       293   03 Jun 2027 12:06:02.406   03 Jun 2027 12:06:17.679            15.273              Murmansk1           477.281
       294   03 Jun 2027 12:06:46.852   03 Jun 2027 12:07:09.723            22.871              Murmansk1           714.719
       295   03 Jun 2027 12:07:36.644   03 Jun 2027 12:07:43.212             6.568                 Moscow           205.250
       296   03 Jun 2027 12:07:51.057   03 Jun 2027 12:08:41.593            50.536                 Moscow          1579.250
       297   03 Jun 2027 12:09:04.679   03 Jun 2027 12:09:43.208            38.529              Murmansk2          1204.031
       298   03 Jun 2027 12:10:04.872   03 Jun 2027 12:10:13.135             8.263                Norilsk           258.219
       299   03 Jun 2027 12:10:39.781   03 Jun 2027 12:11:05.562            25.781              Murmansk1           805.656
       300   03 Jun 2027 12:12:16.556   03 Jun 2027 12:12:44.823            28.267              Murmansk2           883.344
       301   03 Jun 2027 12:13:25.947   03 Jun 2027 12:13:46.048            20.101                Norilsk           628.156
       302   03 Jun 2027 12:15:43.517   03 Jun 2027 12:16:01.308            17.791              Murmansk2           555.969
       303   03 Jun 2027 12:20:01.609   03 Jun 2027 12:23:10.062           188.453                Anadyr1          5889.156
       304   03 Jun 2027 12:23:32.053   03 Jun 2027 12:23:52.614            20.561                Anadyr2           642.531
       305   03 Jun 2027 13:24:40.610   03 Jun 2027 13:25:04.324            23.714               CapeTown           741.063
       306   03 Jun 2027 13:41:26.224   03 Jun 2027 13:42:25.929            59.705              Murmansk1          1865.781
       307   03 Jun 2027 13:42:43.131   03 Jun 2027 13:42:49.817             6.686              Murmansk2           208.937
       308   03 Jun 2027 13:43:56.164   03 Jun 2027 13:44:37.209            41.045              Murmansk2          1282.656
       309   03 Jun 2027 13:45:36.842   03 Jun 2027 13:46:06.730            29.888              Murmansk2           934.000
       310   03 Jun 2027 13:48:08.558   03 Jun 2027 13:48:55.402            46.844              Murmansk2          1463.875
       311   03 Jun 2027 13:54:16.140   03 Jun 2027 13:56:08.773           112.633                Anadyr1          3519.781
       312   03 Jun 2027 13:57:31.437   03 Jun 2027 13:58:26.638            55.201                Anadyr2          1725.031
       313   03 Jun 2027 13:59:46.190   03 Jun 2027 13:59:50.174             3.984                Anadyr1           124.500
       314   03 Jun 2027 14:00:28.912   03 Jun 2027 14:02:20.293           111.381                Anadyr2          3480.656
       315   03 Jun 2027 15:23:38.973   03 Jun 2027 15:23:59.791            20.818              Murmansk2           650.562
       316   03 Jun 2027 15:25:08.360   03 Jun 2027 15:25:34.258            25.898              Murmansk2           809.312
       317   03 Jun 2027 15:30:01.253   03 Jun 2027 15:31:24.453            83.200                Anadyr1          2600.000
       318   03 Jun 2027 15:32:19.809   03 Jun 2027 15:32:56.548            36.739                Anadyr1          1148.094
       319   03 Jun 2027 15:32:57.889   03 Jun 2027 15:35:51.949           174.060               Magadan1          5439.375
       320   03 Jun 2027 15:35:55.610   03 Jun 2027 15:36:59.197            63.587               Magadan2          1987.094
       321   03 Jun 2027 15:40:22.430   03 Jun 2027 15:41:02.431            40.001               Magadan1          1250.031
       322   03 Jun 2027 15:42:18.088   03 Jun 2027 15:43:04.659            46.571               Magadan2          1455.344
       323   03 Jun 2027 17:05:56.584   03 Jun 2027 17:06:33.446            36.862                Anadyr2          1151.937
       324   03 Jun 2027 17:08:13.867   03 Jun 2027 17:08:58.396            44.529               Magadan2          1391.531
       325   03 Jun 2027 17:10:26.259   03 Jun 2027 17:11:26.121            59.862               Magadan1          1870.687
       326   03 Jun 2027 17:11:40.712   03 Jun 2027 17:12:01.872            21.160               Magadan2           661.250
       327   03 Jun 2027 17:15:24.868   03 Jun 2027 17:15:32.094             7.226               Magadan2           225.812
       328   03 Jun 2027 17:15:49.465   03 Jun 2027 17:16:00.929            11.464               Magadan1           358.250
       329   03 Jun 2027 17:16:30.272   03 Jun 2027 17:16:47.075            16.803               Magadan2           525.094
       330   03 Jun 2027 17:17:49.508   03 Jun 2027 17:18:14.399            24.891               Magadan1           777.844
       331   03 Jun 2027 18:01:07.069   03 Jun 2027 18:05:39.684           272.615            RioGallegos          8519.219
       332   03 Jun 2027 18:06:37.146   03 Jun 2027 18:07:59.342            82.196            RioGallegos          2568.625
       333   03 Jun 2027 18:43:51.300   03 Jun 2027 18:44:24.425            33.125                Norilsk          1035.156
       334   03 Jun 2027 18:45:29.748   03 Jun 2027 18:48:04.437           154.689                Norilsk          4834.031
       335   03 Jun 2027 18:48:21.796   03 Jun 2027 18:48:46.191            24.395                Irkutsk           762.344
       336   03 Jun 2027 18:49:17.915   03 Jun 2027 18:49:51.127            33.212                Irkutsk          1037.875
       337   03 Jun 2027 18:51:16.587   03 Jun 2027 18:52:31.328            74.741                Irkutsk          2335.656
       338   03 Jun 2027 19:02:34.058   03 Jun 2027 19:04:01.031            86.973                Sumatra          2717.906
       339   03 Jun 2027 19:05:52.001   03 Jun 2027 19:07:04.953            72.952                Sumatra          2279.750
       340   03 Jun 2027 19:08:49.627   03 Jun 2027 19:09:36.205            46.578                Sumatra          1455.563
       341   03 Jun 2027 20:23:34.132   03 Jun 2027 20:25:15.501           101.369                Irkutsk          3167.781
       342   03 Jun 2027 20:25:51.876   03 Jun 2027 20:27:11.362            79.486                Novosib          2483.938
       343   03 Jun 2027 20:32:35.552   03 Jun 2027 20:35:36.719           181.167                  Delhi          5661.469
       344   03 Jun 2027 20:39:35.695   03 Jun 2027 20:40:23.601            47.906                  Delhi          1497.063
       345   03 Jun 2027 21:58:19.827   03 Jun 2027 22:02:20.951           241.124              Murmansk1          7535.125
       346   03 Jun 2027 22:03:27.307   03 Jun 2027 22:04:34.458            67.151              Murmansk2          2098.469
       347   03 Jun 2027 23:29:34.116   03 Jun 2027 23:29:57.550            23.434               Magadan1           732.312
       348   03 Jun 2027 23:30:19.689   03 Jun 2027 23:31:29.195            69.506               Magadan1          2172.062
       349   03 Jun 2027 23:32:55.641   03 Jun 2027 23:33:03.558             7.917               Magadan2           247.406
       350   03 Jun 2027 23:33:51.322   03 Jun 2027 23:37:18.333           207.011              Murmansk2          6469.094
       351   03 Jun 2027 23:37:24.852   03 Jun 2027 23:39:06.827           101.975                 Moscow          3186.719
       352   03 Jun 2027 23:39:27.702   03 Jun 2027 23:40:43.853            76.151                 Moscow          2379.719
       353   03 Jun 2027 23:46:03.452   03 Jun 2027 23:46:47.592            44.140                 Moscow          1379.375
       354   04 Jun 2027 00:02:32.136   04 Jun 2027 00:04:59.549           147.413               CapeTown          4606.656
       355   04 Jun 2027 01:09:00.244   04 Jun 2027 01:09:16.344            16.100               Magadan1           503.125
       356   04 Jun 2027 01:09:48.260   04 Jun 2027 01:12:13.634           145.374              Murmansk1          4542.938
       357   04 Jun 2027 01:17:56.944   04 Jun 2027 01:18:25.398            28.454                 Moscow           889.187
       358   04 Jun 2027 01:37:03.141   04 Jun 2027 01:38:36.248            93.107               CapeTown          2909.594
       359   04 Jun 2027 01:46:31.152   04 Jun 2027 01:46:48.641            17.489               CapeTown           546.531
       360   04 Jun 2027 02:33:48.756   04 Jun 2027 02:33:51.105             2.349                Anadyr1            73.406
       361   04 Jun 2027 02:33:58.136   04 Jun 2027 02:35:34.119            95.983                Anadyr2          2999.469
       362   04 Jun 2027 02:35:46.328   04 Jun 2027 02:37:05.393            79.065               Magadan2          2470.781
       363   04 Jun 2027 02:41:58.235   04 Jun 2027 02:42:16.911            18.676                Norilsk           583.625
       364   04 Jun 2027 02:44:48.232   04 Jun 2027 02:45:07.692            19.460               Magadan2           608.125
       365   04 Jun 2027 02:45:43.306   04 Jun 2027 02:46:19.647            36.341              Murmansk1          1135.656
       366   04 Jun 2027 02:46:19.647   04 Jun 2027 02:47:04.488            44.841              Murmansk2          1401.281
       367   04 Jun 2027 02:48:31.778   04 Jun 2027 02:48:44.964            13.186              Murmansk2           412.063
       368   04 Jun 2027 02:49:16.300   04 Jun 2027 02:50:19.961            63.661                 Moscow          1989.406
       369   04 Jun 2027 02:56:38.538   04 Jun 2027 02:56:44.081             5.543                 Moscow           173.219
       370   04 Jun 2027 04:15:52.460   04 Jun 2027 04:17:08.655            76.195                Irkutsk          2381.094
       371   04 Jun 2027 04:17:52.977   04 Jun 2027 04:18:19.804            26.827                Anadyr1           838.344
       372   04 Jun 2027 04:18:27.158   04 Jun 2027 04:19:20.000            52.842               Magadan2          1651.312
       373   04 Jun 2027 04:19:27.938   04 Jun 2027 04:20:20.736            52.798               Magadan2          1649.937
       374   04 Jun 2027 04:58:53.891   04 Jun 2027 05:00:15.773            81.882            RioGallegos          2558.812
       375   04 Jun 2027 05:53:14.194   04 Jun 2027 05:54:15.826            61.632                Irkutsk          1926.000
       376   04 Jun 2027 05:54:17.517   04 Jun 2027 05:54:32.619            15.102                Norilsk           471.938
       377   04 Jun 2027 05:54:53.847   04 Jun 2027 05:57:18.870           145.023                Novosib          4531.969
       378   04 Jun 2027 05:57:27.414   04 Jun 2027 05:57:35.835             8.421               Magadan2           263.156
       379   04 Jun 2027 05:57:38.511   04 Jun 2027 05:58:23.264            44.753              Murmansk1          1398.531
       380   04 Jun 2027 05:58:27.668   04 Jun 2027 05:59:44.336            76.668                Norilsk          2395.875
       381   04 Jun 2027 06:00:08.209   04 Jun 2027 06:00:14.562             6.353                Norilsk           198.531
       382   04 Jun 2027 06:00:30.924   04 Jun 2027 06:01:56.249            85.325              Murmansk2          2666.406
       383   04 Jun 2027 06:02:01.504   04 Jun 2027 06:02:33.121            31.617                Norilsk           988.031
       384   04 Jun 2027 06:32:35.658   04 Jun 2027 06:35:50.886           195.228            RioGallegos          6100.875
       385   04 Jun 2027 06:36:55.373   04 Jun 2027 06:36:57.153             1.780            RioGallegos            55.625
       386   04 Jun 2027 07:08:20.232   04 Jun 2027 07:11:48.905           208.673                Sumatra          6521.031
       387   04 Jun 2027 07:29:42.139   04 Jun 2027 07:30:40.303            58.164                Irkutsk          1817.625
       388   04 Jun 2027 07:31:01.157   04 Jun 2027 07:33:51.874           170.717                Irkutsk          5334.906
       389   04 Jun 2027 07:34:07.471   04 Jun 2027 07:34:15.840             8.369              Murmansk2           261.531
       390   04 Jun 2027 07:34:32.672   04 Jun 2027 07:35:20.937            48.265                Novosib          1508.281
       391   04 Jun 2027 08:13:32.735   04 Jun 2027 08:14:31.400            58.665            RioGallegos          1833.281
       392   04 Jun 2027 08:44:07.462   04 Jun 2027 08:44:47.469            40.007                Sumatra          1250.219
       393   04 Jun 2027 08:51:55.956   04 Jun 2027 08:53:39.429           103.473                  Delhi          3233.531
       394   04 Jun 2027 09:05:25.476   04 Jun 2027 09:05:31.790             6.314                 Moscow           197.313
       395   04 Jun 2027 09:05:36.844   04 Jun 2027 09:05:39.985             3.141              Murmansk2            98.156
       396   04 Jun 2027 09:05:50.820   04 Jun 2027 09:06:14.165            23.345                Novosib           729.531
       397   04 Jun 2027 09:06:23.858   04 Jun 2027 09:06:49.983            26.125                 Moscow           816.406
       398   04 Jun 2027 09:07:06.281   04 Jun 2027 09:07:17.788            11.507              Murmansk1           359.594
       399   04 Jun 2027 09:07:17.788   04 Jun 2027 09:07:42.255            24.467              Murmansk2           764.594
       400   04 Jun 2027 09:07:45.230   04 Jun 2027 09:08:19.202            33.972                Novosib          1061.625
       401   04 Jun 2027 09:08:24.609   04 Jun 2027 09:09:58.913            94.304                 Moscow          2947.000
       402   04 Jun 2027 10:29:11.179   04 Jun 2027 10:31:18.787           127.608                  Delhi          3987.750
       403   04 Jun 2027 10:41:29.267   04 Jun 2027 10:41:31.096             1.829              Murmansk2            57.156
       404   04 Jun 2027 10:41:34.902   04 Jun 2027 10:41:58.557            23.655              Murmansk1           739.219
       405   04 Jun 2027 10:42:00.519   04 Jun 2027 10:42:26.107            25.588              Murmansk2           799.625
       406   04 Jun 2027 10:42:32.120   04 Jun 2027 10:42:51.820            19.700              Murmansk2           615.625
       407   04 Jun 2027 10:42:53.664   04 Jun 2027 10:43:07.568            13.904                 Moscow           434.500
       408   04 Jun 2027 10:43:38.255   04 Jun 2027 10:43:47.499             9.244              Murmansk2           288.875
       409   04 Jun 2027 10:43:48.124   04 Jun 2027 10:44:33.681            45.557                Novosib          1423.656
       410   04 Jun 2027 10:44:50.000   04 Jun 2027 10:45:44.259            54.259                 Moscow          1695.594
       411   04 Jun 2027 12:12:15.387   04 Jun 2027 12:13:23.404            68.017                 Moscow          2125.531
       412   04 Jun 2027 12:13:47.418   04 Jun 2027 12:14:10.592            23.174                 Moscow           724.187
       413   04 Jun 2027 12:14:37.120   04 Jun 2027 12:15:14.375            37.255                 Moscow          1164.219
       414   04 Jun 2027 12:15:45.991   04 Jun 2027 12:18:34.314           168.323              Murmansk2          5260.094
       415   04 Jun 2027 12:20:52.035   04 Jun 2027 12:21:12.536            20.501              Murmansk2           640.656
       416   04 Jun 2027 12:23:50.659   04 Jun 2027 12:23:53.109             2.450              Murmansk2            76.563
       417   04 Jun 2027 12:24:00.373   04 Jun 2027 12:24:10.451            10.078                Norilsk           314.937
       418   04 Jun 2027 12:25:43.274   04 Jun 2027 12:26:01.147            17.873              Murmansk1           558.531
       419   04 Jun 2027 12:31:29.681   04 Jun 2027 12:35:01.176           211.495                Anadyr2          6609.219
       420   04 Jun 2027 12:35:53.954   04 Jun 2027 12:37:04.463            70.509                Anadyr1          2203.406
       421   04 Jun 2027 13:53:51.394   04 Jun 2027 13:54:33.081            41.687              Murmansk2          1302.719
       422   04 Jun 2027 13:56:05.033   04 Jun 2027 13:56:34.275            29.242              Murmansk1           913.813
       423   04 Jun 2027 13:58:06.785   04 Jun 2027 13:58:27.239            20.454              Murmansk2           639.187
       424   04 Jun 2027 14:01:40.907   04 Jun 2027 14:01:49.097             8.190              Murmansk1           255.938
       425   04 Jun 2027 14:02:23.023   04 Jun 2027 14:03:01.691            38.668              Murmansk1          1208.375
       426   04 Jun 2027 14:06:14.485   04 Jun 2027 14:09:32.435           197.950                Anadyr2          6185.938
       427   04 Jun 2027 15:34:57.622   04 Jun 2027 15:37:34.290           156.668              Murmansk1          4895.875
       428   04 Jun 2027 15:42:02.441   04 Jun 2027 15:44:14.682           132.241                Anadyr2          4132.531
       429   04 Jun 2027 15:44:42.741   04 Jun 2027 15:48:44.824           242.083               Magadan1          7565.094
       430   04 Jun 2027 15:52:36.481   04 Jun 2027 15:53:35.530            59.049               Magadan2          1845.281
       431   04 Jun 2027 15:53:58.455   04 Jun 2027 15:54:13.164            14.709               Magadan2           459.656
       432   04 Jun 2027 17:17:57.493   04 Jun 2027 17:18:15.523            18.030                Anadyr1           563.438
       433   04 Jun 2027 17:20:14.483   04 Jun 2027 17:20:36.093            21.610               Magadan1           675.313
       434   04 Jun 2027 17:21:42.916   04 Jun 2027 17:23:19.496            96.580               Magadan1          3018.125
       435   04 Jun 2027 17:28:58.241   04 Jun 2027 17:29:27.840            29.599               Magadan2           924.969
       436   04 Jun 2027 18:12:46.660   04 Jun 2027 18:17:21.965           275.305            RioGallegos          8603.281
       437   04 Jun 2027 18:18:12.854   04 Jun 2027 18:19:09.183            56.329            RioGallegos          1760.281
       438   04 Jun 2027 18:55:50.490   04 Jun 2027 19:00:05.260           254.770                Norilsk          7961.563
       439   04 Jun 2027 19:01:06.700   04 Jun 2027 19:01:20.332            13.632                Irkutsk           426.000
       440   04 Jun 2027 19:01:59.773   04 Jun 2027 19:03:18.712            78.939                Irkutsk          2466.844
       441   04 Jun 2027 19:14:08.528   04 Jun 2027 19:16:02.270           113.742                Sumatra          3554.437
       442   04 Jun 2027 19:17:47.224   04 Jun 2027 19:20:11.986           144.762                Sumatra          4523.812
       443   04 Jun 2027 20:35:52.957   04 Jun 2027 20:36:49.100            56.143                Novosib          1754.469
       444   04 Jun 2027 20:42:04.261   04 Jun 2027 20:42:23.489            19.228                Novosib           600.875
       445   04 Jun 2027 20:43:59.448   04 Jun 2027 20:44:16.378            16.930                Novosib           529.062
       446   04 Jun 2027 20:44:22.797   04 Jun 2027 20:46:48.299           145.502                  Delhi          4546.937
       447   04 Jun 2027 20:50:05.766   04 Jun 2027 20:50:58.053            52.287                  Delhi          1633.969
       448   04 Jun 2027 22:10:14.009   04 Jun 2027 22:15:57.468           343.459              Murmansk1         10733.094
       449   04 Jun 2027 22:16:06.984   04 Jun 2027 22:19:48.373           221.389                 Moscow          6918.406
       450   04 Jun 2027 23:45:52.299   04 Jun 2027 23:47:01.869            69.570              Murmansk2          2174.063
       451   04 Jun 2027 23:49:20.044   04 Jun 2027 23:50:06.671            46.627                 Moscow          1457.094
       452   04 Jun 2027 23:51:29.979   04 Jun 2027 23:51:32.505             2.526                 Moscow            78.938
       453   04 Jun 2027 23:52:55.475   04 Jun 2027 23:53:26.493            31.018                 Moscow           969.313
       454   04 Jun 2027 23:55:49.242   04 Jun 2027 23:57:33.719           104.477                 Moscow          3264.906
       455   05 Jun 2027 00:14:03.552   05 Jun 2027 00:17:20.527           196.975               CapeTown          6155.469
       456   05 Jun 2027 01:20:27.320   05 Jun 2027 01:20:55.193            27.873               Magadan2           871.031
       457   05 Jun 2027 01:21:49.902   05 Jun 2027 01:24:11.080           141.178              Murmansk2          4411.812
       458   05 Jun 2027 01:33:06.964   05 Jun 2027 01:33:45.176            38.212                 Moscow          1194.125
       459   05 Jun 2027 01:49:17.480   05 Jun 2027 01:50:24.911            67.431               CapeTown          2107.219
       460   05 Jun 2027 01:57:31.752   05 Jun 2027 01:58:45.392            73.640               CapeTown          2301.250
       461   05 Jun 2027 02:45:58.105   05 Jun 2027 02:46:19.712            21.607                Anadyr1           675.219
       462   05 Jun 2027 02:46:19.712   05 Jun 2027 02:46:34.846            15.134                Anadyr2           472.937
       463   05 Jun 2027 02:46:40.932   05 Jun 2027 02:47:56.649            75.717                Anadyr1          2366.156
       464   05 Jun 2027 02:48:37.474   05 Jun 2027 02:48:56.005            18.531               Magadan2           579.094
       465   05 Jun 2027 02:49:43.616   05 Jun 2027 02:49:50.427             6.811               Magadan2           212.844
       466   05 Jun 2027 02:51:37.805   05 Jun 2027 02:51:55.513            17.708               Magadan2           553.375
       467   05 Jun 2027 02:55:34.835   05 Jun 2027 02:55:55.756            20.921                Norilsk           653.781
       468   05 Jun 2027 02:57:43.651   05 Jun 2027 02:59:05.899            82.248              Murmansk1          2570.250
       469   05 Jun 2027 04:27:57.229   05 Jun 2027 04:28:32.737            35.508                Irkutsk          1109.625
       470   05 Jun 2027 04:28:44.759   05 Jun 2027 04:29:29.215            44.456                Irkutsk          1389.250
       471   05 Jun 2027 04:30:42.372   05 Jun 2027 04:31:03.734            21.362                Norilsk           667.563
       472   05 Jun 2027 04:31:05.098   05 Jun 2027 04:31:24.578            19.480               Magadan1           608.750
       473   05 Jun 2027 04:31:24.578   05 Jun 2027 04:31:41.241            16.663               Magadan2           520.719
       474   05 Jun 2027 04:31:46.155   05 Jun 2027 04:32:14.562            28.407               Magadan2           887.719
       475   05 Jun 2027 04:32:24.448   05 Jun 2027 04:33:41.165            76.717                Anadyr2          2397.406
       476   05 Jun 2027 05:10:26.757   05 Jun 2027 05:12:18.255           111.498            RioGallegos          3484.313
       477   05 Jun 2027 06:05:16.607   05 Jun 2027 06:09:27.326           250.719               Magadan1          7834.969
       478   05 Jun 2027 06:09:27.959   05 Jun 2027 06:09:53.163            25.204                Novosib           787.625
       479   05 Jun 2027 06:09:53.532   05 Jun 2027 06:11:07.075            73.543              Murmansk2          2298.219
       480   05 Jun 2027 06:11:25.771   05 Jun 2027 06:11:47.008            21.237              Murmansk2           663.656
       481   05 Jun 2027 06:44:34.662   05 Jun 2027 06:46:37.708           123.046            RioGallegos          3845.188
       482   05 Jun 2027 07:19:58.737   05 Jun 2027 07:23:46.931           228.194                Sumatra          7131.062
