uniorb/output/strategy_1/Drop/Drop_KinoSat_110905.txt

KinoSat_110905
-------------------------
    Access    *     Start Time (UTCG)     *     Stop Time (UTCG)  *   Duration (s)        *       Station  *  Data (Mbytes)
         1   01 Jun 2027 03:31:55.966   01 Jun 2027 03:32:10.499            14.533               Magadan1           454.156
         2   01 Jun 2027 03:32:13.255   01 Jun 2027 03:32:33.684            20.429                Anadyr2           638.406
         3   01 Jun 2027 03:32:37.358   01 Jun 2027 03:34:44.165           126.807                Anadyr1          3962.719
         4   01 Jun 2027 03:34:44.165   01 Jun 2027 03:35:32.054            47.889                Anadyr2          1496.531
         5   01 Jun 2027 05:09:47.412   01 Jun 2027 05:09:50.519             3.107               Magadan1            97.094
         6   01 Jun 2027 05:10:00.197   01 Jun 2027 05:12:19.017           138.820                Anadyr1          4338.125
         7   01 Jun 2027 05:12:55.352   01 Jun 2027 05:13:51.262            55.910                Anadyr1          1747.188
         8   01 Jun 2027 05:50:55.418   01 Jun 2027 05:51:00.673             5.255            RioGallegos           164.219
         9   01 Jun 2027 06:44:05.726   01 Jun 2027 06:46:19.931           134.205               Magadan1          4193.906
        10   01 Jun 2027 06:46:27.301   01 Jun 2027 06:47:49.283            81.982               Magadan1          2561.937
        11   01 Jun 2027 06:48:06.999   01 Jun 2027 06:50:42.703           155.704              Murmansk2          4865.750
        12   01 Jun 2027 06:51:19.902   01 Jun 2027 06:51:35.751            15.849              Murmansk1           495.281
        13   01 Jun 2027 06:52:01.564   01 Jun 2027 06:53:13.866            72.302              Murmansk1          2259.438
        14   01 Jun 2027 07:24:15.721   01 Jun 2027 07:26:02.421           106.700            RioGallegos          3334.375
        15   01 Jun 2027 08:00:20.356   01 Jun 2027 08:02:30.422           130.066                Sumatra          4064.562
        16   01 Jun 2027 08:20:50.722   01 Jun 2027 08:22:31.262           100.540                Norilsk          3141.875
        17   01 Jun 2027 08:22:35.190   01 Jun 2027 08:23:05.457            30.267                Norilsk           945.844
        18   01 Jun 2027 08:23:07.206   01 Jun 2027 08:23:50.152            42.946                Irkutsk          1342.063
        19   01 Jun 2027 08:23:51.786   01 Jun 2027 08:25:29.275            97.489                Norilsk          3046.531
        20   01 Jun 2027 09:01:10.371   01 Jun 2027 09:01:45.732            35.361            RioGallegos          1105.031
        21   01 Jun 2027 09:35:25.853   01 Jun 2027 09:36:47.480            81.627                Sumatra          2550.844
        22   01 Jun 2027 09:43:44.162   01 Jun 2027 09:44:20.379            36.217                  Delhi          1131.781
        23   01 Jun 2027 09:46:05.117   01 Jun 2027 09:46:13.037             7.920                  Delhi           247.500
        24   01 Jun 2027 09:58:06.941   01 Jun 2027 10:00:32.591           145.650                Irkutsk          4551.563
        25   01 Jun 2027 10:02:24.679   01 Jun 2027 10:02:33.787             9.108                Norilsk           284.625
        26   01 Jun 2027 10:02:44.167   01 Jun 2027 10:02:51.408             7.241              Murmansk1           226.281
        27   01 Jun 2027 11:20:18.304   01 Jun 2027 11:23:30.479           192.175                  Delhi          6005.469
        28   01 Jun 2027 11:24:09.847   01 Jun 2027 11:25:10.057            60.210                  Delhi          1881.563
        29   01 Jun 2027 11:34:29.126   01 Jun 2027 11:34:42.399            13.273                Norilsk           414.781
        30   01 Jun 2027 11:34:49.133   01 Jun 2027 11:35:39.690            50.557              Murmansk1          1579.906
        31   01 Jun 2027 11:35:39.690   01 Jun 2027 11:36:25.971            46.281              Murmansk2          1446.281
        32   01 Jun 2027 11:36:37.116   01 Jun 2027 11:37:20.496            43.380              Murmansk2          1355.625
        33   01 Jun 2027 13:03:44.248   01 Jun 2027 13:07:33.893           229.645                 Moscow          7176.406
        34   01 Jun 2027 13:07:39.244   01 Jun 2027 13:11:14.681           215.437              Murmansk2          6732.406
        35   01 Jun 2027 13:13:06.633   01 Jun 2027 13:13:31.143            24.510              Murmansk2           765.938
        36   01 Jun 2027 13:13:47.686   01 Jun 2027 13:13:59.323            11.637                Norilsk           363.656
        37   01 Jun 2027 13:14:03.383   01 Jun 2027 13:14:30.005            26.622              Murmansk2           831.937
        38   01 Jun 2027 13:14:30.005   01 Jun 2027 13:14:41.875            11.870              Murmansk1           370.938
        39   01 Jun 2027 13:15:59.776   01 Jun 2027 13:16:13.627            13.851              Murmansk1           432.844
        40   01 Jun 2027 13:17:08.066   01 Jun 2027 13:17:41.514            33.448              Murmansk2          1045.250
        41   01 Jun 2027 13:23:29.519   01 Jun 2027 13:26:35.360           185.841                Anadyr1          5807.531
        42   01 Jun 2027 13:27:08.040   01 Jun 2027 13:27:46.608            38.568                Anadyr2          1205.250
        43   01 Jun 2027 14:18:59.092   01 Jun 2027 14:19:56.861            57.769               CapeTown          1805.281
        44   01 Jun 2027 14:45:07.827   01 Jun 2027 14:45:28.635            20.808              Murmansk2           650.250
        45   01 Jun 2027 14:46:12.935   01 Jun 2027 14:47:28.390            75.455              Murmansk1          2357.969
        46   01 Jun 2027 14:48:44.148   01 Jun 2027 14:49:59.253            75.105              Murmansk1          2347.031
        47   01 Jun 2027 14:57:52.478   01 Jun 2027 14:59:59.667           127.189                Anadyr2          3974.656
        48   01 Jun 2027 15:00:01.184   01 Jun 2027 15:00:40.693            39.509                Anadyr1          1234.656
        49   01 Jun 2027 15:01:41.052   01 Jun 2027 15:02:43.142            62.090                Anadyr1          1940.313
        50   01 Jun 2027 16:25:46.111   01 Jun 2027 16:27:36.275           110.164              Murmansk2          3442.625
        51   01 Jun 2027 16:27:36.275   01 Jun 2027 16:28:02.416            26.141              Murmansk1           816.906
        52   01 Jun 2027 16:33:38.368   01 Jun 2027 16:33:54.439            16.071                Anadyr1           502.219
        53   01 Jun 2027 16:35:00.600   01 Jun 2027 16:35:22.572            21.972                Anadyr2           686.625
        54   01 Jun 2027 16:35:32.865   01 Jun 2027 16:36:44.113            71.248                Anadyr2          2226.500
        55   01 Jun 2027 16:36:47.483   01 Jun 2027 16:41:10.787           263.304               Magadan2          8228.250
        56   01 Jun 2027 18:09:33.781   01 Jun 2027 18:11:15.938           102.157                Anadyr1          3192.406
        57   01 Jun 2027 18:11:39.871   01 Jun 2027 18:13:36.814           116.943                Anadyr2          3654.469
        58   01 Jun 2027 18:13:40.160   01 Jun 2027 18:16:04.096           143.936               Magadan2          4498.000
        59   01 Jun 2027 18:19:02.845   01 Jun 2027 18:19:14.058            11.213               Magadan1           350.406
        60   01 Jun 2027 18:23:47.054   01 Jun 2027 18:24:06.667            19.613               Magadan1           612.906
        61   01 Jun 2027 18:24:06.667   01 Jun 2027 18:24:28.674            22.007               Magadan2           687.719
        62   01 Jun 2027 19:04:39.060   01 Jun 2027 19:07:58.102           199.042            RioGallegos          6220.063
        63   01 Jun 2027 19:09:06.443   01 Jun 2027 19:09:30.425            23.982            RioGallegos           749.438
        64   01 Jun 2027 19:10:41.826   01 Jun 2027 19:11:19.363            37.537            RioGallegos          1173.031
        65   01 Jun 2027 19:45:42.733   01 Jun 2027 19:47:08.989            86.256                Anadyr2          2695.500
        66   01 Jun 2027 19:47:27.680   01 Jun 2027 19:51:28.762           241.082                Norilsk          7533.812
        67   01 Jun 2027 19:51:56.159   01 Jun 2027 19:52:30.604            34.445                Irkutsk          1076.406
        68   01 Jun 2027 19:52:57.963   01 Jun 2027 19:53:21.772            23.809                Irkutsk           744.031
        69   01 Jun 2027 19:53:46.763   01 Jun 2027 19:54:13.513            26.750                Irkutsk           835.937
        70   01 Jun 2027 19:54:31.134   01 Jun 2027 19:55:35.429            64.295                Irkutsk          2009.219
        71   01 Jun 2027 20:06:05.131   01 Jun 2027 20:07:17.105            71.974                Sumatra          2249.188
        72   01 Jun 2027 20:09:17.303   01 Jun 2027 20:10:29.021            71.718                Sumatra          2241.188
        73   01 Jun 2027 20:11:29.139   01 Jun 2027 20:12:13.244            44.105                Sumatra          1378.281
        74   01 Jun 2027 21:27:11.244   01 Jun 2027 21:27:24.266            13.022                Irkutsk           406.937
        75   01 Jun 2027 21:27:34.465   01 Jun 2027 21:29:13.349            98.884                Novosib          3090.125
        76   01 Jun 2027 21:30:04.705   01 Jun 2027 21:30:45.203            40.498                Novosib          1265.563
        77   01 Jun 2027 21:36:05.080   01 Jun 2027 21:37:13.603            68.523                  Delhi          2141.344
        78   01 Jun 2027 21:37:31.069   01 Jun 2027 21:39:02.512            91.443                  Delhi          2857.594
        79   01 Jun 2027 21:42:47.659   01 Jun 2027 21:43:22.942            35.283                  Delhi          1102.594
        80   01 Jun 2027 22:59:44.082   01 Jun 2027 23:01:05.583            81.501               Magadan1          2546.906
        81   01 Jun 2027 23:01:05.583   01 Jun 2027 23:01:53.294            47.711               Magadan2          1490.969
        82   01 Jun 2027 23:01:54.940   01 Jun 2027 23:05:45.474           230.534              Murmansk1          7204.188
        83   01 Jun 2027 23:06:10.003   01 Jun 2027 23:08:30.461           140.458              Murmansk2          4389.313
        84   02 Jun 2027 00:27:26.870   02 Jun 2027 00:27:35.666             8.796                Anadyr2           274.875
        85   02 Jun 2027 00:30:02.334   02 Jun 2027 00:30:39.692            37.358                Anadyr1          1167.437
        86   02 Jun 2027 00:33:05.646   02 Jun 2027 00:34:43.256            97.610               Magadan2          3050.312
        87   02 Jun 2027 00:35:06.570   02 Jun 2027 00:35:19.835            13.265               Magadan2           414.531
        88   02 Jun 2027 00:36:25.189   02 Jun 2027 00:36:44.961            19.772               Magadan2           617.875
        89   02 Jun 2027 00:37:28.258   02 Jun 2027 00:38:22.357            54.099              Murmansk2          1690.594
        90   02 Jun 2027 00:38:38.836   02 Jun 2027 00:39:27.944            49.108              Murmansk1          1534.625
        91   02 Jun 2027 00:40:08.393   02 Jun 2027 00:40:42.233            33.840                Novosib          1057.500
        92   02 Jun 2027 00:41:00.548   02 Jun 2027 00:41:45.010            44.462                 Moscow          1389.437
        93   02 Jun 2027 00:41:50.224   02 Jun 2027 00:42:36.766            46.542                 Moscow          1454.438
        94   02 Jun 2027 00:43:31.810   02 Jun 2027 00:43:35.482             3.672                 Moscow           114.750
        95   02 Jun 2027 00:45:38.415   02 Jun 2027 00:46:55.985            77.570                 Moscow          2424.063
        96   02 Jun 2027 00:49:43.241   02 Jun 2027 00:50:07.013            23.772                 Moscow           742.875
        97   02 Jun 2027 01:06:02.855   02 Jun 2027 01:07:42.236            99.381               CapeTown          3105.656
        98   02 Jun 2027 01:10:59.124   02 Jun 2027 01:11:42.914            43.790               CapeTown          1368.437
        99   02 Jun 2027 02:02:24.308   02 Jun 2027 02:03:19.821            55.513                Anadyr1          1734.781
       100   02 Jun 2027 02:04:45.406   02 Jun 2027 02:05:46.511            61.105               Magadan1          1909.531
       101   02 Jun 2027 02:05:55.311   02 Jun 2027 02:06:19.074            23.763               Magadan1           742.594
       102   02 Jun 2027 02:10:41.059   02 Jun 2027 02:11:18.086            37.027                Norilsk          1157.094
       103   02 Jun 2027 02:13:25.489   02 Jun 2027 02:14:46.620            81.131              Murmansk2          2535.344
       104   02 Jun 2027 02:15:25.736   02 Jun 2027 02:15:36.469            10.733              Murmansk1           335.406
       105   02 Jun 2027 02:16:10.841   02 Jun 2027 02:16:40.051            29.210              Murmansk2           912.812
       106   02 Jun 2027 02:16:42.277   02 Jun 2027 02:17:16.391            34.114                Novosib          1066.062
       107   02 Jun 2027 02:23:33.027   02 Jun 2027 02:24:41.467            68.440                 Moscow          2138.750
       108   02 Jun 2027 02:43:36.521   02 Jun 2027 02:44:06.524            30.003               CapeTown           937.594
       109   02 Jun 2027 02:46:07.114   02 Jun 2027 02:46:23.547            16.433               CapeTown           513.531
       110   02 Jun 2027 02:48:37.884   02 Jun 2027 02:49:20.463            42.579               CapeTown          1330.594
       111   02 Jun 2027 02:52:55.966   02 Jun 2027 02:53:05.532             9.566               CapeTown           298.937
       112   02 Jun 2027 03:43:14.467   02 Jun 2027 03:44:20.247            65.780               Magadan1          2055.625
       113   02 Jun 2027 03:44:37.758   02 Jun 2027 03:46:11.512            93.754                Anadyr1          2929.813
       114   02 Jun 2027 03:48:43.586   02 Jun 2027 03:49:12.120            28.534                Anadyr2           891.688
       115   02 Jun 2027 05:21:55.967   02 Jun 2027 05:22:56.568            60.601                Irkutsk          1893.781
       116   02 Jun 2027 05:23:22.226   02 Jun 2027 05:23:48.397            26.171                Irkutsk           817.844
       117   02 Jun 2027 05:23:56.749   02 Jun 2027 05:25:41.464           104.715                Anadyr2          3272.344
       118   02 Jun 2027 06:56:29.984   02 Jun 2027 06:56:51.394            21.410               Magadan1           669.063
       119   02 Jun 2027 06:57:09.731   02 Jun 2027 06:57:38.978            29.247                Novosib           913.969
       120   02 Jun 2027 06:57:42.008   02 Jun 2027 07:00:48.458           186.450               Magadan1          5826.563
       121   02 Jun 2027 07:00:50.848   02 Jun 2027 07:01:04.690            13.842              Murmansk2           432.562
       122   02 Jun 2027 07:01:18.188   02 Jun 2027 07:01:54.260            36.072                Norilsk          1127.250
       123   02 Jun 2027 07:02:17.008   02 Jun 2027 07:02:34.356            17.348              Murmansk2           542.125
       124   02 Jun 2027 07:02:34.356   02 Jun 2027 07:02:39.844             5.488              Murmansk1           171.500
       125   02 Jun 2027 07:03:10.005   02 Jun 2027 07:05:39.336           149.331              Murmansk1          4666.594
       126   02 Jun 2027 07:05:46.555   02 Jun 2027 07:06:10.334            23.779              Murmansk2           743.094
       127   02 Jun 2027 07:36:12.158   02 Jun 2027 07:37:09.797            57.639            RioGallegos          1801.219
       128   02 Jun 2027 07:37:59.680   02 Jun 2027 07:38:09.947            10.267            RioGallegos           320.844
       129   02 Jun 2027 07:38:15.851   02 Jun 2027 07:38:40.588            24.737            RioGallegos           773.031
       130   02 Jun 2027 08:11:52.194   02 Jun 2027 08:14:55.557           183.363                Sumatra          5730.094
       131   02 Jun 2027 08:33:31.358   02 Jun 2027 08:37:28.755           237.397                Irkutsk          7418.656
       132   02 Jun 2027 10:09:31.797   02 Jun 2027 10:09:44.260            12.463                Irkutsk           389.469
       133   02 Jun 2027 10:10:45.381   02 Jun 2027 10:12:41.836           116.455              Murmansk2          3639.219
       134   02 Jun 2027 10:12:46.066   02 Jun 2027 10:14:19.539            93.473              Murmansk2          2921.031
       135   02 Jun 2027 10:14:39.823   02 Jun 2027 10:14:43.448             3.625              Murmansk1           113.281
       136   02 Jun 2027 10:14:47.380   02 Jun 2027 10:15:12.186            24.806              Murmansk1           775.188
       137   02 Jun 2027 11:32:56.752   02 Jun 2027 11:37:31.445           274.693                  Delhi          8584.156
       138   02 Jun 2027 11:46:28.235   02 Jun 2027 11:48:14.788           106.553              Murmansk2          3329.781
       139   02 Jun 2027 11:48:22.776   02 Jun 2027 11:50:33.458           130.682              Murmansk2          4083.813
       140   02 Jun 2027 11:51:25.567   02 Jun 2027 11:51:50.290            24.723              Murmansk2           772.594
       141   02 Jun 2027 11:52:30.386   02 Jun 2027 11:52:31.976             1.590                 Moscow            49.687
       142   02 Jun 2027 11:52:33.609   02 Jun 2027 11:53:00.087            26.478                Norilsk           827.438
       143   02 Jun 2027 13:15:54.646   02 Jun 2027 13:17:19.957            85.311                 Moscow          2665.969
       144   02 Jun 2027 13:18:35.177   02 Jun 2027 13:18:51.151            15.974                 Moscow           499.187
       145   02 Jun 2027 13:19:24.865   02 Jun 2027 13:24:06.304           281.439              Murmansk1          8794.969
       146   02 Jun 2027 13:27:24.888   02 Jun 2027 13:28:27.011            62.123                Norilsk          1941.344
       147   02 Jun 2027 13:35:01.507   02 Jun 2027 13:40:44.966           343.459                Anadyr2         10733.094
       148   02 Jun 2027 14:57:33.526   02 Jun 2027 14:58:20.760            47.234              Murmansk2          1476.062
       149   02 Jun 2027 14:58:35.818   02 Jun 2027 14:58:58.215            22.397              Murmansk2           699.906
       150   02 Jun 2027 15:00:20.461   02 Jun 2027 15:00:30.585            10.124              Murmansk2           316.375
       151   02 Jun 2027 15:02:01.165   02 Jun 2027 15:02:19.870            18.705              Murmansk2           584.531
       152   02 Jun 2027 15:05:20.411   02 Jun 2027 15:05:49.484            29.073              Murmansk1           908.531
       153   02 Jun 2027 15:05:58.618   02 Jun 2027 15:06:10.452            11.834              Murmansk1           369.813
       154   02 Jun 2027 15:06:35.019   02 Jun 2027 15:07:30.348            55.329              Murmansk2          1729.031
       155   02 Jun 2027 15:09:51.028   02 Jun 2027 15:11:03.449            72.421                Anadyr2          2263.156
       156   02 Jun 2027 15:11:26.371   02 Jun 2027 15:12:02.341            35.970                Anadyr2          1124.063
       157   02 Jun 2027 15:13:25.916   02 Jun 2027 15:13:51.132            25.216                Anadyr2           788.000
       158   02 Jun 2027 15:15:03.050   02 Jun 2027 15:15:33.120            30.070                Anadyr2           939.687
       159   02 Jun 2027 15:16:01.359   02 Jun 2027 15:16:21.422            20.063                Anadyr2           626.969
       160   02 Jun 2027 15:16:38.903   02 Jun 2027 15:17:04.631            25.728                Anadyr2           804.000
       161   02 Jun 2027 15:17:53.079   02 Jun 2027 15:19:01.820            68.741                Anadyr2          2148.156
       162   02 Jun 2027 15:19:56.065   02 Jun 2027 15:20:23.233            27.168                Anadyr2           849.000
       163   02 Jun 2027 15:21:07.888   02 Jun 2027 15:21:23.308            15.420                Anadyr1           481.875
       164   02 Jun 2027 16:38:47.102   02 Jun 2027 16:41:41.132           174.030              Murmansk2          5438.438
       165   02 Jun 2027 16:45:39.629   02 Jun 2027 16:46:46.819            67.190                Anadyr1          2099.688
       166   02 Jun 2027 16:47:48.392   02 Jun 2027 16:48:28.861            40.469                Anadyr1          1264.656
       167   02 Jun 2027 16:48:59.651   02 Jun 2027 16:50:53.820           114.169               Magadan1          3567.781
       168   02 Jun 2027 16:51:09.929   02 Jun 2027 16:53:05.232           115.303               Magadan1          3603.219
       169   02 Jun 2027 16:58:31.575   02 Jun 2027 16:59:16.346            44.771               Magadan2          1399.094
       170   02 Jun 2027 18:21:34.706   02 Jun 2027 18:24:49.767           195.061                Anadyr2          6095.656
       171   02 Jun 2027 18:24:58.060   02 Jun 2027 18:26:59.332           121.272                Norilsk          3789.750
       172   02 Jun 2027 18:29:20.841   02 Jun 2027 18:30:44.523            83.682               Magadan2          2615.062
       173   02 Jun 2027 18:34:01.164   02 Jun 2027 18:34:50.443            49.279               Magadan2          1539.969
       174   02 Jun 2027 18:35:01.185   02 Jun 2027 18:35:41.034            39.849               Magadan1          1245.281
       175   02 Jun 2027 19:16:19.980   02 Jun 2027 19:17:03.661            43.681            RioGallegos          1365.031
       176   02 Jun 2027 19:17:50.276   02 Jun 2027 19:18:07.581            17.305            RioGallegos           540.781
       177   02 Jun 2027 19:18:20.108   02 Jun 2027 19:18:33.940            13.832            RioGallegos           432.250
       178   02 Jun 2027 19:19:47.537   02 Jun 2027 19:22:40.847           173.310            RioGallegos          5415.938
       179   02 Jun 2027 19:59:27.095   02 Jun 2027 20:01:25.337           118.242                Norilsk          3695.063
       180   02 Jun 2027 20:03:46.268   02 Jun 2027 20:05:03.506            77.238                Irkutsk          2413.688
       181   02 Jun 2027 20:05:52.963   02 Jun 2027 20:06:15.049            22.086                Irkutsk           690.188
       182   02 Jun 2027 20:06:50.434   02 Jun 2027 20:07:31.307            40.873                Irkutsk          1277.281
       183   02 Jun 2027 20:12:44.093   02 Jun 2027 20:13:28.970            44.877                Irkutsk          1402.406
       184   02 Jun 2027 20:13:45.020   02 Jun 2027 20:14:30.047            45.027                Irkutsk          1407.094
       185   02 Jun 2027 20:17:41.297   02 Jun 2027 20:18:37.207            55.910                Sumatra          1747.187
       186   02 Jun 2027 20:19:43.794   02 Jun 2027 20:21:12.000            88.206                Sumatra          2756.438
       187   02 Jun 2027 20:27:02.157   02 Jun 2027 20:28:06.839            64.682                Sumatra          2021.312
       188   02 Jun 2027 21:37:11.131   02 Jun 2027 21:37:43.143            32.012               Magadan2          1000.375
       189   02 Jun 2027 21:39:12.755   02 Jun 2027 21:40:17.599            64.844                Irkutsk          2026.375
       190   02 Jun 2027 21:41:07.254   02 Jun 2027 21:41:23.062            15.808                Novosib           494.000
       191   02 Jun 2027 21:41:43.718   02 Jun 2027 21:42:11.813            28.095                Novosib           877.969
       192   02 Jun 2027 21:44:26.869   02 Jun 2027 21:45:19.857            52.988                Novosib          1655.875
       193   02 Jun 2027 21:46:14.711   02 Jun 2027 21:46:38.882            24.171                Novosib           755.344
       194   02 Jun 2027 21:47:35.585   02 Jun 2027 21:49:38.489           122.904                  Delhi          3840.750
       195   02 Jun 2027 21:51:55.482   02 Jun 2027 21:52:24.546            29.064                  Delhi           908.250
       196   02 Jun 2027 21:53:28.715   02 Jun 2027 21:54:20.267            51.552                  Delhi          1611.000
       197   02 Jun 2027 21:57:59.954   02 Jun 2027 21:58:12.748            12.794                  Delhi           399.813
       198   02 Jun 2027 23:08:07.374   02 Jun 2027 23:08:17.508            10.134                Anadyr1           316.688
       199   02 Jun 2027 23:09:31.752   02 Jun 2027 23:09:45.897            14.145                Anadyr1           442.031
       200   02 Jun 2027 23:11:07.652   02 Jun 2027 23:11:52.064            44.412                Anadyr2          1387.875
       201   02 Jun 2027 23:11:53.752   02 Jun 2027 23:13:01.149            67.397                Norilsk          2106.156
       202   02 Jun 2027 23:13:21.243   02 Jun 2027 23:13:37.478            16.235               Magadan2           507.344
       203   02 Jun 2027 23:13:49.658   02 Jun 2027 23:16:31.742           162.084              Murmansk2          5065.125
       204   02 Jun 2027 23:17:28.945   02 Jun 2027 23:17:43.989            15.044              Murmansk1           470.125
       205   02 Jun 2027 23:18:59.813   02 Jun 2027 23:19:42.532            42.719              Murmansk2          1334.969
       206   02 Jun 2027 23:20:34.121   02 Jun 2027 23:22:15.546           101.425                 Moscow          3169.531
       207   02 Jun 2027 23:32:18.148   02 Jun 2027 23:32:27.943             9.795                  Delhi           306.094
       208   02 Jun 2027 23:33:48.068   02 Jun 2027 23:34:47.205            59.137                  Delhi          1848.031
       209   03 Jun 2027 00:39:10.690   03 Jun 2027 00:39:26.010            15.320                Anadyr2           478.750
       210   03 Jun 2027 00:40:31.940   03 Jun 2027 00:41:02.816            30.876                Anadyr1           964.875
       211   03 Jun 2027 00:41:19.620   03 Jun 2027 00:41:48.654            29.034                Anadyr2           907.313
       212   03 Jun 2027 00:43:42.972   03 Jun 2027 00:44:46.772            63.800                Anadyr2          1993.750
       213   03 Jun 2027 00:45:43.521   03 Jun 2027 00:46:35.062            51.541               Magadan1          1610.656
       214   03 Jun 2027 00:46:35.062   03 Jun 2027 00:47:05.341            30.279               Magadan2           946.219
       215   03 Jun 2027 00:47:22.831   03 Jun 2027 00:47:40.037            17.206               Magadan2           537.687
       216   03 Jun 2027 00:48:49.125   03 Jun 2027 00:49:11.250            22.125               Magadan2           691.406
       217   03 Jun 2027 00:49:29.343   03 Jun 2027 00:50:04.421            35.078              Murmansk2          1096.188
       218   03 Jun 2027 00:50:40.234   03 Jun 2027 00:51:12.475            32.241              Murmansk1          1007.531
       219   03 Jun 2027 00:51:49.414   03 Jun 2027 00:52:29.469            40.055              Murmansk2          1251.719
       220   03 Jun 2027 00:55:11.165   03 Jun 2027 00:55:18.625             7.460                 Moscow           233.125
       221   03 Jun 2027 00:55:28.702   03 Jun 2027 00:55:38.919            10.217                Novosib           319.281
       222   03 Jun 2027 00:55:48.180   03 Jun 2027 00:56:02.456            14.276              Murmansk1           446.125
       223   03 Jun 2027 00:56:23.788   03 Jun 2027 00:56:54.380            30.592              Murmansk2           956.000
       224   03 Jun 2027 00:59:12.966   03 Jun 2027 00:59:46.436            33.470              Murmansk1          1045.937
       225   03 Jun 2027 01:00:59.632   03 Jun 2027 01:01:04.420             4.788              Murmansk2           149.625
       226   03 Jun 2027 01:02:07.025   03 Jun 2027 01:02:28.001            20.976                 Moscow           655.500
       227   03 Jun 2027 01:02:40.055   03 Jun 2027 01:04:17.986            97.931                 Moscow          3060.344
       228   03 Jun 2027 01:26:10.482   03 Jun 2027 01:26:52.833            42.351               CapeTown          1323.469
       229   03 Jun 2027 02:13:30.462   03 Jun 2027 02:14:13.901            43.439                Anadyr2          1357.469
       230   03 Jun 2027 02:15:47.854   03 Jun 2027 02:16:13.426            25.572                Anadyr1           799.125
       231   03 Jun 2027 02:16:18.723   03 Jun 2027 02:17:23.039            64.316               Magadan1          2009.875
       232   03 Jun 2027 02:19:01.978   03 Jun 2027 02:19:17.320            15.342               Magadan1           479.438
       233   03 Jun 2027 02:20:30.355   03 Jun 2027 02:21:36.347            65.992               Magadan2          2062.250
       234   03 Jun 2027 02:25:27.168   03 Jun 2027 02:26:13.499            46.331              Murmansk1          1447.844
       235   03 Jun 2027 02:26:40.380   03 Jun 2027 02:27:23.748            43.368              Murmansk1          1355.250
       236   03 Jun 2027 02:30:21.438   03 Jun 2027 02:30:58.491            37.053                Novosib          1157.906
       237   03 Jun 2027 02:33:42.693   03 Jun 2027 02:34:12.600            29.907              Murmansk1           934.594
       238   03 Jun 2027 02:36:08.273   03 Jun 2027 02:36:26.477            18.204              Murmansk2           568.875
       239   03 Jun 2027 02:36:55.730   03 Jun 2027 02:37:02.023             6.293              Murmansk1           196.656
       240   03 Jun 2027 02:37:22.376   03 Jun 2027 02:37:57.248            34.872              Murmansk2          1089.750
       241   03 Jun 2027 03:00:21.532   03 Jun 2027 03:00:47.680            26.148               CapeTown           817.125
       242   03 Jun 2027 03:01:19.110   03 Jun 2027 03:02:36.751            77.641               CapeTown          2426.281
       243   03 Jun 2027 03:56:10.626   03 Jun 2027 03:57:44.397            93.771               Magadan2          2930.344
       244   03 Jun 2027 03:58:12.762   03 Jun 2027 04:00:32.644           139.882                Anadyr1          4371.313
       245   03 Jun 2027 04:00:32.644   03 Jun 2027 04:02:10.805            98.161                Anadyr2          3067.531
       246   03 Jun 2027 04:45:16.760   03 Jun 2027 04:45:52.288            35.528            RioGallegos          1110.250
       247   03 Jun 2027 05:33:34.716   03 Jun 2027 05:34:42.581            67.865                Irkutsk          2120.781
       248   03 Jun 2027 05:34:43.999   03 Jun 2027 05:36:11.643            87.644               Magadan2          2738.875
       249   03 Jun 2027 05:36:11.643   03 Jun 2027 05:37:47.479            95.836               Magadan1          2994.875
       250   03 Jun 2027 07:08:41.651   03 Jun 2027 07:09:54.450            72.799               Magadan1          2274.969
       251   03 Jun 2027 07:10:02.128   03 Jun 2027 07:10:57.552            55.424                Irkutsk          1732.000
       252   03 Jun 2027 07:11:06.357   03 Jun 2027 07:13:27.216           140.859                Irkutsk          4401.844
       253   03 Jun 2027 07:14:08.739   03 Jun 2027 07:14:35.569            26.830                Novosib           838.438
       254   03 Jun 2027 07:14:35.702   03 Jun 2027 07:15:11.800            36.098              Murmansk1          1128.062
       255   03 Jun 2027 07:15:35.872   03 Jun 2027 07:16:23.725            47.853              Murmansk2          1495.406
       256   03 Jun 2027 07:48:11.837   03 Jun 2027 07:49:00.897            49.060            RioGallegos          1533.125
       257   03 Jun 2027 07:49:20.323   03 Jun 2027 07:49:55.479            35.156            RioGallegos          1098.625
       258   03 Jun 2027 08:23:32.240   03 Jun 2027 08:24:42.568            70.328                Sumatra          2197.750
       259   03 Jun 2027 08:36:16.738   03 Jun 2027 08:37:25.240            68.502                  Delhi          2140.688
       260   03 Jun 2027 08:44:57.869   03 Jun 2027 08:47:46.777           168.908                Irkutsk          5278.375
       261   03 Jun 2027 08:47:59.423   03 Jun 2027 08:49:27.620            88.197                Irkutsk          2756.156
       262   03 Jun 2027 08:50:55.395   03 Jun 2027 08:51:01.884             6.489                Novosib           202.781
       263   03 Jun 2027 09:29:48.684   03 Jun 2027 09:30:25.336            36.652            RioGallegos          1145.375
       264   03 Jun 2027 10:00:24.396   03 Jun 2027 10:00:44.919            20.523                Sumatra           641.344
       265   03 Jun 2027 10:01:48.610   03 Jun 2027 10:03:18.624            90.014                Sumatra          2812.937
       266   03 Jun 2027 10:07:22.628   03 Jun 2027 10:08:39.946            77.318                  Delhi          2416.187
       267   03 Jun 2027 10:22:12.458   03 Jun 2027 10:23:00.545            48.087              Murmansk1          1502.719
       268   03 Jun 2027 10:23:09.034   03 Jun 2027 10:24:31.287            82.253                 Moscow          2570.406
       269   03 Jun 2027 10:24:42.176   03 Jun 2027 10:24:53.825            11.649              Murmansk2           364.031
       270   03 Jun 2027 10:24:53.825   03 Jun 2027 10:26:06.828            73.003              Murmansk1          2281.344
       271   03 Jun 2027 10:26:27.971   03 Jun 2027 10:27:57.122            89.151                 Moscow          2785.969
       272   03 Jun 2027 11:45:53.598   03 Jun 2027 11:47:02.677            69.079                  Delhi          2158.719
       273   03 Jun 2027 11:48:36.004   03 Jun 2027 11:50:00.882            84.878                  Delhi          2652.438
       274   03 Jun 2027 11:56:52.222   03 Jun 2027 11:57:10.990            18.768              Murmansk1           586.500
       275   03 Jun 2027 11:57:16.529   03 Jun 2027 11:58:30.002            73.473              Murmansk1          2296.031
       276   03 Jun 2027 11:58:39.341   03 Jun 2027 11:58:42.884             3.543              Murmansk2           110.719
       277   03 Jun 2027 11:58:46.234   03 Jun 2027 11:59:22.254            36.020                Norilsk          1125.625
       278   03 Jun 2027 11:59:25.159   03 Jun 2027 12:00:30.150            64.991                 Moscow          2030.969
       279   03 Jun 2027 12:01:09.161   03 Jun 2027 12:01:20.436            11.275              Murmansk1           352.344
       280   03 Jun 2027 12:01:29.753   03 Jun 2027 12:02:20.416            50.663              Murmansk1          1583.219
       281   03 Jun 2027 12:03:59.921   03 Jun 2027 12:04:06.977             7.056              Murmansk1           220.500
       282   03 Jun 2027 12:04:10.919   03 Jun 2027 12:04:34.953            24.034                 Moscow           751.062
       283   03 Jun 2027 12:04:40.678   03 Jun 2027 12:05:22.192            41.514              Murmansk2          1297.312
       284   03 Jun 2027 12:06:18.075   03 Jun 2027 12:06:20.538             2.463                Norilsk            76.969
       285   03 Jun 2027 12:06:46.852   03 Jun 2027 12:07:09.723            22.871              Murmansk2           714.719
       286   03 Jun 2027 12:07:09.723   03 Jun 2027 12:08:05.493            55.770              Murmansk1          1742.813
       287   03 Jun 2027 13:08:27.385   03 Jun 2027 13:10:25.418           118.033               CapeTown          3688.531
       288   03 Jun 2027 13:11:48.021   03 Jun 2027 13:12:42.012            53.991               CapeTown          1687.219
       289   03 Jun 2027 13:31:35.800   03 Jun 2027 13:34:21.123           165.323              Murmansk2          5166.344
       290   03 Jun 2027 13:36:32.641   03 Jun 2027 13:36:55.497            22.856              Murmansk2           714.250
       291   03 Jun 2027 13:38:45.622   03 Jun 2027 13:39:31.259            45.637              Murmansk1          1426.156
       292   03 Jun 2027 13:40:56.594   03 Jun 2027 13:41:20.363            23.769              Murmansk2           742.781
       293   03 Jun 2027 13:42:25.929   03 Jun 2027 13:42:43.131            17.202              Murmansk2           537.563
       294   03 Jun 2027 13:43:56.164   03 Jun 2027 13:44:03.443             7.279              Murmansk1           227.469
       295   03 Jun 2027 13:46:44.120   03 Jun 2027 13:49:42.755           178.635                Anadyr1          5582.344
       296   03 Jun 2027 13:52:45.538   03 Jun 2027 13:53:03.811            18.273                Anadyr2           571.031
       297   03 Jun 2027 13:53:13.096   03 Jun 2027 13:53:48.529            35.433                Anadyr1          1107.281
       298   03 Jun 2027 15:08:49.121   03 Jun 2027 15:09:19.058            29.937                 Moscow           935.531
       299   03 Jun 2027 15:10:20.702   03 Jun 2027 15:10:35.907            15.205              Murmansk1           475.156
       300   03 Jun 2027 15:12:06.116   03 Jun 2027 15:12:07.161             1.045              Murmansk1            32.656
       301   03 Jun 2027 15:12:22.072   03 Jun 2027 15:12:47.589            25.517              Murmansk1           797.406
       302   03 Jun 2027 15:15:20.941   03 Jun 2027 15:15:59.427            38.486              Murmansk2          1202.688
       303   03 Jun 2027 15:17:51.207   03 Jun 2027 15:18:08.427            17.220              Murmansk1           538.125
       304   03 Jun 2027 15:19:32.802   03 Jun 2027 15:19:52.609            19.807              Murmansk1           618.969
       305   03 Jun 2027 15:21:50.219   03 Jun 2027 15:23:35.489           105.270                Anadyr1          3289.688
       306   03 Jun 2027 15:27:21.090   03 Jun 2027 15:29:13.296           112.206               Magadan1          3506.438
       307   03 Jun 2027 16:52:12.076   03 Jun 2027 16:54:09.180           117.104              Murmansk1          3659.500
       308   03 Jun 2027 16:57:40.983   03 Jun 2027 17:00:18.364           157.381                Anadyr1          4918.156
       309   03 Jun 2027 17:00:52.231   03 Jun 2027 17:02:16.361            84.130               Magadan1          2629.062
       310   03 Jun 2027 17:02:19.454   03 Jun 2027 17:02:31.559            12.105               Magadan1           378.281
       311   03 Jun 2027 17:06:30.276   03 Jun 2027 17:06:45.571            15.295               Magadan2           477.969
       312   03 Jun 2027 17:07:02.711   03 Jun 2027 17:07:11.364             8.653               Magadan2           270.406
       313   03 Jun 2027 17:07:20.819   03 Jun 2027 17:08:30.981            70.162               Magadan1          2192.562
       314   03 Jun 2027 18:33:35.408   03 Jun 2027 18:37:16.316           220.908                Anadyr1          6903.375
       315   03 Jun 2027 18:37:24.705   03 Jun 2027 18:39:12.536           107.831               Magadan1          3369.719
       316   03 Jun 2027 18:40:07.954   03 Jun 2027 18:40:19.008            11.054                Norilsk           345.437
       317   03 Jun 2027 18:48:01.884   03 Jun 2027 18:48:33.937            32.053               Magadan1          1001.656
       318   03 Jun 2027 19:28:05.832   03 Jun 2027 19:30:52.901           167.069            RioGallegos          5220.906
       319   03 Jun 2027 19:31:43.448   03 Jun 2027 19:32:02.122            18.674            RioGallegos           583.563
       320   03 Jun 2027 19:37:17.498   03 Jun 2027 19:37:31.621            14.123            RioGallegos           441.344
       321   03 Jun 2027 20:11:27.144   03 Jun 2027 20:13:20.519           113.375                Norilsk          3542.969
       322   03 Jun 2027 20:13:49.672   03 Jun 2027 20:13:57.006             7.334               Magadan2           229.188
       323   03 Jun 2027 20:14:51.272   03 Jun 2027 20:15:02.346            11.074               Magadan2           346.062
       324   03 Jun 2027 20:15:38.863   03 Jun 2027 20:16:30.024            51.161                Irkutsk          1598.781
       325   03 Jun 2027 20:16:41.545   03 Jun 2027 20:17:06.226            24.681                Norilsk           771.281
       326   03 Jun 2027 20:17:30.672   03 Jun 2027 20:18:00.115            29.443                Irkutsk           920.094
       327   03 Jun 2027 20:18:26.369   03 Jun 2027 20:20:24.611           118.242                Novosib          3695.063
       328   03 Jun 2027 20:22:18.101   03 Jun 2027 20:22:36.365            18.264                Novosib           570.750
       329   03 Jun 2027 20:23:10.799   03 Jun 2027 20:23:34.132            23.333                Irkutsk           729.156
       330   03 Jun 2027 20:29:24.878   03 Jun 2027 20:30:36.072            71.194                Sumatra          2224.813
       331   03 Jun 2027 20:32:02.186   03 Jun 2027 20:33:12.305            70.119                Sumatra          2191.219
       332   03 Jun 2027 20:41:26.961   03 Jun 2027 20:41:46.454            19.493                Sumatra           609.156
       333   03 Jun 2027 21:48:00.532   03 Jun 2027 21:48:00.600             0.068               Magadan2             2.125
       334   03 Jun 2027 21:48:28.560   03 Jun 2027 21:49:03.217            34.657                Norilsk          1083.031
       335   03 Jun 2027 21:49:40.984   03 Jun 2027 21:50:07.315            26.331                Norilsk           822.844
       336   03 Jun 2027 21:50:38.245   03 Jun 2027 21:50:42.122             3.877                Norilsk           121.156
       337   03 Jun 2027 21:51:15.065   03 Jun 2027 21:52:00.941            45.876                Irkutsk          1433.625
       338   03 Jun 2027 21:52:25.534   03 Jun 2027 21:53:11.540            46.006                Novosib          1437.687
       339   03 Jun 2027 21:53:18.826   03 Jun 2027 21:53:44.530            25.704                Novosib           803.250
       340   03 Jun 2027 21:54:24.191   03 Jun 2027 21:55:10.721            46.530                Novosib          1454.063
       341   03 Jun 2027 21:59:14.274   03 Jun 2027 22:01:49.593           155.319                  Delhi          4853.719
       342   03 Jun 2027 22:07:23.404   03 Jun 2027 22:08:11.077            47.673                  Delhi          1489.781
       343   03 Jun 2027 23:20:06.844   03 Jun 2027 23:20:14.413             7.569                Anadyr2           236.531
       344   03 Jun 2027 23:23:22.609   03 Jun 2027 23:25:03.131           100.522                Norilsk          3141.312
       345   03 Jun 2027 23:25:37.161   03 Jun 2027 23:25:37.754             0.593               Magadan1            18.531
       346   03 Jun 2027 23:25:46.146   03 Jun 2027 23:28:09.372           143.226              Murmansk2          4475.813
       347   03 Jun 2027 23:28:32.992   03 Jun 2027 23:30:00.083            87.091              Murmansk1          2721.594
       348   03 Jun 2027 23:30:42.232   03 Jun 2027 23:31:54.822            72.590                 Moscow          2268.437
       349   03 Jun 2027 23:32:48.653   03 Jun 2027 23:33:43.757            55.104                 Moscow          1722.000
       350   04 Jun 2027 00:50:55.499   04 Jun 2027 00:50:58.874             3.375                Anadyr1           105.469
       351   04 Jun 2027 00:51:06.648   04 Jun 2027 00:51:26.938            20.290                Anadyr2           634.063
       352   04 Jun 2027 00:51:57.513   04 Jun 2027 00:52:28.231            30.718                Anadyr1           959.938
       353   04 Jun 2027 00:53:17.016   04 Jun 2027 00:53:27.087            10.071                Anadyr1           314.719
       354   04 Jun 2027 00:53:31.603   04 Jun 2027 00:53:41.542             9.939                Anadyr2           310.594
       355   04 Jun 2027 00:54:19.959   04 Jun 2027 00:54:43.071            23.112                Anadyr1           722.250
       356   04 Jun 2027 00:56:02.602   04 Jun 2027 00:58:34.018           151.416               Magadan2          4731.750
       357   04 Jun 2027 01:01:30.639   04 Jun 2027 01:03:21.387           110.748              Murmansk2          3460.875
       358   04 Jun 2027 01:06:43.616   04 Jun 2027 01:07:06.903            23.287                 Moscow           727.719
       359   04 Jun 2027 01:10:38.746   04 Jun 2027 01:10:45.180             6.434                 Moscow           201.063
       360   04 Jun 2027 01:11:04.431   04 Jun 2027 01:11:06.300             1.869              Murmansk2            58.406
       361   04 Jun 2027 01:11:13.526   04 Jun 2027 01:11:55.282            41.756                 Moscow          1304.875
       362   04 Jun 2027 01:17:03.876   04 Jun 2027 01:17:15.930            12.054                 Moscow           376.688
       363   04 Jun 2027 01:29:14.544   04 Jun 2027 01:30:29.060            74.516               CapeTown          2328.625
       364   04 Jun 2027 01:36:42.191   04 Jun 2027 01:37:03.141            20.950               CapeTown           654.687
       365   04 Jun 2027 02:25:26.577   04 Jun 2027 02:26:54.390            87.813                Anadyr2          2744.156
       366   04 Jun 2027 02:27:04.775   04 Jun 2027 02:27:22.276            17.501                Anadyr1           546.906
       367   04 Jun 2027 02:27:40.427   04 Jun 2027 02:27:44.544             4.117                Anadyr1           128.656
       368   04 Jun 2027 02:27:53.565   04 Jun 2027 02:28:42.657            49.092               Magadan2          1534.125
       369   04 Jun 2027 02:28:51.615   04 Jun 2027 02:29:16.255            24.640               Magadan2           770.000
       370   04 Jun 2027 02:33:44.986   04 Jun 2027 02:34:21.392            36.406               Magadan2          1137.688
       371   04 Jun 2027 02:37:28.775   04 Jun 2027 02:38:42.233            73.458              Murmansk1          2295.563
       372   04 Jun 2027 02:38:59.403   04 Jun 2027 02:39:09.067             9.664              Murmansk2           302.000
       373   04 Jun 2027 02:40:42.909   04 Jun 2027 02:41:06.023            23.114                 Moscow           722.312
       374   04 Jun 2027 02:41:30.591   04 Jun 2027 02:41:41.723            11.132                 Moscow           347.875
       375   04 Jun 2027 02:42:22.693   04 Jun 2027 02:43:44.045            81.352                 Moscow          2542.250
       376   04 Jun 2027 03:06:28.665   04 Jun 2027 03:06:32.323             3.658               CapeTown           114.313
       377   04 Jun 2027 03:09:02.071   04 Jun 2027 03:09:29.117            27.046               CapeTown           845.188
       378   04 Jun 2027 03:13:32.234   04 Jun 2027 03:13:46.161            13.927               CapeTown           435.219
       379   04 Jun 2027 03:16:26.215   04 Jun 2027 03:16:40.900            14.685               CapeTown           458.906
       380   04 Jun 2027 04:07:07.200   04 Jun 2027 04:07:39.291            32.091                Anadyr2          1002.844
       381   04 Jun 2027 04:07:44.030   04 Jun 2027 04:08:44.457            60.427                Anadyr2          1888.344
       382   04 Jun 2027 04:08:49.527   04 Jun 2027 04:10:44.551           115.024                Anadyr2          3594.500
       383   04 Jun 2027 04:10:44.551   04 Jun 2027 04:10:52.386             7.835                Anadyr1           244.844
       384   04 Jun 2027 04:11:05.544   04 Jun 2027 04:11:35.159            29.615                Anadyr1           925.469
       385   04 Jun 2027 04:12:35.185   04 Jun 2027 04:12:39.154             3.969               Magadan2           124.031
       386   04 Jun 2027 04:12:39.596   04 Jun 2027 04:13:54.501            74.905                Anadyr1          2340.781
       387   04 Jun 2027 05:45:04.153   04 Jun 2027 05:46:20.565            76.412                Irkutsk          2387.875
       388   04 Jun 2027 05:46:26.834   04 Jun 2027 05:49:36.747           189.913                Anadyr2          5934.781
       389   04 Jun 2027 05:49:39.966   04 Jun 2027 05:49:47.136             7.170               Magadan1           224.062
       390   04 Jun 2027 07:20:06.917   04 Jun 2027 07:20:40.343            33.426               Magadan1          1044.562
       391   04 Jun 2027 07:20:53.789   04 Jun 2027 07:21:37.960            44.171                Norilsk          1380.344
       392   04 Jun 2027 07:21:48.668   04 Jun 2027 07:24:50.576           181.908               Magadan1          5684.625
       393   04 Jun 2027 07:24:51.596   04 Jun 2027 07:26:20.332            88.736              Murmansk2          2773.000
       394   04 Jun 2027 07:28:30.368   04 Jun 2027 07:28:47.138            16.770              Murmansk2           524.062
       395   04 Jun 2027 08:00:14.847   04 Jun 2027 08:01:08.026            53.179            RioGallegos          1661.844
       396   04 Jun 2027 08:35:19.100   04 Jun 2027 08:36:27.950            68.850                Sumatra          2151.562
       397   04 Jun 2027 08:37:33.417   04 Jun 2027 08:38:08.780            35.363                Sumatra          1105.094
       398   04 Jun 2027 08:49:52.511   04 Jun 2027 08:51:14.189            81.678                  Delhi          2552.438
       399   04 Jun 2027 08:55:42.856   04 Jun 2027 08:56:20.169            37.313                Irkutsk          1166.031
       400   04 Jun 2027 08:56:39.963   04 Jun 2027 08:57:08.582            28.619                Irkutsk           894.344
       401   04 Jun 2027 08:57:33.348   04 Jun 2027 08:58:23.458            50.110                Irkutsk          1565.938
       402   04 Jun 2027 08:58:29.384   04 Jun 2027 08:59:09.382            39.998                Norilsk          1249.937
       403   04 Jun 2027 08:59:16.225   04 Jun 2027 08:59:16.990             0.765                Norilsk            23.906
       404   04 Jun 2027 08:59:20.743   04 Jun 2027 09:00:16.162            55.419              Murmansk1          1731.844
       405   04 Jun 2027 09:00:16.162   04 Jun 2027 09:00:47.284            31.122              Murmansk2           972.562
       406   04 Jun 2027 09:00:57.284   04 Jun 2027 09:01:15.038            17.754              Murmansk1           554.812
       407   04 Jun 2027 09:01:15.133   04 Jun 2027 09:01:54.344            39.211                 Moscow          1225.344
       408   04 Jun 2027 09:38:52.708   04 Jun 2027 09:39:19.833            27.125            RioGallegos           847.656
       409   04 Jun 2027 09:39:48.960   04 Jun 2027 09:40:32.674            43.714            RioGallegos          1366.062
       410   04 Jun 2027 10:13:14.377   04 Jun 2027 10:15:01.867           107.490                Sumatra          3359.062
       411   04 Jun 2027 10:33:16.656   04 Jun 2027 10:33:55.086            38.430              Murmansk2          1200.937
       412   04 Jun 2027 10:34:03.359   04 Jun 2027 10:34:36.506            33.147                 Moscow          1035.844
       413   04 Jun 2027 10:34:42.868   04 Jun 2027 10:35:01.507            18.639              Murmansk2           582.469
       414   04 Jun 2027 10:35:07.720   04 Jun 2027 10:35:18.440            10.720                Irkutsk           335.000
       415   04 Jun 2027 10:35:22.967   04 Jun 2027 10:35:32.592             9.625              Murmansk2           300.781
       416   04 Jun 2027 10:35:32.592   04 Jun 2027 10:35:42.584             9.992              Murmansk1           312.250
       417   04 Jun 2027 10:35:47.187   04 Jun 2027 10:35:53.441             6.254                Norilsk           195.438
       418   04 Jun 2027 10:36:03.156   04 Jun 2027 10:36:34.711            31.555                 Moscow           986.094
       419   04 Jun 2027 10:36:38.909   04 Jun 2027 10:37:33.430            54.521              Murmansk2          1703.781
       420   04 Jun 2027 11:59:09.007   04 Jun 2027 12:02:01.835           172.828                  Delhi          5400.875
       421   04 Jun 2027 12:07:44.526   04 Jun 2027 12:07:48.535             4.009                 Moscow           125.281
       422   04 Jun 2027 12:08:27.907   04 Jun 2027 12:08:30.729             2.822              Murmansk1            88.188
       423   04 Jun 2027 12:08:41.218   04 Jun 2027 12:09:10.423            29.205              Murmansk2           912.656
       424   04 Jun 2027 12:10:52.333   04 Jun 2027 12:11:17.932            25.599              Murmansk2           799.969
       425   04 Jun 2027 12:13:16.656   04 Jun 2027 12:14:26.048            69.392                Norilsk          2168.500
       426   04 Jun 2027 13:19:26.216   04 Jun 2027 13:22:04.289           158.073               CapeTown          4939.781
       427   04 Jun 2027 13:24:50.944   04 Jun 2027 13:25:38.170            47.226               CapeTown          1475.812
       428   04 Jun 2027 13:43:48.608   04 Jun 2027 13:45:56.046           127.438              Murmansk2          3982.438
       429   04 Jun 2027 13:46:29.272   04 Jun 2027 13:47:02.316            33.044              Murmansk2          1032.625
       430   04 Jun 2027 13:50:34.284   04 Jun 2027 13:51:18.533            44.249              Murmansk1          1382.781
       431   04 Jun 2027 13:58:32.185   04 Jun 2027 14:02:14.805           222.620                Anadyr2          6956.875
       432   04 Jun 2027 14:02:18.553   04 Jun 2027 14:02:52.830            34.277                Anadyr1          1071.156
       433   04 Jun 2027 14:03:15.653   04 Jun 2027 14:03:28.614            12.961                Anadyr1           405.031
       434   04 Jun 2027 15:23:17.191   04 Jun 2027 15:24:07.365            50.174              Murmansk2          1567.937
       435   04 Jun 2027 15:27:59.822   04 Jun 2027 15:28:09.170             9.348              Murmansk1           292.125
       436   04 Jun 2027 15:29:52.813   04 Jun 2027 15:29:56.750             3.937              Murmansk2           123.031
       437   04 Jun 2027 15:33:49.933   04 Jun 2027 15:35:43.699           113.766                Anadyr2          3555.187
       438   04 Jun 2027 15:36:04.214   04 Jun 2027 15:36:44.532            40.318                Anadyr1          1259.938
       439   04 Jun 2027 15:38:08.120   04 Jun 2027 15:41:39.553           211.433               Magadan1          6607.281
       440   04 Jun 2027 15:43:00.326   04 Jun 2027 15:43:04.808             4.482               Magadan1           140.063
       441   04 Jun 2027 17:09:42.379   04 Jun 2027 17:11:44.223           121.844                Anadyr2          3807.625
       442   04 Jun 2027 17:12:10.362   04 Jun 2027 17:12:50.379            40.017               Magadan2          1250.531
       443   04 Jun 2027 17:13:39.411   04 Jun 2027 17:14:18.885            39.474               Magadan2          1233.562
       444   04 Jun 2027 17:14:21.979   04 Jun 2027 17:16:06.892           104.913               Magadan2          3278.531
       445   04 Jun 2027 18:45:35.854   04 Jun 2027 18:47:20.205           104.351                Anadyr2          3260.969
       446   04 Jun 2027 18:47:40.298   04 Jun 2027 18:49:17.875            97.577                Anadyr1          3049.281
       447   04 Jun 2027 18:49:21.143   04 Jun 2027 18:51:48.446           147.303                Norilsk          4603.219
       448   04 Jun 2027 18:54:51.233   04 Jun 2027 18:56:46.630           115.397                Irkutsk          3606.156
       449   04 Jun 2027 19:39:55.209   04 Jun 2027 19:41:11.037            75.828            RioGallegos          2369.625
       450   04 Jun 2027 19:42:03.247   04 Jun 2027 19:43:09.308            66.061            RioGallegos          2064.406
       451   04 Jun 2027 20:23:57.822   04 Jun 2027 20:24:54.299            56.477               Magadan1          1764.906
       452   04 Jun 2027 20:24:54.299   04 Jun 2027 20:25:39.935            45.636               Magadan2          1426.125
       453   04 Jun 2027 20:27:23.971   04 Jun 2027 20:27:42.858            18.887               Magadan1           590.219
       454   04 Jun 2027 20:27:58.026   04 Jun 2027 20:29:05.770            67.744                Norilsk          2117.000
       455   04 Jun 2027 20:29:17.843   04 Jun 2027 20:29:52.903            35.060                Irkutsk          1095.625
       456   04 Jun 2027 20:30:23.553   04 Jun 2027 20:31:59.140            95.587                Novosib          2987.094
       457   04 Jun 2027 20:33:05.797   04 Jun 2027 20:34:18.898            73.101                Novosib          2284.406
       458   04 Jun 2027 20:41:14.826   04 Jun 2027 20:42:18.076            63.250                Sumatra          1976.562
       459   04 Jun 2027 20:44:13.802   04 Jun 2027 20:44:33.319            19.517                Sumatra           609.906
       460   04 Jun 2027 22:00:02.230   04 Jun 2027 22:01:40.813            98.583               Magadan2          3080.719
       461   04 Jun 2027 22:03:18.149   04 Jun 2027 22:03:48.396            30.247                Irkutsk           945.219
       462   04 Jun 2027 22:04:04.996   04 Jun 2027 22:05:12.885            67.889                Novosib          2121.531
       463   04 Jun 2027 22:05:58.618   04 Jun 2027 22:06:39.846            41.228                Novosib          1288.375
       464   04 Jun 2027 22:06:47.710   04 Jun 2027 22:09:07.012           139.302                Novosib          4353.188
       465   04 Jun 2027 22:11:05.890   04 Jun 2027 22:12:21.517            75.627                  Delhi          2363.344
       466   04 Jun 2027 23:30:58.197   04 Jun 2027 23:31:10.378            12.181                Anadyr2           380.656
       467   04 Jun 2027 23:31:31.428   04 Jun 2027 23:31:41.620            10.192                Anadyr2           318.500
       468   04 Jun 2027 23:31:52.932   04 Jun 2027 23:32:13.943            21.011                Anadyr2           656.594
       469   04 Jun 2027 23:35:18.462   04 Jun 2027 23:36:42.173            83.711               Magadan1          2615.969
       470   04 Jun 2027 23:37:43.896   04 Jun 2027 23:41:26.859           222.963              Murmansk2          6967.594
       471   04 Jun 2027 23:42:14.085   04 Jun 2027 23:43:09.805            55.720                 Moscow          1741.250
       472   04 Jun 2027 23:43:15.382   04 Jun 2027 23:44:30.001            74.619              Murmansk2          2331.844
       473   04 Jun 2027 23:48:30.785   04 Jun 2027 23:49:00.194            29.409                 Moscow           919.031
       474   05 Jun 2027 01:05:25.912   05 Jun 2027 01:05:33.080             7.168                Anadyr2           224.000
       475   05 Jun 2027 01:07:30.546   05 Jun 2027 01:09:36.839           126.293               Magadan1          3946.656
       476   05 Jun 2027 01:11:21.834   05 Jun 2027 01:11:26.074             4.240               Magadan1           132.500
       477   05 Jun 2027 01:13:28.454   05 Jun 2027 01:13:45.084            16.630               Magadan2           519.687
       478   05 Jun 2027 01:14:38.692   05 Jun 2027 01:15:14.890            36.198              Murmansk1          1131.188
       479   05 Jun 2027 01:15:22.325   05 Jun 2027 01:16:32.437            70.112              Murmansk2          2191.000
       480   05 Jun 2027 01:16:50.954   05 Jun 2027 01:18:42.693           111.739                 Moscow          3491.844
       481   05 Jun 2027 01:40:59.040   05 Jun 2027 01:41:52.124            53.084               CapeTown          1658.875
       482   05 Jun 2027 01:43:43.429   05 Jun 2027 01:44:11.203            27.774               CapeTown           867.937
