uniorb/output/strategy_1/Drop/Drop_KinoSat_112001.txt

KinoSat_112001
-------------------------
    Access    *     Start Time (UTCG)     *     Stop Time (UTCG)  *   Duration (s)        *       Station  *  Data (Mbytes)
         1   01 Jun 2027 03:36:31.282   01 Jun 2027 03:36:47.461            16.179               Magadan2           505.594
         2   01 Jun 2027 03:37:09.537   01 Jun 2027 03:38:42.536            92.999                Irkutsk          2906.219
         3   01 Jun 2027 03:39:27.647   01 Jun 2027 03:39:50.379            22.732                Novosib           710.375
         4   01 Jun 2027 03:39:55.263   01 Jun 2027 03:40:31.843            36.580              Murmansk2          1143.125
         5   01 Jun 2027 03:40:32.438   01 Jun 2027 03:40:41.920             9.482                Norilsk           296.313
         6   01 Jun 2027 03:40:52.186   01 Jun 2027 03:41:57.982            65.796                Norilsk          2056.125
         7   01 Jun 2027 03:42:05.808   01 Jun 2027 03:44:28.877           143.069                Irkutsk          4470.906
         8   01 Jun 2027 03:44:42.004   01 Jun 2027 03:45:08.379            26.375                Novosib           824.219
         9   01 Jun 2027 03:45:38.451   01 Jun 2027 03:46:36.906            58.455                  Delhi          1826.719
        10   01 Jun 2027 03:51:57.381   01 Jun 2027 03:53:53.513           116.132                  Delhi          3629.125
        11   01 Jun 2027 04:24:47.755   01 Jun 2027 04:28:50.627           242.872            RioGallegos          7589.750
        12   01 Jun 2027 05:15:27.486   01 Jun 2027 05:15:56.305            28.819                Irkutsk           900.594
        13   01 Jun 2027 05:16:00.424   01 Jun 2027 05:16:24.873            24.449                Norilsk           764.031
        14   01 Jun 2027 05:16:35.288   01 Jun 2027 05:16:38.142             2.854                Irkutsk            89.187
        15   01 Jun 2027 05:16:55.298   01 Jun 2027 05:20:40.918           225.620              Murmansk1          7050.625
        16   01 Jun 2027 05:20:42.899   01 Jun 2027 05:22:04.191            81.292                Novosib          2540.375
        17   01 Jun 2027 05:22:31.367   01 Jun 2027 05:26:03.111           211.744                  Delhi          6617.000
        18   01 Jun 2027 06:53:38.357   01 Jun 2027 06:53:47.781             9.424              Murmansk1           294.500
        19   01 Jun 2027 06:53:51.607   01 Jun 2027 06:54:15.642            24.035                Norilsk           751.094
        20   01 Jun 2027 06:54:16.124   01 Jun 2027 06:55:19.550            63.426              Murmansk1          1982.063
        21   01 Jun 2027 06:55:21.199   01 Jun 2027 06:57:18.015           116.816                 Moscow          3650.500
        22   01 Jun 2027 07:12:35.217   01 Jun 2027 07:15:42.578           187.361               CapeTown          5855.031
        23   01 Jun 2027 08:16:30.985   01 Jun 2027 08:17:57.827            86.842                Anadyr1          2713.813
        24   01 Jun 2027 08:19:51.125   01 Jun 2027 08:20:32.879            41.754               Magadan2          1304.812
        25   01 Jun 2027 08:21:37.826   01 Jun 2027 08:22:11.783            33.957                Anadyr2          1061.156
        26   01 Jun 2027 09:52:06.065   01 Jun 2027 09:57:55.340           349.275                Anadyr1         10914.844
        27   01 Jun 2027 11:27:08.572   01 Jun 2027 11:30:37.819           209.247               Magadan1          6538.969
        28   01 Jun 2027 11:32:29.568   01 Jun 2027 11:33:21.865            52.297               Magadan2          1634.281
        29   01 Jun 2027 13:47:04.047   01 Jun 2027 13:50:31.396           207.349            RioGallegos          6479.656
        30   01 Jun 2027 14:19:30.495   01 Jun 2027 14:24:51.523           321.028                Sumatra         10032.125
        31   01 Jun 2027 14:34:40.249   01 Jun 2027 14:37:39.588           179.339                Irkutsk          5604.344
        32   01 Jun 2027 14:39:49.706   01 Jun 2027 14:40:37.976            48.270                Irkutsk          1508.438
        33   01 Jun 2027 16:04:23.581   01 Jun 2027 16:10:32.600           369.019                  Delhi         11531.844
        34   01 Jun 2027 16:12:46.021   01 Jun 2027 16:18:59.767           373.746                Novosib         11679.563
        35   01 Jun 2027 19:26:52.175   01 Jun 2027 19:28:00.453            68.278                 Moscow          2133.688
        36   01 Jun 2027 19:28:42.026   01 Jun 2027 19:33:41.814           299.788                 Moscow          9368.375
        37   01 Jun 2027 20:42:14.627   01 Jun 2027 20:42:39.220            24.593               CapeTown           768.531
        38   01 Jun 2027 21:09:47.689   01 Jun 2027 21:15:16.829           329.140              Murmansk2         10285.625
        39   01 Jun 2027 23:48:35.584   01 Jun 2027 23:50:33.968           118.384            RioGallegos          3699.500
        40   01 Jun 2027 23:54:03.975   01 Jun 2027 23:54:59.234            55.259            RioGallegos          1726.844
        41   02 Jun 2027 00:29:21.483   02 Jun 2027 00:30:35.594            74.111                Anadyr2          2315.969
        42   02 Jun 2027 00:31:26.364   02 Jun 2027 00:33:23.876           117.512                Norilsk          3672.250
        43   02 Jun 2027 00:34:43.256   02 Jun 2027 00:35:06.570            23.314               Magadan2           728.562
        44   02 Jun 2027 00:35:37.363   02 Jun 2027 00:36:25.189            47.826               Magadan2          1494.562
        45   02 Jun 2027 00:36:37.937   02 Jun 2027 00:37:17.810            39.873                Irkutsk          1246.031
        46   02 Jun 2027 00:40:32.767   02 Jun 2027 00:42:40.889           128.122                Irkutsk          4003.812
        47   02 Jun 2027 00:50:03.788   02 Jun 2027 00:53:11.168           187.380                Sumatra          5855.625
        48   02 Jun 2027 01:27:56.573   02 Jun 2027 01:27:59.027             2.454            RioGallegos            76.687
        49   02 Jun 2027 01:28:53.965   02 Jun 2027 01:29:26.170            32.205            RioGallegos          1006.406
        50   02 Jun 2027 01:31:54.300   02 Jun 2027 01:32:26.986            32.686            RioGallegos          1021.438
        51   02 Jun 2027 01:36:09.475   02 Jun 2027 01:36:10.104             0.629            RioGallegos            19.656
        52   02 Jun 2027 02:04:23.628   02 Jun 2027 02:04:51.140            27.512                Anadyr2           859.750
        53   02 Jun 2027 02:05:18.662   02 Jun 2027 02:05:52.082            33.420                Anadyr1          1044.375
        54   02 Jun 2027 02:06:23.495   02 Jun 2027 02:06:47.629            24.134                Anadyr1           754.188
        55   02 Jun 2027 02:07:20.703   02 Jun 2027 02:08:41.484            80.781                Norilsk          2524.406
        56   02 Jun 2027 02:09:09.780   02 Jun 2027 02:09:42.459            32.679                Norilsk          1021.219
        57   02 Jun 2027 02:11:13.529   02 Jun 2027 02:13:30.566           137.037                Irkutsk          4282.406
        58   02 Jun 2027 02:19:53.720   02 Jun 2027 02:20:12.414            18.694                Novosib           584.188
        59   02 Jun 2027 02:20:31.809   02 Jun 2027 02:20:52.336            20.527                  Delhi           641.469
        60   02 Jun 2027 02:23:29.436   02 Jun 2027 02:23:44.353            14.917                  Delhi           466.156
        61   02 Jun 2027 02:24:06.267   02 Jun 2027 02:24:06.303             0.036                Irkutsk             1.125
        62   02 Jun 2027 02:24:58.373   02 Jun 2027 02:26:23.030            84.657                  Delhi          2645.531
        63   02 Jun 2027 02:27:30.009   02 Jun 2027 02:35:40.014           490.005                Sumatra         15312.656
        64   02 Jun 2027 03:50:19.711   02 Jun 2027 03:56:19.445           359.734                Norilsk         11241.688
        65   02 Jun 2027 03:56:20.864   02 Jun 2027 03:58:02.146           101.282                Irkutsk          3165.063
        66   02 Jun 2027 03:58:10.249   02 Jun 2027 03:59:59.701           109.452                Novosib          3420.375
        67   02 Jun 2027 04:00:49.656   02 Jun 2027 04:07:01.647           371.991                  Delhi         11624.719
        68   02 Jun 2027 04:37:22.302   02 Jun 2027 04:40:55.169           212.867            RioGallegos          6652.094
        69   02 Jun 2027 05:27:09.201   02 Jun 2027 05:27:26.817            17.616                Novosib           550.500
        70   02 Jun 2027 05:27:33.495   02 Jun 2027 05:29:18.626           105.131                Novosib          3285.344
        71   02 Jun 2027 05:29:30.858   02 Jun 2027 05:30:55.403            84.545                Novosib          2642.031
        72   02 Jun 2027 05:31:01.672   02 Jun 2027 05:33:56.910           175.238                Novosib          5476.188
        73   02 Jun 2027 07:05:17.346   02 Jun 2027 07:06:42.342            84.996                 Moscow          2656.125
        74   02 Jun 2027 07:06:52.517   02 Jun 2027 07:07:03.473            10.956              Murmansk2           342.375
        75   02 Jun 2027 07:07:14.445   02 Jun 2027 07:08:00.999            46.554                 Moscow          1454.813
        76   02 Jun 2027 07:08:12.059   02 Jun 2027 07:10:22.120           130.061              Murmansk1          4064.406
        77   02 Jun 2027 07:24:46.059   02 Jun 2027 07:29:33.611           287.552               CapeTown          8986.000
        78   02 Jun 2027 07:33:50.087   02 Jun 2027 07:34:23.387            33.300               CapeTown          1040.625
        79   02 Jun 2027 08:29:36.668   02 Jun 2027 08:33:56.179           259.511                Norilsk          8109.719
        80   02 Jun 2027 08:34:22.784   02 Jun 2027 08:34:27.962             5.178                Norilsk           161.813
        81   02 Jun 2027 08:35:09.503   02 Jun 2027 08:35:15.355             5.852                Norilsk           182.875
        82   02 Jun 2027 08:35:24.305   02 Jun 2027 08:35:32.840             8.535              Murmansk1           266.719
        83   02 Jun 2027 08:35:32.840   02 Jun 2027 08:36:28.569            55.729              Murmansk2          1741.531
        84   02 Jun 2027 08:36:59.817   02 Jun 2027 08:37:05.125             5.308                 Moscow           165.875
        85   02 Jun 2027 08:37:20.993   02 Jun 2027 08:37:53.310            32.317                 Moscow          1009.906
        86   02 Jun 2027 08:40:27.934   02 Jun 2027 08:40:33.548             5.614                 Moscow           175.437
        87   02 Jun 2027 08:41:00.179   02 Jun 2027 08:41:10.834            10.655                 Moscow           332.969
        88   02 Jun 2027 08:44:28.026   02 Jun 2027 08:44:50.057            22.031                 Moscow           688.469
        89   02 Jun 2027 09:59:45.346   02 Jun 2027 10:01:40.939           115.593                Anadyr1          3612.281
        90   02 Jun 2027 10:04:00.572   02 Jun 2027 10:06:25.633           145.061                Anadyr1          4533.156
        91   02 Jun 2027 10:07:21.712   02 Jun 2027 10:09:52.541           150.829                Anadyr2          4713.406
        92   02 Jun 2027 11:35:02.288   02 Jun 2027 11:36:25.965            83.677               Magadan1          2614.906
        93   02 Jun 2027 11:38:42.378   02 Jun 2027 11:45:15.640           393.262               Magadan2         12289.437
        94   02 Jun 2027 14:35:21.234   02 Jun 2027 14:38:01.778           160.544                Sumatra          5017.000
        95   02 Jun 2027 14:47:21.583   02 Jun 2027 14:53:56.957           395.374                Irkutsk         12355.438
        96   02 Jun 2027 16:19:10.056   02 Jun 2027 16:24:45.353           335.297                  Delhi         10478.031
        97   02 Jun 2027 16:27:02.108   02 Jun 2027 16:32:37.639           335.531                Novosib         10485.344
        98   02 Jun 2027 19:39:46.513   02 Jun 2027 19:46:51.968           425.455                 Moscow         13295.469
        99   02 Jun 2027 20:52:34.784   02 Jun 2027 20:55:27.111           172.327               CapeTown          5385.219
       100   02 Jun 2027 21:22:48.300   02 Jun 2027 21:26:59.666           251.366              Murmansk1          7855.187
       101   03 Jun 2027 01:42:34.278   03 Jun 2027 01:43:14.538            40.260            RioGallegos          1258.125
       102   03 Jun 2027 01:44:55.582   03 Jun 2027 01:45:05.182             9.600            RioGallegos           300.000
       103   03 Jun 2027 01:45:55.691   03 Jun 2027 01:46:11.493            15.802            RioGallegos           493.813
       104   03 Jun 2027 02:16:13.426   03 Jun 2027 02:16:21.672             8.246                Anadyr1           257.688
       105   03 Jun 2027 02:16:40.693   03 Jun 2027 02:16:48.628             7.935                Anadyr1           247.969
       106   03 Jun 2027 02:17:35.041   03 Jun 2027 02:17:44.218             9.177                Anadyr2           286.781
       107   03 Jun 2027 02:18:23.974   03 Jun 2027 02:18:33.670             9.696                Anadyr1           303.000
       108   03 Jun 2027 02:18:47.974   03 Jun 2027 02:19:14.571            26.597                Anadyr2           831.156
       109   03 Jun 2027 02:19:23.144   03 Jun 2027 02:20:10.823            47.679                Norilsk          1489.969
       110   03 Jun 2027 02:20:59.834   03 Jun 2027 02:21:02.485             2.651                Norilsk            82.844
       111   03 Jun 2027 02:22:32.629   03 Jun 2027 02:22:36.740             4.111                Norilsk           128.469
       112   03 Jun 2027 02:22:40.229   03 Jun 2027 02:23:05.330            25.101                Norilsk           784.406
       113   03 Jun 2027 02:23:15.743   03 Jun 2027 02:24:00.695            44.952                Irkutsk          1404.750
       114   03 Jun 2027 02:24:37.812   03 Jun 2027 02:25:18.331            40.519                Novosib          1266.219
       115   03 Jun 2027 02:27:28.962   03 Jun 2027 02:29:39.855           130.893                Irkutsk          4090.406
       116   03 Jun 2027 02:38:13.179   03 Jun 2027 02:39:03.584            50.405                Sumatra          1575.156
       117   03 Jun 2027 02:39:37.115   03 Jun 2027 02:45:00.403           323.288                Sumatra         10102.750
       118   03 Jun 2027 04:01:09.911   03 Jun 2027 04:04:18.677           188.766              Murmansk1          5898.938
       119   03 Jun 2027 04:04:18.677   03 Jun 2027 04:05:07.101            48.424              Murmansk2          1513.250
       120   03 Jun 2027 04:05:12.559   03 Jun 2027 04:05:38.092            25.533                Novosib           797.906
       121   03 Jun 2027 04:05:39.117   03 Jun 2027 04:06:00.617            21.500              Murmansk1           671.875
       122   03 Jun 2027 04:06:09.490   03 Jun 2027 04:06:54.199            44.709                Norilsk          1397.156
       123   03 Jun 2027 04:07:08.788   03 Jun 2027 04:09:07.645           118.857                Novosib          3714.281
       124   03 Jun 2027 04:09:25.003   03 Jun 2027 04:11:19.542           114.539                  Delhi          3579.344
       125   03 Jun 2027 04:14:32.336   03 Jun 2027 04:16:20.149           107.813                  Delhi          3369.156
       126   03 Jun 2027 05:40:25.502   03 Jun 2027 05:43:31.980           186.478                Norilsk          5827.437
       127   03 Jun 2027 05:43:39.435   03 Jun 2027 05:45:21.458           102.023              Murmansk1          3188.219
       128   03 Jun 2027 05:45:32.801   03 Jun 2027 05:49:05.790           212.989                 Moscow          6655.906
       129   03 Jun 2027 06:01:35.865   03 Jun 2027 06:02:03.891            28.026               CapeTown           875.812
       130   03 Jun 2027 06:02:14.160   03 Jun 2027 06:02:46.698            32.538               CapeTown          1016.812
       131   03 Jun 2027 06:03:22.427   03 Jun 2027 06:04:45.943            83.516               CapeTown          2609.875
       132   03 Jun 2027 06:10:53.537   03 Jun 2027 06:11:39.234            45.697               CapeTown          1428.031
       133   03 Jun 2027 06:12:26.111   03 Jun 2027 06:12:33.676             7.565               CapeTown           236.406
       134   03 Jun 2027 07:18:26.773   03 Jun 2027 07:23:26.361           299.588                 Moscow          9362.125
       135   03 Jun 2027 07:23:46.198   03 Jun 2027 07:24:41.682            55.484                 Moscow          1733.875
       136   03 Jun 2027 07:25:20.985   03 Jun 2027 07:25:21.469             0.484                 Moscow            15.125
       137   03 Jun 2027 07:37:02.772   03 Jun 2027 07:42:10.208           307.436               CapeTown          9607.375
       138   03 Jun 2027 08:40:17.280   03 Jun 2027 08:40:48.148            30.868               Magadan1           964.625
       139   03 Jun 2027 08:41:59.095   03 Jun 2027 08:46:14.520           255.425                Anadyr2          7982.031
       140   03 Jun 2027 10:09:05.736   03 Jun 2027 10:09:36.969            31.233               Magadan2           976.031
       141   03 Jun 2027 10:12:18.419   03 Jun 2027 10:19:01.618           403.199                Anadyr2         12599.969
       142   03 Jun 2027 10:19:01.618   03 Jun 2027 10:21:48.410           166.792                Anadyr1          5212.250
       143   03 Jun 2027 11:47:39.862   03 Jun 2027 11:53:29.257           349.395               Magadan2         10918.594
       144   03 Jun 2027 11:53:51.563   03 Jun 2027 11:57:07.155           195.592               Magadan1          6112.250
       145   03 Jun 2027 14:13:49.556   03 Jun 2027 14:14:07.923            18.367            RioGallegos           573.969
       146   03 Jun 2027 14:14:30.980   03 Jun 2027 14:16:19.570           108.590            RioGallegos          3393.438
       147   03 Jun 2027 14:45:56.506   03 Jun 2027 14:53:47.649           471.143                Sumatra         14723.219
       148   03 Jun 2027 15:00:54.090   03 Jun 2027 15:07:56.125           422.035                Irkutsk         13188.594
       149   03 Jun 2027 16:29:59.419   03 Jun 2027 16:37:43.759           464.340                  Delhi         14510.625
       150   03 Jun 2027 16:38:29.325   03 Jun 2027 16:45:15.113           405.788                Novosib         12680.875
       151   03 Jun 2027 19:52:56.804   03 Jun 2027 19:58:15.574           318.770                 Moscow          9961.563
       152   03 Jun 2027 21:03:18.740   03 Jun 2027 21:09:08.261           349.521               CapeTown         10922.531
       153   03 Jun 2027 21:36:09.698   03 Jun 2027 21:38:23.778           134.080              Murmansk1          4190.000
       154   04 Jun 2027 01:09:01.129   04 Jun 2027 01:09:09.919             8.790                Irkutsk           274.688
       155   04 Jun 2027 01:10:14.255   04 Jun 2027 01:10:56.875            42.620                Irkutsk          1331.875
       156   04 Jun 2027 01:14:18.438   04 Jun 2027 01:16:06.571           108.133                Sumatra          3379.156
       157   04 Jun 2027 01:51:20.486   04 Jun 2027 01:52:36.037            75.551            RioGallegos          2360.969
       158   04 Jun 2027 01:57:23.486   04 Jun 2027 01:57:42.000            18.514            RioGallegos           578.563
       159   04 Jun 2027 02:28:01.883   04 Jun 2027 02:28:03.289             1.406                Anadyr2            43.937
       160   04 Jun 2027 02:28:42.038   04 Jun 2027 02:29:07.849            25.811                Anadyr2           806.594
       161   04 Jun 2027 02:31:25.634   04 Jun 2027 02:32:30.745            65.111                Norilsk          2034.719
       162   04 Jun 2027 02:32:50.516   04 Jun 2027 02:33:28.930            38.414                Norilsk          1200.438
       163   04 Jun 2027 02:35:18.763   04 Jun 2027 02:38:03.471           164.708                Irkutsk          5147.125
       164   04 Jun 2027 02:43:59.733   04 Jun 2027 02:44:42.432            42.699                  Delhi          1334.344
       165   04 Jun 2027 02:50:34.569   04 Jun 2027 02:52:36.392           121.823                  Delhi          3806.969
       166   04 Jun 2027 02:57:42.361   04 Jun 2027 02:59:21.289            98.928                Sumatra          3091.500
       167   04 Jun 2027 03:27:10.115   04 Jun 2027 03:28:08.987            58.872            RioGallegos          1839.750
       168   04 Jun 2027 04:12:35.004   04 Jun 2027 04:13:41.802            66.798                Irkutsk          2087.438
       169   04 Jun 2027 04:14:30.438   04 Jun 2027 04:16:57.800           147.362                Novosib          4605.062
       170   04 Jun 2027 04:17:01.408   04 Jun 2027 04:17:28.231            26.823                Norilsk           838.219
       171   04 Jun 2027 04:17:33.786   04 Jun 2027 04:19:45.542           131.756                Irkutsk          4117.375
       172   04 Jun 2027 04:20:03.885   04 Jun 2027 04:20:21.215            17.330                Norilsk           541.562
       173   04 Jun 2027 04:20:33.418   04 Jun 2027 04:21:02.206            28.788                Irkutsk           899.625
       174   04 Jun 2027 04:25:27.394   04 Jun 2027 04:29:29.764           242.370                  Delhi          7574.062
       175   04 Jun 2027 05:52:44.961   04 Jun 2027 05:53:07.333            22.372                Norilsk           699.125
       176   04 Jun 2027 05:53:19.628   04 Jun 2027 05:54:53.847            94.219                Novosib          2944.344
       177   04 Jun 2027 05:55:02.851   04 Jun 2027 05:55:23.573            20.722                Norilsk           647.563
       178   04 Jun 2027 05:55:30.304   04 Jun 2027 05:56:28.000            57.696              Murmansk2          1803.000
       179   04 Jun 2027 05:56:32.658   04 Jun 2027 05:57:38.511            65.853              Murmansk1          2057.906
       180   04 Jun 2027 05:58:27.712   04 Jun 2027 06:01:21.063           173.351                 Moscow          5417.219
       181   04 Jun 2027 06:13:15.557   04 Jun 2027 06:20:32.044           436.487               CapeTown         13640.219
       182   04 Jun 2027 06:23:25.909   04 Jun 2027 06:23:38.063            12.154               CapeTown           379.813
       183   04 Jun 2027 06:24:53.530   04 Jun 2027 06:25:19.528            25.998               CapeTown           812.438
       184   04 Jun 2027 07:28:45.318   04 Jun 2027 07:29:14.830            29.512                Norilsk           922.250
       185   04 Jun 2027 07:29:22.819   04 Jun 2027 07:29:41.539            18.720                Norilsk           585.000
       186   04 Jun 2027 07:29:41.843   04 Jun 2027 07:32:18.664           156.821              Murmansk1          4900.656
       187   04 Jun 2027 07:32:31.115   04 Jun 2027 07:32:49.496            18.381                 Moscow           574.406
       188   04 Jun 2027 07:33:31.967   04 Jun 2027 07:34:07.471            35.504              Murmansk2          1109.500
       189   04 Jun 2027 07:34:24.266   04 Jun 2027 07:35:17.432            53.166                 Moscow          1661.437
       190   04 Jun 2027 07:49:26.144   04 Jun 2027 07:54:18.789           292.645               CapeTown          9145.156
       191   04 Jun 2027 08:51:16.699   04 Jun 2027 08:51:42.359            25.660               Magadan1           801.875
       192   04 Jun 2027 08:51:44.658   04 Jun 2027 08:52:50.337            65.679               Magadan2          2052.469
       193   04 Jun 2027 08:53:52.334   04 Jun 2027 08:55:28.640            96.306                Anadyr2          3009.562
       194   04 Jun 2027 09:40:57.241   04 Jun 2027 09:41:10.938            13.697            RioGallegos           428.031
       195   04 Jun 2027 09:43:06.571   04 Jun 2027 09:43:08.289             1.718            RioGallegos            53.688
       196   04 Jun 2027 10:24:55.639   04 Jun 2027 10:27:41.790           166.151                Anadyr1          5192.219
       197   04 Jun 2027 10:27:41.790   04 Jun 2027 10:33:42.519           360.729                Anadyr2         11272.781
       198   04 Jun 2027 12:00:18.481   04 Jun 2027 12:08:55.569           517.088               Magadan1         16159.000
       199   04 Jun 2027 14:25:15.107   04 Jun 2027 14:29:44.688           269.581            RioGallegos          8424.406
       200   04 Jun 2027 14:57:27.027   04 Jun 2027 15:04:49.087           442.060                Sumatra         13814.375
       201   04 Jun 2027 15:13:17.731   04 Jun 2027 15:19:21.576           363.845                Irkutsk         11370.156
       202   04 Jun 2027 16:43:24.348   04 Jun 2027 16:48:33.114           308.766                  Delhi          9648.937
       203   04 Jun 2027 16:51:44.803   04 Jun 2027 16:56:34.205           289.402                Novosib          9043.813
       204   04 Jun 2027 20:06:53.148   04 Jun 2027 20:08:56.339           123.191                 Moscow          3849.719
       205   04 Jun 2027 20:10:12.687   04 Jun 2027 20:12:04.463           111.776              Murmansk2          3493.000
       206   04 Jun 2027 20:13:44.857   04 Jun 2027 20:13:51.298             6.441              Murmansk1           201.281
       207   04 Jun 2027 21:15:06.903   04 Jun 2027 21:22:02.819           415.916               CapeTown         12997.375
       208   04 Jun 2027 23:38:31.218   04 Jun 2027 23:38:59.562            28.344                Irkutsk           885.750
       209   05 Jun 2027 00:23:55.454   05 Jun 2027 00:27:21.715           206.261            RioGallegos          6445.656
       210   05 Jun 2027 01:05:13.580   05 Jun 2027 01:06:09.939            56.359                Anadyr1          1761.219
       211   05 Jun 2027 01:06:40.844   05 Jun 2027 01:07:05.253            24.409                Anadyr1           762.781
       212   05 Jun 2027 01:07:28.664   05 Jun 2027 01:09:23.099           114.435                Norilsk          3576.094
       213   05 Jun 2027 01:09:45.613   05 Jun 2027 01:09:55.858            10.245               Magadan1           320.156
       214   05 Jun 2027 01:10:03.492   05 Jun 2027 01:11:18.316            74.824               Magadan1          2338.250
       215   05 Jun 2027 01:11:34.890   05 Jun 2027 01:13:23.203           108.313                Irkutsk          3384.781
       216   05 Jun 2027 01:16:56.275   05 Jun 2027 01:17:51.138            54.863                Novosib          1714.469
       217   05 Jun 2027 01:25:17.026   05 Jun 2027 01:28:18.020           180.994                Sumatra          5656.063
       218   05 Jun 2027 02:08:14.343   05 Jun 2027 02:08:41.866            27.523            RioGallegos           860.094
       219   05 Jun 2027 02:09:25.020   05 Jun 2027 02:10:17.442            52.422            RioGallegos          1638.187
       220   05 Jun 2027 02:42:25.693   05 Jun 2027 02:42:41.554            15.861                Anadyr1           495.656
       221   05 Jun 2027 02:43:28.136   05 Jun 2027 02:44:21.867            53.731                Norilsk          1679.094
       222   05 Jun 2027 02:44:53.683   05 Jun 2027 02:45:01.839             8.156                Norilsk           254.875
       223   05 Jun 2027 02:46:14.298   05 Jun 2027 02:46:15.392             1.094               Magadan1            34.187
       224   05 Jun 2027 02:46:24.922   05 Jun 2027 02:46:26.191             1.269                Norilsk            39.656
       225   05 Jun 2027 02:46:59.881   05 Jun 2027 02:47:13.305            13.424               Magadan1           419.500
       226   05 Jun 2027 02:47:22.575   05 Jun 2027 02:49:43.481           140.906                Irkutsk          4403.312
       227   05 Jun 2027 02:52:27.630   05 Jun 2027 02:52:34.055             6.425                Novosib           200.781
       228   05 Jun 2027 02:52:42.514   05 Jun 2027 02:52:47.971             5.457                Novosib           170.531
       229   05 Jun 2027 02:53:19.351   05 Jun 2027 02:53:41.187            21.836                Irkutsk           682.375
       230   05 Jun 2027 02:54:27.193   05 Jun 2027 02:55:46.382            79.189                Irkutsk          2474.656
       231   05 Jun 2027 03:04:05.391   05 Jun 2027 03:10:07.995           362.604                Sumatra         11331.375
       232   05 Jun 2027 04:25:59.208   05 Jun 2027 04:26:38.607            39.399              Murmansk1          1231.219
       233   05 Jun 2027 04:26:38.607   05 Jun 2027 04:27:07.478            28.871              Murmansk2           902.219
       234   05 Jun 2027 04:27:19.407   05 Jun 2027 04:30:51.838           212.431                Novosib          6638.469
       235   05 Jun 2027 04:31:08.127   05 Jun 2027 04:32:19.226            71.099                  Delhi          2221.844
       236   05 Jun 2027 04:33:27.192   05 Jun 2027 04:34:58.782            91.590                  Delhi          2862.187
       237   05 Jun 2027 04:35:42.915   05 Jun 2027 04:36:11.653            28.738                  Delhi           898.062
       238   05 Jun 2027 06:05:19.028   05 Jun 2027 06:08:11.043           172.015                Novosib          5375.469
       239   05 Jun 2027 06:08:14.146   05 Jun 2027 06:08:31.881            17.735                Novosib           554.219
       240   05 Jun 2027 06:08:39.639   05 Jun 2027 06:09:53.532            73.893              Murmansk2          2309.156
       241   05 Jun 2027 06:10:47.321   05 Jun 2027 06:10:49.298             1.977                 Moscow            61.781
       242   05 Jun 2027 06:11:37.753   05 Jun 2027 06:13:32.846           115.093                 Moscow          3596.656
       243   05 Jun 2027 06:25:00.894   05 Jun 2027 06:27:24.219           143.325               CapeTown          4478.906
       244   05 Jun 2027 06:32:28.807   05 Jun 2027 06:32:43.468            14.661               CapeTown           458.156
       245   05 Jun 2027 07:29:27.165   05 Jun 2027 07:32:43.056           195.891                Anadyr2          6121.594
       246   05 Jun 2027 07:32:43.056   05 Jun 2027 07:33:40.600            57.544                Anadyr1          1798.250
       247   05 Jun 2027 07:39:52.216   05 Jun 2027 07:40:02.388            10.172                Norilsk           317.875
       248   05 Jun 2027 07:40:05.405   05 Jun 2027 07:40:45.779            40.374              Murmansk1          1261.688
       249   05 Jun 2027 07:40:54.039   05 Jun 2027 07:41:40.380            46.341                 Moscow          1448.156
       250   05 Jun 2027 07:44:31.130   05 Jun 2027 07:44:56.009            24.879                 Moscow           777.469
       251   05 Jun 2027 07:45:38.454   05 Jun 2027 07:45:46.545             8.091                 Moscow           252.844
       252   05 Jun 2027 07:46:28.590   05 Jun 2027 07:47:28.260            59.670                 Moscow          1864.687
       253   05 Jun 2027 08:01:57.442   05 Jun 2027 08:08:08.019           370.577               CapeTown         11580.531
       254   05 Jun 2027 09:02:33.809   05 Jun 2027 09:02:54.159            20.350               Magadan1           635.937
       255   05 Jun 2027 09:03:32.588   05 Jun 2027 09:06:02.857           150.269               Magadan1          4695.906
       256   05 Jun 2027 09:06:26.340   05 Jun 2027 09:07:18.212            51.872                Norilsk          1621.000
       257   05 Jun 2027 09:07:45.039   05 Jun 2027 09:07:56.621            11.582                Anadyr2           361.937
       258   05 Jun 2027 09:07:56.621   05 Jun 2027 09:09:16.888            80.267                Anadyr1          2508.344
       259   05 Jun 2027 10:36:16.786   05 Jun 2027 10:38:06.552           109.766               Magadan2          3430.187
       260   05 Jun 2027 10:38:22.189   05 Jun 2027 10:42:36.069           253.880                Anadyr1          7933.750
       261   05 Jun 2027 10:42:39.225   05 Jun 2027 10:43:02.113            22.888               Magadan1           715.250
       262   05 Jun 2027 10:43:40.544   05 Jun 2027 10:44:13.922            33.378                Irkutsk          1043.063
       263   05 Jun 2027 10:45:05.616   05 Jun 2027 10:45:34.192            28.576                Anadyr1           893.000
       264   05 Jun 2027 10:49:34.782   05 Jun 2027 10:49:41.418             6.636              Murmansk2           207.375
       265   05 Jun 2027 10:51:33.809   05 Jun 2027 10:51:35.540             1.731              Murmansk2            54.094
       266   05 Jun 2027 10:53:23.132   05 Jun 2027 10:53:27.370             4.238              Murmansk1           132.438
       267   05 Jun 2027 11:21:18.220   05 Jun 2027 11:22:22.510            64.290            RioGallegos          2009.062
       268   05 Jun 2027 12:09:10.670   05 Jun 2027 12:11:02.502           111.832                Irkutsk          3494.750
       269   05 Jun 2027 12:11:34.380   05 Jun 2027 12:12:01.537            27.157                Irkutsk           848.656
       270   05 Jun 2027 12:12:43.354   05 Jun 2027 12:13:08.191            24.837                Novosib           776.156
       271   05 Jun 2027 12:13:58.970   05 Jun 2027 12:14:56.894            57.924                Norilsk          1810.125
       272   05 Jun 2027 12:16:17.106   05 Jun 2027 12:20:18.939           241.833               Magadan2          7557.281
       273   05 Jun 2027 13:31:14.821   05 Jun 2027 13:31:55.233            40.412                Sumatra          1262.875
       274   05 Jun 2027 13:38:07.357   05 Jun 2027 13:39:55.649           108.292                Sumatra          3384.125
       275   05 Jun 2027 13:48:28.406   05 Jun 2027 13:49:51.198            82.792                Irkutsk          2587.250
       276   05 Jun 2027 14:02:35.137   05 Jun 2027 14:02:37.142             2.005                Norilsk            62.656
       277   05 Jun 2027 14:35:52.544   05 Jun 2027 14:43:26.451           453.907            RioGallegos         14184.594
       278   05 Jun 2027 15:11:00.646   05 Jun 2027 15:15:09.730           249.084                Sumatra          7783.875
       279   05 Jun 2027 15:26:55.332   05 Jun 2027 15:30:17.970           202.638                Irkutsk          6332.438
       280   05 Jun 2027 17:06:45.281   05 Jun 2027 17:08:07.317            82.036                Norilsk          2563.625
       281   05 Jun 2027 18:36:53.150   05 Jun 2027 18:37:30.493            37.343                 Moscow          1166.969
       282   05 Jun 2027 18:38:46.887   05 Jun 2027 18:41:11.124           144.237                 Moscow          4507.406
       283   05 Jun 2027 18:45:27.594   05 Jun 2027 18:46:31.401            63.807              Murmansk1          1993.969
       284   05 Jun 2027 18:56:53.346   05 Jun 2027 18:56:58.085             4.739                Anadyr2           148.094
       285   05 Jun 2027 19:49:16.579   05 Jun 2027 19:51:36.912           140.333               CapeTown          4385.406
       286   05 Jun 2027 19:57:47.047   05 Jun 2027 19:57:59.547            12.500               CapeTown           390.625
       287   05 Jun 2027 20:19:12.475   05 Jun 2027 20:20:28.785            76.310              Murmansk2          2384.688
       288   05 Jun 2027 20:20:42.330   05 Jun 2027 20:24:48.652           246.322              Murmansk1          7697.562
       289   05 Jun 2027 20:25:32.486   05 Jun 2027 20:27:58.265           145.779              Murmansk2          4555.594
       290   05 Jun 2027 21:28:07.735   05 Jun 2027 21:32:38.368           270.633               CapeTown          8457.281
       291   05 Jun 2027 22:08:34.615   05 Jun 2027 22:09:04.969            30.354                Anadyr2           948.563
       292   05 Jun 2027 22:10:07.121   05 Jun 2027 22:10:26.432            19.311               Magadan2           603.469
       293   05 Jun 2027 22:10:51.190   05 Jun 2027 22:11:19.997            28.807               Magadan2           900.219
       294   05 Jun 2027 23:41:41.131   05 Jun 2027 23:45:31.601           230.470                Anadyr2          7202.188
       295   05 Jun 2027 23:45:34.294   05 Jun 2027 23:47:36.401           122.107                Norilsk          3815.844
       296   05 Jun 2027 23:47:50.451   05 Jun 2027 23:48:38.437            47.986               Magadan2          1499.563
       297   05 Jun 2027 23:49:34.169   05 Jun 2027 23:49:41.766             7.597                Irkutsk           237.406
       298   05 Jun 2027 23:50:37.951   05 Jun 2027 23:51:44.181            66.230                Irkutsk          2069.687
       299   05 Jun 2027 23:51:51.539   05 Jun 2027 23:51:58.786             7.247                Irkutsk           226.469
       300   05 Jun 2027 23:52:39.761   05 Jun 2027 23:54:23.658           103.897                Irkutsk          3246.781
       301   06 Jun 2027 00:06:32.276   06 Jun 2027 00:06:58.312            26.036                Sumatra           813.625
       302   06 Jun 2027 00:08:46.517   06 Jun 2027 00:09:34.845            48.328                Sumatra          1510.250
       303   06 Jun 2027 00:35:48.449   06 Jun 2027 00:36:54.537            66.088            RioGallegos          2065.250
       304   06 Jun 2027 00:38:03.159   06 Jun 2027 00:39:00.923            57.764            RioGallegos          1805.125
       305   06 Jun 2027 01:17:09.219   06 Jun 2027 01:17:57.382            48.163                Anadyr1          1505.094
       306   06 Jun 2027 01:18:37.629   06 Jun 2027 01:19:05.844            28.215                Anadyr1           881.719
       307   06 Jun 2027 01:19:30.269   06 Jun 2027 01:21:33.032           122.763                Norilsk          3836.344
       308   06 Jun 2027 01:21:33.993   06 Jun 2027 01:21:53.794            19.801               Magadan2           618.781
       309   06 Jun 2027 01:22:46.360   06 Jun 2027 01:23:20.322            33.962               Magadan2          1061.312
       310   06 Jun 2027 01:23:31.875   06 Jun 2027 01:25:26.603           114.728                Irkutsk          3585.250
       311   06 Jun 2027 01:30:35.402   06 Jun 2027 01:31:11.738            36.336                Irkutsk          1135.500
       312   06 Jun 2027 01:37:14.052   06 Jun 2027 01:39:56.781           162.729                Sumatra          5085.281
       313   06 Jun 2027 01:41:23.696   06 Jun 2027 01:41:46.946            23.250                Sumatra           726.563
       314   06 Jun 2027 02:15:30.535   06 Jun 2027 02:17:00.356            89.821            RioGallegos          2806.906
       315   06 Jun 2027 02:54:44.218   06 Jun 2027 02:55:02.725            18.507                Anadyr2           578.344
       316   06 Jun 2027 02:55:30.633   06 Jun 2027 02:56:12.399            41.766                Norilsk          1305.188
       317   06 Jun 2027 02:56:25.296   06 Jun 2027 02:56:28.794             3.498               Magadan2           109.312
       318   06 Jun 2027 02:56:34.128   06 Jun 2027 02:56:51.671            17.543                Norilsk           548.219
       319   06 Jun 2027 02:57:58.023   06 Jun 2027 02:58:19.935            21.912                Norilsk           684.750
       320   06 Jun 2027 02:59:10.265   06 Jun 2027 02:59:21.264            10.999              Murmansk2           343.719
       321   06 Jun 2027 02:59:22.655   06 Jun 2027 03:00:03.912            41.257                Novosib          1289.281
       322   06 Jun 2027 03:00:09.158   06 Jun 2027 03:00:51.422            42.264              Murmansk2          1320.750
       323   06 Jun 2027 03:01:09.896   06 Jun 2027 03:02:40.070            90.174               Magadan2          2817.938
       324   06 Jun 2027 03:03:01.809   06 Jun 2027 03:04:38.536            96.727                Irkutsk          3022.719
       325   06 Jun 2027 03:04:56.572   06 Jun 2027 03:05:24.775            28.203                Novosib           881.344
       326   06 Jun 2027 03:05:25.251   06 Jun 2027 03:07:19.925           114.674                Irkutsk          3583.563
       327   06 Jun 2027 03:07:53.527   06 Jun 2027 03:09:06.375            72.848                  Delhi          2276.500
       328   06 Jun 2027 03:51:16.214   06 Jun 2027 03:52:47.067            90.853            RioGallegos          2839.156
       329   06 Jun 2027 04:37:37.202   06 Jun 2027 04:37:48.580            11.378                Novosib           355.563
       330   06 Jun 2027 04:37:52.497   06 Jun 2027 04:38:38.004            45.507              Murmansk2          1422.094
       331   06 Jun 2027 04:38:48.196   06 Jun 2027 04:39:08.271            20.075              Murmansk1           627.344
       332   06 Jun 2027 04:39:10.688   06 Jun 2027 04:39:58.023            47.335              Murmansk2          1479.219
       333   06 Jun 2027 04:40:00.827   06 Jun 2027 04:42:43.886           163.059                Irkutsk          5095.594
       334   06 Jun 2027 04:43:30.061   06 Jun 2027 04:49:04.872           334.811                  Delhi         10462.844
       335   06 Jun 2027 06:17:25.727   06 Jun 2027 06:17:51.825            26.098              Murmansk1           815.563
       336   06 Jun 2027 06:18:09.029   06 Jun 2027 06:19:08.030            59.001              Murmansk1          1843.781
       337   06 Jun 2027 06:19:39.289   06 Jun 2027 06:22:06.588           147.299              Murmansk2          4603.094
       338   06 Jun 2027 06:22:07.521   06 Jun 2027 06:24:32.387           144.866                 Moscow          4527.063
       339   06 Jun 2027 06:36:51.510   06 Jun 2027 06:40:41.508           229.998               CapeTown          7187.437
       340   06 Jun 2027 06:43:51.913   06 Jun 2027 06:45:00.827            68.914               CapeTown          2153.563
       341   06 Jun 2027 07:40:31.795   06 Jun 2027 07:41:06.184            34.389               Magadan1          1074.656
       342   06 Jun 2027 07:41:29.554   06 Jun 2027 07:41:56.573            27.019               Magadan2           844.344
       343   06 Jun 2027 07:42:28.480   06 Jun 2027 07:43:34.679            66.199                Anadyr2          2068.719
       344   06 Jun 2027 07:43:48.912   06 Jun 2027 07:44:13.070            24.158               Magadan2           754.937
       345   06 Jun 2027 07:48:55.353   06 Jun 2027 07:49:06.119            10.766                 Moscow           336.438
       346   06 Jun 2027 07:50:43.638   06 Jun 2027 07:51:14.226            30.588                 Moscow           955.875
       347   06 Jun 2027 07:51:54.480   06 Jun 2027 07:53:02.649            68.169                 Moscow          2130.281
       348   06 Jun 2027 07:54:32.103   06 Jun 2027 07:54:40.391             8.288                 Moscow           259.000
       349   06 Jun 2027 07:59:41.460   06 Jun 2027 08:00:47.064            65.604                 Moscow          2050.125
       350   06 Jun 2027 08:14:38.923   06 Jun 2027 08:16:29.903           110.980               CapeTown          3468.125
       351   06 Jun 2027 08:16:43.738   06 Jun 2027 08:22:14.878           331.140               CapeTown         10348.125
       352   06 Jun 2027 09:14:13.269   06 Jun 2027 09:16:31.682           138.413                Anadyr2          4325.406
       353   06 Jun 2027 09:17:02.478   06 Jun 2027 09:18:43.991           101.513               Magadan2          3172.281
       354   06 Jun 2027 09:18:48.653   06 Jun 2027 09:19:18.076            29.423                Norilsk           919.469
       355   06 Jun 2027 09:19:49.539   06 Jun 2027 09:22:16.267           146.728                Anadyr1          4585.250
       356   06 Jun 2027 09:27:35.955   06 Jun 2027 09:27:52.686            16.731                 Moscow           522.844
       357   06 Jun 2027 10:49:26.827   06 Jun 2027 10:52:01.290           154.463               Magadan2          4826.969
       358   06 Jun 2027 10:52:18.365   06 Jun 2027 10:52:28.430            10.065               Magadan1           314.531
       359   06 Jun 2027 10:53:03.492   06 Jun 2027 10:53:26.749            23.257                Norilsk           726.781
       360   06 Jun 2027 10:53:30.617   06 Jun 2027 10:53:56.699            26.082                Irkutsk           815.062
       361   06 Jun 2027 10:54:07.883   06 Jun 2027 10:54:37.201            29.318                Norilsk           916.188
       362   06 Jun 2027 10:54:46.968   06 Jun 2027 10:55:10.814            23.846                Norilsk           745.188
       363   06 Jun 2027 10:55:25.548   06 Jun 2027 10:55:47.134            21.586                Irkutsk           674.562
       364   06 Jun 2027 10:55:54.833   06 Jun 2027 10:56:48.110            53.277                Norilsk          1664.906
       365   06 Jun 2027 10:56:51.124   06 Jun 2027 10:56:52.280             1.156                Novosib            36.125
       366   06 Jun 2027 10:56:53.378   06 Jun 2027 10:57:18.508            25.130              Murmansk1           785.312
       367   06 Jun 2027 10:57:42.530   06 Jun 2027 10:57:49.324             6.794               Magadan1           212.312
       368   06 Jun 2027 10:58:10.157   06 Jun 2027 10:58:39.656            29.499              Murmansk1           921.844
       369   06 Jun 2027 11:33:02.495   06 Jun 2027 11:33:25.356            22.861            RioGallegos           714.406
       370   06 Jun 2027 11:33:52.971   06 Jun 2027 11:34:28.641            35.670            RioGallegos          1114.687
       371   06 Jun 2027 12:11:21.920   06 Jun 2027 12:12:22.831            60.911                Sumatra          1903.469
       372   06 Jun 2027 12:21:02.264   06 Jun 2027 12:23:16.228           133.964                Irkutsk          4186.375
       373   06 Jun 2027 12:24:18.519   06 Jun 2027 12:25:18.782            60.263                Novosib          1883.219
       374   06 Jun 2027 12:25:54.893   06 Jun 2027 12:26:09.953            15.060                Norilsk           470.625
       375   06 Jun 2027 12:26:36.300   06 Jun 2027 12:32:15.822           339.522               Magadan1         10610.062
       376   06 Jun 2027 13:46:23.979   06 Jun 2027 13:47:32.189            68.210                Sumatra          2131.563
       377   06 Jun 2027 13:57:34.591   06 Jun 2027 13:57:58.629            24.038                Irkutsk           751.187
       378   06 Jun 2027 13:59:50.778   06 Jun 2027 14:02:36.493           165.715                Irkutsk          5178.594
       379   06 Jun 2027 14:49:01.348   06 Jun 2027 14:54:48.174           346.826            RioGallegos         10838.312
       380   06 Jun 2027 15:35:27.950   06 Jun 2027 15:37:07.720            99.770                Novosib          3117.812
       381   06 Jun 2027 17:11:50.645   06 Jun 2027 17:13:15.290            84.645                 Moscow          2645.156
       382   06 Jun 2027 17:14:09.446   06 Jun 2027 17:14:48.268            38.822                 Moscow          1213.188
       383   06 Jun 2027 17:16:51.404   06 Jun 2027 17:17:04.887            13.483              Murmansk1           421.344
       384   06 Jun 2027 17:19:27.993   06 Jun 2027 17:23:58.008           270.015                Norilsk          8437.969
       385   06 Jun 2027 17:25:37.533   06 Jun 2027 17:26:19.863            42.330                Norilsk          1322.813
       386   06 Jun 2027 18:49:19.876   06 Jun 2027 18:50:29.039            69.163                 Moscow          2161.344
       387   06 Jun 2027 18:52:25.693   06 Jun 2027 18:53:23.343            57.650              Murmansk1          1801.563
       388   06 Jun 2027 18:54:08.256   06 Jun 2027 18:54:44.668            36.412                 Moscow          1137.875
       389   06 Jun 2027 18:56:30.132   06 Jun 2027 18:57:06.642            36.510              Murmansk2          1140.937
       390   06 Jun 2027 19:01:43.475   06 Jun 2027 19:02:21.430            37.955              Murmansk2          1186.094
       391   06 Jun 2027 20:01:22.630   06 Jun 2027 20:02:39.917            77.287               CapeTown          2415.219
       392   06 Jun 2027 20:04:18.475   06 Jun 2027 20:05:43.300            84.825               CapeTown          2650.781
       393   06 Jun 2027 20:31:50.444   06 Jun 2027 20:39:55.523           485.079              Murmansk1         15158.719
       394   06 Jun 2027 22:17:49.771   06 Jun 2027 22:19:20.407            90.636                Anadyr2          2832.375
       395   06 Jun 2027 22:19:34.105   06 Jun 2027 22:19:45.905            11.800                Anadyr1           368.750
       396   06 Jun 2027 22:20:09.331   06 Jun 2027 22:21:57.729           108.398               Magadan2          3387.438
       397   06 Jun 2027 22:22:18.043   06 Jun 2027 22:22:40.829            22.786               Magadan1           712.063
       398   06 Jun 2027 22:22:40.829   06 Jun 2027 22:22:54.194            13.365               Magadan2           417.656
       399   06 Jun 2027 22:23:21.675   06 Jun 2027 22:23:57.971            36.296               Magadan2          1134.250
       400   06 Jun 2027 22:25:19.931   06 Jun 2027 22:25:39.966            20.035               Magadan2           626.094
       401   06 Jun 2027 22:28:10.548   06 Jun 2027 22:28:19.139             8.591               Magadan1           268.469
       402   06 Jun 2027 22:28:49.159   06 Jun 2027 22:29:32.392            43.233               Magadan1          1351.031
       403   06 Jun 2027 23:14:57.558   06 Jun 2027 23:16:52.275           114.717            RioGallegos          3584.906
       404   06 Jun 2027 23:53:41.375   06 Jun 2027 23:55:15.166            93.791                Anadyr1          2930.969
       405   06 Jun 2027 23:55:18.390   06 Jun 2027 23:55:51.935            33.545                Anadyr2          1048.281
       406   06 Jun 2027 23:56:02.727   06 Jun 2027 23:58:27.284           144.557               Magadan1          4517.406
       407   06 Jun 2027 23:58:27.284   06 Jun 2027 23:59:09.188            41.904               Magadan2          1309.500
       408   07 Jun 2027 00:01:01.620   07 Jun 2027 00:02:07.965            66.345                Irkutsk          2073.281
       409   07 Jun 2027 00:04:17.541   07 Jun 2027 00:05:16.807            59.266                Irkutsk          1852.062
       410   07 Jun 2027 00:16:36.321   07 Jun 2027 00:18:19.327           103.006                Sumatra          3218.937
       411   07 Jun 2027 00:47:43.502   07 Jun 2027 00:48:22.662            39.160            RioGallegos          1223.750
       412   07 Jun 2027 00:49:15.364   07 Jun 2027 00:49:31.537            16.173            RioGallegos           505.406
       413   07 Jun 2027 00:51:37.749   07 Jun 2027 00:52:40.935            63.186            RioGallegos          1974.562
       414   07 Jun 2027 01:29:03.826   07 Jun 2027 01:29:25.033            21.207                Anadyr2           662.719
       415   07 Jun 2027 01:29:43.535   07 Jun 2027 01:30:33.139            49.604                Anadyr2          1550.125
       416   07 Jun 2027 01:31:32.151   07 Jun 2027 01:33:35.387           123.236                Norilsk          3851.125
       417   07 Jun 2027 01:33:53.093   07 Jun 2027 01:34:13.976            20.883               Magadan2           652.594
       418   07 Jun 2027 01:34:13.976   07 Jun 2027 01:35:17.958            63.982               Magadan1          1999.437
       419   07 Jun 2027 01:35:30.203   07 Jun 2027 01:36:52.627            82.424                Irkutsk          2575.750
       420   07 Jun 2027 01:37:10.918   07 Jun 2027 01:37:28.375            17.457                Novosib           545.531
       421   07 Jun 2027 01:42:12.429   07 Jun 2027 01:44:26.392           133.963                Novosib          4186.344
       422   07 Jun 2027 01:50:46.424   07 Jun 2027 01:52:23.109            96.685                Sumatra          3021.406
       423   07 Jun 2027 02:29:17.740   07 Jun 2027 02:29:46.211            28.471            RioGallegos           889.719
       424   07 Jun 2027 02:29:59.027   07 Jun 2027 02:30:30.265            31.238            RioGallegos           976.188
       425   07 Jun 2027 02:33:09.631   07 Jun 2027 02:34:45.051            95.420            RioGallegos          2981.875
       426   07 Jun 2027 03:11:49.566   07 Jun 2027 03:12:02.888            13.322               Magadan1           416.313
       427   07 Jun 2027 03:12:42.113   07 Jun 2027 03:14:07.551            85.438               Magadan2          2669.938
       428   07 Jun 2027 03:14:21.133   07 Jun 2027 03:15:27.901            66.768                Novosib          2086.500
       429   07 Jun 2027 03:15:40.999   07 Jun 2027 03:17:34.457           113.458                Irkutsk          3545.563
       430   07 Jun 2027 03:17:42.262   07 Jun 2027 03:18:21.176            38.914                Norilsk          1216.063
       431   07 Jun 2027 03:18:25.395   07 Jun 2027 03:18:35.100             9.705                Novosib           303.281
       432   07 Jun 2027 03:18:42.704   07 Jun 2027 03:19:09.105            26.401                Norilsk           825.031
       433   07 Jun 2027 03:19:09.692   07 Jun 2027 03:19:22.059            12.367                Novosib           386.469
       434   07 Jun 2027 03:19:42.238   07 Jun 2027 03:23:16.016           213.778                  Delhi          6680.563
       435   07 Jun 2027 04:02:33.151   07 Jun 2027 04:05:16.392           163.241            RioGallegos          5101.281
       436   07 Jun 2027 04:50:36.013   07 Jun 2027 04:50:59.969            23.956              Murmansk2           748.625
       437   07 Jun 2027 04:50:59.969   07 Jun 2027 04:51:08.811             8.842              Murmansk1           276.312
       438   07 Jun 2027 04:51:12.173   07 Jun 2027 04:51:48.323            36.150              Murmansk1          1129.688
       439   07 Jun 2027 04:51:49.985   07 Jun 2027 04:52:05.590            15.605                Irkutsk           487.656
       440   07 Jun 2027 04:52:11.546   07 Jun 2027 04:52:27.335            15.789                Norilsk           493.406
       441   07 Jun 2027 04:52:36.675   07 Jun 2027 04:54:02.989            86.314                 Moscow          2697.312
       442   07 Jun 2027 04:54:04.971   07 Jun 2027 04:55:03.468            58.497                Novosib          1828.031
       443   07 Jun 2027 04:55:24.534   07 Jun 2027 04:55:41.704            17.170                Norilsk           536.563
       444   07 Jun 2027 04:55:59.620   07 Jun 2027 05:03:20.935           441.315                  Delhi         13791.094
       445   07 Jun 2027 05:04:07.754   07 Jun 2027 05:04:40.867            33.113                  Delhi          1034.781
       446   07 Jun 2027 06:29:33.526   07 Jun 2027 06:29:48.595            15.069                 Moscow           470.906
       447   07 Jun 2027 06:29:52.066   07 Jun 2027 06:31:07.356            75.290              Murmansk1          2352.812
       448   07 Jun 2027 06:31:07.356   07 Jun 2027 06:31:14.863             7.507              Murmansk2           234.594
       449   07 Jun 2027 06:31:17.990   07 Jun 2027 06:32:05.419            47.429                 Moscow          1482.156
       450   07 Jun 2027 06:32:23.857   07 Jun 2027 06:35:28.372           184.515                 Moscow          5766.094
       451   07 Jun 2027 06:35:47.534   07 Jun 2027 06:36:27.762            40.228                 Moscow          1257.125
       452   07 Jun 2027 06:48:47.213   07 Jun 2027 06:51:59.425           192.212               CapeTown          6006.625
       453   07 Jun 2027 07:52:46.047   07 Jun 2027 07:53:50.764            64.717                Anadyr1          2022.406
       454   07 Jun 2027 07:53:50.764   07 Jun 2027 07:54:27.742            36.978                Anadyr2          1155.562
       455   07 Jun 2027 07:55:07.560   07 Jun 2027 07:56:36.138            88.578                Anadyr1          2768.062
       456   07 Jun 2027 08:27:35.190   07 Jun 2027 08:35:14.233           459.043               CapeTown         14345.094
       457   07 Jun 2027 09:28:09.678   07 Jun 2027 09:28:14.401             4.723               Magadan2           147.594
       458   07 Jun 2027 09:28:14.401   07 Jun 2027 09:28:23.321             8.920               Magadan1           278.750
       459   07 Jun 2027 09:28:29.982   07 Jun 2027 09:32:07.622           217.640                Anadyr1          6801.250
       460   07 Jun 2027 10:58:03.403   07 Jun 2027 10:58:11.772             8.369               Magadan1           261.531
       461   07 Jun 2027 11:00:14.742   07 Jun 2027 11:01:10.872            56.130               Magadan1          1754.063
       462   07 Jun 2027 11:02:10.339   07 Jun 2027 11:02:41.718            31.379                Irkutsk           980.594
       463   07 Jun 2027 11:03:00.045   07 Jun 2027 11:07:24.709           264.664               Magadan1          8270.750
       464   07 Jun 2027 11:07:24.709   07 Jun 2027 11:07:55.195            30.486               Magadan2           952.688
       465   07 Jun 2027 11:08:19.566   07 Jun 2027 11:09:47.166            87.600               Magadan1          2737.500
       466   07 Jun 2027 11:44:50.053   07 Jun 2027 11:45:10.079            20.026            RioGallegos           625.813
       467   07 Jun 2027 12:22:01.471   07 Jun 2027 12:23:55.923           114.452                Sumatra          3576.625
       468   07 Jun 2027 12:32:56.983   07 Jun 2027 12:34:18.476            81.493                Irkutsk          2546.656
       469   07 Jun 2027 12:35:13.339   07 Jun 2027 12:35:33.971            20.632                Irkutsk           644.750
       470   07 Jun 2027 12:37:25.207   07 Jun 2027 12:38:07.230            42.023                Novosib          1313.219
       471   07 Jun 2027 12:38:41.149   07 Jun 2027 12:39:00.656            19.507                Norilsk           609.594
       472   07 Jun 2027 12:39:18.709   07 Jun 2027 12:39:54.237            35.528                Norilsk          1110.250
       473   07 Jun 2027 12:40:59.660   07 Jun 2027 12:43:36.597           156.937               Magadan2          4904.281
       474   07 Jun 2027 13:55:20.307   07 Jun 2027 13:58:20.806           180.499                Sumatra          5640.594
       475   07 Jun 2027 14:03:52.588   07 Jun 2027 14:05:03.204            70.616                Sumatra          2206.750
       476   07 Jun 2027 14:09:58.214   07 Jun 2027 14:10:53.352            55.138                Irkutsk          1723.062
       477   07 Jun 2027 14:15:12.078   07 Jun 2027 14:15:15.095             3.017                Irkutsk            94.281
       478   07 Jun 2027 14:18:07.316   07 Jun 2027 14:19:54.690           107.374                Irkutsk          3355.437
       479   07 Jun 2027 15:02:52.100   07 Jun 2027 15:05:31.207           159.107            RioGallegos          4972.094
       480   07 Jun 2027 15:39:51.676   07 Jun 2027 15:40:43.776            52.100                  Delhi          1628.125
       481   07 Jun 2027 15:47:55.704   07 Jun 2027 15:49:12.997            77.293                Novosib          2415.406
       482   07 Jun 2027 15:51:53.423   07 Jun 2027 15:52:42.656            49.233                Norilsk          1538.531
