uniorb/output/strategy_1/Drop/Drop_KinoSat_111405.txt

KinoSat_111405
-------------------------
    Access    *     Start Time (UTCG)     *     Stop Time (UTCG)  *   Duration (s)        *       Station  *  Data (Mbytes)
         1   01 Jun 2027 03:25:31.094   01 Jun 2027 03:25:48.387            17.293                Novosib           540.406
         2   01 Jun 2027 03:25:57.846   01 Jun 2027 03:28:45.893           168.047              Murmansk2          5251.469
         3   01 Jun 2027 03:29:04.518   01 Jun 2027 03:30:09.461            64.943              Murmansk2          2029.469
         4   01 Jun 2027 03:30:16.614   01 Jun 2027 03:32:06.175           109.561                 Moscow          3423.781
         5   01 Jun 2027 03:45:36.524   01 Jun 2027 03:49:04.012           207.488               CapeTown          6484.000
         6   01 Jun 2027 04:48:57.847   01 Jun 2027 04:49:32.374            34.527                Anadyr1          1078.969
         7   01 Jun 2027 04:49:54.573   01 Jun 2027 04:50:44.825            50.252               Magadan2          1570.375
         8   01 Jun 2027 04:50:44.825   01 Jun 2027 04:51:16.091            31.266               Magadan1           977.062
         9   01 Jun 2027 05:00:46.336   01 Jun 2027 05:01:30.918            44.582                Norilsk          1393.188
        10   01 Jun 2027 05:01:31.169   01 Jun 2027 05:03:19.710           108.541              Murmansk1          3391.906
        11   01 Jun 2027 05:04:29.072   01 Jun 2027 05:04:44.164            15.092                 Moscow           471.625
        12   01 Jun 2027 05:04:46.520   01 Jun 2027 05:04:58.899            12.379              Murmansk2           386.844
        13   01 Jun 2027 06:23:57.053   01 Jun 2027 06:23:57.362             0.309               Magadan1             9.656
        14   01 Jun 2027 06:23:58.587   01 Jun 2027 06:24:17.249            18.662                Anadyr1           583.188
        15   01 Jun 2027 06:24:43.372   01 Jun 2027 06:27:44.772           181.400               Magadan2          5668.750
        16   01 Jun 2027 06:27:44.772   01 Jun 2027 06:28:04.534            19.762               Magadan1           617.562
        17   01 Jun 2027 08:00:22.246   01 Jun 2027 08:00:50.923            28.677               Magadan1           896.156
        18   01 Jun 2027 08:01:10.490   01 Jun 2027 08:06:04.357           293.867                Anadyr2          9183.344
        19   01 Jun 2027 09:35:18.157   01 Jun 2027 09:37:50.736           152.579               Magadan2          4768.094
        20   01 Jun 2027 09:38:37.937   01 Jun 2027 09:41:15.136           157.199               Magadan1          4912.469
        21   01 Jun 2027 09:42:00.782   01 Jun 2027 09:43:12.648            71.866                Norilsk          2245.812
        22   01 Jun 2027 09:46:18.538   01 Jun 2027 09:46:43.100            24.562              Murmansk2           767.563
        23   01 Jun 2027 09:48:34.931   01 Jun 2027 09:48:45.988            11.057              Murmansk1           345.531
        24   01 Jun 2027 09:49:46.139   01 Jun 2027 09:50:13.626            27.487              Murmansk2           858.969
        25   01 Jun 2027 10:17:13.536   01 Jun 2027 10:17:41.623            28.087            RioGallegos           877.719
        26   01 Jun 2027 10:19:41.189   01 Jun 2027 10:20:00.258            19.069            RioGallegos           595.906
        27   01 Jun 2027 10:23:38.906   01 Jun 2027 10:23:51.024            12.118            RioGallegos           378.688
        28   01 Jun 2027 10:25:01.575   01 Jun 2027 10:25:05.422             3.847            RioGallegos           120.219
        29   01 Jun 2027 10:51:44.642   01 Jun 2027 10:53:56.561           131.919                Sumatra          4122.469
        30   01 Jun 2027 11:13:54.743   01 Jun 2027 11:15:57.395           122.652                Irkutsk          3832.875
        31   01 Jun 2027 11:16:09.497   01 Jun 2027 11:16:46.888            37.391                 Moscow          1168.469
        32   01 Jun 2027 11:16:52.086   01 Jun 2027 11:17:53.921            61.835                Irkutsk          1932.344
        33   01 Jun 2027 11:18:05.809   01 Jun 2027 11:19:19.824            74.015              Murmansk1          2312.969
        34   01 Jun 2027 11:58:47.888   01 Jun 2027 12:00:03.784            75.896            RioGallegos          2371.750
        35   01 Jun 2027 12:30:15.646   01 Jun 2027 12:31:47.052            91.406                Sumatra          2856.438
        36   01 Jun 2027 12:39:41.153   01 Jun 2027 12:39:53.400            12.247                  Delhi           382.719
        37   01 Jun 2027 12:43:18.004   01 Jun 2027 12:44:46.170            88.166                Novosib          2755.187
        38   01 Jun 2027 12:45:46.988   01 Jun 2027 12:47:54.057           127.069                Novosib          3970.906
        39   01 Jun 2027 12:48:25.166   01 Jun 2027 12:50:07.943           102.777                Irkutsk          3211.781
        40   01 Jun 2027 14:16:34.245   01 Jun 2027 14:19:05.870           151.625                  Delhi          4738.281
        41   01 Jun 2027 14:21:28.891   01 Jun 2027 14:21:46.472            17.581                 Moscow           549.406
        42   01 Jun 2027 14:23:39.994   01 Jun 2027 14:26:10.426           150.432              Murmansk2          4701.000
        43   01 Jun 2027 14:26:24.463   01 Jun 2027 14:27:48.875            84.412                Novosib          2637.875
        44   01 Jun 2027 14:28:50.517   01 Jun 2027 14:29:30.512            39.995                Norilsk          1249.844
        45   01 Jun 2027 15:36:08.076   01 Jun 2027 15:36:34.932            26.856               CapeTown           839.250
        46   01 Jun 2027 15:42:34.672   01 Jun 2027 15:42:54.606            19.934               CapeTown           622.937
        47   01 Jun 2027 15:57:04.203   01 Jun 2027 15:58:21.834            77.631                 Moscow          2425.969
        48   01 Jun 2027 16:00:22.923   01 Jun 2027 16:01:33.570            70.647                 Moscow          2207.719
        49   01 Jun 2027 16:02:46.705   01 Jun 2027 16:03:13.723            27.018              Murmansk2           844.312
        50   01 Jun 2027 16:03:43.545   01 Jun 2027 16:04:22.898            39.353              Murmansk1          1229.781
        51   01 Jun 2027 16:14:55.876   01 Jun 2027 16:16:07.843            71.967                Anadyr1          2248.969
        52   01 Jun 2027 16:16:07.843   01 Jun 2027 16:16:13.837             5.994                Anadyr2           187.312
        53   01 Jun 2027 16:17:25.178   01 Jun 2027 16:18:24.644            59.466                Anadyr1          1858.313
        54   01 Jun 2027 17:09:40.295   01 Jun 2027 17:12:04.908           144.613               CapeTown          4519.156
        55   01 Jun 2027 17:39:16.185   01 Jun 2027 17:39:51.756            35.571              Murmansk1          1111.594
        56   01 Jun 2027 17:40:29.260   01 Jun 2027 17:44:27.496           238.236              Murmansk2          7444.875
        57   01 Jun 2027 17:50:19.008   01 Jun 2027 17:50:43.614            24.606                Anadyr2           768.937
        58   01 Jun 2027 17:54:17.916   01 Jun 2027 17:55:39.231            81.315               Magadan1          2541.094
        59   01 Jun 2027 17:56:17.786   01 Jun 2027 17:57:11.989            54.203               Magadan1          1693.844
        60   01 Jun 2027 18:47:46.536   01 Jun 2027 18:48:10.662            24.126               CapeTown           753.938
        61   01 Jun 2027 18:51:53.788   01 Jun 2027 18:52:32.349            38.561               CapeTown          1205.031
        62   01 Jun 2027 19:26:12.698   01 Jun 2027 19:27:59.343           106.645                Anadyr2          3332.656
        63   01 Jun 2027 19:27:59.881   01 Jun 2027 19:29:58.336           118.455                Anadyr1          3701.719
        64   01 Jun 2027 19:30:17.511   01 Jun 2027 19:33:36.221           198.710               Magadan2          6209.688
        65   01 Jun 2027 21:02:06.197   01 Jun 2027 21:05:41.786           215.589                Anadyr1          6737.156
        66   01 Jun 2027 21:05:48.330   01 Jun 2027 21:05:50.523             2.193                Norilsk            68.531
        67   01 Jun 2027 21:05:56.388   01 Jun 2027 21:05:59.162             2.774                Norilsk            86.688
        68   01 Jun 2027 21:06:08.655   01 Jun 2027 21:09:42.788           214.133               Magadan1          6691.656
        69   01 Jun 2027 21:10:38.774   01 Jun 2027 21:11:24.852            46.078                Irkutsk          1439.937
        70   01 Jun 2027 21:11:52.624   01 Jun 2027 21:12:05.271            12.647                Irkutsk           395.219
        71   01 Jun 2027 21:56:20.188   01 Jun 2027 21:57:34.773            74.585            RioGallegos          2330.781
        72   01 Jun 2027 22:01:59.521   01 Jun 2027 22:02:27.913            28.392            RioGallegos           887.250
        73   01 Jun 2027 22:37:37.023   01 Jun 2027 22:38:20.820            43.797                Anadyr1          1368.656
        74   01 Jun 2027 22:38:22.477   01 Jun 2027 22:40:00.648            98.171                Anadyr2          3067.844
        75   01 Jun 2027 22:40:04.707   01 Jun 2027 22:41:46.966           102.259                Norilsk          3195.594
        76   01 Jun 2027 22:42:22.710   01 Jun 2027 22:43:35.237            72.527               Magadan1          2266.469
        77   01 Jun 2027 22:45:04.697   01 Jun 2027 22:45:38.724            34.027                Irkutsk          1063.344
        78   01 Jun 2027 22:45:39.129   01 Jun 2027 22:46:56.482            77.353                Novosib          2417.281
        79   01 Jun 2027 22:51:14.245   01 Jun 2027 22:52:08.906            54.661                Novosib          1708.156
        80   01 Jun 2027 22:57:41.777   01 Jun 2027 22:58:17.295            35.518                Sumatra          1109.938
        81   01 Jun 2027 23:00:46.651   01 Jun 2027 23:00:55.584             8.933                Sumatra           279.156
        82   01 Jun 2027 23:06:23.467   01 Jun 2027 23:07:14.522            51.055                Sumatra          1595.469
        83   02 Jun 2027 00:12:09.040   02 Jun 2027 00:12:31.017            21.977                Anadyr1           686.781
        84   02 Jun 2027 00:13:22.260   02 Jun 2027 00:14:02.063            39.803                Anadyr2          1243.844
        85   02 Jun 2027 00:14:26.657   02 Jun 2027 00:14:46.272            19.615                Anadyr1           612.969
        86   02 Jun 2027 00:15:55.597   02 Jun 2027 00:16:09.377            13.780                Norilsk           430.625
        87   02 Jun 2027 00:16:34.517   02 Jun 2027 00:18:23.544           109.027               Magadan2          3407.094
        88   02 Jun 2027 00:19:23.810   02 Jun 2027 00:19:51.690            27.880               Magadan2           871.250
        89   02 Jun 2027 00:20:01.558   02 Jun 2027 00:20:28.859            27.301                Irkutsk           853.156
        90   02 Jun 2027 00:21:00.607   02 Jun 2027 00:22:35.535            94.928                Novosib          2966.500
        91   02 Jun 2027 00:23:27.011   02 Jun 2027 00:23:40.292            13.281                Novosib           415.031
        92   02 Jun 2027 00:27:22.948   02 Jun 2027 00:29:09.086           106.138                  Delhi          3316.812
        93   02 Jun 2027 00:29:34.358   02 Jun 2027 00:29:50.708            16.350                  Delhi           510.937
        94   02 Jun 2027 00:37:42.472   02 Jun 2027 00:38:22.253            39.781                  Delhi          1243.156
        95   02 Jun 2027 01:08:38.480   02 Jun 2027 01:09:07.378            28.898            RioGallegos           903.063
        96   02 Jun 2027 01:12:08.027   02 Jun 2027 01:12:19.720            11.693            RioGallegos           365.406
        97   02 Jun 2027 01:45:34.271   02 Jun 2027 01:45:48.023            13.752                Anadyr2           429.750
        98   02 Jun 2027 01:46:21.509   02 Jun 2027 01:46:46.005            24.496                Anadyr2           765.500
        99   02 Jun 2027 01:47:14.492   02 Jun 2027 01:47:42.173            27.681                Anadyr1           865.031
       100   02 Jun 2027 01:48:03.681   02 Jun 2027 01:48:32.418            28.737                Anadyr2           898.031
       101   02 Jun 2027 01:51:45.698   02 Jun 2027 01:53:16.314            90.616               Magadan2          2831.750
       102   02 Jun 2027 01:53:24.018   02 Jun 2027 01:53:34.371            10.353                Norilsk           323.531
       103   02 Jun 2027 01:54:10.109   02 Jun 2027 01:54:18.961             8.852               Magadan2           276.625
       104   02 Jun 2027 01:54:29.790   02 Jun 2027 01:55:21.202            51.412               Magadan2          1606.625
       105   02 Jun 2027 01:55:44.254   02 Jun 2027 01:57:11.868            87.614                Novosib          2737.937
       106   02 Jun 2027 01:58:32.454   02 Jun 2027 02:00:35.030           122.576                 Moscow          3830.500
       107   02 Jun 2027 02:27:23.778   02 Jun 2027 02:27:56.447            32.669               CapeTown          1020.906
       108   02 Jun 2027 03:23:32.865   02 Jun 2027 03:23:39.520             6.655                Anadyr1           207.969
       109   02 Jun 2027 03:23:47.794   02 Jun 2027 03:24:00.478            12.684               Magadan1           396.375
       110   02 Jun 2027 03:25:36.178   02 Jun 2027 03:25:45.845             9.667                Anadyr2           302.094
       111   02 Jun 2027 03:25:48.320   02 Jun 2027 03:25:49.875             1.555                Anadyr1            48.594
       112   02 Jun 2027 03:27:00.357   02 Jun 2027 03:27:12.815            12.458                Anadyr1           389.312
       113   02 Jun 2027 03:37:28.790   02 Jun 2027 03:38:53.421            84.631                Norilsk          2644.719
       114   02 Jun 2027 03:39:07.362   02 Jun 2027 03:42:23.638           196.276              Murmansk1          6133.625
       115   02 Jun 2027 03:42:53.670   02 Jun 2027 03:46:01.895           188.225                 Moscow          5882.031
       116   02 Jun 2027 03:57:23.476   02 Jun 2027 03:59:02.652            99.176               CapeTown          3099.250
       117   02 Jun 2027 04:00:16.481   02 Jun 2027 04:00:54.735            38.254               CapeTown          1195.438
       118   02 Jun 2027 05:00:32.905   02 Jun 2027 05:01:53.516            80.611               Magadan2          2519.094
       119   02 Jun 2027 05:02:07.931   02 Jun 2027 05:03:19.034            71.103                Anadyr1          2221.969
       120   02 Jun 2027 05:03:40.918   02 Jun 2027 05:03:48.965             8.047               Magadan1           251.469
       121   02 Jun 2027 05:04:46.432   02 Jun 2027 05:05:09.671            23.239                Anadyr2           726.219
       122   02 Jun 2027 05:12:41.261   02 Jun 2027 05:13:44.103            62.842                Norilsk          1963.812
       123   02 Jun 2027 05:13:54.562   02 Jun 2027 05:16:49.659           175.097              Murmansk1          5471.781
       124   02 Jun 2027 05:18:40.770   02 Jun 2027 05:18:56.788            16.018              Murmansk2           500.562
       125   02 Jun 2027 06:35:46.967   02 Jun 2027 06:35:51.616             4.649               Magadan2           145.281
       126   02 Jun 2027 06:36:09.149   02 Jun 2027 06:36:48.170            39.021                Anadyr1          1219.406
       127   02 Jun 2027 06:37:08.322   02 Jun 2027 06:39:35.269           146.947               Magadan1          4592.094
       128   02 Jun 2027 06:39:46.857   02 Jun 2027 06:42:41.554           174.697                Anadyr2          5459.281
       129   02 Jun 2027 08:11:00.112   02 Jun 2027 08:14:32.567           212.455                Anadyr1          6639.219
       130   02 Jun 2027 08:14:32.567   02 Jun 2027 08:15:19.988            47.421                Anadyr2          1481.906
       131   02 Jun 2027 08:16:07.087   02 Jun 2027 08:17:54.487           107.400                Anadyr1          3356.250
       132   02 Jun 2027 08:53:38.665   02 Jun 2027 08:53:47.391             8.726            RioGallegos           272.687
       133   02 Jun 2027 09:48:18.950   02 Jun 2027 09:48:47.533            28.583                Irkutsk           893.219
       134   02 Jun 2027 09:49:10.320   02 Jun 2027 09:52:05.741           175.421                Irkutsk          5481.906
       135   02 Jun 2027 09:52:09.648   02 Jun 2027 09:52:55.013            45.365              Murmansk2          1417.656
       136   02 Jun 2027 09:53:03.045   02 Jun 2027 09:54:45.022           101.977              Murmansk2          3186.781
       137   02 Jun 2027 09:55:49.803   02 Jun 2027 09:56:15.642            25.839              Murmansk2           807.469
       138   02 Jun 2027 09:56:44.897   02 Jun 2027 09:57:07.306            22.409              Murmansk2           700.281
       139   02 Jun 2027 10:28:55.019   02 Jun 2027 10:29:35.018            39.999            RioGallegos          1249.969
       140   02 Jun 2027 10:30:17.169   02 Jun 2027 10:30:42.789            25.620            RioGallegos           800.625
       141   02 Jun 2027 10:30:54.657   02 Jun 2027 10:31:51.320            56.663            RioGallegos          1770.719
       142   02 Jun 2027 11:03:40.342   02 Jun 2027 11:06:33.506           173.164                Sumatra          5411.375
       143   02 Jun 2027 11:25:27.665   02 Jun 2027 11:25:37.239             9.574                Norilsk           299.188
       144   02 Jun 2027 11:25:44.913   02 Jun 2027 11:29:32.358           227.445                Novosib          7107.656
       145   02 Jun 2027 11:29:35.608   02 Jun 2027 11:30:25.961            50.353                Norilsk          1573.531
       146   02 Jun 2027 11:30:36.012   02 Jun 2027 11:31:21.823            45.811                 Moscow          1431.594
       147   02 Jun 2027 12:12:03.324   02 Jun 2027 12:12:53.872            50.548            RioGallegos          1579.625
       148   02 Jun 2027 12:44:26.010   02 Jun 2027 12:46:32.841           126.831                Sumatra          3963.469
       149   02 Jun 2027 12:50:16.972   02 Jun 2027 12:50:27.805            10.833                  Delhi           338.531
       150   02 Jun 2027 12:51:00.963   02 Jun 2027 12:52:12.942            71.979                  Delhi          2249.344
       151   02 Jun 2027 12:57:43.594   02 Jun 2027 13:00:03.009           139.415                Novosib          4356.719
       152   02 Jun 2027 13:00:28.614   02 Jun 2027 13:01:47.167            78.553                Irkutsk          2454.781
       153   02 Jun 2027 14:32:16.984   02 Jun 2027 14:34:48.064           151.080                 Moscow          4721.250
       154   02 Jun 2027 14:35:15.108   02 Jun 2027 14:35:30.815            15.707                 Moscow           490.844
       155   02 Jun 2027 14:35:41.816   02 Jun 2027 14:37:44.677           122.861              Murmansk1          3839.406
       156   02 Jun 2027 14:39:10.945   02 Jun 2027 14:39:28.035            17.090              Murmansk1           534.063
       157   02 Jun 2027 14:39:30.025   02 Jun 2027 14:41:32.630           122.605                Norilsk          3831.406
       158   02 Jun 2027 14:43:19.046   02 Jun 2027 14:44:28.880            69.834                Norilsk          2182.312
       159   02 Jun 2027 15:47:02.533   02 Jun 2027 15:47:43.824            41.291               CapeTown          1290.344
       160   02 Jun 2027 15:48:16.187   02 Jun 2027 15:49:59.515           103.328               CapeTown          3229.000
       161   02 Jun 2027 16:09:27.609   02 Jun 2027 16:09:45.617            18.008                 Moscow           562.750
       162   02 Jun 2027 16:12:40.077   02 Jun 2027 16:13:20.075            39.998              Murmansk2          1249.937
       163   02 Jun 2027 16:13:33.428   02 Jun 2027 16:14:24.007            50.579                 Moscow          1580.594
       164   02 Jun 2027 16:15:15.289   02 Jun 2027 16:15:45.683            30.394              Murmansk1           949.813
       165   02 Jun 2027 16:26:48.868   02 Jun 2027 16:28:25.626            96.758                Anadyr2          3023.687
       166   02 Jun 2027 16:29:26.281   02 Jun 2027 16:29:41.003            14.722                Anadyr2           460.063
       167   02 Jun 2027 17:21:44.029   02 Jun 2027 17:23:57.258           133.229               CapeTown          4163.406
       168   02 Jun 2027 17:51:51.697   02 Jun 2027 17:52:46.597            54.900              Murmansk2          1715.625
       169   02 Jun 2027 17:53:03.466   02 Jun 2027 17:57:12.147           248.681              Murmansk1          7771.281
       170   02 Jun 2027 18:02:19.556   02 Jun 2027 18:02:29.394             9.838                Anadyr1           307.438
       171   02 Jun 2027 18:05:52.070   02 Jun 2027 18:06:29.617            37.547               Magadan1          1173.344
       172   02 Jun 2027 18:06:29.617   02 Jun 2027 18:07:51.017            81.400               Magadan2          2543.750
       173   02 Jun 2027 18:12:10.307   02 Jun 2027 18:12:30.302            19.995               Magadan1           624.844
       174   02 Jun 2027 19:38:14.330   02 Jun 2027 19:39:59.890           105.560                Anadyr2          3298.750
       175   02 Jun 2027 19:40:16.451   02 Jun 2027 19:41:59.763           103.312                Anadyr1          3228.500
       176   02 Jun 2027 19:42:01.227   02 Jun 2027 19:45:08.224           186.997               Magadan1          5843.656
       177   02 Jun 2027 19:45:36.768   02 Jun 2027 19:45:45.766             8.998               Magadan1           281.187
       178   02 Jun 2027 19:49:54.007   02 Jun 2027 19:50:15.828            21.821               Magadan2           681.906
       179   02 Jun 2027 19:51:21.931   02 Jun 2027 19:51:48.619            26.688               Magadan1           834.000
       180   02 Jun 2027 21:14:06.406   02 Jun 2027 21:16:16.368           129.962                Anadyr1          4061.313
       181   02 Jun 2027 21:16:21.007   02 Jun 2027 21:19:55.168           214.161                Norilsk          6692.531
       182   02 Jun 2027 21:20:05.050   02 Jun 2027 21:20:39.445            34.395               Magadan2          1074.844
       183   02 Jun 2027 21:20:49.895   02 Jun 2027 21:21:32.261            42.366               Magadan1          1323.937
       184   02 Jun 2027 21:21:51.235   02 Jun 2027 21:24:07.723           136.488                Irkutsk          4265.250
       185   02 Jun 2027 21:27:44.429   02 Jun 2027 21:27:55.111            10.682                Irkutsk           333.812
       186   02 Jun 2027 21:38:10.294   02 Jun 2027 21:39:11.642            61.348                Sumatra          1917.125
       187   02 Jun 2027 21:41:47.866   02 Jun 2027 21:42:32.211            44.345                Sumatra          1385.781
       188   02 Jun 2027 22:16:10.710   02 Jun 2027 22:16:36.176            25.466            RioGallegos           795.812
       189   02 Jun 2027 22:19:20.465   02 Jun 2027 22:19:53.578            33.113            RioGallegos          1034.781
       190   02 Jun 2027 22:49:32.079   02 Jun 2027 22:49:50.339            18.260                Anadyr1           570.625
       191   02 Jun 2027 22:49:50.339   02 Jun 2027 22:50:21.992            31.653                Anadyr2           989.156
       192   02 Jun 2027 22:51:58.018   02 Jun 2027 22:53:02.349            64.331                Norilsk          2010.344
       193   02 Jun 2027 22:53:12.239   02 Jun 2027 22:55:03.418           111.179               Magadan1          3474.344
       194   02 Jun 2027 22:55:57.733   02 Jun 2027 22:57:06.645            68.912                Irkutsk          2153.500
       195   02 Jun 2027 22:57:22.170   02 Jun 2027 22:59:01.868            99.698                Novosib          3115.563
       196   02 Jun 2027 23:09:40.304   02 Jun 2027 23:10:10.591            30.287                Sumatra           946.469
       197   02 Jun 2027 23:12:07.182   02 Jun 2027 23:12:31.231            24.049                Sumatra           751.531
       198   02 Jun 2027 23:15:38.214   02 Jun 2027 23:16:17.071            38.857                Sumatra          1214.281
       199   02 Jun 2027 23:20:46.784   02 Jun 2027 23:21:49.812            63.028                Sumatra          1969.625
       200   02 Jun 2027 23:55:28.955   02 Jun 2027 23:56:27.795            58.840            RioGallegos          1838.750
       201   03 Jun 2027 00:24:32.024   03 Jun 2027 00:25:32.191            60.167                Anadyr1          1880.219
       202   03 Jun 2027 00:27:57.774   03 Jun 2027 00:28:10.120            12.346                Norilsk           385.813
       203   03 Jun 2027 00:28:35.860   03 Jun 2027 00:30:39.812           123.952               Magadan2          3873.500
       204   03 Jun 2027 00:31:20.648   03 Jun 2027 00:32:16.877            56.229               Magadan2          1757.156
       205   03 Jun 2027 00:32:18.191   03 Jun 2027 00:33:00.772            42.581                Novosib          1330.656
       206   03 Jun 2027 00:33:17.807   03 Jun 2027 00:34:38.099            80.292              Murmansk1          2509.125
       207   03 Jun 2027 00:39:14.607   03 Jun 2027 00:40:06.380            51.773                  Delhi          1617.906
       208   03 Jun 2027 00:42:31.771   03 Jun 2027 00:42:37.955             6.184                  Delhi           193.250
       209   03 Jun 2027 00:42:51.395   03 Jun 2027 00:43:14.388            22.993                  Delhi           718.531
       210   03 Jun 2027 00:46:18.119   03 Jun 2027 00:46:43.319            25.200                  Delhi           787.500
       211   03 Jun 2027 00:48:45.104   03 Jun 2027 00:49:17.085            31.981                  Delhi           999.406
       212   03 Jun 2027 01:20:39.279   03 Jun 2027 01:22:00.176            80.897            RioGallegos          2528.031
       213   03 Jun 2027 01:27:02.234   03 Jun 2027 01:27:54.685            52.451            RioGallegos          1639.094
       214   03 Jun 2027 01:57:15.422   03 Jun 2027 01:57:16.555             1.133                Anadyr1            35.406
       215   03 Jun 2027 01:58:50.538   03 Jun 2027 01:59:14.447            23.909                Anadyr1           747.156
       216   03 Jun 2027 01:59:41.424   03 Jun 2027 01:59:47.873             6.449                Anadyr2           201.531
       217   03 Jun 2027 02:00:14.427   03 Jun 2027 02:00:26.643            12.216                Anadyr2           381.750
       218   03 Jun 2027 02:00:44.429   03 Jun 2027 02:01:19.821            35.392                Anadyr2          1106.000
       219   03 Jun 2027 02:03:06.694   03 Jun 2027 02:03:37.935            31.241                Anadyr2           976.281
       220   03 Jun 2027 02:03:43.713   03 Jun 2027 02:04:26.653            42.940               Magadan2          1341.875
       221   03 Jun 2027 02:05:15.355   03 Jun 2027 02:05:31.058            15.703                Norilsk           490.719
       222   03 Jun 2027 02:06:10.880   03 Jun 2027 02:06:53.506            42.626              Murmansk2          1332.063
       223   03 Jun 2027 02:06:53.506   03 Jun 2027 02:07:55.686            62.180              Murmansk1          1943.125
       224   03 Jun 2027 02:08:17.214   03 Jun 2027 02:09:09.509            52.295              Murmansk2          1634.219
       225   03 Jun 2027 02:13:05.196   03 Jun 2027 02:13:12.383             7.187                Novosib           224.594
       226   03 Jun 2027 02:13:30.739   03 Jun 2027 02:13:39.717             8.978                Irkutsk           280.563
       227   03 Jun 2027 02:14:35.916   03 Jun 2027 02:14:44.628             8.712                 Moscow           272.250
       228   03 Jun 2027 02:15:24.081   03 Jun 2027 02:15:35.075            10.994                Novosib           343.563
       229   03 Jun 2027 02:16:03.177   03 Jun 2027 02:16:34.794            31.617                  Delhi           988.031
       230   03 Jun 2027 02:21:23.381   03 Jun 2027 02:22:05.173            41.792                  Delhi          1306.000
       231   03 Jun 2027 02:25:19.274   03 Jun 2027 02:25:39.685            20.411                  Delhi           637.844
       232   03 Jun 2027 02:40:07.306   03 Jun 2027 02:41:41.355            94.049               CapeTown          2939.031
       233   03 Jun 2027 03:49:09.444   03 Jun 2027 03:49:43.896            34.452                Norilsk          1076.625
       234   03 Jun 2027 03:49:59.255   03 Jun 2027 03:50:23.563            24.308              Murmansk1           759.625
       235   03 Jun 2027 03:50:23.563   03 Jun 2027 03:52:45.636           142.073              Murmansk2          4439.781
       236   03 Jun 2027 03:52:47.445   03 Jun 2027 03:54:21.532            94.087              Murmansk2          2940.219
       237   03 Jun 2027 03:54:36.828   03 Jun 2027 03:56:15.743            98.915                 Moscow          3091.094
       238   03 Jun 2027 05:12:58.090   03 Jun 2027 05:14:50.897           112.807                Anadyr2          3525.219
       239   03 Jun 2027 05:14:59.828   03 Jun 2027 05:16:26.507            86.679               Magadan2          2708.719
       240   03 Jun 2027 05:16:33.327   03 Jun 2027 05:16:47.413            14.086                Anadyr2           440.187
       241   03 Jun 2027 05:17:11.052   03 Jun 2027 05:17:44.955            33.903                Anadyr1          1059.469
       242   03 Jun 2027 05:28:31.170   03 Jun 2027 05:28:41.147             9.977              Murmansk2           311.781
       243   03 Jun 2027 06:48:02.656   03 Jun 2027 06:49:19.212            76.556                Anadyr2          2392.375
       244   03 Jun 2027 06:49:37.164   03 Jun 2027 06:52:07.060           149.896                Norilsk          4684.250
       245   03 Jun 2027 06:52:23.466   03 Jun 2027 06:54:41.230           137.764                Anadyr2          4305.125
       246   03 Jun 2027 08:22:50.736   03 Jun 2027 08:24:56.006           125.270               Magadan1          3914.688
       247   03 Jun 2027 08:24:56.006   03 Jun 2027 08:26:36.069           100.063               Magadan2          3126.969
       248   03 Jun 2027 08:26:40.173   03 Jun 2027 08:28:06.130            85.957               Magadan2          2686.156
       249   03 Jun 2027 08:28:21.674   03 Jun 2027 08:29:40.340            78.666                Anadyr1          2458.313
       250   03 Jun 2027 08:29:44.492   03 Jun 2027 08:30:26.406            41.914                Novosib          1309.812
       251   03 Jun 2027 08:30:33.119   03 Jun 2027 08:30:39.460             6.341              Murmansk2           198.156
       252   03 Jun 2027 08:30:39.460   03 Jun 2027 08:30:55.270            15.810              Murmansk1           494.063
       253   03 Jun 2027 09:05:23.926   03 Jun 2027 09:06:11.890            47.964            RioGallegos          1498.875
       254   03 Jun 2027 09:43:18.493   03 Jun 2027 09:44:46.287            87.794                Sumatra          2743.562
       255   03 Jun 2027 09:58:55.376   03 Jun 2027 09:59:25.656            30.280               Magadan2           946.250
       256   03 Jun 2027 10:00:31.303   03 Jun 2027 10:02:48.556           137.253                Irkutsk          4289.156
       257   03 Jun 2027 10:02:56.661   03 Jun 2027 10:05:45.618           168.957                Irkutsk          5279.906
       258   03 Jun 2027 10:06:02.217   03 Jun 2027 10:06:16.151            13.934                Novosib           435.438
       259   03 Jun 2027 10:06:21.583   03 Jun 2027 10:07:18.422            56.839              Murmansk1          1776.219
       260   03 Jun 2027 10:07:18.422   03 Jun 2027 10:07:22.100             3.678              Murmansk2           114.938
       261   03 Jun 2027 10:09:32.857   03 Jun 2027 10:10:21.603            48.746              Murmansk1          1523.313
       262   03 Jun 2027 10:41:06.954   03 Jun 2027 10:41:26.066            19.112            RioGallegos           597.250
       263   03 Jun 2027 10:42:20.189   03 Jun 2027 10:42:33.717            13.528            RioGallegos           422.750
       264   03 Jun 2027 10:43:57.972   03 Jun 2027 10:44:35.180            37.208            RioGallegos          1162.750
       265   03 Jun 2027 11:15:41.682   03 Jun 2027 11:17:35.136           113.454                Sumatra          3545.437
       266   03 Jun 2027 11:18:49.460   03 Jun 2027 11:19:49.971            60.511                Sumatra          1890.969
       267   03 Jun 2027 11:36:12.808   03 Jun 2027 11:37:25.550            72.742                Norilsk          2273.188
       268   03 Jun 2027 11:37:37.830   03 Jun 2027 11:37:47.455             9.625                Norilsk           300.781
       269   03 Jun 2027 11:37:48.595   03 Jun 2027 11:37:51.575             2.980                Novosib            93.125
       270   03 Jun 2027 11:38:02.275   03 Jun 2027 11:38:43.422            41.147              Murmansk2          1285.844
       271   03 Jun 2027 11:38:44.079   03 Jun 2027 11:39:29.755            45.676                Irkutsk          1427.375
       272   03 Jun 2027 11:39:33.536   03 Jun 2027 11:39:53.632            20.096                 Moscow           628.000
       273   03 Jun 2027 11:39:53.754   03 Jun 2027 11:40:20.622            26.868              Murmansk1           839.625
       274   03 Jun 2027 11:40:27.260   03 Jun 2027 11:41:06.045            38.785              Murmansk2          1212.031
       275   03 Jun 2027 11:41:24.123   03 Jun 2027 11:41:39.490            15.367              Murmansk2           480.219
       276   03 Jun 2027 11:41:49.312   03 Jun 2027 11:42:39.113            49.801                Novosib          1556.281
       277   03 Jun 2027 11:45:58.081   03 Jun 2027 11:46:14.690            16.609              Murmansk1           519.031
       278   03 Jun 2027 12:21:56.889   03 Jun 2027 12:24:01.663           124.774            RioGallegos          3899.188
       279   03 Jun 2027 13:02:55.972   03 Jun 2027 13:03:36.425            40.453                  Delhi          1264.156
       280   03 Jun 2027 13:08:02.447   03 Jun 2027 13:09:14.260            71.813                Novosib          2244.156
       281   03 Jun 2027 13:09:38.763   03 Jun 2027 13:12:02.697           143.934                Novosib          4497.938
       282   03 Jun 2027 13:12:03.589   03 Jun 2027 13:12:33.974            30.385                Norilsk           949.531
       283   03 Jun 2027 13:13:41.244   03 Jun 2027 13:15:08.577            87.333                Norilsk          2729.156
       284   03 Jun 2027 14:44:16.818   03 Jun 2027 14:47:35.782           198.964                 Moscow          6217.625
       285   03 Jun 2027 14:47:45.191   03 Jun 2027 14:49:26.073           100.882              Murmansk2          3152.563
       286   03 Jun 2027 14:52:10.582   03 Jun 2027 14:55:09.347           178.765                Norilsk          5586.406
       287   03 Jun 2027 15:58:39.151   03 Jun 2027 15:59:35.107            55.956               CapeTown          1748.625
       288   03 Jun 2027 16:07:58.068   03 Jun 2027 16:07:59.610             1.542               CapeTown            48.188
       289   03 Jun 2027 16:08:24.415   03 Jun 2027 16:08:32.829             8.414               CapeTown           262.938
       290   03 Jun 2027 16:09:01.638   03 Jun 2027 16:09:13.962            12.324               CapeTown           385.125
       291   03 Jun 2027 16:21:55.625   03 Jun 2027 16:22:43.684            48.059                 Moscow          1501.844
       292   03 Jun 2027 16:24:57.954   03 Jun 2027 16:26:12.347            74.393              Murmansk1          2324.781
       293   03 Jun 2027 16:28:43.198   03 Jun 2027 16:29:30.522            47.324              Murmansk2          1478.875
       294   03 Jun 2027 16:33:31.157   03 Jun 2027 16:34:32.566            61.409              Murmansk1          1919.031
       295   03 Jun 2027 16:38:43.837   03 Jun 2027 16:39:57.359            73.522                Anadyr1          2297.563
       296   03 Jun 2027 16:40:40.101   03 Jun 2027 16:41:27.226            47.125                Anadyr2          1472.656
       297   03 Jun 2027 16:47:55.289   03 Jun 2027 16:48:09.295            14.006                Anadyr2           437.687
       298   03 Jun 2027 16:48:11.908   03 Jun 2027 16:48:15.269             3.361                Anadyr2           105.031
       299   03 Jun 2027 17:33:50.578   03 Jun 2027 17:34:40.678            50.100               CapeTown          1565.625
       300   03 Jun 2027 17:41:53.182   03 Jun 2027 17:42:07.853            14.671               CapeTown           458.469
       301   03 Jun 2027 17:43:23.981   03 Jun 2027 17:43:32.289             8.308               CapeTown           259.625
       302   03 Jun 2027 17:44:07.330   03 Jun 2027 17:44:12.603             5.273               CapeTown           164.781
       303   03 Jun 2027 17:44:30.964   03 Jun 2027 17:45:08.286            37.322               CapeTown          1166.313
       304   03 Jun 2027 18:04:30.688   03 Jun 2027 18:05:53.821            83.133              Murmansk1          2597.906
       305   03 Jun 2027 18:05:55.984   03 Jun 2027 18:08:43.669           167.685              Murmansk2          5240.156
       306   03 Jun 2027 18:15:28.509   03 Jun 2027 18:15:37.224             8.715                Anadyr1           272.344
       307   03 Jun 2027 18:15:53.008   03 Jun 2027 18:16:07.627            14.619                Anadyr1           456.844
       308   03 Jun 2027 18:17:34.559   03 Jun 2027 18:18:28.702            54.143               Magadan2          1691.969
       309   03 Jun 2027 18:18:46.637   03 Jun 2027 18:19:03.547            16.910               Magadan1           528.438
       310   03 Jun 2027 18:20:06.482   03 Jun 2027 18:20:52.130            45.648               Magadan1          1426.500
       311   03 Jun 2027 19:50:15.924   03 Jun 2027 19:52:00.136           104.212                Anadyr2          3256.625
       312   03 Jun 2027 19:52:06.639   03 Jun 2027 19:54:01.057           114.418                Anadyr1          3575.562
       313   03 Jun 2027 19:54:08.507   03 Jun 2027 19:56:37.133           148.626               Magadan1          4644.562
       314   03 Jun 2027 19:57:30.837   03 Jun 2027 19:57:56.099            25.262               Magadan1           789.438
       315   03 Jun 2027 20:00:52.859   03 Jun 2027 20:00:56.046             3.187               Magadan2            99.594
       316   03 Jun 2027 20:01:10.467   03 Jun 2027 20:01:23.309            12.842               Magadan2           401.312
       317   03 Jun 2027 20:03:52.678   03 Jun 2027 20:04:24.304            31.626               Magadan1           988.313
       318   03 Jun 2027 20:47:01.158   03 Jun 2027 20:49:08.783           127.625            RioGallegos          3988.281
       319   03 Jun 2027 21:26:06.225   03 Jun 2027 21:27:41.070            94.845                Anadyr1          2963.906
       320   03 Jun 2027 21:27:48.855   03 Jun 2027 21:28:33.073            44.218                Anadyr1          1381.812
       321   03 Jun 2027 21:28:42.255   03 Jun 2027 21:30:33.790           111.535               Magadan1          3485.469
       322   03 Jun 2027 21:31:13.506   03 Jun 2027 21:32:17.937            64.431                Norilsk          2013.469
       323   03 Jun 2027 21:33:21.954   03 Jun 2027 21:33:53.627            31.673                Irkutsk           989.781
       324   03 Jun 2027 21:35:03.925   03 Jun 2027 21:36:10.939            67.014                Irkutsk          2094.187
       325   03 Jun 2027 21:48:40.317   03 Jun 2027 21:50:36.783           116.466                Sumatra          3639.563
       326   03 Jun 2027 21:53:00.330   03 Jun 2027 21:53:33.147            32.817                Sumatra          1025.531
       327   03 Jun 2027 21:56:16.858   03 Jun 2027 21:56:20.156             3.298                Sumatra           103.062
       328   03 Jun 2027 23:01:26.101   03 Jun 2027 23:02:22.903            56.802                Anadyr2          1775.063
       329   03 Jun 2027 23:02:44.076   03 Jun 2027 23:03:56.560            72.484                Anadyr1          2265.125
       330   03 Jun 2027 23:04:35.584   03 Jun 2027 23:05:19.098            43.514               Magadan1          1359.812
       331   03 Jun 2027 23:05:32.296   03 Jun 2027 23:05:51.637            19.341               Magadan2           604.406
       332   03 Jun 2027 23:07:07.571   03 Jun 2027 23:07:17.741            10.170               Magadan2           317.812
       333   03 Jun 2027 23:07:56.093   03 Jun 2027 23:09:05.395            69.302                Irkutsk          2165.688
       334   03 Jun 2027 23:09:08.807   03 Jun 2027 23:09:57.074            48.267                Novosib          1508.344
       335   03 Jun 2027 23:17:29.956   03 Jun 2027 23:18:36.583            66.627                Irkutsk          2082.094
       336   03 Jun 2027 23:19:37.505   03 Jun 2027 23:20:37.328            59.823                  Delhi          1869.469
       337   03 Jun 2027 23:31:11.115   03 Jun 2027 23:31:26.348            15.233                Sumatra           476.031
       338   04 Jun 2027 00:07:01.311   04 Jun 2027 00:07:26.352            25.041            RioGallegos           782.531
       339   04 Jun 2027 00:08:10.567   04 Jun 2027 00:08:17.061             6.494            RioGallegos           202.938
       340   04 Jun 2027 00:35:38.638   04 Jun 2027 00:37:37.226           118.588                Anadyr1          3705.875
       341   04 Jun 2027 00:39:59.912   04 Jun 2027 00:40:23.907            23.995                Norilsk           749.844
       342   04 Jun 2027 00:40:36.480   04 Jun 2027 00:42:17.944           101.464               Magadan2          3170.750
       343   04 Jun 2027 00:43:05.040   04 Jun 2027 00:43:19.025            13.985              Murmansk2           437.031
       344   04 Jun 2027 00:43:19.025   04 Jun 2027 00:44:06.177            47.152              Murmansk1          1473.500
       345   04 Jun 2027 00:44:18.407   04 Jun 2027 00:44:39.908            21.501              Murmansk2           671.906
       346   04 Jun 2027 00:44:58.111   04 Jun 2027 00:45:24.312            26.201                Novosib           818.781
       347   04 Jun 2027 00:47:10.836   04 Jun 2027 00:47:59.452            48.616                Irkutsk          1519.250
       348   04 Jun 2027 00:51:10.101   04 Jun 2027 00:51:32.890            22.789                  Delhi           712.156
       349   04 Jun 2027 00:51:54.931   04 Jun 2027 00:54:02.860           127.929                  Delhi          3997.781
       350   04 Jun 2027 01:34:21.061   04 Jun 2027 01:35:05.826            44.765            RioGallegos          1398.906
       351   04 Jun 2027 01:37:31.315   04 Jun 2027 01:37:46.332            15.017            RioGallegos           469.281
       352   04 Jun 2027 01:38:17.035   04 Jun 2027 01:38:53.671            36.636            RioGallegos          1144.875
       353   04 Jun 2027 02:08:56.885   04 Jun 2027 02:09:23.589            26.704                Anadyr1           834.500
       354   04 Jun 2027 02:10:36.986   04 Jun 2027 02:11:14.742            37.756                Anadyr2          1179.875
       355   04 Jun 2027 02:14:15.627   04 Jun 2027 02:14:29.237            13.610                Anadyr1           425.312
       356   04 Jun 2027 02:14:49.791   04 Jun 2027 02:15:03.605            13.814                Anadyr2           431.688
       357   04 Jun 2027 02:15:05.011   04 Jun 2027 02:15:57.608            52.597               Magadan2          1643.656
       358   04 Jun 2027 02:16:34.440   04 Jun 2027 02:17:15.040            40.600               Magadan1          1268.750
       359   04 Jun 2027 02:18:10.885   04 Jun 2027 02:19:35.158            84.273              Murmansk2          2633.531
       360   04 Jun 2027 02:19:52.413   04 Jun 2027 02:21:08.808            76.395                Novosib          2387.344
       361   04 Jun 2027 02:28:35.048   04 Jun 2027 02:28:35.377             0.329                  Delhi            10.281
       362   04 Jun 2027 02:29:02.618   04 Jun 2027 02:29:59.913            57.295                  Delhi          1790.469
       363   04 Jun 2027 02:35:02.306   04 Jun 2027 02:36:50.908           108.602                  Delhi          3393.812
       364   04 Jun 2027 04:01:37.101   04 Jun 2027 04:03:35.394           118.293                Novosib          3696.656
       365   04 Jun 2027 04:03:40.714   04 Jun 2027 04:03:53.642            12.928              Murmansk2           404.000
       366   04 Jun 2027 04:04:00.316   04 Jun 2027 04:04:35.019            34.703              Murmansk1          1084.469
       367   04 Jun 2027 04:04:35.019   04 Jun 2027 04:04:59.862            24.843              Murmansk2           776.344
       368   04 Jun 2027 04:05:01.583   04 Jun 2027 04:06:45.779           104.196              Murmansk2          3256.125
       369   04 Jun 2027 04:07:50.200   04 Jun 2027 04:08:13.266            23.066                 Moscow           720.813
       370   04 Jun 2027 05:25:02.097   04 Jun 2027 05:25:24.933            22.836                Anadyr1           713.625
       371   04 Jun 2027 05:25:29.897   04 Jun 2027 05:26:03.816            33.919                Anadyr1          1059.969
       372   04 Jun 2027 05:26:09.764   04 Jun 2027 05:26:33.575            23.811                Anadyr1           744.094
       373   04 Jun 2027 05:26:38.137   04 Jun 2027 05:29:20.026           161.889               Magadan2          5059.031
       374   04 Jun 2027 05:29:20.026   04 Jun 2027 05:29:57.675            37.649               Magadan1          1176.531
       375   04 Jun 2027 07:02:00.723   04 Jun 2027 07:02:46.649            45.926                Norilsk          1435.187
       376   04 Jun 2027 07:03:00.755   04 Jun 2027 07:06:10.522           189.767                Anadyr2          5930.219
       377   04 Jun 2027 07:06:40.067   04 Jun 2027 07:06:44.578             4.511                Norilsk           140.969
       378   04 Jun 2027 07:07:11.465   04 Jun 2027 07:07:57.195            45.730              Murmansk2          1429.062
       379   04 Jun 2027 07:07:57.195   04 Jun 2027 07:08:03.038             5.843              Murmansk1           182.594
       380   04 Jun 2027 07:10:07.605   04 Jun 2027 07:10:30.789            23.184              Murmansk1           724.500
       381   04 Jun 2027 07:44:35.279   04 Jun 2027 07:45:15.247            39.968            RioGallegos          1249.000
       382   04 Jun 2027 08:34:39.077   04 Jun 2027 08:35:33.773            54.696                Irkutsk          1709.250
       383   04 Jun 2027 08:35:39.263   04 Jun 2027 08:36:41.688            62.425                Norilsk          1950.781
       384   04 Jun 2027 08:36:55.019   04 Jun 2027 08:37:42.034            47.015                Irkutsk          1469.219
       385   04 Jun 2027 08:37:43.633   04 Jun 2027 08:37:51.083             7.450                Norilsk           232.813
       386   04 Jun 2027 08:38:13.674   04 Jun 2027 08:38:16.487             2.813                Norilsk            87.906
       387   04 Jun 2027 08:38:17.545   04 Jun 2027 08:40:36.198           138.653                Anadyr2          4332.906
       388   04 Jun 2027 08:40:45.335   04 Jun 2027 08:41:30.341            45.006                Norilsk          1406.437
       389   04 Jun 2027 08:41:31.965   04 Jun 2027 08:42:11.064            39.099               Magadan1          1221.844
       390   04 Jun 2027 08:42:20.342   04 Jun 2027 08:42:37.700            17.358              Murmansk1           542.438
       391   04 Jun 2027 09:17:12.413   04 Jun 2027 09:18:41.837            89.424            RioGallegos          2794.500
       392   04 Jun 2027 09:54:09.883   04 Jun 2027 09:55:40.108            90.225                Sumatra          2819.531
       393   04 Jun 2027 10:11:39.892   04 Jun 2027 10:12:10.214            30.322                Irkutsk           947.563
       394   04 Jun 2027 10:12:25.241   04 Jun 2027 10:12:43.077            17.836               Magadan1           557.375
       395   04 Jun 2027 10:12:45.961   04 Jun 2027 10:13:33.994            48.033                Norilsk          1501.031
       396   04 Jun 2027 10:13:43.605   04 Jun 2027 10:14:24.750            41.145                Irkutsk          1285.781
       397   04 Jun 2027 10:14:42.453   04 Jun 2027 10:15:37.799            55.346                Novosib          1729.563
       398   04 Jun 2027 10:15:43.829   04 Jun 2027 10:15:59.868            16.039                Norilsk           501.219
       399   04 Jun 2027 10:16:03.840   04 Jun 2027 10:16:06.595             2.755                Irkutsk            86.094
       400   04 Jun 2027 10:16:11.750   04 Jun 2027 10:16:36.465            24.715              Murmansk2           772.344
       401   04 Jun 2027 10:16:36.465   04 Jun 2027 10:16:45.098             8.633              Murmansk1           269.781
       402   04 Jun 2027 10:16:54.619   04 Jun 2027 10:17:16.413            21.794                Novosib           681.063
       403   04 Jun 2027 10:17:19.068   04 Jun 2027 10:17:47.812            28.744                Norilsk           898.250
       404   04 Jun 2027 10:17:53.685   04 Jun 2027 10:18:03.083             9.398                Novosib           293.688
       405   04 Jun 2027 10:18:14.413   04 Jun 2027 10:19:32.336            77.923                Novosib          2435.094
       406   04 Jun 2027 10:53:22.883   04 Jun 2027 10:54:01.042            38.159            RioGallegos          1192.469
       407   04 Jun 2027 11:27:48.750   04 Jun 2027 11:30:05.213           136.463                Sumatra          4264.469
       408   04 Jun 2027 11:48:40.251   04 Jun 2027 11:49:12.830            32.579                Irkutsk          1018.094
       409   04 Jun 2027 11:49:31.920   04 Jun 2027 11:49:46.201            14.281                Norilsk           446.281
       410   04 Jun 2027 11:49:48.053   04 Jun 2027 11:50:20.550            32.497                Norilsk          1015.531
       411   04 Jun 2027 11:50:35.938   04 Jun 2027 11:51:35.734            59.796              Murmansk1          1868.625
       412   04 Jun 2027 11:51:53.199   04 Jun 2027 11:52:09.075            15.876                Norilsk           496.125
       413   04 Jun 2027 11:52:15.753   04 Jun 2027 11:52:52.942            37.189              Murmansk1          1162.156
       414   04 Jun 2027 11:52:52.942   04 Jun 2027 11:53:05.837            12.895              Murmansk2           402.969
       415   04 Jun 2027 11:53:12.033   04 Jun 2027 11:53:13.710             1.677              Murmansk1            52.406
       416   04 Jun 2027 11:53:17.331   04 Jun 2027 11:53:36.278            18.947                Irkutsk           592.094
       417   04 Jun 2027 11:53:37.841   04 Jun 2027 11:54:04.093            26.252                Norilsk           820.375
       418   04 Jun 2027 11:56:12.997   04 Jun 2027 11:56:23.808            10.811              Murmansk2           337.844
       419   04 Jun 2027 11:56:57.570   04 Jun 2027 11:57:12.556            14.986              Murmansk1           468.313
       420   04 Jun 2027 12:00:55.747   04 Jun 2027 12:01:07.271            11.524              Murmansk1           360.125
       421   04 Jun 2027 13:12:23.421   04 Jun 2027 13:12:57.001            33.580                  Delhi          1049.375
       422   04 Jun 2027 13:13:43.400   04 Jun 2027 13:14:41.287            57.887                  Delhi          1808.969
       423   04 Jun 2027 13:17:01.589   04 Jun 2027 13:17:16.930            15.341                  Delhi           479.406
       424   04 Jun 2027 13:17:53.132   04 Jun 2027 13:18:40.266            47.134                  Delhi          1472.937
       425   04 Jun 2027 13:19:56.869   04 Jun 2027 13:20:52.555            55.686                  Delhi          1740.187
       426   04 Jun 2027 13:21:16.191   04 Jun 2027 13:25:42.420           266.229                Novosib          8319.656
       427   04 Jun 2027 13:31:22.622   04 Jun 2027 13:32:06.079            43.457                Norilsk          1358.031
       428   04 Jun 2027 14:56:19.564   04 Jun 2027 15:00:19.910           240.346                 Moscow          7510.813
       429   04 Jun 2027 15:01:05.503   04 Jun 2027 15:01:27.136            21.633              Murmansk1           676.031
       430   04 Jun 2027 15:01:34.813   04 Jun 2027 15:02:35.634            60.821              Murmansk1          1900.656
       431   04 Jun 2027 15:04:59.516   04 Jun 2027 15:07:06.769           127.253                Norilsk          3976.656
       432   04 Jun 2027 15:07:23.971   04 Jun 2027 15:08:25.158            61.187                Norilsk          1912.094
       433   04 Jun 2027 15:09:15.052   04 Jun 2027 15:09:26.734            11.682                Norilsk           365.062
       434   04 Jun 2027 16:14:26.577   04 Jun 2027 16:14:40.648            14.071               CapeTown           439.719
       435   04 Jun 2027 16:15:57.681   04 Jun 2027 16:16:36.716            39.035               CapeTown          1219.844
       436   04 Jun 2027 16:20:23.977   04 Jun 2027 16:20:35.298            11.321               CapeTown           353.781
       437   04 Jun 2027 16:20:51.254   04 Jun 2027 16:21:21.065            29.811               CapeTown           931.594
       438   04 Jun 2027 16:34:28.943   04 Jun 2027 16:34:59.814            30.871                 Moscow           964.719
       439   04 Jun 2027 16:35:49.407   04 Jun 2027 16:36:04.324            14.917                 Moscow           466.156
       440   04 Jun 2027 16:37:17.983   04 Jun 2027 16:37:36.342            18.359              Murmansk2           573.719
       441   04 Jun 2027 16:38:04.838   04 Jun 2027 16:39:33.585            88.747                 Moscow          2773.344
       442   04 Jun 2027 16:50:40.265   04 Jun 2027 16:52:17.129            96.864                Anadyr2          3027.000
       443   04 Jun 2027 16:52:38.676   04 Jun 2027 16:53:27.973            49.297                Anadyr2          1540.531
       444   04 Jun 2027 16:59:20.706   04 Jun 2027 16:59:42.792            22.086                Anadyr1           690.187
       445   04 Jun 2027 17:46:50.517   04 Jun 2027 17:47:00.202             9.685               CapeTown           302.656
       446   04 Jun 2027 17:47:27.492   04 Jun 2027 17:47:51.648            24.156               CapeTown           754.875
       447   04 Jun 2027 17:51:14.855   04 Jun 2027 17:51:40.273            25.418               CapeTown           794.312
       448   04 Jun 2027 17:54:39.867   04 Jun 2027 17:55:17.394            37.527               CapeTown          1172.719
       449   04 Jun 2027 18:17:13.723   04 Jun 2027 18:20:57.842           224.119              Murmansk2          7003.719
       450   04 Jun 2027 18:29:21.958   04 Jun 2027 18:30:17.662            55.704               Magadan2          1740.750
       451   04 Jun 2027 18:31:03.151   04 Jun 2027 18:32:02.190            59.039               Magadan2          1844.969
       452   04 Jun 2027 18:33:57.571   04 Jun 2027 18:35:31.869            94.298               Magadan1          2946.812
       453   04 Jun 2027 20:02:17.438   04 Jun 2027 20:04:23.702           126.264                Anadyr2          3945.750
       454   04 Jun 2027 20:04:35.353   04 Jun 2027 20:07:36.576           181.223               Magadan2          5663.219
       455   04 Jun 2027 20:07:36.576   04 Jun 2027 20:07:52.155            15.579               Magadan1           486.844
       456   04 Jun 2027 20:09:19.986   04 Jun 2027 20:09:24.740             4.754               Magadan2           148.563
       457   04 Jun 2027 20:09:30.734   04 Jun 2027 20:10:08.585            37.851               Magadan2          1182.844
       458   04 Jun 2027 20:16:37.116   04 Jun 2027 20:16:40.131             3.015               Magadan1            94.219
       459   04 Jun 2027 20:17:14.209   04 Jun 2027 20:17:18.745             4.536               Magadan1           141.750
       460   04 Jun 2027 20:58:07.151   04 Jun 2027 21:00:48.997           161.846            RioGallegos          5057.688
       461   04 Jun 2027 21:03:23.506   04 Jun 2027 21:04:04.042            40.536            RioGallegos          1266.750
       462   04 Jun 2027 21:38:05.592   04 Jun 2027 21:40:18.408           132.816                Anadyr1          4150.500
       463   04 Jun 2027 21:40:31.555   04 Jun 2027 21:42:05.379            93.824               Magadan1          2932.000
       464   04 Jun 2027 21:43:14.940   04 Jun 2027 21:43:26.422            11.482                Norilsk           358.812
       465   04 Jun 2027 21:45:01.535   04 Jun 2027 21:45:51.154            49.619                Irkutsk          1550.594
       466   04 Jun 2027 21:48:03.253   04 Jun 2027 21:48:14.329            11.076                Irkutsk           346.125
       467   04 Jun 2027 21:49:26.354   04 Jun 2027 21:50:30.047            63.693                Irkutsk          1990.406
       468   04 Jun 2027 22:00:51.350   04 Jun 2027 22:02:11.698            80.348                Sumatra          2510.875
       469   04 Jun 2027 22:06:09.098   04 Jun 2027 22:07:14.242            65.144                Sumatra          2035.750
       470   04 Jun 2027 23:13:18.996   04 Jun 2027 23:13:40.383            21.387                Anadyr2           668.344
       471   04 Jun 2027 23:14:08.516   04 Jun 2027 23:14:23.493            14.977                Anadyr1           468.031
       472   04 Jun 2027 23:15:51.973   04 Jun 2027 23:15:53.400             1.427                Anadyr2            44.594
       473   04 Jun 2027 23:16:01.436   04 Jun 2027 23:17:53.055           111.619                Norilsk          3488.094
       474   04 Jun 2027 23:17:59.411   04 Jun 2027 23:18:46.434            47.023               Magadan1          1469.469
       475   04 Jun 2027 23:18:46.434   04 Jun 2027 23:19:36.357            49.923               Magadan2          1560.094
       476   04 Jun 2027 23:19:55.559   04 Jun 2027 23:20:25.462            29.903                Irkutsk           934.469
       477   04 Jun 2027 23:20:52.810   04 Jun 2027 23:23:12.475           139.665                Novosib          4364.531
       478   04 Jun 2027 23:32:56.024   04 Jun 2027 23:33:06.391            10.367                  Delhi           323.969
       479   04 Jun 2027 23:34:46.585   04 Jun 2027 23:35:07.220            20.635                  Delhi           644.844
       480   05 Jun 2027 00:13:42.530   05 Jun 2027 00:13:49.638             7.108            RioGallegos           222.125
       481   05 Jun 2027 00:15:02.023   05 Jun 2027 00:15:19.520            17.497            RioGallegos           546.781
       482   05 Jun 2027 00:15:51.591   05 Jun 2027 00:16:05.716            14.125            RioGallegos           441.406
