uniorb/output/strategy_1/Drop/Drop_KinoSat_111010.txt

KinoSat_111010
-------------------------
    Access    *     Start Time (UTCG)     *     Stop Time (UTCG)  *   Duration (s)        *       Station  *  Data (Mbytes)
         1   01 Jun 2027 04:16:29.285   01 Jun 2027 04:16:53.893            24.608                Anadyr1           769.000
         2   01 Jun 2027 04:16:55.923   01 Jun 2027 04:18:32.801            96.878                Anadyr1          3027.437
         3   01 Jun 2027 04:19:06.945   01 Jun 2027 04:19:12.594             5.649               Magadan2           176.531
         4   01 Jun 2027 04:19:39.658   01 Jun 2027 04:20:03.572            23.914               Magadan2           747.313
         5   01 Jun 2027 05:53:16.679   01 Jun 2027 05:54:16.232            59.553                Irkutsk          1861.031
         6   01 Jun 2027 05:54:34.444   01 Jun 2027 05:55:46.350            71.906               Magadan2          2247.062
         7   01 Jun 2027 07:29:30.413   01 Jun 2027 07:30:30.051            59.638               Magadan2          1863.688
         8   01 Jun 2027 07:30:30.801   01 Jun 2027 07:32:21.491           110.690                Irkutsk          3459.063
         9   01 Jun 2027 07:32:33.763   01 Jun 2027 07:32:46.441            12.678              Murmansk1           396.188
        10   01 Jun 2027 07:32:52.832   01 Jun 2027 07:33:06.069            13.237               Magadan1           413.656
        11   01 Jun 2027 07:33:19.887   01 Jun 2027 07:34:26.488            66.601                Novosib          2081.281
        12   01 Jun 2027 07:34:34.844   01 Jun 2027 07:36:44.941           130.097              Murmansk2          4065.531
        13   01 Jun 2027 07:38:14.637   01 Jun 2027 07:38:38.429            23.792              Murmansk1           743.500
        14   01 Jun 2027 08:08:08.528   01 Jun 2027 08:09:45.091            96.563            RioGallegos          3017.594
        15   01 Jun 2027 08:10:31.566   01 Jun 2027 08:11:25.620            54.054            RioGallegos          1689.188
        16   01 Jun 2027 08:43:42.163   01 Jun 2027 08:45:35.987           113.824                Sumatra          3557.000
        17   01 Jun 2027 09:05:03.913   01 Jun 2027 09:05:48.689            44.776                Irkutsk          1399.250
        18   01 Jun 2027 09:05:59.246   01 Jun 2027 09:08:26.778           147.532                Novosib          4610.375
        19   01 Jun 2027 09:08:48.215   01 Jun 2027 09:10:39.583           111.368                Novosib          3480.250
        20   01 Jun 2027 09:10:48.560   01 Jun 2027 09:11:08.315            19.755              Murmansk2           617.344
        21   01 Jun 2027 09:15:14.314   01 Jun 2027 09:15:26.781            12.467              Murmansk2           389.594
        22   01 Jun 2027 09:45:44.207   01 Jun 2027 09:46:09.695            25.488            RioGallegos           796.500
        23   01 Jun 2027 09:46:47.184   01 Jun 2027 09:47:25.544            38.360            RioGallegos          1198.750
        24   01 Jun 2027 09:47:40.820   01 Jun 2027 09:47:58.154            17.334            RioGallegos           541.687
        25   01 Jun 2027 09:48:53.936   01 Jun 2027 09:49:53.272            59.336            RioGallegos          1854.250
        26   01 Jun 2027 09:50:26.495   01 Jun 2027 09:50:39.282            12.787            RioGallegos           399.594
        27   01 Jun 2027 10:19:56.002   01 Jun 2027 10:20:48.715            52.713                Sumatra          1647.281
        28   01 Jun 2027 10:22:58.730   01 Jun 2027 10:23:36.676            37.946                Sumatra          1185.812
        29   01 Jun 2027 10:23:58.254   01 Jun 2027 10:24:57.556            59.302                Sumatra          1853.187
        30   01 Jun 2027 10:27:24.474   01 Jun 2027 10:29:06.138           101.664                  Delhi          3177.000
        31   01 Jun 2027 10:41:40.155   01 Jun 2027 10:42:14.279            34.124                Irkutsk          1066.375
        32   01 Jun 2027 10:43:20.527   01 Jun 2027 10:44:06.620            46.093                Irkutsk          1440.406
        33   01 Jun 2027 10:44:06.859   01 Jun 2027 10:45:28.566            81.707                Novosib          2553.344
        34   01 Jun 2027 10:45:58.685   01 Jun 2027 10:47:17.666            78.981              Murmansk2          2468.156
        35   01 Jun 2027 10:47:17.666   01 Jun 2027 10:47:29.398            11.732              Murmansk1           366.625
        36   01 Jun 2027 12:05:07.645   01 Jun 2027 12:05:09.048             1.403                  Delhi            43.844
        37   01 Jun 2027 12:05:44.275   01 Jun 2027 12:06:37.341            53.066                  Delhi          1658.313
        38   01 Jun 2027 12:07:16.147   01 Jun 2027 12:08:06.783            50.636                  Delhi          1582.375
        39   01 Jun 2027 12:09:10.936   01 Jun 2027 12:09:44.016            33.080                  Delhi          1033.750
        40   01 Jun 2027 12:12:03.052   01 Jun 2027 12:14:35.764           152.712                 Moscow          4772.250
        41   01 Jun 2027 12:15:08.506   01 Jun 2027 12:18:19.015           190.509              Murmansk1          5953.406
        42   01 Jun 2027 13:29:48.434   01 Jun 2027 13:30:40.144            51.710               CapeTown          1615.937
        43   01 Jun 2027 13:47:55.217   01 Jun 2027 13:49:24.824            89.607                 Moscow          2800.219
        44   01 Jun 2027 13:51:24.742   01 Jun 2027 13:52:51.859            87.117              Murmansk2          2722.406
        45   01 Jun 2027 13:52:52.576   01 Jun 2027 13:54:58.427           125.851              Murmansk1          3932.844
        46   01 Jun 2027 14:06:51.889   01 Jun 2027 14:08:32.354           100.465                Anadyr1          3139.531
        47   01 Jun 2027 14:09:01.172   01 Jun 2027 14:10:16.202            75.030                Anadyr2          2344.688
        48   01 Jun 2027 15:05:24.174   01 Jun 2027 15:07:05.104           100.930               CapeTown          3154.063
        49   01 Jun 2027 15:29:38.452   01 Jun 2027 15:30:17.779            39.327              Murmansk1          1228.969
        50   01 Jun 2027 15:34:28.208   01 Jun 2027 15:34:58.827            30.619              Murmansk1           956.844
        51   01 Jun 2027 15:41:47.417   01 Jun 2027 15:43:54.702           127.285                Anadyr2          3977.656
        52   01 Jun 2027 16:38:29.167   01 Jun 2027 16:38:29.524             0.357               CapeTown            11.156
        53   01 Jun 2027 16:39:34.021   01 Jun 2027 16:40:15.827            41.806               CapeTown          1306.437
        54   01 Jun 2027 17:11:04.738   01 Jun 2027 17:14:34.806           210.068              Murmansk1          6564.625
        55   01 Jun 2027 17:17:36.829   01 Jun 2027 17:19:13.749            96.920                Anadyr2          3028.750
        56   01 Jun 2027 17:20:13.500   01 Jun 2027 17:20:31.223            17.723               Magadan1           553.844
        57   01 Jun 2027 17:21:20.155   01 Jun 2027 17:22:24.731            64.576               Magadan1          2018.000
        58   01 Jun 2027 17:25:50.876   01 Jun 2027 17:26:11.128            20.252               Magadan2           632.875
        59   01 Jun 2027 17:26:22.988   01 Jun 2027 17:27:59.146            96.158               Magadan2          3004.938
        60   01 Jun 2027 18:53:31.827   01 Jun 2027 18:55:23.451           111.624                Anadyr1          3488.250
        61   01 Jun 2027 18:55:48.695   01 Jun 2027 18:57:24.820            96.125               Magadan1          3003.906
        62   01 Jun 2027 18:57:44.142   01 Jun 2027 18:59:25.499           101.357                Norilsk          3167.406
        63   01 Jun 2027 19:48:11.904   01 Jun 2027 19:51:39.823           207.919            RioGallegos          6497.469
        64   01 Jun 2027 20:29:32.851   01 Jun 2027 20:29:37.436             4.585                Anadyr2           143.281
        65   01 Jun 2027 20:31:23.663   01 Jun 2027 20:33:27.417           123.754                Norilsk          3867.312
        66   01 Jun 2027 20:34:04.508   01 Jun 2027 20:34:39.294            34.786               Magadan1          1087.062
        67   01 Jun 2027 20:35:40.492   01 Jun 2027 20:37:15.657            95.165                Irkutsk          2973.906
        68   01 Jun 2027 20:37:47.511   01 Jun 2027 20:38:42.341            54.830                Irkutsk          1713.438
        69   01 Jun 2027 20:39:12.977   01 Jun 2027 20:40:03.970            50.993                Novosib          1593.531
        70   01 Jun 2027 20:53:03.097   01 Jun 2027 20:54:21.227            78.130                Sumatra          2441.562
        71   01 Jun 2027 20:57:22.650   01 Jun 2027 20:58:54.897            92.247                Sumatra          2882.719
        72   01 Jun 2027 22:07:56.194   01 Jun 2027 22:09:22.057            85.863               Magadan2          2683.219
        73   01 Jun 2027 22:11:24.066   01 Jun 2027 22:11:47.008            22.942                Novosib           716.937
        74   01 Jun 2027 22:13:07.114   01 Jun 2027 22:13:16.087             8.973                Novosib           280.406
        75   01 Jun 2027 22:13:26.857   01 Jun 2027 22:13:47.374            20.517                Novosib           641.156
        76   01 Jun 2027 22:15:04.981   01 Jun 2027 22:15:12.419             7.438                Novosib           232.437
        77   01 Jun 2027 22:17:04.040   01 Jun 2027 22:17:53.924            49.884                Novosib          1558.875
        78   01 Jun 2027 22:19:25.126   01 Jun 2027 22:22:36.600           191.474                  Delhi          5983.562
        79   01 Jun 2027 23:42:51.727   01 Jun 2027 23:43:04.334            12.607                Anadyr1           393.969
        80   01 Jun 2027 23:43:18.452   01 Jun 2027 23:43:21.297             2.845                Norilsk            88.906
        81   01 Jun 2027 23:43:33.972   01 Jun 2027 23:45:08.999            95.027               Magadan2          2969.594
        82   01 Jun 2027 23:45:08.999   01 Jun 2027 23:45:43.498            34.499               Magadan1          1078.094
        83   01 Jun 2027 23:45:44.976   01 Jun 2027 23:49:26.074           221.098              Murmansk2          6909.313
        84   01 Jun 2027 23:51:07.757   01 Jun 2027 23:51:37.387            29.630                 Moscow           925.937
        85   01 Jun 2027 23:52:32.390   01 Jun 2027 23:53:47.214            74.824                 Moscow          2338.250
        86   02 Jun 2027 01:11:02.907   02 Jun 2027 01:11:14.209            11.302                Anadyr2           353.188
        87   02 Jun 2027 01:11:58.737   02 Jun 2027 01:12:11.600            12.863                Anadyr2           401.969
        88   02 Jun 2027 01:12:11.600   02 Jun 2027 01:12:47.884            36.284                Anadyr1          1133.875
        89   02 Jun 2027 01:13:45.792   02 Jun 2027 01:13:55.310             9.518                Anadyr2           297.437
        90   02 Jun 2027 01:14:21.160   02 Jun 2027 01:14:28.503             7.343                Anadyr2           229.469
        91   02 Jun 2027 01:16:22.152   02 Jun 2027 01:18:25.114           122.962               Magadan2          3842.563
        92   02 Jun 2027 01:19:11.628   02 Jun 2027 01:19:56.151            44.523               Magadan1          1391.344
        93   02 Jun 2027 01:21:26.426   02 Jun 2027 01:22:40.091            73.665              Murmansk1          2302.031
        94   02 Jun 2027 01:23:14.694   02 Jun 2027 01:23:28.934            14.240              Murmansk2           445.000
        95   02 Jun 2027 01:23:41.222   02 Jun 2027 01:23:43.982             2.760              Murmansk2            86.250
        96   02 Jun 2027 01:26:33.323   02 Jun 2027 01:26:41.834             8.511                 Moscow           265.969
        97   02 Jun 2027 01:27:13.971   02 Jun 2027 01:27:21.234             7.263                 Moscow           226.969
        98   02 Jun 2027 01:30:31.660   02 Jun 2027 01:31:07.608            35.948                 Moscow          1123.375
        99   02 Jun 2027 01:35:11.193   02 Jun 2027 01:35:42.385            31.192                 Moscow           974.750
       100   02 Jun 2027 01:49:25.477   02 Jun 2027 01:50:15.695            50.218               CapeTown          1569.313
       101   02 Jun 2027 01:59:49.474   02 Jun 2027 02:01:05.579            76.105               CapeTown          2378.281
       102   02 Jun 2027 02:45:25.955   02 Jun 2027 02:45:56.798            30.843                Anadyr1           963.844
       103   02 Jun 2027 02:46:44.239   02 Jun 2027 02:47:50.397            66.158                Anadyr1          2067.438
       104   02 Jun 2027 02:48:07.935   02 Jun 2027 02:48:14.278             6.343               Magadan1           198.219
       105   02 Jun 2027 02:48:28.780   02 Jun 2027 02:49:11.580            42.800               Magadan2          1337.500
       106   02 Jun 2027 02:51:09.913   02 Jun 2027 02:51:34.346            24.433               Magadan2           763.531
       107   02 Jun 2027 02:54:49.520   02 Jun 2027 02:55:16.574            27.054                Norilsk           845.437
       108   02 Jun 2027 02:57:24.466   02 Jun 2027 02:57:30.927             6.461              Murmansk2           201.906
       109   02 Jun 2027 02:57:49.535   02 Jun 2027 02:58:41.299            51.764              Murmansk1          1617.625
       110   02 Jun 2027 02:58:55.622   02 Jun 2027 02:59:09.138            13.516              Murmansk2           422.375
       111   02 Jun 2027 03:04:17.108   02 Jun 2027 03:05:10.586            53.478                Norilsk          1671.188
       112   02 Jun 2027 03:05:28.201   02 Jun 2027 03:06:16.259            48.058              Murmansk1          1501.813
       113   02 Jun 2027 03:06:16.259   02 Jun 2027 03:06:17.233             0.974              Murmansk2            30.438
       114   02 Jun 2027 03:06:17.375   02 Jun 2027 03:06:49.360            31.985                 Moscow           999.531
       115   02 Jun 2027 03:07:00.242   02 Jun 2027 03:07:06.069             5.827              Murmansk2           182.094
       116   02 Jun 2027 03:07:18.081   02 Jun 2027 03:07:36.341            18.260              Murmansk2           570.625
       117   02 Jun 2027 03:08:11.003   02 Jun 2027 03:08:14.529             3.526              Murmansk1           110.187
       118   02 Jun 2027 04:21:26.751   02 Jun 2027 04:21:32.214             5.463               Magadan1           170.719
       119   02 Jun 2027 04:21:32.214   02 Jun 2027 04:22:44.166            71.952               Magadan2          2248.500
       120   02 Jun 2027 04:27:52.389   02 Jun 2027 04:28:52.608            60.219                Anadyr2          1881.844
       121   02 Jun 2027 04:28:54.101   02 Jun 2027 04:30:14.760            80.659                Anadyr1          2520.594
       122   02 Jun 2027 06:05:00.651   02 Jun 2027 06:06:02.255            61.604                Irkutsk          1925.125
       123   02 Jun 2027 06:06:25.924   02 Jun 2027 06:07:03.317            37.393                Norilsk          1168.531
       124   02 Jun 2027 06:07:31.475   02 Jun 2027 06:09:44.312           132.837               Magadan2          4151.156
       125   02 Jun 2027 06:10:03.703   02 Jun 2027 06:12:37.486           153.783              Murmansk1          4805.719
       126   02 Jun 2027 06:16:00.954   02 Jun 2027 06:16:32.467            31.513              Murmansk2           984.781
       127   02 Jun 2027 06:45:48.462   02 Jun 2027 06:46:52.960            64.498            RioGallegos          2015.562
       128   02 Jun 2027 06:48:17.319   02 Jun 2027 06:48:52.842            35.523            RioGallegos          1110.094
       129   02 Jun 2027 07:39:59.324   02 Jun 2027 07:40:57.853            58.529               Magadan2          1829.031
       130   02 Jun 2027 07:41:21.266   02 Jun 2027 07:44:46.500           205.234               Magadan1          6413.562
       131   02 Jun 2027 07:45:07.818   02 Jun 2027 07:46:43.888            96.070                Norilsk          3002.187
       132   02 Jun 2027 07:47:19.250   02 Jun 2027 07:48:13.378            54.128              Murmansk2          1691.500
       133   02 Jun 2027 07:48:13.378   02 Jun 2027 07:48:45.913            32.535              Murmansk1          1016.719
       134   02 Jun 2027 08:20:09.218   02 Jun 2027 08:22:25.166           135.948            RioGallegos          4248.375
       135   02 Jun 2027 08:55:24.401   02 Jun 2027 08:56:42.461            78.060                Sumatra          2439.375
       136   02 Jun 2027 08:57:55.921   02 Jun 2027 08:59:03.040            67.119                Sumatra          2097.469
       137   02 Jun 2027 09:17:08.851   02 Jun 2027 09:17:21.283            12.432                Norilsk           388.500
       138   02 Jun 2027 09:17:25.517   02 Jun 2027 09:20:40.238           194.721                Novosib          6085.031
       139   02 Jun 2027 09:20:48.541   02 Jun 2027 09:21:46.951            58.410                Norilsk          1825.312
       140   02 Jun 2027 09:21:47.865   02 Jun 2027 09:22:40.892            53.027              Murmansk2          1657.094
       141   02 Jun 2027 09:22:40.892   02 Jun 2027 09:23:04.015            23.123              Murmansk1           722.594
       142   02 Jun 2027 09:23:51.046   02 Jun 2027 09:24:37.520            46.474              Murmansk1          1452.313
       143   02 Jun 2027 09:58:19.939   02 Jun 2027 09:58:23.790             3.851            RioGallegos           120.344
       144   02 Jun 2027 09:59:20.635   02 Jun 2027 09:59:58.143            37.508            RioGallegos          1172.125
       145   02 Jun 2027 10:01:00.849   02 Jun 2027 10:02:28.354            87.505            RioGallegos          2734.531
       146   02 Jun 2027 10:32:34.359   02 Jun 2027 10:32:53.162            18.803                Sumatra           587.594
       147   02 Jun 2027 10:35:17.290   02 Jun 2027 10:35:55.422            38.132                Sumatra          1191.625
       148   02 Jun 2027 10:37:15.901   02 Jun 2027 10:37:17.939             2.038                Sumatra            63.688
       149   02 Jun 2027 10:41:49.856   02 Jun 2027 10:42:21.340            31.484                  Delhi           983.875
       150   02 Jun 2027 10:55:01.782   02 Jun 2027 10:56:34.609            92.827                Novosib          2900.844
       151   02 Jun 2027 10:56:39.924   02 Jun 2027 10:58:46.423           126.499                Norilsk          3953.094
       152   02 Jun 2027 10:59:11.461   02 Jun 2027 11:00:07.375            55.914              Murmansk1          1747.312
       153   02 Jun 2027 12:18:06.554   02 Jun 2027 12:19:08.557            62.003                  Delhi          1937.594
       154   02 Jun 2027 12:19:59.524   02 Jun 2027 12:22:15.833           136.309                  Delhi          4259.656
       155   02 Jun 2027 12:23:54.110   02 Jun 2027 12:24:00.744             6.634                 Moscow           207.313
       156   02 Jun 2027 12:24:36.473   02 Jun 2027 12:25:26.137            49.664                 Moscow          1552.000
       157   02 Jun 2027 12:25:58.804   02 Jun 2027 12:26:47.177            48.373                 Moscow          1511.656
       158   02 Jun 2027 12:27:07.116   02 Jun 2027 12:29:43.846           156.730              Murmansk2          4897.812
       159   02 Jun 2027 13:40:01.717   02 Jun 2027 13:42:12.644           130.927               CapeTown          4091.469
       160   02 Jun 2027 14:00:10.085   02 Jun 2027 14:01:26.243            76.158                 Moscow          2379.938
       161   02 Jun 2027 14:03:36.258   02 Jun 2027 14:06:56.800           200.542              Murmansk1          6266.938
       162   02 Jun 2027 14:18:36.570   02 Jun 2027 14:20:31.483           114.913                Anadyr1          3591.031
       163   02 Jun 2027 14:20:58.350   02 Jun 2027 14:22:16.771            78.421                Anadyr2          2450.656
       164   02 Jun 2027 15:42:07.532   02 Jun 2027 15:42:17.461             9.929              Murmansk2           310.281
       165   02 Jun 2027 15:42:17.599   02 Jun 2027 15:43:30.398            72.799              Murmansk1          2274.969
       166   02 Jun 2027 15:44:12.221   02 Jun 2027 15:44:32.573            20.352              Murmansk1           636.000
       167   02 Jun 2027 15:53:46.818   02 Jun 2027 15:56:22.097           155.279                Anadyr2          4852.469
       168   02 Jun 2027 15:58:44.477   02 Jun 2027 16:01:55.460           190.983               Magadan2          5968.219
       169   02 Jun 2027 17:25:00.683   02 Jun 2027 17:25:28.050            27.367              Murmansk2           855.219
       170   02 Jun 2027 17:29:38.238   02 Jun 2027 17:32:16.414           158.176                Anadyr1          4943.000
       171   02 Jun 2027 17:32:22.511   02 Jun 2027 17:32:59.078            36.567                Anadyr2          1142.719
       172   02 Jun 2027 17:33:22.803   02 Jun 2027 17:34:35.850            73.047               Magadan2          2282.719
       173   02 Jun 2027 17:36:24.990   02 Jun 2027 17:37:04.101            39.111               Magadan1          1222.219
       174   02 Jun 2027 19:05:32.497   02 Jun 2027 19:07:24.894           112.397                Anadyr1          3512.406
       175   02 Jun 2027 19:07:45.692   02 Jun 2027 19:09:27.314           101.622                Anadyr2          3175.687
       176   02 Jun 2027 19:09:38.624   02 Jun 2027 19:09:43.759             5.135               Magadan2           160.469
       177   02 Jun 2027 19:09:50.063   02 Jun 2027 19:11:36.173           106.110               Magadan1          3315.938
       178   02 Jun 2027 19:12:06.075   02 Jun 2027 19:12:35.559            29.484                Norilsk           921.375
       179   02 Jun 2027 19:59:58.989   02 Jun 2027 20:03:33.841           214.852            RioGallegos          6714.125
       180   02 Jun 2027 20:41:37.269   02 Jun 2027 20:41:38.855             1.586                Anadyr1            49.563
       181   02 Jun 2027 20:43:40.559   02 Jun 2027 20:45:23.682           103.123                Norilsk          3222.594
       182   02 Jun 2027 20:45:39.877   02 Jun 2027 20:46:07.617            27.740               Magadan2           866.875
       183   02 Jun 2027 20:46:30.533   02 Jun 2027 20:47:07.611            37.078               Magadan1          1158.687
       184   02 Jun 2027 20:47:33.767   02 Jun 2027 20:47:53.624            19.857                Irkutsk           620.531
       185   02 Jun 2027 20:48:58.248   02 Jun 2027 20:49:56.122            57.874                Irkutsk          1808.562
       186   02 Jun 2027 20:50:05.848   02 Jun 2027 20:52:19.377           133.529                Novosib          4172.781
       187   02 Jun 2027 20:52:25.430   02 Jun 2027 20:53:45.349            79.919                Novosib          2497.469
       188   02 Jun 2027 21:03:39.212   02 Jun 2027 21:04:03.190            23.978                Sumatra           749.312
       189   02 Jun 2027 22:19:20.826   02 Jun 2027 22:19:42.797            21.971                Norilsk           686.594
       190   02 Jun 2027 22:19:58.212   02 Jun 2027 22:20:57.494            59.282               Magadan1          1852.563
       191   02 Jun 2027 22:20:57.494   02 Jun 2027 22:21:26.612            29.118               Magadan2           909.937
       192   02 Jun 2027 22:22:01.652   02 Jun 2027 22:22:39.331            37.679                Norilsk          1177.469
       193   02 Jun 2027 22:23:12.796   02 Jun 2027 22:23:44.140            31.344                Irkutsk           979.500
       194   02 Jun 2027 22:23:58.724   02 Jun 2027 22:24:02.994             4.270                Irkutsk           133.437
       195   02 Jun 2027 22:24:49.455   02 Jun 2027 22:25:12.128            22.673                Novosib           708.531
       196   02 Jun 2027 22:25:26.775   02 Jun 2027 22:25:45.428            18.653                Novosib           582.906
       197   02 Jun 2027 22:28:59.783   02 Jun 2027 22:29:25.476            25.693                Novosib           802.906
       198   02 Jun 2027 22:31:05.843   02 Jun 2027 22:32:50.561           104.718                  Delhi          3272.438
       199   02 Jun 2027 23:49:22.478   02 Jun 2027 23:49:36.605            14.127                Anadyr1           441.469
       200   02 Jun 2027 23:50:04.367   02 Jun 2027 23:50:34.277            29.910                Anadyr1           934.687
       201   02 Jun 2027 23:50:34.277   02 Jun 2027 23:51:31.326            57.049                Anadyr2          1782.781
       202   02 Jun 2027 23:55:19.853   02 Jun 2027 23:55:23.351             3.498                Norilsk           109.313
       203   02 Jun 2027 23:55:24.708   02 Jun 2027 23:57:15.181           110.473               Magadan2          3452.281
       204   02 Jun 2027 23:57:41.946   03 Jun 2027 00:00:11.863           149.917              Murmansk1          4684.906
       205   03 Jun 2027 00:01:03.328   03 Jun 2027 00:01:56.741            53.413              Murmansk1          1669.156
       206   03 Jun 2027 00:02:28.971   03 Jun 2027 00:03:34.189            65.218                 Moscow          2038.063
       207   03 Jun 2027 00:05:20.041   03 Jun 2027 00:06:10.403            50.362                 Moscow          1573.812
       208   03 Jun 2027 01:22:48.043   03 Jun 2027 01:22:55.234             7.191                Anadyr2           224.719
       209   03 Jun 2027 01:24:20.732   03 Jun 2027 01:24:47.553            26.821                Anadyr2           838.156
       210   03 Jun 2027 01:25:09.767   03 Jun 2027 01:25:29.264            19.497                Anadyr1           609.281
       211   03 Jun 2027 01:25:46.443   03 Jun 2027 01:25:56.630            10.187                Anadyr1           318.344
       212   03 Jun 2027 01:27:50.117   03 Jun 2027 01:29:56.085           125.968               Magadan2          3936.500
       213   03 Jun 2027 01:29:58.771   03 Jun 2027 01:30:20.366            21.595               Magadan2           674.844
       214   03 Jun 2027 01:33:27.823   03 Jun 2027 01:33:58.930            31.107              Murmansk1           972.094
       215   03 Jun 2027 01:34:05.077   03 Jun 2027 01:35:19.759            74.682              Murmansk2          2333.812
       216   03 Jun 2027 01:35:42.257   03 Jun 2027 01:35:48.255             5.998                Novosib           187.437
       217   03 Jun 2027 01:36:49.026   03 Jun 2027 01:37:17.698            28.672                 Moscow           896.000
       218   03 Jun 2027 01:39:31.165   03 Jun 2027 01:39:45.430            14.265                 Moscow           445.781
       219   03 Jun 2027 01:43:38.329   03 Jun 2027 01:43:48.980            10.651                 Moscow           332.844
       220   03 Jun 2027 01:48:26.586   03 Jun 2027 01:48:54.265            27.679                 Moscow           864.969
       221   03 Jun 2027 02:01:06.153   03 Jun 2027 02:02:14.491            68.338               CapeTown          2135.563
       222   03 Jun 2027 02:57:22.610   03 Jun 2027 02:59:43.681           141.071                Anadyr2          4408.469
       223   03 Jun 2027 03:00:24.027   03 Jun 2027 03:00:40.884            16.857               Magadan2           526.781
       224   03 Jun 2027 03:04:11.718   03 Jun 2027 03:04:51.623            39.905               Magadan1          1247.031
       225   03 Jun 2027 03:05:22.851   03 Jun 2027 03:09:45.208           262.357               Magadan1          8198.656
       226   03 Jun 2027 03:16:44.478   03 Jun 2027 03:17:32.517            48.039              Murmansk2          1501.219
       227   03 Jun 2027 03:18:23.599   03 Jun 2027 03:19:07.351            43.752              Murmansk2          1367.250
       228   03 Jun 2027 03:19:17.096   03 Jun 2027 03:19:55.662            38.566                 Moscow          1205.187
       229   03 Jun 2027 03:21:29.391   03 Jun 2027 03:22:23.335            53.944              Murmansk2          1685.750
       230   03 Jun 2027 04:33:17.431   03 Jun 2027 04:33:27.298             9.867               Magadan2           308.344
       231   03 Jun 2027 04:34:08.807   03 Jun 2027 04:34:45.434            36.627               Magadan2          1144.594
       232   03 Jun 2027 04:35:05.175   03 Jun 2027 04:35:07.658             2.483                Anadyr2            77.594
       233   03 Jun 2027 04:38:10.921   03 Jun 2027 04:38:42.398            31.477               Magadan2           983.656
       234   03 Jun 2027 04:38:53.987   03 Jun 2027 04:39:39.213            45.226               Magadan2          1413.313
       235   03 Jun 2027 04:39:48.568   03 Jun 2027 04:40:53.182            64.614                Anadyr2          2019.188
       236   03 Jun 2027 04:40:53.777   03 Jun 2027 04:41:03.555             9.778               Magadan2           305.563
       237   03 Jun 2027 04:41:03.555   03 Jun 2027 04:41:08.315             4.760               Magadan1           148.750
       238   03 Jun 2027 04:41:34.160   03 Jun 2027 04:45:23.515           229.355               Magadan2          7167.344
       239   03 Jun 2027 06:15:13.002   03 Jun 2027 06:15:30.476            17.474                Anadyr1           546.062
       240   03 Jun 2027 06:15:33.234   03 Jun 2027 06:15:47.314            14.080                Irkutsk           440.000
       241   03 Jun 2027 06:16:02.018   03 Jun 2027 06:17:53.117           111.099               Magadan2          3471.844
       242   03 Jun 2027 06:17:55.199   03 Jun 2027 06:18:30.986            35.787                Anadyr1          1118.344
       243   03 Jun 2027 06:18:37.541   03 Jun 2027 06:18:46.723             9.182                Norilsk           286.937
       244   03 Jun 2027 06:18:59.558   03 Jun 2027 06:20:00.313            60.755                Irkutsk          1898.594
       245   03 Jun 2027 06:57:26.599   03 Jun 2027 06:58:55.914            89.315            RioGallegos          2791.094
       246   03 Jun 2027 07:51:59.629   03 Jun 2027 07:56:02.640           243.011               Magadan1          7594.094
       247   03 Jun 2027 07:56:20.202   03 Jun 2027 07:56:49.992            29.790                Norilsk           930.937
       248   03 Jun 2027 07:57:11.345   03 Jun 2027 07:57:30.004            18.659                Irkutsk           583.094
       249   03 Jun 2027 07:57:38.745   03 Jun 2027 07:58:58.435            79.690                Norilsk          2490.313
       250   03 Jun 2027 07:59:07.783   03 Jun 2027 07:59:21.074            13.291              Murmansk1           415.344
       251   03 Jun 2027 08:00:03.996   03 Jun 2027 08:00:46.888            42.892              Murmansk2          1340.375
       252   03 Jun 2027 08:01:35.174   03 Jun 2027 08:01:59.458            24.284              Murmansk2           758.875
       253   03 Jun 2027 08:32:13.276   03 Jun 2027 08:34:15.436           122.160            RioGallegos          3817.500
       254   03 Jun 2027 09:07:13.176   03 Jun 2027 09:10:26.726           193.550                Sumatra          6048.438
       255   03 Jun 2027 09:29:25.156   03 Jun 2027 09:30:41.630            76.474                Irkutsk          2389.812
       256   03 Jun 2027 09:30:44.713   03 Jun 2027 09:35:00.360           255.647              Murmansk2          7988.969
       257   03 Jun 2027 09:35:00.360   03 Jun 2027 09:35:41.445            41.085              Murmansk1          1283.906
       258   03 Jun 2027 09:36:31.743   03 Jun 2027 09:36:57.810            26.067                Norilsk           814.594
       259   03 Jun 2027 10:11:03.635   03 Jun 2027 10:11:32.563            28.928            RioGallegos           904.000
       260   03 Jun 2027 10:12:16.256   03 Jun 2027 10:12:54.054            37.798            RioGallegos          1181.188
       261   03 Jun 2027 10:45:31.353   03 Jun 2027 10:47:04.719            93.366                Sumatra          2917.687
       262   03 Jun 2027 10:54:40.443   03 Jun 2027 10:55:37.020            56.577                  Delhi          1768.031
       263   03 Jun 2027 11:06:20.396   03 Jun 2027 11:06:41.157            20.761                Norilsk           648.781
       264   03 Jun 2027 11:06:42.824   03 Jun 2027 11:06:49.336             6.512                 Moscow           203.500
       265   03 Jun 2027 11:07:00.801   03 Jun 2027 11:07:10.501             9.700                 Moscow           303.125
       266   03 Jun 2027 11:07:33.004   03 Jun 2027 11:08:20.334            47.330              Murmansk1          1479.063
       267   03 Jun 2027 11:08:21.540   03 Jun 2027 11:08:32.514            10.974                Novosib           342.938
       268   03 Jun 2027 11:08:41.661   03 Jun 2027 11:09:04.140            22.479                 Moscow           702.469
       269   03 Jun 2027 11:09:04.746   03 Jun 2027 11:09:18.144            13.398                Norilsk           418.687
       270   03 Jun 2027 11:09:49.072   03 Jun 2027 11:09:58.583             9.511              Murmansk2           297.219
       271   03 Jun 2027 11:09:58.583   03 Jun 2027 11:10:12.882            14.299              Murmansk1           446.844
       272   03 Jun 2027 11:11:02.725   03 Jun 2027 11:11:21.497            18.772                 Moscow           586.625
       273   03 Jun 2027 12:31:41.080   03 Jun 2027 12:34:18.982           157.902                  Delhi          4934.438
       274   03 Jun 2027 12:37:20.014   03 Jun 2027 12:38:29.609            69.595                 Moscow          2174.844
       275   03 Jun 2027 12:39:07.134   03 Jun 2027 12:42:28.524           201.390              Murmansk2          6293.437
       276   03 Jun 2027 13:51:09.481   03 Jun 2027 13:53:52.666           163.185               CapeTown          5099.531
       277   03 Jun 2027 13:57:23.483   03 Jun 2027 13:58:12.642            49.159               CapeTown          1536.219
       278   03 Jun 2027 14:12:48.040   03 Jun 2027 14:12:51.971             3.931                 Moscow           122.844
       279   03 Jun 2027 14:12:58.673   03 Jun 2027 14:13:30.617            31.944                 Moscow           998.250
       280   03 Jun 2027 14:15:49.673   03 Jun 2027 14:17:49.409           119.736              Murmansk1          3741.750
       281   03 Jun 2027 14:17:49.409   03 Jun 2027 14:18:26.697            37.288              Murmansk2          1165.250
       282   03 Jun 2027 14:30:25.890   03 Jun 2027 14:32:31.137           125.247                Anadyr2          3913.969
       283   03 Jun 2027 14:32:43.102   03 Jun 2027 14:34:05.446            82.344                Anadyr1          2573.250
       284   03 Jun 2027 15:28:20.736   03 Jun 2027 15:28:38.830            18.094               CapeTown           565.438
       285   03 Jun 2027 15:54:39.411   03 Jun 2027 15:55:35.605            56.194              Murmansk1          1756.063
       286   03 Jun 2027 15:56:13.403   03 Jun 2027 15:56:22.185             8.782              Murmansk2           274.438
       287   03 Jun 2027 15:56:34.465   03 Jun 2027 15:57:07.574            33.109              Murmansk1          1034.656
       288   03 Jun 2027 15:58:05.112   03 Jun 2027 15:58:16.275            11.163              Murmansk2           348.844
       289   03 Jun 2027 15:58:30.502   03 Jun 2027 15:59:00.366            29.864              Murmansk2           933.250
       290   03 Jun 2027 16:05:46.705   03 Jun 2027 16:07:47.373           120.668                Anadyr1          3770.875
       291   03 Jun 2027 16:08:13.807   03 Jun 2027 16:08:23.442             9.635                Anadyr2           301.094
       292   03 Jun 2027 16:09:52.628   03 Jun 2027 16:12:51.414           178.786               Magadan2          5587.062
       293   03 Jun 2027 16:12:51.498   03 Jun 2027 16:14:13.010            81.512               Magadan1          2547.250
       294   03 Jun 2027 17:41:39.679   03 Jun 2027 17:43:30.981           111.302                Anadyr1          3478.188
       295   03 Jun 2027 17:43:44.188   03 Jun 2027 17:44:07.181            22.993                Anadyr1           718.531
       296   03 Jun 2027 17:44:10.392   03 Jun 2027 17:46:06.113           115.721               Magadan2          3616.281
       297   03 Jun 2027 17:55:17.565   03 Jun 2027 17:55:23.008             5.443               Magadan1           170.094
       298   03 Jun 2027 19:17:32.890   03 Jun 2027 19:19:26.242           113.352                Anadyr1          3542.250
       299   03 Jun 2027 19:19:35.470   03 Jun 2027 19:21:27.636           112.166                Anadyr2          3505.187
       300   03 Jun 2027 19:21:52.376   03 Jun 2027 19:23:50.358           117.982               Magadan1          3686.937
       301   03 Jun 2027 19:26:17.589   03 Jun 2027 19:26:27.400             9.811               Magadan2           306.594
       302   03 Jun 2027 19:26:49.482   03 Jun 2027 19:29:44.205           174.723                Irkutsk          5460.094
       303   03 Jun 2027 19:30:20.367   03 Jun 2027 19:30:28.981             8.614                Irkutsk           269.187
       304   03 Jun 2027 20:11:49.292   03 Jun 2027 20:13:01.638            72.346            RioGallegos          2260.812
       305   03 Jun 2027 20:14:10.391   03 Jun 2027 20:14:56.476            46.085            RioGallegos          1440.156
       306   03 Jun 2027 20:55:24.629   03 Jun 2027 20:57:15.790           111.161                Norilsk          3473.781
       307   03 Jun 2027 20:59:24.377   03 Jun 2027 20:59:35.444            11.067               Magadan2           345.844
       308   03 Jun 2027 20:59:52.779   03 Jun 2027 21:00:33.357            40.578                Norilsk          1268.062
       309   03 Jun 2027 21:00:52.254   03 Jun 2027 21:03:57.714           185.460                Novosib          5795.625
       310   03 Jun 2027 21:13:09.798   03 Jun 2027 21:15:15.105           125.307                Sumatra          3915.844
       311   03 Jun 2027 22:31:22.825   03 Jun 2027 22:31:30.611             7.786                Norilsk           243.312
       312   03 Jun 2027 22:31:59.837   03 Jun 2027 22:33:18.882            79.045               Magadan1          2470.156
       313   03 Jun 2027 22:35:06.811   03 Jun 2027 22:35:13.127             6.316                Norilsk           197.375
       314   03 Jun 2027 22:35:16.148   03 Jun 2027 22:35:52.692            36.544                Irkutsk          1142.000
       315   03 Jun 2027 22:36:58.377   03 Jun 2027 22:40:46.874           228.497                Novosib          7140.531
       316   03 Jun 2027 22:42:52.141   03 Jun 2027 22:44:05.025            72.884                  Delhi          2277.625
       317   03 Jun 2027 22:45:14.898   03 Jun 2027 22:46:31.675            76.777                  Delhi          2399.281
       318   04 Jun 2027 00:07:11.551   04 Jun 2027 00:08:04.856            53.305               Magadan2          1665.781
       319   04 Jun 2027 00:08:27.287   04 Jun 2027 00:08:48.106            20.819               Magadan1           650.594
       320   04 Jun 2027 00:09:40.071   04 Jun 2027 00:13:08.588           208.517              Murmansk2          6516.156
       321   04 Jun 2027 00:14:04.068   04 Jun 2027 00:15:13.015            68.947                 Moscow          2154.594
       322   04 Jun 2027 00:17:57.969   04 Jun 2027 00:18:25.023            27.054                 Moscow           845.437
       323   04 Jun 2027 00:19:12.044   04 Jun 2027 00:19:29.172            17.128                 Moscow           535.250
       324   04 Jun 2027 00:43:14.365   04 Jun 2027 00:43:27.643            13.278               CapeTown           414.938
       325   04 Jun 2027 00:44:40.201   04 Jun 2027 00:45:38.582            58.381               CapeTown          1824.406
       326   04 Jun 2027 01:34:34.320   04 Jun 2027 01:34:50.776            16.456                Anadyr2           514.250
       327   04 Jun 2027 01:36:05.520   04 Jun 2027 01:36:45.708            40.188                Anadyr1          1255.875
       328   04 Jun 2027 01:37:13.771   04 Jun 2027 01:37:36.749            22.978                Anadyr2           718.062
       329   04 Jun 2027 01:39:18.058   04 Jun 2027 01:41:22.775           124.717               Magadan1          3897.406
       330   04 Jun 2027 01:42:43.854   04 Jun 2027 01:43:07.571            23.717               Magadan2           741.156
       331   04 Jun 2027 01:45:29.370   04 Jun 2027 01:48:02.844           153.474              Murmansk2          4796.063
       332   04 Jun 2027 01:48:47.353   04 Jun 2027 01:50:28.128           100.775                 Moscow          3149.219
       333   04 Jun 2027 02:20:18.379   04 Jun 2027 02:21:03.478            45.099               CapeTown          1409.344
       334   04 Jun 2027 03:11:20.242   04 Jun 2027 03:11:28.693             8.451               Magadan1           264.094
       335   04 Jun 2027 03:11:35.508   04 Jun 2027 03:11:56.419            20.911               Magadan1           653.469
       336   04 Jun 2027 03:14:07.814   04 Jun 2027 03:14:19.413            11.599               Magadan1           362.469
       337   04 Jun 2027 03:15:58.504   04 Jun 2027 03:16:00.065             1.561               Magadan2            48.781
       338   04 Jun 2027 03:16:01.653   04 Jun 2027 03:16:14.473            12.820               Magadan2           400.625
       339   04 Jun 2027 03:16:36.667   04 Jun 2027 03:20:20.227           223.560                Anadyr1          6986.250
       340   04 Jun 2027 03:20:20.227   04 Jun 2027 03:22:16.355           116.128                Anadyr2          3629.000
       341   04 Jun 2027 04:50:41.463   04 Jun 2027 04:54:08.762           207.299                Anadyr1          6478.094
       342   04 Jun 2027 04:54:08.762   04 Jun 2027 04:55:08.024            59.262                Anadyr2          1851.938
       343   04 Jun 2027 04:55:53.971   04 Jun 2027 04:56:15.581            21.610                Anadyr2           675.313
       344   04 Jun 2027 04:56:21.310   04 Jun 2027 04:56:51.905            30.595               Magadan2           956.094
       345   04 Jun 2027 06:26:46.659   04 Jun 2027 06:30:32.541           225.882                Anadyr1          7058.813
       346   04 Jun 2027 06:30:40.034   04 Jun 2027 06:30:48.091             8.057                Norilsk           251.781
       347   04 Jun 2027 06:31:02.093   04 Jun 2027 06:31:11.130             9.037                Irkutsk           282.406
       348   04 Jun 2027 06:31:11.721   04 Jun 2027 06:33:42.687           150.966               Magadan2          4717.687
       349   04 Jun 2027 06:34:41.853   04 Jun 2027 06:35:12.487            30.634                Norilsk           957.312
       350   04 Jun 2027 06:35:20.868   04 Jun 2027 06:35:59.266            38.398                Norilsk          1199.938
       351   04 Jun 2027 07:09:08.086   04 Jun 2027 07:11:02.302           114.216            RioGallegos          3569.250
       352   04 Jun 2027 08:03:49.675   04 Jun 2027 08:04:16.706            27.031                Norilsk           844.719
       353   04 Jun 2027 08:04:21.240   04 Jun 2027 08:04:46.959            25.719                Norilsk           803.719
       354   04 Jun 2027 08:04:53.003   04 Jun 2027 08:05:16.280            23.277                Irkutsk           727.406
       355   04 Jun 2027 08:05:31.604   04 Jun 2027 08:09:24.684           233.080                Irkutsk          7283.750
       356   04 Jun 2027 08:10:55.810   04 Jun 2027 08:11:09.231            13.421              Murmansk1           419.406
       357   04 Jun 2027 08:15:36.115   04 Jun 2027 08:15:38.787             2.672              Murmansk2            83.500
       358   04 Jun 2027 08:44:20.826   04 Jun 2027 08:45:25.394            64.568            RioGallegos          2017.750
       359   04 Jun 2027 08:47:26.837   04 Jun 2027 08:48:26.175            59.338            RioGallegos          1854.313
       360   04 Jun 2027 09:19:07.845   04 Jun 2027 09:19:51.080            43.235                Sumatra          1351.094
       361   04 Jun 2027 09:29:42.818   04 Jun 2027 09:30:03.540            20.722                  Delhi           647.563
       362   04 Jun 2027 09:30:53.200   04 Jun 2027 09:31:21.900            28.700                  Delhi           896.875
       363   04 Jun 2027 09:34:06.667   04 Jun 2027 09:35:02.598            55.931                  Delhi          1747.844
       364   04 Jun 2027 09:39:56.010   04 Jun 2027 09:40:11.753            15.743                Novosib           491.969
       365   04 Jun 2027 09:40:20.439   04 Jun 2027 09:41:22.706            62.267                Irkutsk          1945.844
       366   04 Jun 2027 09:41:28.387   04 Jun 2027 09:42:32.296            63.909                Novosib          1997.156
       367   04 Jun 2027 09:42:35.965   04 Jun 2027 09:43:06.367            30.402              Murmansk2           950.063
       368   04 Jun 2027 09:43:14.169   04 Jun 2027 09:43:22.585             8.416                Norilsk           263.000
       369   04 Jun 2027 09:43:34.829   04 Jun 2027 09:44:06.210            31.381                Irkutsk           980.656
       370   04 Jun 2027 09:44:13.927   04 Jun 2027 09:44:58.614            44.687                Irkutsk          1396.469
       371   04 Jun 2027 09:45:00.102   04 Jun 2027 09:45:13.817            13.715              Murmansk1           428.594
       372   04 Jun 2027 09:45:15.688   04 Jun 2027 09:45:37.367            21.679                Norilsk           677.469
       373   04 Jun 2027 10:23:58.360   04 Jun 2027 10:24:54.537            56.177            RioGallegos          1755.531
       374   04 Jun 2027 10:30:53.623   04 Jun 2027 10:31:10.509            16.886            RioGallegos           527.688
       375   04 Jun 2027 10:59:18.159   04 Jun 2027 11:00:20.425            62.266                Sumatra          1945.813
       376   04 Jun 2027 11:03:21.279   04 Jun 2027 11:03:32.136            10.857                  Delhi           339.281
       377   04 Jun 2027 11:06:28.453   04 Jun 2027 11:07:57.653            89.200                  Delhi          2787.500
       378   04 Jun 2027 11:17:27.023   04 Jun 2027 11:18:12.878            45.855                Norilsk          1432.969
       379   04 Jun 2027 11:18:27.737   04 Jun 2027 11:18:38.955            11.218              Murmansk2           350.563
       380   04 Jun 2027 11:18:41.040   04 Jun 2027 11:18:51.248            10.208              Murmansk1           319.000
       381   04 Jun 2027 11:18:51.248   04 Jun 2027 11:19:27.402            36.154              Murmansk2          1129.813
       382   04 Jun 2027 11:19:32.255   04 Jun 2027 11:19:36.605             4.350              Murmansk2           135.937
       383   04 Jun 2027 11:19:56.308   04 Jun 2027 11:20:21.990            25.682              Murmansk1           802.563
       384   04 Jun 2027 11:20:28.128   04 Jun 2027 11:20:55.158            27.030                Novosib           844.688
       385   04 Jun 2027 11:20:58.330   04 Jun 2027 11:21:37.668            39.338                 Moscow          1229.313
       386   04 Jun 2027 12:47:44.369   04 Jun 2027 12:51:44.612           240.243                 Moscow          7507.594
       387   04 Jun 2027 12:51:53.720   04 Jun 2027 12:53:32.988            99.268              Murmansk2          3102.125
       388   04 Jun 2027 12:54:30.005   04 Jun 2027 12:54:44.342            14.337              Murmansk1           448.031
       389   04 Jun 2027 12:54:48.867   04 Jun 2027 12:54:52.714             3.847              Murmansk2           120.219
       390   04 Jun 2027 12:55:45.755   04 Jun 2027 12:55:55.355             9.600              Murmansk2           300.000
       391   04 Jun 2027 12:56:21.393   04 Jun 2027 12:57:07.929            46.536              Murmansk2          1454.250
       392   04 Jun 2027 14:02:34.758   04 Jun 2027 14:03:53.207            78.449               CapeTown          2451.531
       393   04 Jun 2027 14:04:03.709   04 Jun 2027 14:04:17.162            13.453               CapeTown           420.406
       394   04 Jun 2027 14:05:15.612   04 Jun 2027 14:05:38.178            22.566               CapeTown           705.188
       395   04 Jun 2027 14:07:43.887   04 Jun 2027 14:08:31.705            47.818               CapeTown          1494.312
       396   04 Jun 2027 14:09:19.490   04 Jun 2027 14:09:30.860            11.370               CapeTown           355.312
       397   04 Jun 2027 14:25:00.357   04 Jun 2027 14:25:08.849             8.492                 Moscow           265.375
       398   04 Jun 2027 14:28:05.051   04 Jun 2027 14:30:58.623           173.572              Murmansk2          5424.125
       399   04 Jun 2027 14:36:26.268   04 Jun 2027 14:36:49.976            23.708              Murmansk2           740.875
       400   04 Jun 2027 14:42:18.203   04 Jun 2027 14:44:31.207           133.004                Anadyr2          4156.375
       401   04 Jun 2027 14:48:07.259   04 Jun 2027 14:48:46.930            39.671                Anadyr1          1239.719
       402   04 Jun 2027 15:39:04.471   04 Jun 2027 15:39:13.376             8.905               CapeTown           278.281
       403   04 Jun 2027 15:40:17.858   04 Jun 2027 15:40:53.546            35.688               CapeTown          1115.250
       404   04 Jun 2027 16:07:14.349   04 Jun 2027 16:07:50.647            36.298              Murmansk2          1134.313
       405   04 Jun 2027 16:08:14.293   04 Jun 2027 16:09:23.667            69.374              Murmansk1          2167.938
       406   04 Jun 2027 16:17:46.988   04 Jun 2027 16:20:01.230           134.242                Anadyr2          4195.062
       407   04 Jun 2027 16:20:59.918   04 Jun 2027 16:21:44.741            44.823                Anadyr2          1400.719
       408   04 Jun 2027 16:21:47.393   04 Jun 2027 16:24:40.342           172.949               Magadan1          5404.656
       409   04 Jun 2027 16:25:06.879   04 Jun 2027 16:26:15.734            68.855               Magadan2          2151.719
       410   04 Jun 2027 16:27:44.579   04 Jun 2027 16:28:23.065            38.486               Magadan2          1202.688
       411   04 Jun 2027 17:53:41.116   04 Jun 2027 17:55:31.758           110.642                Anadyr2          3457.563
       412   04 Jun 2027 17:55:48.910   04 Jun 2027 17:55:53.472             4.562                Anadyr1           142.562
       413   04 Jun 2027 17:56:04.291   04 Jun 2027 17:57:39.978            95.687               Magadan2          2990.219
       414   04 Jun 2027 17:57:43.901   04 Jun 2027 17:57:48.990             5.089               Magadan2           159.031
       415   04 Jun 2027 17:59:58.430   04 Jun 2027 18:00:04.245             5.815               Magadan2           181.719
       416   04 Jun 2027 18:03:04.066   04 Jun 2027 18:03:21.324            17.258               Magadan1           539.312
       417   04 Jun 2027 18:07:08.140   04 Jun 2027 18:07:20.757            12.617               Magadan1           394.281
       418   04 Jun 2027 19:29:32.960   04 Jun 2027 19:33:35.709           242.749                Anadyr2          7585.906
       419   04 Jun 2027 19:33:37.105   04 Jun 2027 19:34:59.186            82.081               Magadan1          2565.031
       420   04 Jun 2027 19:35:10.198   04 Jun 2027 19:35:36.589            26.391                Norilsk           824.719
       421   04 Jun 2027 19:37:24.645   04 Jun 2027 19:37:55.735            31.090               Magadan2           971.562
       422   04 Jun 2027 19:38:10.765   04 Jun 2027 19:40:51.581           160.816                Irkutsk          5025.500
       423   04 Jun 2027 19:41:18.694   04 Jun 2027 19:41:48.762            30.068                Irkutsk           939.625
       424   04 Jun 2027 19:42:20.146   04 Jun 2027 19:42:56.423            36.277                Irkutsk          1133.656
       425   04 Jun 2027 19:53:58.496   04 Jun 2027 19:57:35.777           217.281                Sumatra          6790.031
       426   04 Jun 2027 21:11:25.551   04 Jun 2027 21:12:43.381            77.830                Irkutsk          2432.187
       427   04 Jun 2027 21:12:54.573   04 Jun 2027 21:14:01.033            66.460                Novosib          2076.875
       428   04 Jun 2027 21:17:22.687   04 Jun 2027 21:18:00.107            37.420                Novosib          1169.375
       429   04 Jun 2027 21:25:07.293   04 Jun 2027 21:25:53.860            46.567                Sumatra          1455.219
       430   04 Jun 2027 21:27:04.859   04 Jun 2027 21:27:56.938            52.079                Sumatra          1627.469
       431   04 Jun 2027 21:33:49.571   04 Jun 2027 21:34:30.649            41.078                Sumatra          1283.687
       432   04 Jun 2027 22:40:38.417   04 Jun 2027 22:41:19.525            41.108                Anadyr1          1284.625
       433   04 Jun 2027 22:43:24.810   04 Jun 2027 22:43:54.302            29.492                Norilsk           921.625
       434   04 Jun 2027 22:44:00.933   04 Jun 2027 22:44:47.746            46.813               Magadan1          1462.906
       435   04 Jun 2027 22:47:10.370   04 Jun 2027 22:49:46.643           156.273              Murmansk1          4883.531
       436   04 Jun 2027 22:54:42.967   04 Jun 2027 22:56:38.663           115.696                  Delhi          3615.500
       437   05 Jun 2027 00:12:44.599   05 Jun 2027 00:12:59.903            15.304                Anadyr1           478.250
       438   05 Jun 2027 00:13:12.789   05 Jun 2027 00:14:02.041            49.252                Anadyr2          1539.125
       439   05 Jun 2027 00:14:10.843   05 Jun 2027 00:14:36.674            25.831                Anadyr1           807.219
       440   05 Jun 2027 00:15:32.167   05 Jun 2027 00:15:51.211            19.044                Anadyr2           595.125
       441   05 Jun 2027 00:18:53.035   05 Jun 2027 00:19:01.977             8.942                Anadyr2           279.438
       442   05 Jun 2027 00:19:14.039   05 Jun 2027 00:20:47.534            93.495               Magadan1          2921.719
       443   05 Jun 2027 00:21:39.070   05 Jun 2027 00:24:57.608           198.538              Murmansk1          6204.312
       444   05 Jun 2027 00:24:57.608   05 Jun 2027 00:25:21.794            24.186              Murmansk2           755.813
       445   05 Jun 2027 00:25:46.438   05 Jun 2027 00:26:29.851            43.413                 Moscow          1356.656
       446   05 Jun 2027 00:26:36.821   05 Jun 2027 00:27:28.386            51.565                 Moscow          1611.406
       447   05 Jun 2027 00:53:17.282   05 Jun 2027 00:54:44.379            87.097               CapeTown          2721.781
       448   05 Jun 2027 00:55:43.065   05 Jun 2027 00:56:32.360            49.295               CapeTown          1540.469
       449   05 Jun 2027 01:48:47.976   05 Jun 2027 01:49:13.919            25.943                Anadyr2           810.719
       450   05 Jun 2027 01:50:46.368   05 Jun 2027 01:53:06.840           140.472               Magadan2          4389.750
       451   05 Jun 2027 01:57:31.021   05 Jun 2027 01:57:50.218            19.197              Murmansk2           599.906
       452   05 Jun 2027 01:57:51.719   05 Jun 2027 01:59:19.725            88.006              Murmansk1          2750.187
       453   05 Jun 2027 02:00:24.701   05 Jun 2027 02:00:43.405            18.704                Novosib           584.500
       454   05 Jun 2027 02:02:53.343   05 Jun 2027 02:03:00.031             6.688                 Moscow           209.000
       455   05 Jun 2027 02:03:08.938   05 Jun 2027 02:03:45.235            36.297                 Moscow          1134.281
       456   05 Jun 2027 02:11:53.882   05 Jun 2027 02:12:03.060             9.178                 Moscow           286.813
       457   05 Jun 2027 02:24:43.508   05 Jun 2027 02:25:39.859            56.351               CapeTown          1760.969
       458   05 Jun 2027 02:33:19.381   05 Jun 2027 02:33:24.299             4.918               CapeTown           153.687
       459   05 Jun 2027 02:34:14.577   05 Jun 2027 02:34:44.166            29.589               CapeTown           924.656
       460   05 Jun 2027 03:27:59.144   05 Jun 2027 03:28:17.191            18.047               Magadan2           563.969
       461   05 Jun 2027 03:28:37.163   05 Jun 2027 03:29:22.854            45.691                Anadyr1          1427.844
       462   05 Jun 2027 03:29:22.854   05 Jun 2027 03:30:23.232            60.378                Anadyr2          1886.812
       463   05 Jun 2027 03:30:23.232   05 Jun 2027 03:32:41.623           138.391                Anadyr1          4324.719
       464   05 Jun 2027 03:32:44.784   05 Jun 2027 03:32:59.222            14.438                Anadyr2           451.188
       465   05 Jun 2027 03:33:14.407   05 Jun 2027 03:33:22.472             8.065               Magadan2           252.031
       466   05 Jun 2027 03:33:39.815   05 Jun 2027 03:34:17.772            37.957                Anadyr1          1186.156
       467   05 Jun 2027 05:02:52.315   05 Jun 2027 05:04:02.450            70.135               Magadan1          2191.719
       468   05 Jun 2027 05:04:26.171   05 Jun 2027 05:07:05.207           159.036                Anadyr1          4969.875
       469   05 Jun 2027 05:07:05.207   05 Jun 2027 05:08:13.918            68.711                Anadyr2          2147.219
       470   05 Jun 2027 05:08:16.881   05 Jun 2027 05:08:40.673            23.792                Anadyr2           743.500
       471   05 Jun 2027 06:37:36.356   05 Jun 2027 06:38:21.184            44.828               Magadan1          1400.875
       472   05 Jun 2027 06:38:31.202   05 Jun 2027 06:40:24.063           112.861                Anadyr1          3526.906
       473   05 Jun 2027 06:40:37.382   05 Jun 2027 06:41:53.413            76.031               Magadan1          2375.969
       474   05 Jun 2027 06:41:53.413   05 Jun 2027 06:42:55.657            62.244               Magadan2          1945.125
       475   05 Jun 2027 06:43:22.250   05 Jun 2027 06:45:07.905           105.655                Anadyr2          3301.719
       476   05 Jun 2027 06:45:09.972   05 Jun 2027 06:45:33.133            23.161                Novosib           723.781
       477   05 Jun 2027 06:45:34.331   05 Jun 2027 06:46:02.770            28.439              Murmansk2           888.719
       478   05 Jun 2027 06:46:02.770   05 Jun 2027 06:48:45.272           162.502              Murmansk1          5078.188
       479   05 Jun 2027 07:20:52.829   05 Jun 2027 07:21:52.874            60.045            RioGallegos          1876.406
       480   05 Jun 2027 07:24:17.528   05 Jun 2027 07:24:23.166             5.638            RioGallegos           176.187
       481   05 Jun 2027 07:58:59.833   05 Jun 2027 08:00:27.508            87.675                Sumatra          2739.844
       482   05 Jun 2027 08:14:55.368   05 Jun 2027 08:16:18.596            83.228               Magadan1          2600.875
