uniorb/output/strategy_1/Drop/Drop_KinoSat_112004.txt

KinoSat_112004
-------------------------
    Access    *     Start Time (UTCG)     *     Stop Time (UTCG)  *   Duration (s)        *       Station  *  Data (Mbytes)
         1   01 Jun 2027 03:07:21.090   01 Jun 2027 03:07:42.902            21.812               Magadan2           681.625
         2   01 Jun 2027 03:07:58.223   01 Jun 2027 03:08:41.671            43.448               Magadan2          1357.750
         3   01 Jun 2027 03:08:41.859   01 Jun 2027 03:09:05.916            24.057                Irkutsk           751.781
         4   01 Jun 2027 03:09:15.695   01 Jun 2027 03:10:20.492            64.797                Irkutsk          2024.906
         5   01 Jun 2027 03:10:30.815   01 Jun 2027 03:11:08.389            37.574                Norilsk          1174.187
         6   01 Jun 2027 03:11:16.529   01 Jun 2027 03:12:02.781            46.252                Novosib          1445.375
         7   01 Jun 2027 03:12:07.537   01 Jun 2027 03:12:13.803             6.266                Norilsk           195.813
         8   01 Jun 2027 03:12:14.092   01 Jun 2027 03:12:36.341            22.249                Irkutsk           695.281
         9   01 Jun 2027 03:12:48.451   01 Jun 2027 03:14:18.940            90.489                Norilsk          2827.781
        10   01 Jun 2027 03:14:47.886   01 Jun 2027 03:16:18.133            90.247                  Delhi          2820.219
        11   01 Jun 2027 03:20:50.098   01 Jun 2027 03:21:08.849            18.751                  Delhi           585.969
        12   01 Jun 2027 03:56:14.464   01 Jun 2027 03:57:12.160            57.696            RioGallegos          1803.000
        13   01 Jun 2027 03:58:00.309   01 Jun 2027 04:00:01.085           120.776            RioGallegos          3774.250
        14   01 Jun 2027 04:45:24.001   01 Jun 2027 04:46:09.682            45.681                Norilsk          1427.531
        15   01 Jun 2027 04:46:27.377   01 Jun 2027 04:48:06.159            98.782                Novosib          3086.937
        16   01 Jun 2027 04:48:18.692   01 Jun 2027 04:49:45.213            86.521                Novosib          2703.781
        17   01 Jun 2027 04:49:51.921   01 Jun 2027 04:50:20.620            28.699                Irkutsk           896.844
        18   01 Jun 2027 04:50:24.695   01 Jun 2027 04:50:40.111            15.416              Murmansk2           481.750
        19   01 Jun 2027 04:50:44.199   01 Jun 2027 04:56:50.487           366.288                  Delhi         11446.500
        20   01 Jun 2027 06:24:17.861   01 Jun 2027 06:24:37.607            19.746                Novosib           617.062
        21   01 Jun 2027 06:24:40.637   01 Jun 2027 06:25:17.280            36.643                 Moscow          1145.094
        22   01 Jun 2027 06:25:24.808   01 Jun 2027 06:25:58.655            33.847                Norilsk          1057.719
        23   01 Jun 2027 06:26:02.298   01 Jun 2027 06:26:37.166            34.868                Novosib          1089.625
        24   01 Jun 2027 06:27:03.226   01 Jun 2027 06:29:12.255           129.029              Murmansk2          4032.156
        25   01 Jun 2027 06:29:27.384   01 Jun 2027 06:31:34.789           127.405                 Moscow          3981.406
        26   01 Jun 2027 06:43:48.046   01 Jun 2027 06:47:45.232           237.186               CapeTown          7412.063
        27   01 Jun 2027 06:50:35.290   01 Jun 2027 06:52:12.801            97.511               CapeTown          3047.219
        28   01 Jun 2027 07:47:05.865   01 Jun 2027 07:47:31.040            25.175                Anadyr2           786.719
        29   01 Jun 2027 07:47:44.931   01 Jun 2027 07:48:44.326            59.395                Anadyr2          1856.094
        30   01 Jun 2027 08:28:33.252   01 Jun 2027 08:30:34.646           121.394               CapeTown          3793.562
        31   01 Jun 2027 09:21:09.079   01 Jun 2027 09:22:29.747            80.668                Anadyr1          2520.875
        32   01 Jun 2027 09:24:19.271   01 Jun 2027 09:25:26.894            67.623                Anadyr1          2113.219
        33   01 Jun 2027 09:25:26.894   01 Jun 2027 09:29:15.626           228.732                Anadyr2          7147.875
        34   01 Jun 2027 10:56:18.785   01 Jun 2027 10:57:45.829            87.044               Magadan2          2720.125
        35   01 Jun 2027 10:57:54.323   01 Jun 2027 11:04:13.243           378.920                Anadyr1         11841.250
        36   01 Jun 2027 12:33:42.714   01 Jun 2027 12:38:57.385           314.671               Magadan2          9833.469
        37   01 Jun 2027 14:56:50.072   01 Jun 2027 15:01:16.037           265.965            RioGallegos          8311.406
        38   01 Jun 2027 15:47:40.611   01 Jun 2027 15:48:02.659            22.048                Novosib           689.000
        39   01 Jun 2027 15:50:39.671   01 Jun 2027 15:52:39.478           119.807                Novosib          3743.969
        40   01 Jun 2027 17:26:51.974   01 Jun 2027 17:29:37.424           165.450                Norilsk          5170.313
        41   01 Jun 2027 17:32:03.646   01 Jun 2027 17:33:08.956            65.310                Norilsk          2040.938
        42   01 Jun 2027 18:56:35.649   01 Jun 2027 18:58:07.880            92.231                 Moscow          2882.219
        43   01 Jun 2027 18:59:35.339   01 Jun 2027 18:59:38.033             2.694              Murmansk2            84.188
        44   01 Jun 2027 18:59:46.946   01 Jun 2027 19:00:15.777            28.831              Murmansk1           900.969
        45   01 Jun 2027 19:00:57.728   01 Jun 2027 19:01:38.372            40.644              Murmansk1          1270.125
        46   01 Jun 2027 20:08:26.541   01 Jun 2027 20:09:00.075            33.534               CapeTown          1047.938
        47   01 Jun 2027 20:11:12.175   01 Jun 2027 20:12:52.431           100.256               CapeTown          3133.000
        48   01 Jun 2027 20:17:13.935   01 Jun 2027 20:17:47.068            33.133               CapeTown          1035.406
        49   01 Jun 2027 20:39:11.688   01 Jun 2027 20:45:07.188           355.500              Murmansk1         11109.375
        50   01 Jun 2027 20:45:18.635   01 Jun 2027 20:46:52.914            94.279              Murmansk2          2946.219
        51   01 Jun 2027 22:24:50.235   01 Jun 2027 22:26:06.775            76.540                Anadyr1          2391.875
        52   01 Jun 2027 22:27:08.649   01 Jun 2027 22:29:13.161           124.512               Magadan2          3891.000
        53   01 Jun 2027 22:29:34.505   01 Jun 2027 22:30:01.249            26.744               Magadan2           835.750
        54   01 Jun 2027 22:30:19.513   01 Jun 2027 22:30:33.696            14.183               Magadan2           443.219
        55   01 Jun 2027 22:30:57.404   01 Jun 2027 22:31:05.465             8.061               Magadan2           251.906
        56   01 Jun 2027 23:21:14.921   01 Jun 2027 23:23:40.406           145.485            RioGallegos          4546.406
        57   02 Jun 2027 00:00:40.811   02 Jun 2027 00:02:12.454            91.643                Anadyr1          2863.844
        58   02 Jun 2027 00:02:15.537   02 Jun 2027 00:03:41.370            85.833                Anadyr2          2682.281
        59   02 Jun 2027 00:03:44.303   02 Jun 2027 00:04:19.385            35.082                Norilsk          1096.313
        60   02 Jun 2027 00:04:57.050   02 Jun 2027 00:05:41.480            44.430                Norilsk          1388.438
        61   02 Jun 2027 00:06:05.282   02 Jun 2027 00:06:20.672            15.390               Magadan2           480.937
        62   02 Jun 2027 00:06:30.287   02 Jun 2027 00:06:36.611             6.324               Magadan2           197.625
        63   02 Jun 2027 00:06:57.121   02 Jun 2027 00:07:39.618            42.497               Magadan2          1328.031
        64   02 Jun 2027 00:07:48.294   02 Jun 2027 00:09:43.577           115.283                Irkutsk          3602.594
        65   02 Jun 2027 00:22:58.790   02 Jun 2027 00:25:07.265           128.475                Sumatra          4014.844
        66   02 Jun 2027 00:54:41.018   02 Jun 2027 00:56:22.668           101.650            RioGallegos          3176.562
        67   02 Jun 2027 01:01:54.393   02 Jun 2027 01:02:18.610            24.217            RioGallegos           756.781
        68   02 Jun 2027 01:35:59.981   02 Jun 2027 01:36:14.977            14.996                Anadyr1           468.625
        69   02 Jun 2027 01:37:31.358   02 Jun 2027 01:38:07.876            36.518                Anadyr2          1141.187
        70   02 Jun 2027 01:38:32.690   02 Jun 2027 01:40:36.645           123.955                Norilsk          3873.594
        71   02 Jun 2027 01:40:54.487   02 Jun 2027 01:41:20.872            26.385               Magadan2           824.531
        72   02 Jun 2027 01:42:17.615   02 Jun 2027 01:42:31.423            13.808               Magadan1           431.500
        73   02 Jun 2027 01:43:11.655   02 Jun 2027 01:45:37.885           146.230                Novosib          4569.687
        74   02 Jun 2027 01:45:51.313   02 Jun 2027 01:46:06.547            15.234                Novosib           476.063
        75   02 Jun 2027 01:46:10.960   02 Jun 2027 01:46:59.164            48.204                Novosib          1506.375
        76   02 Jun 2027 01:53:37.028   02 Jun 2027 01:54:45.535            68.507                  Delhi          2140.844
        77   02 Jun 2027 01:56:20.070   02 Jun 2027 01:59:20.056           179.986                Sumatra          5624.563
        78   02 Jun 2027 02:04:50.050   02 Jun 2027 02:06:03.138            73.088                Sumatra          2284.000
        79   02 Jun 2027 03:18:51.566   02 Jun 2027 03:20:41.743           110.177               Magadan2          3443.031
        80   02 Jun 2027 03:22:00.407   02 Jun 2027 03:22:16.656            16.249              Murmansk2           507.781
        81   02 Jun 2027 03:22:29.865   02 Jun 2027 03:23:40.997            71.132                Novosib          2222.875
        82   02 Jun 2027 03:23:51.573   02 Jun 2027 03:24:36.375            44.802                Irkutsk          1400.063
        83   02 Jun 2027 03:24:55.421   02 Jun 2027 03:27:27.187           151.766                Norilsk          4742.688
        84   02 Jun 2027 03:27:37.048   02 Jun 2027 03:30:12.342           155.294                Irkutsk          4852.937
        85   02 Jun 2027 03:31:07.387   02 Jun 2027 03:35:52.058           284.671                  Delhi          8895.969
        86   02 Jun 2027 04:09:02.043   02 Jun 2027 04:12:06.320           184.277            RioGallegos          5758.656
        87   02 Jun 2027 04:58:19.212   02 Jun 2027 05:00:33.708           134.496                Irkutsk          4203.000
        88   02 Jun 2027 05:00:40.162   02 Jun 2027 05:00:55.274            15.112                Norilsk           472.250
        89   02 Jun 2027 05:01:01.750   02 Jun 2027 05:01:49.471            47.721                Norilsk          1491.281
        90   02 Jun 2027 05:01:51.557   02 Jun 2027 05:02:33.350            41.793                 Moscow          1306.031
        91   02 Jun 2027 05:02:38.459   02 Jun 2027 05:02:41.700             3.241                Novosib           101.281
        92   02 Jun 2027 05:02:57.379   02 Jun 2027 05:03:25.189            27.810              Murmansk1           869.062
        93   02 Jun 2027 05:04:54.187   02 Jun 2027 05:06:03.633            69.446                Novosib          2170.187
        94   02 Jun 2027 05:07:56.154   02 Jun 2027 05:11:10.502           194.348                  Delhi          6073.375
        95   02 Jun 2027 06:36:17.296   02 Jun 2027 06:36:53.854            36.558              Murmansk2          1142.437
        96   02 Jun 2027 06:37:06.675   02 Jun 2027 06:38:05.390            58.715              Murmansk1          1834.844
        97   02 Jun 2027 06:38:15.530   02 Jun 2027 06:40:25.638           130.108              Murmansk1          4065.875
        98   02 Jun 2027 06:41:28.779   02 Jun 2027 06:42:14.244            45.465                 Moscow          1420.781
        99   02 Jun 2027 06:42:35.365   02 Jun 2027 06:42:51.535            16.170                 Moscow           505.313
       100   02 Jun 2027 06:55:46.455   02 Jun 2027 06:56:43.669            57.214               CapeTown          1787.938
       101   02 Jun 2027 06:59:00.222   02 Jun 2027 06:59:41.575            41.353               CapeTown          1292.281
       102   02 Jun 2027 07:59:46.488   02 Jun 2027 08:00:10.602            24.114                Anadyr2           753.563
       103   02 Jun 2027 08:00:12.936   02 Jun 2027 08:00:58.600            45.664                Anadyr2          1427.000
       104   02 Jun 2027 08:04:43.045   02 Jun 2027 08:05:01.897            18.852                Anadyr1           589.125
       105   02 Jun 2027 08:35:14.408   02 Jun 2027 08:41:43.314           388.906               CapeTown         12153.313
       106   02 Jun 2027 09:35:28.312   02 Jun 2027 09:41:10.115           341.803                Anadyr2         10681.344
       107   02 Jun 2027 11:05:14.495   02 Jun 2027 11:07:59.391           164.896               Magadan1          5153.000
       108   02 Jun 2027 11:10:17.014   02 Jun 2027 11:15:44.976           327.962               Magadan2         10248.813
       109   02 Jun 2027 12:47:22.762   02 Jun 2027 12:49:56.933           154.171               Magadan1          4817.844
       110   02 Jun 2027 14:02:25.213   02 Jun 2027 14:02:39.205            13.992                Sumatra           437.250
       111   02 Jun 2027 14:10:19.669   02 Jun 2027 14:12:10.850           111.181                Sumatra          3474.406
       112   02 Jun 2027 14:17:12.354   02 Jun 2027 14:18:29.372            77.018                Irkutsk          2406.812
       113   02 Jun 2027 14:22:03.765   02 Jun 2027 14:26:42.019           278.254                Irkutsk          8695.438
       114   02 Jun 2027 15:47:02.184   02 Jun 2027 15:48:31.111            88.927                  Delhi          2778.969
       115   02 Jun 2027 15:54:06.273   02 Jun 2027 15:56:56.732           170.459                  Delhi          5326.844
       116   02 Jun 2027 16:00:36.498   02 Jun 2027 16:00:50.663            14.165                Novosib           442.656
       117   02 Jun 2027 17:39:41.972   02 Jun 2027 17:45:08.389           326.417                Norilsk         10200.531
       118   02 Jun 2027 19:09:10.512   02 Jun 2027 19:11:52.347           161.835                 Moscow          5057.344
       119   02 Jun 2027 19:14:33.941   02 Jun 2027 19:15:06.853            32.912                 Moscow          1028.500
       120   02 Jun 2027 20:27:17.386   02 Jun 2027 20:27:33.438            16.052               CapeTown           501.625
       121   02 Jun 2027 20:28:50.432   02 Jun 2027 20:30:22.518            92.086               CapeTown          2877.688
       122   02 Jun 2027 20:51:55.759   02 Jun 2027 20:58:47.306           411.547              Murmansk2         12860.844
       123   02 Jun 2027 22:39:08.868   02 Jun 2027 22:40:43.899            95.031               Magadan1          2969.719
       124   02 Jun 2027 22:40:58.712   02 Jun 2027 22:41:20.841            22.129               Magadan2           691.531
       125   02 Jun 2027 22:41:49.599   02 Jun 2027 22:42:13.155            23.556               Magadan1           736.125
       126   02 Jun 2027 22:42:26.733   02 Jun 2027 22:42:36.399             9.666               Magadan1           302.063
       127   02 Jun 2027 22:46:21.880   02 Jun 2027 22:46:40.571            18.691               Magadan2           584.094
       128   02 Jun 2027 22:48:18.975   02 Jun 2027 22:48:44.631            25.656               Magadan2           801.750
       129   02 Jun 2027 23:32:29.578   02 Jun 2027 23:35:23.751           174.173            RioGallegos          5442.906
       130   02 Jun 2027 23:38:08.371   02 Jun 2027 23:38:46.252            37.881            RioGallegos          1183.781
       131   03 Jun 2027 00:12:40.367   03 Jun 2027 00:14:06.671            86.304                Anadyr1          2697.000
       132   03 Jun 2027 00:14:15.234   03 Jun 2027 00:14:31.755            16.521                Anadyr2           516.281
       133   03 Jun 2027 00:14:44.700   03 Jun 2027 00:16:38.257           113.557                Norilsk          3548.656
       134   03 Jun 2027 00:16:40.408   03 Jun 2027 00:17:15.462            35.054               Magadan1          1095.438
       135   03 Jun 2027 00:18:50.102   03 Jun 2027 00:19:07.999            17.897               Magadan1           559.281
       136   03 Jun 2027 00:19:29.861   03 Jun 2027 00:20:35.254            65.393                Irkutsk          2043.531
       137   03 Jun 2027 00:21:42.781   03 Jun 2027 00:22:53.074            70.293                Irkutsk          2196.656
       138   03 Jun 2027 00:25:57.968   03 Jun 2027 00:27:00.932            62.964                Irkutsk          1967.625
       139   03 Jun 2027 00:34:07.844   03 Jun 2027 00:35:48.817           100.973                Sumatra          3155.406
       140   03 Jun 2027 00:38:39.297   03 Jun 2027 00:39:00.715            21.418                Sumatra           669.313
       141   03 Jun 2027 00:39:54.186   03 Jun 2027 00:40:09.821            15.635                Sumatra           488.594
       142   03 Jun 2027 00:43:11.920   03 Jun 2027 00:43:12.603             0.683                Sumatra            21.344
       143   03 Jun 2027 01:06:38.548   03 Jun 2027 01:08:00.657            82.109            RioGallegos          2565.906
       144   03 Jun 2027 01:13:46.042   03 Jun 2027 01:14:21.470            35.428            RioGallegos          1107.125
       145   03 Jun 2027 01:47:52.832   03 Jun 2027 01:48:46.146            53.314                Anadyr2          1666.062
       146   03 Jun 2027 01:50:26.064   03 Jun 2027 01:50:47.618            21.554                Anadyr1           673.563
       147   03 Jun 2027 01:51:14.723   03 Jun 2027 01:51:25.309            10.586               Magadan2           330.812
       148   03 Jun 2027 01:51:27.265   03 Jun 2027 01:54:05.144           157.879               Magadan1          4933.719
       149   03 Jun 2027 01:54:29.286   03 Jun 2027 01:56:38.855           129.569                Irkutsk          4049.031
       150   03 Jun 2027 02:02:00.138   03 Jun 2027 02:02:26.895            26.757                Irkutsk           836.156
       151   03 Jun 2027 02:04:18.280   03 Jun 2027 02:06:37.841           139.561                  Delhi          4361.281
       152   03 Jun 2027 02:08:31.954   03 Jun 2027 02:09:14.626            42.672                Sumatra          1333.500
       153   03 Jun 2027 02:15:41.514   03 Jun 2027 02:18:20.350           158.836                Sumatra          4963.625
       154   03 Jun 2027 02:44:10.264   03 Jun 2027 02:45:10.515            60.251            RioGallegos          1882.844
       155   03 Jun 2027 03:30:51.580   03 Jun 2027 03:31:28.047            36.467               Magadan2          1139.594
       156   03 Jun 2027 03:31:46.993   03 Jun 2027 03:32:16.866            29.873               Magadan2           933.531
       157   03 Jun 2027 03:33:20.494   03 Jun 2027 03:33:59.579            39.085                Novosib          1221.406
       158   03 Jun 2027 03:34:07.823   03 Jun 2027 03:35:17.256            69.433                Norilsk          2169.781
       159   03 Jun 2027 03:35:25.649   03 Jun 2027 03:36:39.640            73.991                Irkutsk          2312.219
       160   03 Jun 2027 03:36:50.951   03 Jun 2027 03:39:32.284           161.333                Norilsk          5041.656
       161   03 Jun 2027 03:39:43.122   03 Jun 2027 03:40:31.214            48.092                Irkutsk          1502.875
       162   03 Jun 2027 03:40:37.745   03 Jun 2027 03:44:30.928           233.183                  Delhi          7286.969
       163   03 Jun 2027 04:19:55.507   03 Jun 2027 04:26:03.840           368.333            RioGallegos         11510.406
       164   03 Jun 2027 05:10:10.260   03 Jun 2027 05:10:27.397            17.137              Murmansk1           535.531
       165   03 Jun 2027 05:10:32.902   03 Jun 2027 05:10:44.206            11.304              Murmansk2           353.250
       166   03 Jun 2027 05:10:50.805   03 Jun 2027 05:13:57.905           187.100                Novosib          5846.875
       167   03 Jun 2027 05:14:00.428   03 Jun 2027 05:15:12.611            72.183              Murmansk2          2255.719
       168   03 Jun 2027 05:16:12.192   03 Jun 2027 05:21:57.663           345.471                  Delhi         10795.969
       169   03 Jun 2027 06:48:28.801   03 Jun 2027 06:49:16.845            48.044                 Moscow          1501.375
       170   03 Jun 2027 06:49:35.080   03 Jun 2027 06:49:59.656            24.576              Murmansk1           768.000
       171   03 Jun 2027 06:50:01.739   03 Jun 2027 06:51:48.945           107.206                 Moscow          3350.187
       172   03 Jun 2027 06:53:46.049   03 Jun 2027 06:53:59.193            13.144                 Moscow           410.750
       173   03 Jun 2027 07:07:49.951   03 Jun 2027 07:11:00.559           190.608               CapeTown          5956.500
       174   03 Jun 2027 08:11:47.839   03 Jun 2027 08:12:41.143            53.304                Anadyr2          1665.750
       175   03 Jun 2027 08:12:56.271   03 Jun 2027 08:17:03.428           247.157               Magadan1          7723.656
       176   03 Jun 2027 08:49:17.611   03 Jun 2027 08:51:59.532           161.921               CapeTown          5060.031
       177   03 Jun 2027 09:44:44.428   03 Jun 2027 09:47:33.577           169.149                Anadyr2          5285.906
       178   03 Jun 2027 09:48:52.216   03 Jun 2027 09:49:47.254            55.038               Magadan2          1719.937
       179   03 Jun 2027 09:50:55.996   03 Jun 2027 09:53:13.473           137.477                Anadyr2          4296.156
       180   03 Jun 2027 11:19:29.765   03 Jun 2027 11:20:57.455            87.690               Magadan1          2740.313
       181   03 Jun 2027 11:22:24.368   03 Jun 2027 11:23:32.344            67.976                Novosib          2124.250
       182   03 Jun 2027 11:23:52.206   03 Jun 2027 11:23:58.609             6.403                Novosib           200.094
       183   03 Jun 2027 11:24:00.117   03 Jun 2027 11:24:56.158            56.041                Irkutsk          1751.281
       184   03 Jun 2027 11:25:01.600   03 Jun 2027 11:26:06.963            65.363                Irkutsk          2042.594
       185   03 Jun 2027 11:26:11.328   03 Jun 2027 11:26:58.125            46.797                Irkutsk          1462.406
       186   03 Jun 2027 11:27:15.005   03 Jun 2027 11:28:12.100            57.095                Novosib          1784.219
       187   03 Jun 2027 11:28:19.686   03 Jun 2027 11:28:56.621            36.935                Novosib          1154.219
       188   03 Jun 2027 11:29:15.625   03 Jun 2027 11:29:32.130            16.505              Murmansk2           515.781
       189   03 Jun 2027 12:03:36.742   03 Jun 2027 12:04:55.214            78.472            RioGallegos          2452.250
       190   03 Jun 2027 12:10:10.054   03 Jun 2027 12:10:38.264            28.210            RioGallegos           881.562
       191   03 Jun 2027 12:39:48.336   03 Jun 2027 12:39:53.292             4.956                Sumatra           154.875
       192   03 Jun 2027 12:41:01.835   03 Jun 2027 12:42:38.256            96.421                Sumatra          3013.156
       193   03 Jun 2027 12:51:54.504   03 Jun 2027 12:53:45.950           111.446                Irkutsk          3482.688
       194   03 Jun 2027 12:56:49.429   03 Jun 2027 12:58:03.936            74.507                Norilsk          2328.344
       195   03 Jun 2027 12:59:47.265   03 Jun 2027 13:00:08.763            21.498                Norilsk           671.812
       196   03 Jun 2027 13:06:23.805   03 Jun 2027 13:06:49.553            25.748                Norilsk           804.625
       197   03 Jun 2027 13:40:22.257   03 Jun 2027 13:41:06.036            43.779            RioGallegos          1368.094
       198   03 Jun 2027 13:42:23.667   03 Jun 2027 13:43:32.920            69.253            RioGallegos          2164.156
       199   03 Jun 2027 13:45:14.371   03 Jun 2027 13:45:33.313            18.942            RioGallegos           591.938
       200   03 Jun 2027 13:48:50.996   03 Jun 2027 13:50:17.032            86.036            RioGallegos          2688.625
       201   03 Jun 2027 14:14:40.391   03 Jun 2027 14:16:03.464            83.073                Sumatra          2596.031
       202   03 Jun 2027 14:19:47.811   03 Jun 2027 14:19:49.945             2.134                Sumatra            66.688
       203   03 Jun 2027 14:20:49.656   03 Jun 2027 14:24:31.826           222.170                Sumatra          6942.813
       204   03 Jun 2027 14:29:44.174   03 Jun 2027 14:30:32.850            48.676                Irkutsk          1521.125
       205   03 Jun 2027 14:35:31.884   03 Jun 2027 14:36:30.620            58.736                Irkutsk          1835.500
       206   03 Jun 2027 14:38:15.154   03 Jun 2027 14:39:48.164            93.010                Irkutsk          2906.563
       207   03 Jun 2027 16:01:04.441   03 Jun 2027 16:05:20.750           256.309                  Delhi          8009.656
       208   03 Jun 2027 16:07:48.256   03 Jun 2027 16:11:04.684           196.428                Novosib          6138.375
       209   03 Jun 2027 16:12:28.675   03 Jun 2027 16:13:50.307            81.632                Novosib          2551.000
       210   03 Jun 2027 17:52:39.412   03 Jun 2027 17:56:42.462           243.050                Norilsk          7595.312
       211   03 Jun 2027 19:07:50.407   03 Jun 2027 19:08:23.577            33.170               CapeTown          1036.563
       212   03 Jun 2027 19:21:52.047   03 Jun 2027 19:28:21.754           389.707                 Moscow         12178.344
       213   03 Jun 2027 20:32:51.647   03 Jun 2027 20:33:17.005            25.358               CapeTown           792.438
       214   03 Jun 2027 20:36:17.837   03 Jun 2027 20:37:43.074            85.237               CapeTown          2663.656
       215   03 Jun 2027 20:41:05.283   03 Jun 2027 20:42:40.261            94.978               CapeTown          2968.063
       216   03 Jun 2027 21:04:45.047   03 Jun 2027 21:10:38.588           353.541              Murmansk1         11048.156
       217   03 Jun 2027 22:48:53.702   03 Jun 2027 22:50:23.247            89.545                Anadyr2          2798.281
       218   03 Jun 2027 22:51:09.621   03 Jun 2027 22:53:21.815           132.194               Magadan1          4131.062
       219   03 Jun 2027 22:54:29.130   03 Jun 2027 22:54:39.024             9.894               Magadan2           309.188
       220   03 Jun 2027 22:54:52.115   03 Jun 2027 22:55:02.032             9.917               Magadan2           309.906
       221   03 Jun 2027 22:55:02.032   03 Jun 2027 22:55:31.680            29.648               Magadan1           926.500
       222   03 Jun 2027 22:56:27.475   03 Jun 2027 22:56:59.832            32.357               Magadan2          1011.156
       223   03 Jun 2027 23:44:01.142   03 Jun 2027 23:47:11.463           190.321            RioGallegos          5947.531
       224   03 Jun 2027 23:49:23.881   03 Jun 2027 23:50:13.713            49.832            RioGallegos          1557.250
       225   04 Jun 2027 00:24:39.370   04 Jun 2027 00:25:59.756            80.386                Anadyr2          2512.062
       226   04 Jun 2027 00:26:43.842   04 Jun 2027 00:28:22.978            99.136                Norilsk          3098.000
       227   04 Jun 2027 00:29:47.037   04 Jun 2027 00:30:35.308            48.271               Magadan1          1508.469
       228   04 Jun 2027 00:30:52.698   04 Jun 2027 00:31:06.278            13.580               Magadan2           424.375
       229   04 Jun 2027 00:31:16.373   04 Jun 2027 00:32:34.851            78.478                Irkutsk          2452.437
       230   04 Jun 2027 00:33:35.515   04 Jun 2027 00:35:47.480           131.965                Irkutsk          4123.906
       231   04 Jun 2027 00:45:47.115   04 Jun 2027 00:46:26.796            39.681                Sumatra          1240.031
       232   04 Jun 2027 00:51:17.535   04 Jun 2027 00:52:10.480            52.945                Sumatra          1654.531
       233   04 Jun 2027 01:18:37.402   04 Jun 2027 01:18:59.919            22.517            RioGallegos           703.656
       234   04 Jun 2027 01:21:32.546   04 Jun 2027 01:21:44.716            12.170            RioGallegos           380.312
       235   04 Jun 2027 01:22:24.794   04 Jun 2027 01:22:28.800             4.006            RioGallegos           125.188
       236   04 Jun 2027 01:26:01.079   04 Jun 2027 01:26:23.037            21.958            RioGallegos           686.188
       237   04 Jun 2027 01:28:42.463   04 Jun 2027 01:29:06.898            24.435            RioGallegos           763.594
       238   04 Jun 2027 01:59:44.441   04 Jun 2027 02:00:09.198            24.757                Anadyr2           773.656
       239   04 Jun 2027 02:00:25.780   04 Jun 2027 02:00:42.984            17.204                Anadyr2           537.625
       240   04 Jun 2027 02:01:13.667   04 Jun 2027 02:01:40.027            26.360                Anadyr1           823.750
       241   04 Jun 2027 02:02:06.671   04 Jun 2027 02:02:36.453            29.782                Anadyr1           930.687
       242   04 Jun 2027 02:02:37.195   04 Jun 2027 02:02:37.258             0.063                Norilsk             1.969
       243   04 Jun 2027 02:03:17.990   04 Jun 2027 02:04:56.635            98.645               Magadan2          3082.656
       244   04 Jun 2027 02:06:30.301   04 Jun 2027 02:08:45.118           134.817                Irkutsk          4213.031
       245   04 Jun 2027 02:09:48.377   04 Jun 2027 02:10:21.097            32.720                Irkutsk          1022.500
       246   04 Jun 2027 02:15:30.499   04 Jun 2027 02:15:54.033            23.534                Novosib           735.438
       247   04 Jun 2027 02:16:17.211   04 Jun 2027 02:18:19.076           121.865                  Delhi          3808.281
       248   04 Jun 2027 02:20:50.692   04 Jun 2027 02:22:55.061           124.369                Sumatra          3886.531
       249   04 Jun 2027 02:25:26.536   04 Jun 2027 02:26:15.904            49.368                Sumatra          1542.750
       250   04 Jun 2027 03:02:20.091   04 Jun 2027 03:03:03.595            43.504            RioGallegos          1359.500
       251   04 Jun 2027 03:43:19.466   04 Jun 2027 03:43:44.890            25.424               Magadan1           794.500
       252   04 Jun 2027 03:44:52.491   04 Jun 2027 03:47:11.080           138.589                Norilsk          4330.906
       253   04 Jun 2027 03:47:18.606   04 Jun 2027 03:50:59.293           220.687                Norilsk          6896.469
       254   04 Jun 2027 03:51:28.863   04 Jun 2027 03:53:29.060           120.197                Irkutsk          3756.156
       255   04 Jun 2027 03:56:49.405   04 Jun 2027 03:58:52.618           123.213                  Delhi          3850.406
       256   04 Jun 2027 04:32:24.776   04 Jun 2027 04:37:04.152           279.376            RioGallegos          8730.500
       257   04 Jun 2027 05:22:47.775   04 Jun 2027 05:24:15.677            87.902                Novosib          2746.938
       258   04 Jun 2027 05:24:27.312   04 Jun 2027 05:26:59.536           152.224                Norilsk          4757.000
       259   04 Jun 2027 05:30:19.703   04 Jun 2027 05:31:26.941            67.238                  Delhi          2101.188
       260   04 Jun 2027 07:01:50.862   04 Jun 2027 07:05:33.388           222.526                 Moscow          6953.937
       261   04 Jun 2027 07:05:56.707   04 Jun 2027 07:06:58.788            62.081                 Moscow          1940.031
       262   04 Jun 2027 07:19:58.740   04 Jun 2027 07:22:18.476           139.736               CapeTown          4366.750
       263   04 Jun 2027 07:26:26.585   04 Jun 2027 07:29:20.095           173.510               CapeTown          5422.187
       264   04 Jun 2027 08:23:28.743   04 Jun 2027 08:24:01.299            32.556               Magadan2          1017.375
       265   04 Jun 2027 08:24:06.401   04 Jun 2027 08:25:20.366            73.965               Magadan2          2311.406
       266   04 Jun 2027 08:25:22.402   04 Jun 2027 08:26:25.910            63.508                Anadyr2          1984.625
       267   04 Jun 2027 08:28:50.380   04 Jun 2027 08:29:30.109            39.729                Anadyr2          1241.531
       268   04 Jun 2027 08:40:08.399   04 Jun 2027 08:40:26.468            18.069                 Moscow           564.656
       269   04 Jun 2027 09:54:51.379   04 Jun 2027 09:56:14.693            83.314                Anadyr1          2603.563
       270   04 Jun 2027 09:56:21.806   04 Jun 2027 09:59:09.116           167.310                Anadyr1          5228.438
       271   04 Jun 2027 09:59:20.144   04 Jun 2027 10:00:11.634            51.490                Anadyr1          1609.062
       272   04 Jun 2027 10:00:31.041   04 Jun 2027 10:00:45.948            14.907               Magadan2           465.844
       273   04 Jun 2027 10:00:51.765   04 Jun 2027 10:01:36.356            44.591               Magadan2          1393.469
       274   04 Jun 2027 10:01:52.836   04 Jun 2027 10:03:10.411            77.575               Magadan2          2424.219
       275   04 Jun 2027 10:03:10.411   04 Jun 2027 10:04:02.010            51.599               Magadan1          1612.469
       276   04 Jun 2027 10:04:50.309   04 Jun 2027 10:05:10.727            20.418                Anadyr1           638.062
       277   04 Jun 2027 11:30:32.084   04 Jun 2027 11:31:05.857            33.773               Magadan1          1055.406
       278   04 Jun 2027 11:31:05.857   04 Jun 2027 11:31:18.173            12.316               Magadan2           384.875
       279   04 Jun 2027 11:33:42.928   04 Jun 2027 11:37:39.932           237.004               Magadan2          7406.375
       280   04 Jun 2027 11:37:39.932   04 Jun 2027 11:40:07.984           148.052               Magadan1          4626.625
       281   04 Jun 2027 11:40:43.447   04 Jun 2027 11:41:07.527            24.080              Murmansk2           752.500
       282   04 Jun 2027 11:45:39.556   04 Jun 2027 11:45:49.360             9.804              Murmansk2           306.375
       283   04 Jun 2027 12:15:32.532   04 Jun 2027 12:16:54.272            81.740            RioGallegos          2554.375
       284   04 Jun 2027 12:51:17.796   04 Jun 2027 12:52:40.783            82.987                Sumatra          2593.344
       285   04 Jun 2027 12:57:23.420   04 Jun 2027 12:57:24.353             0.933                Sumatra            29.156
       286   04 Jun 2027 12:58:02.193   04 Jun 2027 12:58:12.948            10.755                Sumatra           336.094
       287   04 Jun 2027 12:59:44.523   04 Jun 2027 13:00:34.259            49.736                Sumatra          1554.250
       288   04 Jun 2027 13:05:12.233   04 Jun 2027 13:08:11.380           179.147                Irkutsk          5598.344
       289   04 Jun 2027 13:15:09.246   04 Jun 2027 13:15:31.495            22.249                Norilsk           695.281
       290   04 Jun 2027 13:52:48.838   04 Jun 2027 13:54:12.003            83.165            RioGallegos          2598.906
       291   04 Jun 2027 13:57:36.972   04 Jun 2027 13:58:17.342            40.370            RioGallegos          1261.563
       292   04 Jun 2027 14:00:14.928   04 Jun 2027 14:02:48.097           153.169            RioGallegos          4786.531
       293   04 Jun 2027 14:27:03.067   04 Jun 2027 14:32:48.328           345.261                Sumatra         10789.406
       294   04 Jun 2027 14:42:22.631   04 Jun 2027 14:48:41.090           378.459                Irkutsk         11826.844
       295   04 Jun 2027 16:14:54.409   04 Jun 2027 16:18:55.794           241.385                  Delhi          7543.281
       296   04 Jun 2027 16:20:31.429   04 Jun 2027 16:27:11.515           400.086                Novosib         12502.688
       297   04 Jun 2027 18:08:15.388   04 Jun 2027 18:08:28.000            12.612                Norilsk           394.125
       298   04 Jun 2027 19:34:42.278   04 Jun 2027 19:42:19.123           456.845                 Moscow         14276.406
       299   04 Jun 2027 20:47:22.049   04 Jun 2027 20:50:23.863           181.814               CapeTown          5681.687
       300   04 Jun 2027 21:17:41.755   04 Jun 2027 21:22:24.550           282.795              Murmansk2          8837.344
       301   04 Jun 2027 23:01:04.623   04 Jun 2027 23:01:13.868             9.245                Anadyr1           288.906
       302   04 Jun 2027 23:01:33.390   04 Jun 2027 23:02:11.775            38.385                Anadyr1          1199.531
       303   04 Jun 2027 23:03:10.283   04 Jun 2027 23:03:50.363            40.080                Anadyr1          1252.500
       304   04 Jun 2027 23:03:55.908   04 Jun 2027 23:04:05.147             9.239                Anadyr1           288.719
       305   04 Jun 2027 23:04:12.746   04 Jun 2027 23:04:24.957            12.211                Norilsk           381.594
       306   04 Jun 2027 23:04:31.063   04 Jun 2027 23:04:57.057            25.994               Magadan1           812.313
       307   04 Jun 2027 23:06:06.715   04 Jun 2027 23:06:28.534            21.819               Magadan2           681.844
       308   04 Jun 2027 23:06:31.669   04 Jun 2027 23:06:41.553             9.884               Magadan2           308.875
       309   04 Jun 2027 23:06:53.912   04 Jun 2027 23:06:57.616             3.704               Magadan1           115.750
       310   04 Jun 2027 23:07:00.919   04 Jun 2027 23:07:40.054            39.135               Magadan2          1222.969
       311   04 Jun 2027 23:12:46.285   04 Jun 2027 23:12:59.784            13.499               Magadan2           421.844
       312   04 Jun 2027 23:14:00.339   04 Jun 2027 23:14:14.524            14.185               Magadan2           443.281
       313   04 Jun 2027 23:15:22.688   04 Jun 2027 23:16:05.884            43.196               Magadan1          1349.875
       314   04 Jun 2027 23:55:41.266   04 Jun 2027 23:58:24.912           163.646            RioGallegos          5113.937
       315   05 Jun 2027 00:02:48.923   05 Jun 2027 00:03:43.812            54.889            RioGallegos          1715.281
       316   05 Jun 2027 00:36:37.760   05 Jun 2027 00:37:53.274            75.514                Anadyr2          2359.812
       317   05 Jun 2027 00:38:43.822   05 Jun 2027 00:40:24.576           100.754                Norilsk          3148.562
       318   05 Jun 2027 00:41:10.568   05 Jun 2027 00:42:03.945            53.377               Magadan1          1668.031
       319   05 Jun 2027 00:42:55.355   05 Jun 2027 00:43:02.114             6.759               Magadan1           211.219
       320   05 Jun 2027 00:43:06.391   05 Jun 2027 00:44:35.441            89.050                Irkutsk          2782.813
       321   05 Jun 2027 00:47:32.695   05 Jun 2027 00:47:52.885            20.190                Irkutsk           630.937
       322   05 Jun 2027 00:49:25.229   05 Jun 2027 00:50:24.078            58.849                Irkutsk          1839.031
       323   05 Jun 2027 00:51:40.557   05 Jun 2027 00:53:12.691            92.134                Irkutsk          2879.188
       324   05 Jun 2027 00:57:44.518   05 Jun 2027 00:58:49.906            65.388                Sumatra          2043.375
       325   05 Jun 2027 01:33:52.361   05 Jun 2027 01:34:32.924            40.563            RioGallegos          1267.594
       326   05 Jun 2027 01:38:00.739   05 Jun 2027 01:38:29.805            29.066            RioGallegos           908.312
       327   05 Jun 2027 01:41:49.225   05 Jun 2027 01:42:28.447            39.222            RioGallegos          1225.688
       328   05 Jun 2027 02:11:34.736   05 Jun 2027 02:11:45.606            10.870                Anadyr2           339.687
       329   05 Jun 2027 02:13:56.059   05 Jun 2027 02:14:33.766            37.707                Anadyr2          1178.344
       330   05 Jun 2027 02:14:39.607   05 Jun 2027 02:16:04.153            84.546                Norilsk          2642.063
       331   05 Jun 2027 02:18:32.193   05 Jun 2027 02:20:31.851           119.658                Irkutsk          3739.312
       332   05 Jun 2027 02:20:54.621   05 Jun 2027 02:21:49.577            54.956                Irkutsk          1717.375
       333   05 Jun 2027 02:27:54.294   05 Jun 2027 02:28:08.494            14.200                Irkutsk           443.750
       334   05 Jun 2027 02:31:51.691   05 Jun 2027 02:32:30.194            38.503                  Delhi          1203.219
       335   05 Jun 2027 02:33:17.808   05 Jun 2027 02:39:31.385           373.577                Sumatra         11674.281
       336   05 Jun 2027 03:56:49.812   05 Jun 2027 03:59:57.921           188.109                Novosib          5878.406
       337   05 Jun 2027 04:00:00.835   05 Jun 2027 04:00:27.109            26.274                Novosib           821.063
       338   05 Jun 2027 04:00:27.259   05 Jun 2027 04:01:01.689            34.430                Irkutsk          1075.938
       339   05 Jun 2027 04:01:05.429   05 Jun 2027 04:03:19.771           134.342                Novosib          4198.187
       340   05 Jun 2027 04:03:27.535   05 Jun 2027 04:03:37.976            10.441                Norilsk           326.281
       341   05 Jun 2027 04:03:52.793   05 Jun 2027 04:03:53.712             0.919                Irkutsk            28.719
       342   05 Jun 2027 04:04:40.394   05 Jun 2027 04:05:02.316            21.922                Irkutsk           685.063
       343   05 Jun 2027 04:07:48.462   05 Jun 2027 04:10:09.159           140.697                  Delhi          4396.781
       344   05 Jun 2027 04:45:17.023   05 Jun 2027 04:47:39.192           142.169            RioGallegos          4442.781
       345   05 Jun 2027 05:35:15.278   05 Jun 2027 05:35:41.677            26.399                Norilsk           824.969
       346   05 Jun 2027 05:35:46.453   05 Jun 2027 05:36:35.696            49.243              Murmansk1          1538.844
       347   05 Jun 2027 05:36:39.465   05 Jun 2027 05:38:45.249           125.784                Novosib          3930.750
       348   05 Jun 2027 05:38:59.641   05 Jun 2027 05:39:19.773            20.132              Murmansk1           629.125
       349   05 Jun 2027 05:40:10.470   05 Jun 2027 05:40:31.951            21.481              Murmansk1           671.281
       350   05 Jun 2027 05:41:17.606   05 Jun 2027 05:41:39.910            22.304                 Moscow           697.000
       351   05 Jun 2027 05:41:47.428   05 Jun 2027 05:42:20.515            33.087                 Moscow          1033.969
       352   05 Jun 2027 05:43:07.118   05 Jun 2027 05:43:37.973            30.855                 Moscow           964.219
       353   05 Jun 2027 05:44:09.883   05 Jun 2027 05:44:16.540             6.657                 Moscow           208.031
       354   05 Jun 2027 05:57:02.345   05 Jun 2027 05:58:01.143            58.798               CapeTown          1837.437
       355   05 Jun 2027 05:58:33.461   05 Jun 2027 06:00:07.000            93.539               CapeTown          2923.094
       356   05 Jun 2027 07:13:23.245   05 Jun 2027 07:14:34.482            71.237              Murmansk1          2226.156
       357   05 Jun 2027 07:15:49.917   05 Jun 2027 07:16:20.343            30.426              Murmansk2           950.812
       358   05 Jun 2027 07:16:40.823   05 Jun 2027 07:17:36.517            55.694                 Moscow          1740.437
       359   05 Jun 2027 07:17:45.029   05 Jun 2027 07:17:53.897             8.868                 Moscow           277.125
       360   05 Jun 2027 07:20:26.866   05 Jun 2027 07:20:41.395            14.529                 Moscow           454.031
       361   05 Jun 2027 07:32:13.201   05 Jun 2027 07:37:12.629           299.428               CapeTown          9357.125
       362   05 Jun 2027 08:35:04.103   05 Jun 2027 08:35:31.487            27.384               Magadan1           855.750
       363   05 Jun 2027 08:35:31.487   05 Jun 2027 08:35:43.068            11.581               Magadan2           361.906
       364   05 Jun 2027 08:35:49.735   05 Jun 2027 08:37:48.626           118.891                Anadyr2          3715.344
       365   05 Jun 2027 08:37:48.626   05 Jun 2027 08:38:37.298            48.672                Anadyr1          1521.000
       366   05 Jun 2027 10:07:23.039   05 Jun 2027 10:07:35.797            12.758                Anadyr1           398.688
       367   05 Jun 2027 10:07:38.569   05 Jun 2027 10:08:41.125            62.556                Anadyr2          1954.875
       368   05 Jun 2027 10:11:13.318   05 Jun 2027 10:11:50.622            37.304                Anadyr1          1165.750
       369   05 Jun 2027 10:11:50.622   05 Jun 2027 10:17:07.485           316.863                Anadyr2          9901.969
       370   05 Jun 2027 11:42:41.167   05 Jun 2027 11:48:25.335           344.168               Magadan2         10755.250
       371   05 Jun 2027 11:49:03.501   05 Jun 2027 11:52:27.978           204.477               Magadan1          6389.906
       372   05 Jun 2027 11:53:25.490   05 Jun 2027 11:53:25.666             0.176                Novosib             5.500
       373   05 Jun 2027 11:53:46.059   05 Jun 2027 11:54:00.784            14.725              Murmansk1           460.156
       374   05 Jun 2027 11:55:37.393   05 Jun 2027 11:56:03.937            26.544              Murmansk2           829.500
       375   05 Jun 2027 12:27:31.614   05 Jun 2027 12:27:32.646             1.032            RioGallegos            32.250
       376   05 Jun 2027 12:28:52.058   05 Jun 2027 12:29:17.442            25.384            RioGallegos           793.250
       377   05 Jun 2027 12:31:13.837   05 Jun 2027 12:31:16.759             2.922            RioGallegos            91.312
       378   05 Jun 2027 12:32:24.076   05 Jun 2027 12:34:42.233           138.157            RioGallegos          4317.406
       379   05 Jun 2027 13:05:00.964   05 Jun 2027 13:06:22.634            81.670                Sumatra          2552.187
       380   05 Jun 2027 13:16:03.598   05 Jun 2027 13:16:34.996            31.398                Irkutsk           981.187
       381   05 Jun 2027 13:17:07.178   05 Jun 2027 13:19:14.742           127.564                Irkutsk          3986.375
       382   05 Jun 2027 13:23:28.032   05 Jun 2027 13:24:58.286            90.254                Irkutsk          2820.438
       383   05 Jun 2027 14:05:21.193   05 Jun 2027 14:07:52.483           151.290            RioGallegos          4727.812
       384   05 Jun 2027 14:11:07.577   05 Jun 2027 14:11:12.345             4.768            RioGallegos           149.000
       385   05 Jun 2027 14:14:27.654   05 Jun 2027 14:15:25.841            58.187            RioGallegos          1818.344
       386   05 Jun 2027 14:39:35.336   05 Jun 2027 14:46:39.578           424.242                Sumatra         13257.563
       387   05 Jun 2027 14:55:09.558   05 Jun 2027 15:02:33.280           443.722                Irkutsk         13866.312
       388   05 Jun 2027 16:25:18.165   05 Jun 2027 16:33:19.289           481.124                  Delhi         15035.125
       389   05 Jun 2027 16:33:41.620   05 Jun 2027 16:40:43.170           421.550                Novosib         13173.437
       390   05 Jun 2027 19:47:45.451   05 Jun 2027 19:53:48.698           363.247                 Moscow         11351.469
       391   05 Jun 2027 19:53:54.187   05 Jun 2027 19:55:20.817            86.630              Murmansk2          2707.187
       392   05 Jun 2027 20:59:08.125   05 Jun 2027 21:03:32.667           264.542               CapeTown          8266.938
       393   05 Jun 2027 21:30:52.342   05 Jun 2027 21:33:58.711           186.369              Murmansk1          5824.031
       394   06 Jun 2027 00:07:26.774   06 Jun 2027 00:09:19.058           112.284            RioGallegos          3508.875
       395   06 Jun 2027 00:11:55.870   06 Jun 2027 00:12:27.669            31.799            RioGallegos           993.719
       396   06 Jun 2027 00:13:40.412   06 Jun 2027 00:13:59.234            18.822            RioGallegos           588.188
       397   06 Jun 2027 00:17:30.515   06 Jun 2027 00:17:52.475            21.960            RioGallegos           686.250
       398   06 Jun 2027 00:48:35.438   06 Jun 2027 00:49:43.965            68.527                Anadyr1          2141.469
       399   06 Jun 2027 00:50:44.431   06 Jun 2027 00:52:25.996           101.565                Norilsk          3173.906
       400   06 Jun 2027 00:53:18.572   06 Jun 2027 00:53:24.755             6.183               Magadan1           193.219
       401   06 Jun 2027 00:53:26.732   06 Jun 2027 00:54:02.747            36.015               Magadan2          1125.469
       402   06 Jun 2027 00:54:58.040   06 Jun 2027 00:55:18.243            20.203               Magadan1           631.344
       403   06 Jun 2027 00:55:29.608   06 Jun 2027 00:56:36.937            67.329                Irkutsk          2104.031
       404   06 Jun 2027 00:57:12.533   06 Jun 2027 00:58:02.148            49.615                Novosib          1550.469
       405   06 Jun 2027 00:59:16.811   06 Jun 2027 00:59:20.699             3.888                Novosib           121.500
       406   06 Jun 2027 00:59:54.958   06 Jun 2027 01:00:22.077            27.119                Irkutsk           847.469
       407   06 Jun 2027 01:08:48.137   06 Jun 2027 01:11:18.009           149.872                Sumatra          4683.500
       408   06 Jun 2027 01:45:04.277   06 Jun 2027 01:45:56.474            52.197            RioGallegos          1631.156
       409   06 Jun 2027 01:50:35.301   06 Jun 2027 01:51:22.670            47.369            RioGallegos          1480.281
       410   06 Jun 2027 02:24:36.860   06 Jun 2027 02:25:17.613            40.753                Anadyr2          1273.531
       411   06 Jun 2027 02:26:02.876   06 Jun 2027 02:26:25.069            22.193                Anadyr2           693.531
       412   06 Jun 2027 02:26:42.081   06 Jun 2027 02:27:22.560            40.479                Norilsk          1264.969
       413   06 Jun 2027 02:27:35.253   06 Jun 2027 02:27:45.012             9.759               Magadan1           304.969
       414   06 Jun 2027 02:28:12.383   06 Jun 2027 02:29:14.712            62.329                Norilsk          1947.781
       415   06 Jun 2027 02:30:34.918   06 Jun 2027 02:33:28.692           173.774                Irkutsk          5430.437
       416   06 Jun 2027 02:45:56.290   06 Jun 2027 02:54:58.729           542.439                Sumatra         16951.219
       417   06 Jun 2027 04:07:50.432   06 Jun 2027 04:09:05.217            74.785                Irkutsk          2337.031
       418   06 Jun 2027 04:09:56.390   06 Jun 2027 04:10:30.290            33.900                Novosib          1059.375
       419   06 Jun 2027 04:10:54.212   06 Jun 2027 04:15:51.248           297.036                Irkutsk          9282.375
       420   06 Jun 2027 04:15:56.480   06 Jun 2027 04:16:31.899            35.419                Irkutsk          1106.844
       421   06 Jun 2027 05:48:05.846   06 Jun 2027 05:49:49.331           103.485                Novosib          3233.906
       422   06 Jun 2027 05:49:59.227   06 Jun 2027 05:51:46.769           107.542              Murmansk2          3360.687
       423   06 Jun 2027 05:51:51.339   06 Jun 2027 05:52:31.393            40.054                Novosib          1251.687
       424   06 Jun 2027 05:52:44.280   06 Jun 2027 05:53:44.529            60.249                 Moscow          1882.781
       425   06 Jun 2027 05:54:46.138   06 Jun 2027 05:55:01.904            15.766                 Moscow           492.688
       426   06 Jun 2027 05:55:09.813   06 Jun 2027 05:56:33.175            83.362                 Moscow          2605.062
       427   06 Jun 2027 06:17:06.203   06 Jun 2027 06:18:00.336            54.133               CapeTown          1691.656
       428   06 Jun 2027 07:24:04.381   06 Jun 2027 07:24:53.988            49.607                 Moscow          1550.219
       429   06 Jun 2027 07:24:57.799   06 Jun 2027 07:25:15.689            17.890              Murmansk2           559.062
       430   06 Jun 2027 07:25:15.689   06 Jun 2027 07:25:40.024            24.335              Murmansk1           760.469
       431   06 Jun 2027 07:25:44.072   06 Jun 2027 07:25:48.307             4.235                 Moscow           132.344
       432   06 Jun 2027 07:26:03.400   06 Jun 2027 07:26:30.094            26.694              Murmansk1           834.188
       433   06 Jun 2027 07:27:16.692   06 Jun 2027 07:27:39.130            22.438              Murmansk1           701.188
       434   06 Jun 2027 07:28:03.375   06 Jun 2027 07:29:22.246            78.871                 Moscow          2464.719
       435   06 Jun 2027 07:44:33.979   06 Jun 2027 07:46:05.786            91.807               CapeTown          2868.969
       436   06 Jun 2027 07:46:42.835   06 Jun 2027 07:49:46.873           184.038               CapeTown          5751.187
       437   06 Jun 2027 08:47:00.827   06 Jun 2027 08:47:34.036            33.209               Magadan1          1037.781
       438   06 Jun 2027 08:47:50.139   06 Jun 2027 08:49:12.220            82.081                Anadyr1          2565.031
       439   06 Jun 2027 08:49:20.939   06 Jun 2027 08:50:26.385            65.446               Magadan1          2045.188
       440   06 Jun 2027 08:51:35.701   06 Jun 2027 08:52:27.582            51.881                Anadyr1          1621.281
       441   06 Jun 2027 09:03:40.805   06 Jun 2027 09:04:46.672            65.867                 Moscow          2058.344
       442   06 Jun 2027 10:19:58.654   06 Jun 2027 10:27:08.842           430.188                Anadyr2         13443.375
       443   06 Jun 2027 10:27:17.711   06 Jun 2027 10:29:02.312           104.601                Anadyr1          3268.781
       444   06 Jun 2027 11:55:19.867   06 Jun 2027 12:01:26.542           366.675               Magadan1         11458.594
       445   06 Jun 2027 12:01:30.724   06 Jun 2027 12:04:17.670           166.946               Magadan2          5217.063
       446   06 Jun 2027 14:20:47.102   06 Jun 2027 14:24:25.639           218.537            RioGallegos          6829.281
       447   06 Jun 2027 14:52:21.663   06 Jun 2027 15:00:31.053           489.390                Sumatra         15293.437
       448   06 Jun 2027 15:08:08.568   06 Jun 2027 15:14:53.668           405.100                Irkutsk         12659.375
       449   06 Jun 2027 16:38:04.690   06 Jun 2027 16:44:21.958           377.268                  Delhi         11789.625
       450   06 Jun 2027 16:46:30.961   06 Jun 2027 16:52:09.553           338.592                Novosib         10581.000
       451   06 Jun 2027 20:01:15.349   06 Jun 2027 20:04:54.694           219.345                 Moscow          6854.531
       452   06 Jun 2027 20:05:31.065   06 Jun 2027 20:07:58.803           147.738              Murmansk1          4616.812
       453   06 Jun 2027 21:10:08.420   06 Jun 2027 21:17:44.026           455.606               CapeTown         14237.687
       454   07 Jun 2027 01:03:19.357   07 Jun 2027 01:03:33.847            14.490               Magadan1           452.813
       455   07 Jun 2027 01:03:51.980   07 Jun 2027 01:04:15.763            23.783               Magadan1           743.219
       456   07 Jun 2027 01:05:31.873   07 Jun 2027 01:06:38.720            66.847               Magadan1          2088.969
       457   07 Jun 2027 01:06:53.778   07 Jun 2027 01:08:03.381            69.603                Irkutsk          2175.094
       458   07 Jun 2027 01:08:27.818   07 Jun 2027 01:09:44.228            76.410                Novosib          2387.812
       459   07 Jun 2027 01:21:27.859   07 Jun 2027 01:23:31.866           124.007                Sumatra          3875.219
       460   07 Jun 2027 01:58:12.825   07 Jun 2027 01:58:26.709            13.884            RioGallegos           433.875
       461   07 Jun 2027 02:03:08.352   07 Jun 2027 02:03:20.800            12.448            RioGallegos           389.000
       462   07 Jun 2027 02:03:28.715   07 Jun 2027 02:04:14.093            45.378            RioGallegos          1418.063
       463   07 Jun 2027 02:35:56.170   07 Jun 2027 02:37:31.045            94.875                Anadyr2          2964.844
       464   07 Jun 2027 02:38:44.581   07 Jun 2027 02:39:15.383            30.802                Norilsk           962.562
       465   07 Jun 2027 02:42:38.439   07 Jun 2027 02:45:07.446           149.007                Irkutsk          4656.469
       466   07 Jun 2027 02:47:25.271   07 Jun 2027 02:47:46.482            21.211                Novosib           662.844
       467   07 Jun 2027 02:49:05.796   07 Jun 2027 02:50:01.459            55.663                Irkutsk          1739.469
       468   07 Jun 2027 02:56:58.718   07 Jun 2027 02:57:34.698            35.980                  Delhi          1124.375
       469   07 Jun 2027 02:58:53.216   07 Jun 2027 03:05:56.964           423.748                Sumatra         13242.125
       470   07 Jun 2027 04:19:53.999   07 Jun 2027 04:20:48.426            54.427                Irkutsk          1700.844
       471   07 Jun 2027 04:21:50.437   07 Jun 2027 04:22:27.314            36.877                Norilsk          1152.406
       472   07 Jun 2027 04:22:40.619   07 Jun 2027 04:24:21.883           101.264              Murmansk1          3164.500
       473   07 Jun 2027 04:24:35.920   07 Jun 2027 04:24:55.687            19.767                Novosib           617.719
       474   07 Jun 2027 04:25:17.476   07 Jun 2027 04:27:15.432           117.956                Norilsk          3686.125
       475   07 Jun 2027 04:27:25.149   07 Jun 2027 04:27:38.028            12.879                Norilsk           402.469
       476   07 Jun 2027 04:27:47.417   07 Jun 2027 04:27:57.485            10.068                Irkutsk           314.625
       477   07 Jun 2027 04:28:14.564   07 Jun 2027 04:31:14.262           179.698                  Delhi          5615.562
       478   07 Jun 2027 04:33:58.068   07 Jun 2027 04:36:08.126           130.058                  Delhi          4064.313
       479   07 Jun 2027 06:00:14.126   07 Jun 2027 06:01:08.521            54.395              Murmansk2          1699.844
       480   07 Jun 2027 06:01:12.529   07 Jun 2027 06:01:57.765            45.236                 Moscow          1413.625
       481   07 Jun 2027 06:02:00.535   07 Jun 2027 06:02:23.572            23.037              Murmansk2           719.906
       482   07 Jun 2027 06:02:26.949   07 Jun 2027 06:03:07.243            40.294              Murmansk1          1259.188
