uniorb/output/strategy_1/Drop/Drop_KinoSat_110307.txt

KinoSat_110307
-------------------------
    Access    *     Start Time (UTCG)     *     Stop Time (UTCG)  *   Duration (s)        *       Station  *  Data (Mbytes)
         1   01 Jun 2027 03:39:21.527   01 Jun 2027 03:41:13.471           111.944               Magadan1         13993.000
         2   01 Jun 2027 03:41:28.664   01 Jun 2027 03:42:08.333            39.669               Magadan1          4958.625
         3   01 Jun 2027 03:42:16.178   01 Jun 2027 03:43:17.507            61.329               Magadan2          7666.125
         4   01 Jun 2027 03:44:04.111   01 Jun 2027 03:44:08.954             4.843               Magadan2           605.375
         5   01 Jun 2027 03:46:41.047   01 Jun 2027 03:47:08.155            27.108                Norilsk          3388.500
         6   01 Jun 2027 04:19:14.903   01 Jun 2027 04:20:29.094            74.191            RioGallegos          9273.875
         7   01 Jun 2027 04:54:41.554   01 Jun 2027 04:54:47.662             6.108                Sumatra           763.500
         8   01 Jun 2027 04:56:38.620   01 Jun 2027 04:58:54.938           136.318                Sumatra         17039.750
         9   01 Jun 2027 05:16:18.481   01 Jun 2027 05:16:35.288            16.807                Irkutsk          2100.875
        10   01 Jun 2027 05:17:11.727   01 Jun 2027 05:18:39.007            87.280              Murmansk2         10910.000
        11   01 Jun 2027 05:18:52.484   01 Jun 2027 05:20:35.854           103.370                Norilsk         12921.250
        12   01 Jun 2027 05:23:51.861   01 Jun 2027 05:24:22.942            31.081                Norilsk          3885.125
        13   01 Jun 2027 05:57:43.054   01 Jun 2027 05:58:52.804            69.750            RioGallegos          8718.750
        14   01 Jun 2027 06:31:14.608   01 Jun 2027 06:32:02.211            47.603                Sumatra          5950.375
        15   01 Jun 2027 06:38:28.063   01 Jun 2027 06:39:47.453            79.390                  Delhi          9923.750
        16   01 Jun 2027 06:54:05.934   01 Jun 2027 06:55:21.199            75.265                 Moscow          9408.125
        17   01 Jun 2027 06:56:21.743   01 Jun 2027 06:58:09.929           108.186              Murmansk2         13523.250
        18   01 Jun 2027 06:58:14.321   01 Jun 2027 06:58:24.838            10.517                 Moscow          1314.625
        19   01 Jun 2027 06:58:45.409   01 Jun 2027 06:59:02.130            16.721                 Moscow          2090.125
        20   01 Jun 2027 08:16:32.996   01 Jun 2027 08:16:58.552            25.556                  Delhi          3194.500
        21   01 Jun 2027 08:29:32.957   01 Jun 2027 08:30:04.991            32.034              Murmansk1          4004.250
        22   01 Jun 2027 08:30:23.261   01 Jun 2027 08:31:05.391            42.130                Novosib          5266.250
        23   01 Jun 2027 08:31:16.875   01 Jun 2027 08:31:37.554            20.679              Murmansk1          2584.875
        24   01 Jun 2027 08:31:37.554   01 Jun 2027 08:31:59.870            22.316              Murmansk2          2789.500
        25   01 Jun 2027 08:32:09.899   01 Jun 2027 08:32:44.283            34.384                Norilsk          4298.000
        26   01 Jun 2027 08:32:49.714   01 Jun 2027 08:32:58.838             9.124                Norilsk          1140.500
        27   01 Jun 2027 08:33:40.190   01 Jun 2027 08:33:59.727            19.537                Norilsk          2442.125
        28   01 Jun 2027 09:40:03.232   01 Jun 2027 09:41:54.279           111.047               CapeTown         13880.875
        29   01 Jun 2027 10:17:53.055   01 Jun 2027 10:18:30.356            37.301                Anadyr1          4662.625
        30   01 Jun 2027 10:20:31.862   01 Jun 2027 10:24:34.064           242.202                Anadyr1         30275.250
        31   01 Jun 2027 11:57:34.193   01 Jun 2027 11:58:39.058            64.865                Anadyr1          8108.125
        32   01 Jun 2027 13:31:18.638   01 Jun 2027 13:33:15.957           117.319               Magadan1         14664.875
        33   01 Jun 2027 13:34:17.486   01 Jun 2027 13:35:49.491            92.005               Magadan2         11500.625
        34   01 Jun 2027 13:38:56.218   01 Jun 2027 13:40:36.288           100.070               Magadan2         12508.750
        35   01 Jun 2027 15:59:13.707   01 Jun 2027 16:03:22.902           249.195            RioGallegos         31149.375
        36   01 Jun 2027 16:46:44.587   01 Jun 2027 16:49:39.481           174.894                Irkutsk         21861.750
        37   01 Jun 2027 16:51:24.320   01 Jun 2027 16:51:57.888            33.568                Novosib          4196.000
        38   01 Jun 2027 17:00:33.040   01 Jun 2027 17:02:26.687           113.647                Sumatra         14205.875
        39   01 Jun 2027 17:03:00.103   01 Jun 2027 17:06:36.869           216.766                Sumatra         27095.750
        40   01 Jun 2027 18:31:36.901   01 Jun 2027 18:33:57.265           140.364                  Delhi         10219.125
        41   02 Jun 2027 03:54:38.837   02 Jun 2027 03:54:48.696             9.859               Magadan1          1232.375
        42   02 Jun 2027 03:55:18.445   02 Jun 2027 03:55:58.047            39.602               Magadan2          4950.250
        43   02 Jun 2027 04:00:39.424   02 Jun 2027 04:00:54.429            15.005              Murmansk2          1875.625
        44   02 Jun 2027 04:32:31.763   02 Jun 2027 04:33:57.618            85.855            RioGallegos         10731.875
        45   02 Jun 2027 04:34:47.112   02 Jun 2027 04:34:53.626             6.514            RioGallegos           814.250
        46   02 Jun 2027 04:36:20.643   02 Jun 2027 04:36:35.577            14.934            RioGallegos          1866.750
        47   02 Jun 2027 05:06:26.178   02 Jun 2027 05:07:16.902            50.724                Sumatra          6340.500
        48   02 Jun 2027 05:08:12.591   02 Jun 2027 05:09:07.795            55.204                Sumatra          6900.500
        49   02 Jun 2027 05:17:19.314   02 Jun 2027 05:17:23.424             4.110                Sumatra           513.750
        50   02 Jun 2027 05:19:49.674   02 Jun 2027 05:21:47.372           117.698                  Delhi         14712.250
        51   02 Jun 2027 05:29:06.276   02 Jun 2027 05:29:17.507            11.231                Norilsk          1403.875
        52   02 Jun 2027 05:29:18.626   02 Jun 2027 05:29:30.858            12.232                Novosib          1529.000
        53   02 Jun 2027 05:29:35.129   02 Jun 2027 05:29:54.379            19.250              Murmansk2          2406.250
        54   02 Jun 2027 05:29:54.504   02 Jun 2027 05:31:14.094            79.590                Irkutsk          9948.750
        55   02 Jun 2027 05:31:39.566   02 Jun 2027 05:32:24.842            45.276                Norilsk          5659.500
        56   02 Jun 2027 05:34:03.911   02 Jun 2027 05:34:07.174             3.263                Novosib           407.875
        57   02 Jun 2027 05:34:47.128   02 Jun 2027 05:34:49.885             2.757              Murmansk1           344.625
        58   02 Jun 2027 05:36:19.776   02 Jun 2027 05:36:53.383            33.607              Murmansk2          4200.875
        59   02 Jun 2027 06:11:38.383   02 Jun 2027 06:12:18.111            39.728            RioGallegos          4966.000
        60   02 Jun 2027 06:43:58.237   02 Jun 2027 06:44:25.797            27.560                Sumatra          3445.000
        61   02 Jun 2027 06:50:23.527   02 Jun 2027 06:52:32.869           129.342                  Delhi         16167.750
        62   02 Jun 2027 07:06:42.342   02 Jun 2027 07:06:54.177            11.835                 Moscow          1479.375
        63   02 Jun 2027 07:07:03.473   02 Jun 2027 07:08:12.059            68.586              Murmansk1          8573.250
        64   02 Jun 2027 08:29:40.795   02 Jun 2027 08:31:59.677           138.882                  Delhi         17360.250
        65   02 Jun 2027 08:39:59.541   02 Jun 2027 08:40:27.934            28.393                 Moscow          3549.125
        66   02 Jun 2027 08:40:33.548   02 Jun 2027 08:41:00.179            26.631                 Moscow          3328.875
        67   02 Jun 2027 08:41:25.707   02 Jun 2027 08:42:58.219            92.512              Murmansk2         11564.000
        68   02 Jun 2027 08:43:06.255   02 Jun 2027 08:43:17.462            11.207                Novosib          1400.875
        69   02 Jun 2027 08:43:25.351   02 Jun 2027 08:44:28.026            62.675                 Moscow          7834.375
        70   02 Jun 2027 08:44:41.856   02 Jun 2027 08:45:02.163            20.307              Murmansk2          2538.375
        71   02 Jun 2027 08:45:24.478   02 Jun 2027 08:46:21.967            57.489                 Moscow          7186.125
        72   02 Jun 2027 09:50:47.098   02 Jun 2027 09:53:36.786           169.688               CapeTown         21211.000
        73   02 Jun 2027 09:57:54.413   02 Jun 2027 09:57:59.733             5.320               CapeTown           665.000
        74   02 Jun 2027 10:29:39.459   02 Jun 2027 10:29:53.299            13.840                Anadyr1          1730.000
        75   02 Jun 2027 10:32:19.204   02 Jun 2027 10:37:22.898           303.694                Anadyr2         37961.750
        76   02 Jun 2027 12:09:28.764   02 Jun 2027 12:11:44.731           135.967               Magadan1         16995.875
        77   02 Jun 2027 13:43:14.803   02 Jun 2027 13:45:06.261           111.458               Magadan1         13932.250
        78   02 Jun 2027 16:11:01.942   02 Jun 2027 16:16:46.873           344.931            RioGallegos         43116.375
        79   02 Jun 2027 17:00:52.871   02 Jun 2027 17:03:45.928           173.057                Novosib         21632.125
        80   02 Jun 2027 17:12:20.873   02 Jun 2027 17:15:13.839           172.966                Sumatra         21620.750
        81   02 Jun 2027 18:35:39.599   02 Jun 2027 18:35:53.445            13.846                Novosib          1730.750
        82   02 Jun 2027 18:39:02.424   02 Jun 2027 18:39:39.806            37.382                Novosib          4672.750
        83   02 Jun 2027 18:42:06.970   02 Jun 2027 18:44:06.546           119.576                  Delhi         14947.000
        84   02 Jun 2027 18:46:22.281   02 Jun 2027 18:47:14.518            52.237                  Delhi          6529.625
        85   02 Jun 2027 18:53:47.389   02 Jun 2027 18:53:58.864            11.475                  Delhi          1434.375
        86   02 Jun 2027 20:13:26.090   02 Jun 2027 20:17:09.338           223.248                 Moscow         27906.000
        87   02 Jun 2027 22:12:06.964   02 Jun 2027 22:12:18.921            11.957               CapeTown          1494.625
        88   02 Jun 2027 22:14:33.733   02 Jun 2027 22:14:43.627             9.894               CapeTown          1236.750
        89   02 Jun 2027 22:16:27.710   02 Jun 2027 22:18:11.389           103.679               CapeTown         12959.875
        90   03 Jun 2027 04:08:12.828   03 Jun 2027 04:08:37.930            25.102                Irkutsk          3137.750
        91   03 Jun 2027 04:43:28.849   03 Jun 2027 04:44:16.788            47.939            RioGallegos          5992.375
        92   03 Jun 2027 04:44:53.403   03 Jun 2027 04:45:16.760            23.357            RioGallegos          2919.625
        93   03 Jun 2027 04:46:33.669   03 Jun 2027 04:47:07.355            33.686            RioGallegos          4210.750
        94   03 Jun 2027 04:50:14.157   03 Jun 2027 04:51:02.916            48.759            RioGallegos          6094.875
        95   03 Jun 2027 05:18:17.040   03 Jun 2027 05:21:18.353           181.313                Sumatra         22664.125
        96   03 Jun 2027 05:29:56.060   03 Jun 2027 05:31:52.624           116.564                  Delhi         14570.500
        97   03 Jun 2027 05:41:38.884   03 Jun 2027 05:43:56.800           137.916                Novosib         17239.500
        98   03 Jun 2027 07:19:05.612   03 Jun 2027 07:20:04.801            59.189              Murmansk2          7398.625
        99   03 Jun 2027 08:43:50.881   03 Jun 2027 08:44:44.543            53.662                  Delhi          6707.750
       100   03 Jun 2027 08:51:52.064   03 Jun 2027 08:53:24.166            92.102                Novosib         11512.750
       101   03 Jun 2027 08:53:38.370   03 Jun 2027 08:54:04.273            25.903              Murmansk1          3237.875
       102   03 Jun 2027 08:54:06.041   03 Jun 2027 08:54:44.247            38.206                Novosib          4775.750
       103   03 Jun 2027 08:54:56.737   03 Jun 2027 08:55:52.142            55.405                 Moscow          6925.625
       104   03 Jun 2027 08:56:40.851   03 Jun 2027 08:58:53.439           132.588              Murmansk2         16573.500
       105   03 Jun 2027 09:02:33.360   03 Jun 2027 09:02:46.690            13.330              Murmansk2          1666.250
       106   03 Jun 2027 10:02:02.437   03 Jun 2027 10:07:44.284           341.847               CapeTown         42730.875
       107   03 Jun 2027 10:09:54.794   03 Jun 2027 10:10:59.208            64.414               CapeTown          8051.750
       108   03 Jun 2027 10:41:29.819   03 Jun 2027 10:43:13.250           103.431                Anadyr1         12928.875
       109   03 Jun 2027 10:43:13.250   03 Jun 2027 10:45:52.046           158.796                Anadyr2         19849.500
       110   03 Jun 2027 12:21:10.128   03 Jun 2027 12:24:25.372           195.244               Magadan1         24405.500
       111   03 Jun 2027 13:58:22.856   03 Jun 2027 13:59:48.931            86.075               Magadan1         10759.375
       112   03 Jun 2027 15:37:03.571   03 Jun 2027 15:42:09.602           306.031                Irkutsk         38253.875
       113   03 Jun 2027 16:25:46.754   03 Jun 2027 16:26:03.440            16.686            RioGallegos          2085.750
       114   03 Jun 2027 17:10:34.073   03 Jun 2027 17:12:17.901           103.828                Irkutsk         12978.500
       115   03 Jun 2027 17:13:04.300   03 Jun 2027 17:15:36.908           152.608                Novosib         19076.000
       116   03 Jun 2027 17:16:38.732   03 Jun 2027 17:19:31.812           173.080                Novosib         21635.000
       117   03 Jun 2027 18:53:54.885   03 Jun 2027 18:56:08.806           133.921                  Delhi         16740.125
       118   03 Jun 2027 18:56:28.099   03 Jun 2027 18:58:24.099           116.000                  Delhi         14500.000
       119   03 Jun 2027 20:25:04.045   03 Jun 2027 20:26:47.658           103.613                 Moscow         12951.625
       120   03 Jun 2027 22:04:17.194   03 Jun 2027 22:05:00.914            43.720                 Moscow          5465.000
       121   03 Jun 2027 22:23:54.900   03 Jun 2027 22:25:16.874            81.974               CapeTown         10246.750
       122   03 Jun 2027 22:26:20.464   03 Jun 2027 22:26:51.774            31.310               CapeTown          3913.750
       123   04 Jun 2027 03:59:29.080   04 Jun 2027 04:01:13.369           104.289                Sumatra         13036.125
       124   04 Jun 2027 04:19:45.542   04 Jun 2027 04:20:17.929            32.387                Irkutsk          4048.375
       125   04 Jun 2027 04:20:21.215   04 Jun 2027 04:20:49.560            28.345                Norilsk          3543.125
       126   04 Jun 2027 04:55:30.748   04 Jun 2027 04:56:04.997            34.249            RioGallegos          4281.125
       127   04 Jun 2027 04:58:28.528   04 Jun 2027 04:58:53.891            25.363            RioGallegos          3170.375
       128   04 Jun 2027 05:30:13.646   04 Jun 2027 05:33:02.341           168.695                Sumatra         21086.875
       129   04 Jun 2027 05:40:33.784   04 Jun 2027 05:43:35.855           182.071                  Delhi         22758.875
       130   04 Jun 2027 05:53:40.962   04 Jun 2027 05:54:03.783            22.821                Norilsk          2852.625
       131   04 Jun 2027 05:54:15.826   04 Jun 2027 05:56:21.586           125.760                Irkutsk         15720.000
       132   04 Jun 2027 06:35:50.886   04 Jun 2027 06:36:36.120            45.234            RioGallegos          5654.250
       133   04 Jun 2027 07:14:30.453   04 Jun 2027 07:15:54.943            84.490                  Delhi         10561.250
       134   04 Jun 2027 07:30:42.429   04 Jun 2027 07:31:07.651            25.222              Murmansk2          3152.750
       135   04 Jun 2027 07:31:40.317   04 Jun 2027 07:32:27.426            47.109                Norilsk          5888.625
       136   04 Jun 2027 07:32:28.446   04 Jun 2027 07:33:14.593            46.147              Murmansk1          5768.375
       137   04 Jun 2027 07:33:14.593   04 Jun 2027 07:33:31.967            17.374              Murmansk2          2171.750
       138   04 Jun 2027 07:33:57.543   04 Jun 2027 07:34:09.517            11.974                 Moscow          1496.750
       139   04 Jun 2027 09:02:15.847   04 Jun 2027 09:02:37.423            21.576              Murmansk1          2697.000
       140   04 Jun 2027 09:02:45.117   04 Jun 2027 09:03:24.400            39.283                 Moscow          4910.375
       141   04 Jun 2027 09:03:45.275   04 Jun 2027 09:04:48.730            63.455              Murmansk1          7931.875
       142   04 Jun 2027 09:04:48.730   04 Jun 2027 09:04:58.695             9.965              Murmansk2          1245.625
       143   04 Jun 2027 09:05:10.843   04 Jun 2027 09:06:04.408            53.565              Murmansk1          6695.625
       144   04 Jun 2027 09:06:10.795   04 Jun 2027 09:06:31.054            20.259                Norilsk          2532.375
       145   04 Jun 2027 09:06:49.983   04 Jun 2027 09:08:24.609            94.626                 Moscow         11828.250
       146   04 Jun 2027 09:08:32.029   04 Jun 2027 09:08:51.223            19.194              Murmansk1          2399.250
       147   04 Jun 2027 10:13:31.669   04 Jun 2027 10:17:15.624           223.955               CapeTown         27994.375
       148   04 Jun 2027 10:20:02.148   04 Jun 2027 10:20:44.500            42.352               CapeTown          5294.000
       149   04 Jun 2027 10:53:22.821   04 Jun 2027 10:55:27.196           124.375                Anadyr2         15546.875
       150   04 Jun 2027 10:55:30.605   04 Jun 2027 10:58:50.894           200.289                Anadyr2         25036.125
       151   04 Jun 2027 12:32:23.806   04 Jun 2027 12:33:31.746            67.940               Magadan1          8492.500
       152   04 Jun 2027 12:36:46.536   04 Jun 2027 12:39:53.059           186.523               Magadan2         23315.375
       153   04 Jun 2027 15:48:20.172   04 Jun 2027 15:52:43.906           263.734                Irkutsk         32966.750
       154   04 Jun 2027 16:04:20.869   04 Jun 2027 16:07:28.188           187.319                Sumatra         23414.875
       155   04 Jun 2027 17:23:29.570   04 Jun 2027 17:27:30.120           240.550                Novosib         30068.750
       156   04 Jun 2027 17:44:04.075   04 Jun 2027 17:45:52.100           108.025                Sumatra         13503.125
       157   04 Jun 2027 19:05:45.655   04 Jun 2027 19:06:22.312            36.657                Novosib          4582.125
       158   04 Jun 2027 19:07:44.715   04 Jun 2027 19:08:59.068            74.353                  Delhi          9294.125
       159   04 Jun 2027 19:12:44.155   04 Jun 2027 19:13:27.965            43.810                  Delhi          5476.250
       160   04 Jun 2027 20:35:05.274   04 Jun 2027 20:36:21.545            76.271              Murmansk1          9533.875
       161   04 Jun 2027 20:36:48.129   04 Jun 2027 20:39:00.404           132.275                 Moscow         16534.375
       162   04 Jun 2027 22:11:52.862   04 Jun 2027 22:12:48.490            55.628                 Moscow          6953.500
       163   04 Jun 2027 22:35:47.879   04 Jun 2027 22:37:56.971           129.092               CapeTown         16136.500
       164   04 Jun 2027 22:38:02.070   04 Jun 2027 22:38:38.401            36.331               CapeTown          4541.375
       165   05 Jun 2027 04:09:35.860   05 Jun 2027 04:11:40.886           125.026                Sumatra         15628.250
       166   05 Jun 2027 04:31:40.896   05 Jun 2027 04:31:48.206             7.310              Murmansk1           913.750
       167   05 Jun 2027 04:32:06.634   05 Jun 2027 04:32:20.082            13.448                Norilsk          1681.000
       168   05 Jun 2027 04:32:22.607   05 Jun 2027 04:34:02.234            99.627                Novosib         12453.375
       169   05 Jun 2027 05:07:43.266   05 Jun 2027 05:07:51.531             8.265            RioGallegos          1033.125
       170   05 Jun 2027 05:42:15.826   05 Jun 2027 05:44:18.791           122.965                Sumatra         15370.625
       171   05 Jun 2027 05:45:22.078   05 Jun 2027 05:47:24.703           122.625                Sumatra         15328.125
       172   05 Jun 2027 06:05:22.431   05 Jun 2027 06:05:46.657            24.226                 Moscow          3028.250
       173   05 Jun 2027 06:05:47.697   05 Jun 2027 06:07:23.437            95.740                Irkutsk         11967.500
       174   05 Jun 2027 06:07:50.675   05 Jun 2027 06:08:14.446            23.771                Norilsk          2971.375
       175   05 Jun 2027 06:08:25.497   05 Jun 2027 06:08:39.639            14.142              Murmansk2          1767.750
       176   05 Jun 2027 06:08:39.767   05 Jun 2027 06:09:12.553            32.786              Murmansk1          4098.250
       177   05 Jun 2027 07:26:42.363   05 Jun 2027 07:29:27.424           165.061                  Delhi         20632.625
       178   05 Jun 2027 07:41:43.301   05 Jun 2027 07:42:12.281            28.980                Norilsk          3622.500
       179   05 Jun 2027 07:42:22.418   05 Jun 2027 07:43:03.702            41.284                Norilsk          5160.500
       180   05 Jun 2027 07:43:09.561   05 Jun 2027 07:43:50.858            41.297              Murmansk1          5162.125
       181   05 Jun 2027 07:43:57.465   05 Jun 2027 07:44:23.833            26.368              Murmansk2          3296.000
       182   05 Jun 2027 07:45:46.545   05 Jun 2027 07:46:28.590            42.045                 Moscow          5255.625
       183   05 Jun 2027 09:14:44.564   05 Jun 2027 09:16:31.644           107.080                 Moscow         13385.000
       184   05 Jun 2027 09:16:56.404   05 Jun 2027 09:18:04.823            68.419              Murmansk2          8552.375
       185   05 Jun 2027 09:18:07.691   05 Jun 2027 09:18:48.708            41.017                 Moscow          5127.125
       186   05 Jun 2027 09:18:58.822   05 Jun 2027 09:19:07.294             8.472              Murmansk1          1059.000
       187   05 Jun 2027 09:19:08.978   05 Jun 2027 09:19:14.123             5.145              Murmansk1           643.125
       188   05 Jun 2027 09:19:18.660   05 Jun 2027 09:19:30.947            12.287                Norilsk          1535.875
       189   05 Jun 2027 09:20:00.954   05 Jun 2027 09:20:27.184            26.230                 Moscow          3278.750
       190   05 Jun 2027 10:25:09.428   05 Jun 2027 10:27:29.421           139.993               CapeTown         17499.125
       191   05 Jun 2027 10:28:36.324   05 Jun 2027 10:29:10.412            34.088               CapeTown          4261.000
       192   05 Jun 2027 11:05:17.711   05 Jun 2027 11:08:29.289           191.578                Anadyr2         23947.250
       193   05 Jun 2027 11:14:35.098   05 Jun 2027 11:15:15.873            40.775                Anadyr2          5096.875
       194   05 Jun 2027 12:40:54.236   05 Jun 2027 12:41:31.063            36.827                Anadyr1          4603.375
       195   05 Jun 2027 12:44:06.887   05 Jun 2027 12:45:49.928           103.041               Magadan2         12880.125
       196   05 Jun 2027 12:47:54.920   05 Jun 2027 12:50:19.656           144.736               Magadan2         18092.000
       197   05 Jun 2027 14:19:09.168   05 Jun 2027 14:20:03.223            54.055               Magadan1          6756.875
       198   05 Jun 2027 15:13:24.359   05 Jun 2027 15:16:11.689           167.330            RioGallegos         20916.250
       199   05 Jun 2027 15:59:52.454   05 Jun 2027 16:03:41.105           228.651                Irkutsk         28581.375
       200   05 Jun 2027 16:15:01.228   05 Jun 2027 16:17:31.589           150.361                Sumatra         18795.125
       201   05 Jun 2027 16:19:50.967   05 Jun 2027 16:21:57.999           127.032                Sumatra         15879.000
       202   05 Jun 2027 17:41:31.111   05 Jun 2027 17:44:03.242           152.131                Novosib         19016.375
       203   05 Jun 2027 17:45:46.082   05 Jun 2027 17:47:23.792            97.710                  Delhi         12213.750
       204   05 Jun 2027 19:17:42.937   05 Jun 2027 19:18:17.594            34.657                  Delhi          4332.125
       205   05 Jun 2027 20:44:45.336   05 Jun 2027 20:45:26.189            40.853              Murmansk1          5106.625
       206   05 Jun 2027 20:48:36.258   05 Jun 2027 20:51:09.830           153.572                 Moscow         19196.500
       207   05 Jun 2027 22:47:45.797   05 Jun 2027 22:48:37.808            52.011               CapeTown          6501.375
       208   06 Jun 2027 03:03:59.065   06 Jun 2027 03:04:59.785            60.720               Magadan1          7590.000
       209   06 Jun 2027 03:05:12.648   06 Jun 2027 03:06:01.682            49.034                Anadyr1          6129.250
       210   06 Jun 2027 03:06:24.925   06 Jun 2027 03:06:43.918            18.993                Anadyr2          2374.125
       211   06 Jun 2027 03:06:45.615   06 Jun 2027 03:07:15.676            30.061               Magadan2          3757.625
       212   06 Jun 2027 03:07:26.775   06 Jun 2027 03:08:42.539            75.764               Magadan1          9470.500
       213   06 Jun 2027 03:43:43.438   06 Jun 2027 03:43:48.205             4.767            RioGallegos           595.875
       214   06 Jun 2027 03:46:37.351   06 Jun 2027 03:46:39.318             1.967            RioGallegos           245.875
       215   06 Jun 2027 03:47:49.626   06 Jun 2027 03:47:58.354             8.728            RioGallegos          1091.000
       216   06 Jun 2027 04:20:33.091   06 Jun 2027 04:23:24.002           170.911                Sumatra         21363.875
       217   06 Jun 2027 04:39:51.862   06 Jun 2027 04:40:00.827             8.965                Irkutsk          1120.625
       218   06 Jun 2027 04:40:29.393   06 Jun 2027 04:40:45.959            16.566               Magadan1          2070.750
       219   06 Jun 2027 04:40:56.275   06 Jun 2027 04:41:43.065            46.790               Magadan1          5848.750
       220   06 Jun 2027 04:41:55.036   06 Jun 2027 04:42:31.343            36.307                Norilsk          4538.375
       221   06 Jun 2027 04:42:43.886   06 Jun 2027 04:43:45.360            61.474                Irkutsk          7684.250
       222   06 Jun 2027 04:44:04.062   06 Jun 2027 04:44:10.767             6.705                Novosib           838.125
       223   06 Jun 2027 04:44:17.684   06 Jun 2027 04:44:57.222            39.538                Norilsk          4942.250
       224   06 Jun 2027 04:46:06.217   06 Jun 2027 04:46:07.146             0.929                Novosib           116.125
       225   06 Jun 2027 05:19:59.808   06 Jun 2027 05:22:03.184           123.376            RioGallegos         15422.000
       226   06 Jun 2027 05:54:23.728   06 Jun 2027 05:54:24.135             0.407                Sumatra            50.875
       227   06 Jun 2027 05:56:51.497   06 Jun 2027 05:57:15.509            24.012                Sumatra          3001.500
       228   06 Jun 2027 06:00:29.259   06 Jun 2027 06:00:41.852            12.593                Sumatra          1574.125
       229   06 Jun 2027 06:05:11.730   06 Jun 2027 06:07:19.034           127.304                  Delhi         15913.000
       230   06 Jun 2027 06:17:20.291   06 Jun 2027 06:18:31.991            71.700                 Moscow          8962.500
       231   06 Jun 2027 06:19:08.030   06 Jun 2027 06:19:39.289            31.259              Murmansk1          3907.375
       232   06 Jun 2027 06:19:46.228   06 Jun 2027 06:20:06.449            20.221                Irkutsk          2527.625
       233   06 Jun 2027 06:20:12.953   06 Jun 2027 06:20:45.188            32.235              Murmansk1          4029.375
       234   06 Jun 2027 06:21:06.990   06 Jun 2027 06:21:14.369             7.379              Murmansk1           922.375
       235   06 Jun 2027 07:39:00.631   06 Jun 2027 07:41:17.412           136.781                  Delhi         17097.625
       236   06 Jun 2027 07:41:54.778   06 Jun 2027 07:43:25.802            91.024                  Delhi         11378.000
       237   06 Jun 2027 07:53:35.301   06 Jun 2027 07:54:04.358            29.057                Norilsk          3632.125
       238   06 Jun 2027 07:54:11.062   06 Jun 2027 07:54:49.766            38.704                Novosib          4838.000
       239   06 Jun 2027 07:54:57.688   06 Jun 2027 07:56:33.385            95.697                 Moscow         11962.125
       240   06 Jun 2027 09:29:39.995   06 Jun 2027 09:32:17.333           157.338              Murmansk2         19667.250
       241   06 Jun 2027 09:32:29.687   06 Jun 2027 09:32:32.740             3.053                 Moscow           381.625
       242   06 Jun 2027 09:32:43.018   06 Jun 2027 09:33:26.230            43.212              Murmansk1          5401.500
       243   06 Jun 2027 10:36:53.216   06 Jun 2027 10:41:08.218           255.002               CapeTown         31875.250
       244   06 Jun 2027 11:17:14.006   06 Jun 2027 11:21:06.514           232.508                Anadyr1         29063.500
       245   06 Jun 2027 12:55:54.568   06 Jun 2027 12:57:38.008           103.440               Magadan2         12930.000
       246   06 Jun 2027 12:58:04.929   06 Jun 2027 13:01:43.585           218.656               Magadan1         27332.000
       247   06 Jun 2027 15:24:35.392   06 Jun 2027 15:27:59.166           203.774            RioGallegos         25471.750
       248   06 Jun 2027 16:12:29.692   06 Jun 2027 16:13:40.293            70.601                Irkutsk          8825.125
       249   06 Jun 2027 16:17:39.087   06 Jun 2027 16:17:54.030            14.943                Irkutsk          1867.875
       250   06 Jun 2027 16:26:09.610   06 Jun 2027 16:29:18.014           188.404                Sumatra         23550.500
       251   06 Jun 2027 17:49:40.630   06 Jun 2027 17:51:21.477           100.847                Novosib         12605.875
       252   06 Jun 2027 17:56:23.262   06 Jun 2027 17:59:05.262           162.000                  Delhi         20250.000
       253   06 Jun 2027 19:30:33.020   06 Jun 2027 19:31:28.980            55.960                  Delhi          6995.000
       254   06 Jun 2027 21:00:27.302   06 Jun 2027 21:03:16.106           168.804                 Moscow         21100.500
       255   06 Jun 2027 21:27:06.053   06 Jun 2027 21:29:05.365           119.312               CapeTown         14914.000
       256   07 Jun 2027 03:16:34.120   07 Jun 2027 03:18:02.459            88.339                Anadyr2         11042.375
       257   07 Jun 2027 03:18:15.709   07 Jun 2027 03:18:46.649            30.940                Anadyr2          3867.500
       258   07 Jun 2027 03:19:09.167   07 Jun 2027 03:19:29.557            20.390               Magadan1          2548.750
       259   07 Jun 2027 03:19:34.663   07 Jun 2027 03:20:37.930            63.267               Magadan1          7908.375
       260   07 Jun 2027 04:32:05.098   07 Jun 2027 04:33:23.297            78.199                Sumatra          9774.875
       261   07 Jun 2027 04:52:05.590   07 Jun 2027 04:52:11.657             6.067                Irkutsk           758.375
       262   07 Jun 2027 04:52:17.893   07 Jun 2027 04:53:29.466            71.573                Irkutsk          8946.625
       263   07 Jun 2027 04:53:50.951   07 Jun 2027 04:54:06.988            16.037                Norilsk          2004.625
       264   07 Jun 2027 04:54:12.370   07 Jun 2027 04:54:32.849            20.479              Murmansk1          2559.875
       265   07 Jun 2027 04:54:42.024   07 Jun 2027 04:55:24.534            42.510                Norilsk          5313.750
       266   07 Jun 2027 04:55:41.704   07 Jun 2027 04:55:56.573            14.869                Norilsk          1858.625
       267   07 Jun 2027 04:56:03.813   07 Jun 2027 04:56:46.807            42.994                Irkutsk          5374.250
       268   07 Jun 2027 04:57:40.755   07 Jun 2027 04:58:08.267            27.512                Novosib          3439.000
       269   07 Jun 2027 05:32:20.748   07 Jun 2027 05:33:42.993            82.245            RioGallegos         10280.625
       270   07 Jun 2027 06:06:37.858   07 Jun 2027 06:07:20.145            42.287                Sumatra          5285.875
       271   07 Jun 2027 06:13:01.870   07 Jun 2027 06:13:42.275            40.405                Sumatra          5050.625
       272   07 Jun 2027 06:21:11.392   07 Jun 2027 06:21:26.740            15.348                  Delhi          1918.500
       273   07 Jun 2027 06:23:56.011   07 Jun 2027 06:24:29.639            33.628                  Delhi          4203.500
       274   07 Jun 2027 06:29:27.750   07 Jun 2027 06:29:52.066            24.316              Murmansk1          3039.500
       275   07 Jun 2027 06:30:04.797   07 Jun 2027 06:30:40.354            35.557                 Moscow          4444.625
       276   07 Jun 2027 06:30:52.314   07 Jun 2027 06:31:17.990            25.676                 Moscow          3209.500
       277   07 Jun 2027 06:31:30.123   07 Jun 2027 06:32:48.978            78.855              Murmansk1          9856.875
       278   07 Jun 2027 07:51:26.281   07 Jun 2027 07:53:02.732            96.451                  Delhi         12056.375
       279   07 Jun 2027 08:05:06.023   07 Jun 2027 08:06:03.646            57.623                 Moscow          7202.875
       280   07 Jun 2027 08:06:08.502   07 Jun 2027 08:06:21.877            13.375              Murmansk1          1671.875
       281   07 Jun 2027 08:06:38.906   07 Jun 2027 08:07:45.470            66.564                Norilsk          8320.500
       282   07 Jun 2027 08:07:47.327   07 Jun 2027 08:08:38.615            51.288                 Moscow          6411.000
       283   07 Jun 2027 09:42:06.390   07 Jun 2027 09:42:30.011            23.621              Murmansk1          2952.625
       284   07 Jun 2027 09:55:02.316   07 Jun 2027 09:56:42.383           100.067                Anadyr2         12508.375
       285   07 Jun 2027 10:48:41.652   07 Jun 2027 10:51:06.213           144.561               CapeTown         18070.125
       286   07 Jun 2027 11:29:11.396   07 Jun 2027 11:33:46.824           275.428                Anadyr1         34428.500
       287   07 Jun 2027 13:07:45.375   07 Jun 2027 13:13:20.907           335.532               Magadan2         41941.500
       288   07 Jun 2027 15:36:05.078   07 Jun 2027 15:39:49.747           224.669            RioGallegos         28083.625
       289   07 Jun 2027 16:26:08.212   07 Jun 2027 16:27:29.839            81.627                Irkutsk         10203.375
       290   07 Jun 2027 16:38:24.443   07 Jun 2027 16:39:18.187            53.744                Sumatra          6718.000
       291   07 Jun 2027 16:39:52.684   07 Jun 2027 16:41:10.499            77.815                Sumatra          9726.875
       292   07 Jun 2027 17:58:54.972   07 Jun 2027 18:00:05.824            70.852                Novosib          8856.500
       293   07 Jun 2027 18:01:46.278   07 Jun 2027 18:02:06.718            20.440                Novosib          2555.000
       294   07 Jun 2027 18:07:35.270   07 Jun 2027 18:10:52.134           196.864                  Delhi         24608.000
       295   07 Jun 2027 21:10:54.078   07 Jun 2027 21:13:31.032           156.954              Murmansk1         19619.250
       296   07 Jun 2027 21:13:58.669   07 Jun 2027 21:15:19.370            80.701                 Moscow         10087.625
       297   07 Jun 2027 21:39:06.195   07 Jun 2027 21:40:52.139           105.944               CapeTown         13243.000
       298   08 Jun 2027 03:30:03.529   08 Jun 2027 03:30:25.398            21.869               Magadan2          2733.625
       299   08 Jun 2027 03:30:50.603   08 Jun 2027 03:32:31.752           101.149               Magadan1         12643.625
       300   08 Jun 2027 04:44:40.648   08 Jun 2027 04:45:11.526            30.878                Sumatra          3859.750
       301   08 Jun 2027 04:47:07.832   08 Jun 2027 04:47:08.881             1.049                Sumatra           131.125
       302   08 Jun 2027 04:50:17.420   08 Jun 2027 04:50:22.243             4.823                Sumatra           602.875
       303   08 Jun 2027 05:05:06.111   08 Jun 2027 05:06:48.463           102.352                Norilsk         12794.000
       304   08 Jun 2027 05:06:53.321   08 Jun 2027 05:07:15.945            22.624              Murmansk2          2828.000
       305   08 Jun 2027 05:07:35.645   08 Jun 2027 05:08:55.870            80.225                Norilsk         10028.125
       306   08 Jun 2027 05:11:43.517   08 Jun 2027 05:11:56.168            12.651                Norilsk          1581.375
       307   08 Jun 2027 05:44:46.609   08 Jun 2027 05:45:26.089            39.480            RioGallegos          4935.000
       308   08 Jun 2027 06:18:59.242   08 Jun 2027 06:20:43.725           104.483                Sumatra         13060.375
       309   08 Jun 2027 06:26:52.473   08 Jun 2027 06:27:29.575            37.102                  Delhi          4637.750
       310   08 Jun 2027 06:42:04.143   08 Jun 2027 06:42:37.331            33.188              Murmansk2          4148.500
       311   08 Jun 2027 06:42:44.937   08 Jun 2027 06:43:30.389            45.452                Irkutsk          5681.500
       312   08 Jun 2027 06:43:47.304   08 Jun 2027 06:44:34.074            46.770              Murmansk2          5846.250
       313   08 Jun 2027 06:45:16.447   08 Jun 2027 06:45:34.653            18.206                 Moscow          2275.750
       314   08 Jun 2027 08:04:01.095   08 Jun 2027 08:04:42.234            41.139                  Delhi          5142.375
       315   08 Jun 2027 08:05:38.149   08 Jun 2027 08:05:47.099             8.950                  Delhi          1118.750
       316   08 Jun 2027 08:16:43.742   08 Jun 2027 08:17:15.865            32.123                 Moscow          4015.375
       317   08 Jun 2027 08:17:20.196   08 Jun 2027 08:17:27.433             7.237              Murmansk2           904.625
       318   08 Jun 2027 08:17:45.944   08 Jun 2027 08:18:42.712            56.768                 Moscow          7096.000
       319   08 Jun 2027 08:18:50.619   08 Jun 2027 08:19:24.540            33.921                Norilsk          4240.125
       320   08 Jun 2027 08:19:33.977   08 Jun 2027 08:20:24.273            50.296                Norilsk          6287.000
       321   08 Jun 2027 08:20:28.293   08 Jun 2027 08:21:02.388            34.095              Murmansk2          4261.875
       322   08 Jun 2027 10:06:27.662   08 Jun 2027 10:08:57.666           150.004                Anadyr1         18750.500
       323   08 Jun 2027 10:08:57.666   08 Jun 2027 10:09:24.947            27.281                Anadyr2          3410.125
       324   08 Jun 2027 11:00:33.897   08 Jun 2027 11:02:46.586           132.689               CapeTown         16586.125
       325   08 Jun 2027 11:41:09.645   08 Jun 2027 11:44:15.942           186.297                Anadyr1         23287.125
       326   08 Jun 2027 13:19:38.460   08 Jun 2027 13:24:05.504           267.044               Magadan1         33380.500
       327   08 Jun 2027 15:47:43.840   08 Jun 2027 15:51:42.734           238.894            RioGallegos         29861.750
       328   08 Jun 2027 15:53:47.031   08 Jun 2027 15:54:13.242            26.211            RioGallegos          3276.375
       329   08 Jun 2027 16:35:07.406   08 Jun 2027 16:37:53.247           165.841                Irkutsk         20730.125
       330   08 Jun 2027 16:49:06.243   08 Jun 2027 16:50:54.260           108.017                Sumatra         13502.125
       331   08 Jun 2027 16:58:25.265   08 Jun 2027 17:00:20.736           115.471                Sumatra         14433.875
       332   08 Jun 2027 18:11:18.070   08 Jun 2027 18:11:26.418             8.348                Norilsk          1043.500
       333   08 Jun 2027 18:12:33.155   08 Jun 2027 18:13:03.735            30.580                Novosib          3822.500
       334   08 Jun 2027 18:19:02.315   08 Jun 2027 18:22:43.424           221.109                  Delhi         27638.625
       335   08 Jun 2027 19:51:37.783   08 Jun 2027 19:53:01.358            83.575                 Moscow         10446.875
       336   08 Jun 2027 21:27:19.728   08 Jun 2027 21:28:47.875            88.147                 Moscow         11018.375
       337   08 Jun 2027 21:49:01.740   08 Jun 2027 21:50:32.128            90.388               CapeTown         11298.500
       338   08 Jun 2027 21:55:51.049   08 Jun 2027 21:57:46.702           115.653               CapeTown         14456.625
       339   09 Jun 2027 03:42:24.356   09 Jun 2027 03:42:32.465             8.109               Magadan1          1013.625
       340   09 Jun 2027 03:42:38.017   09 Jun 2027 03:43:34.191            56.174               Magadan2          7021.750
       341   09 Jun 2027 03:44:18.730   09 Jun 2027 03:44:23.544             4.814               Magadan2           601.750
       342   09 Jun 2027 04:23:31.287   09 Jun 2027 04:24:35.075            63.788            RioGallegos          7973.500
       343   09 Jun 2027 04:54:55.996   09 Jun 2027 04:55:03.161             7.165                Sumatra           895.625
       344   09 Jun 2027 04:56:53.148   09 Jun 2027 04:59:09.831           136.683                Sumatra         17085.375
       345   09 Jun 2027 05:09:09.515   09 Jun 2027 05:09:40.310            30.795                  Delhi          3849.375
       346   09 Jun 2027 05:16:48.924   09 Jun 2027 05:18:33.651           104.727                Irkutsk         13090.875
       347   09 Jun 2027 05:18:40.966   09 Jun 2027 05:19:07.292            26.326                Novosib          3290.750
       348   09 Jun 2027 05:19:48.649   09 Jun 2027 05:20:46.086            57.437                Irkutsk          7179.625
       349   09 Jun 2027 05:21:47.614   09 Jun 2027 05:22:18.944            31.330                Novosib          3916.250
       350   09 Jun 2027 05:23:35.371   09 Jun 2027 05:24:07.986            32.615                Norilsk          4076.875
       351   09 Jun 2027 05:59:55.268   09 Jun 2027 06:00:19.903            24.635            RioGallegos          3079.375
       352   09 Jun 2027 06:31:29.832   09 Jun 2027 06:32:16.471            46.639                Sumatra          5829.875
       353   09 Jun 2027 06:38:42.675   09 Jun 2027 06:40:03.247            80.572                  Delhi         10071.500
       354   09 Jun 2027 06:50:05.406   09 Jun 2027 06:50:13.012             7.606                  Delhi           950.750
       355   09 Jun 2027 06:54:09.924   09 Jun 2027 06:54:25.167            15.243                Irkutsk          1905.375
       356   09 Jun 2027 06:54:32.525   09 Jun 2027 06:54:52.930            20.405                Norilsk          2550.625
       357   09 Jun 2027 06:54:54.615   09 Jun 2027 06:55:18.704            24.089                Irkutsk          3011.125
       358   09 Jun 2027 06:55:25.469   09 Jun 2027 06:55:48.803            23.334                Novosib          2916.750
       359   09 Jun 2027 06:55:55.271   09 Jun 2027 06:55:56.998             1.727                 Moscow           215.875
       360   09 Jun 2027 06:56:36.337   09 Jun 2027 06:57:58.188            81.851              Murmansk2         10231.375
       361   09 Jun 2027 06:58:01.818   09 Jun 2027 06:58:25.330            23.512                Norilsk          2939.000
       362   09 Jun 2027 06:58:32.295   09 Jun 2027 06:59:02.457            30.162                 Moscow          3770.250
       363   09 Jun 2027 08:16:48.490   09 Jun 2027 08:17:12.821            24.331                  Delhi          3041.375
       364   09 Jun 2027 08:23:13.816   09 Jun 2027 08:24:09.178            55.362                  Delhi          6920.250
       365   09 Jun 2027 08:28:38.391   09 Jun 2027 08:29:16.849            38.458                Norilsk          4807.250
       366   09 Jun 2027 08:29:18.670   09 Jun 2027 08:29:20.652             1.982                 Moscow           247.750
       367   09 Jun 2027 08:29:44.655   09 Jun 2027 08:31:03.477            78.822                Norilsk          9852.750
       368   09 Jun 2027 08:31:03.985   09 Jun 2027 08:31:46.028            42.043                 Moscow          5255.375
       369   09 Jun 2027 08:31:54.250   09 Jun 2027 08:32:15.704            21.454              Murmansk1          2681.750
       370   09 Jun 2027 08:32:25.358   09 Jun 2027 08:32:36.720            11.362                Norilsk          1420.250
       371   09 Jun 2027 08:32:48.487   09 Jun 2027 08:32:58.521            10.034                 Moscow          1254.250
       372   09 Jun 2027 08:32:59.446   09 Jun 2027 08:33:42.487            43.041                Norilsk          5380.125
       373   09 Jun 2027 08:34:58.721   09 Jun 2027 08:35:23.333            24.612                 Moscow          3076.500
       374   09 Jun 2027 09:40:16.352   09 Jun 2027 09:42:08.747           112.395               CapeTown         14049.375
       375   09 Jun 2027 10:18:07.515   09 Jun 2027 10:18:45.858            38.343                Anadyr2          4792.875
       376   09 Jun 2027 10:20:48.559   09 Jun 2027 10:22:13.584            85.025                Anadyr1         10628.125
       377   09 Jun 2027 11:14:20.964   09 Jun 2027 11:14:45.701            24.737               CapeTown          3092.125
       378   09 Jun 2027 11:23:19.843   09 Jun 2027 11:23:30.143            10.300               CapeTown          1287.500
       379   09 Jun 2027 11:53:08.583   09 Jun 2027 11:54:05.732            57.149                Anadyr2          7143.625
       380   09 Jun 2027 11:56:21.766   09 Jun 2027 11:57:49.025            87.259                Anadyr2         10907.375
       381   09 Jun 2027 12:00:44.953   09 Jun 2027 12:02:28.817           103.864                Anadyr1         12983.000
       382   09 Jun 2027 13:31:33.278   09 Jun 2027 13:34:32.579           179.301               Magadan1         22412.625
       383   09 Jun 2027 13:40:51.292   09 Jun 2027 13:42:51.141           119.849               Magadan1         14981.125
       384   09 Jun 2027 15:59:28.217   09 Jun 2027 16:03:37.648           249.431            RioGallegos         31178.875
       385   09 Jun 2027 16:46:59.190   09 Jun 2027 16:49:53.264           174.074                Irkutsk         21759.250
       386   09 Jun 2027 17:00:47.530   09 Jun 2027 17:03:15.054           147.524                Sumatra         18440.500
       387   09 Jun 2027 17:06:52.103   09 Jun 2027 17:07:02.279            10.176                Sumatra          1272.000
       388   09 Jun 2027 17:11:51.826   09 Jun 2027 17:13:01.001            69.175                Sumatra          8646.875
       389   09 Jun 2027 18:22:43.932   09 Jun 2027 18:24:30.256           106.324                Novosib         13290.500
       390   09 Jun 2027 18:30:38.605   09 Jun 2027 18:32:53.404           134.799                  Delhi         16849.875
       391   09 Jun 2027 18:34:13.145   09 Jun 2027 18:34:38.529            25.384                  Delhi          3173.000
       392   09 Jun 2027 20:02:49.838   09 Jun 2027 20:05:33.522           163.684                 Moscow         20460.500
       393   09 Jun 2027 21:45:40.423   09 Jun 2027 21:45:44.477             4.054                 Moscow           506.750
       394   09 Jun 2027 21:46:03.772   09 Jun 2027 21:48:29.299           145.527                 Moscow         18190.875
       395   10 Jun 2027 03:54:05.270   10 Jun 2027 03:54:11.316             6.046               Magadan2           755.750
       396   10 Jun 2027 03:54:19.127   10 Jun 2027 03:54:53.662            34.535               Magadan2          4316.875
       397   10 Jun 2027 03:55:03.438   10 Jun 2027 03:55:35.170            31.732               Magadan2          3966.500
       398   10 Jun 2027 03:55:37.930   10 Jun 2027 03:55:54.841            16.911               Magadan2          2113.875
       399   10 Jun 2027 03:58:10.558   10 Jun 2027 03:58:26.908            16.350                Norilsk          2043.750
       400   10 Jun 2027 03:59:11.817   10 Jun 2027 04:01:35.704           143.887                Norilsk         17985.875
       401   10 Jun 2027 04:34:48.414   10 Jun 2027 04:35:01.803            13.389            RioGallegos          1673.625
       402   10 Jun 2027 04:36:14.081   10 Jun 2027 04:36:35.213            21.132            RioGallegos          2641.500
       403   10 Jun 2027 05:06:40.714   10 Jun 2027 05:07:32.619            51.905                Sumatra          6488.125
       404   10 Jun 2027 05:08:26.939   10 Jun 2027 05:09:22.697            55.758                Sumatra          6969.750
       405   10 Jun 2027 05:13:13.745   10 Jun 2027 05:13:19.160             5.415                Sumatra           676.875
       406   10 Jun 2027 05:14:07.055   10 Jun 2027 05:16:07.541           120.486                Sumatra         15060.750
       407   10 Jun 2027 05:29:43.919   10 Jun 2027 05:30:12.879            28.960                Norilsk          3620.000
       408   10 Jun 2027 05:30:33.517   10 Jun 2027 05:32:02.559            89.042                Novosib         11130.250
       409   10 Jun 2027 05:32:12.240   10 Jun 2027 05:33:22.075            69.835                Novosib          8729.375
       410   10 Jun 2027 05:34:14.256   10 Jun 2027 05:34:30.022            15.766                Norilsk          1970.750
       411   10 Jun 2027 05:35:16.308   10 Jun 2027 05:35:26.464            10.156                Norilsk          1269.500
       412   10 Jun 2027 06:09:56.550   10 Jun 2027 06:11:06.578            70.028            RioGallegos          8753.500
       413   10 Jun 2027 06:44:13.702   10 Jun 2027 06:45:45.906            92.204                Sumatra         11525.500
       414   10 Jun 2027 06:50:38.214   10 Jun 2027 06:52:24.664           106.450                  Delhi         13306.250
       415   10 Jun 2027 07:06:57.241   10 Jun 2027 07:07:29.518            32.277                 Moscow          4034.625
       416   10 Jun 2027 07:07:41.636   10 Jun 2027 07:08:02.105            20.469                Novosib          2558.625
       417   10 Jun 2027 07:08:15.188   10 Jun 2027 07:08:56.080            40.892                 Moscow          5111.500
       418   10 Jun 2027 07:09:16.014   10 Jun 2027 07:09:42.983            26.969                Norilsk          3371.125
       419   10 Jun 2027 08:29:56.702   10 Jun 2027 08:32:32.949           156.247                  Delhi         19530.875
       420   10 Jun 2027 08:38:28.088   10 Jun 2027 08:38:55.595            27.507              Murmansk1          3438.375
       421   10 Jun 2027 08:39:13.609   10 Jun 2027 08:40:08.403            54.794                Novosib          6849.250
       422   10 Jun 2027 08:40:18.111   10 Jun 2027 08:41:14.299            56.188                 Moscow          7023.500
       423   10 Jun 2027 08:41:24.965   10 Jun 2027 08:42:42.763            77.798                Norilsk          9724.750
       424   10 Jun 2027 08:43:04.946   10 Jun 2027 08:43:39.609            34.663                 Moscow          4332.875
       425   10 Jun 2027 08:43:44.492   10 Jun 2027 08:43:56.012            11.520              Murmansk2          1440.000
       426   10 Jun 2027 08:44:02.948   10 Jun 2027 08:44:58.832            55.884              Murmansk2          6985.500
       427   10 Jun 2027 08:45:03.371   10 Jun 2027 08:45:13.554            10.183                 Moscow          1272.875
       428   10 Jun 2027 08:45:17.048   10 Jun 2027 08:46:15.769            58.721              Murmansk1          7340.125
       429   10 Jun 2027 09:51:01.015   10 Jun 2027 09:53:51.356           170.341               CapeTown         21292.625
       430   10 Jun 2027 10:29:53.995   10 Jun 2027 10:34:09.627           255.632                Anadyr1         31954.000
       431   10 Jun 2027 10:34:53.883   10 Jun 2027 10:35:54.545            60.662                Anadyr2          7582.750
       432   10 Jun 2027 12:08:18.066   10 Jun 2027 12:09:49.846            91.780                Anadyr2         11472.500
       433   10 Jun 2027 12:12:00.318   10 Jun 2027 12:12:51.886            51.568               Magadan1          6446.000
       434   10 Jun 2027 13:43:29.461   10 Jun 2027 13:46:36.460           186.999               Magadan1         23374.875
       435   10 Jun 2027 13:52:13.239   10 Jun 2027 13:52:28.031            14.792               Magadan2          1849.000
       436   10 Jun 2027 15:27:20.073   10 Jun 2027 15:27:49.186            29.113                Irkutsk          3639.125
       437   10 Jun 2027 16:11:16.501   10 Jun 2027 16:14:00.652           164.151            RioGallegos         20518.875
       438   10 Jun 2027 16:15:16.892   10 Jun 2027 16:17:01.222           104.330            RioGallegos         13041.250
       439   10 Jun 2027 16:58:53.097   10 Jun 2027 17:01:02.840           129.743                Irkutsk         16217.875
       440   10 Jun 2027 17:01:03.062   10 Jun 2027 17:04:00.562           177.500                Novosib         22187.500
       441   10 Jun 2027 17:15:28.697   10 Jun 2027 17:17:21.985           113.288                Sumatra         14161.000
       442   10 Jun 2027 18:42:21.471   10 Jun 2027 18:44:21.615           120.144                  Delhi         15018.000
       443   10 Jun 2027 18:44:41.256   10 Jun 2027 18:46:37.109           115.853                  Delhi         14481.625
       444   10 Jun 2027 20:13:40.414   10 Jun 2027 20:17:24.011           223.597                 Moscow         27949.625
       445   10 Jun 2027 22:12:21.470   10 Jun 2027 22:12:34.369            12.899               CapeTown          1612.375
       446   10 Jun 2027 22:14:48.495   10 Jun 2027 22:16:42.608           114.113               CapeTown         14264.125
       447   11 Jun 2027 04:07:06.361   11 Jun 2027 04:07:57.728            51.367               Magadan2          6420.875
       448   11 Jun 2027 04:08:21.134   11 Jun 2027 04:09:03.214            42.080                Norilsk          5260.000
       449   11 Jun 2027 04:10:35.592   11 Jun 2027 04:10:45.907            10.315                Norilsk          1289.375
       450   11 Jun 2027 04:11:00.613   11 Jun 2027 04:12:02.539            61.926                Norilsk          7740.750
       451   11 Jun 2027 04:43:38.722   11 Jun 2027 04:44:31.243            52.521            RioGallegos          6565.125
       452   11 Jun 2027 04:53:06.611   11 Jun 2027 04:53:18.065            11.454            RioGallegos          1431.750
       453   11 Jun 2027 05:18:31.660   11 Jun 2027 05:20:14.725           103.065                Sumatra         12883.125
       454   11 Jun 2027 05:29:54.900   11 Jun 2027 05:32:07.114           132.214                  Delhi         16526.750
       455   11 Jun 2027 05:40:44.712   11 Jun 2027 05:41:19.223            34.511                Irkutsk          4313.875
       456   11 Jun 2027 05:41:53.633   11 Jun 2027 05:42:02.692             9.059                Novosib          1132.375
       457   11 Jun 2027 05:42:03.599   11 Jun 2027 05:43:11.038            67.439                Novosib          8429.875
       458   11 Jun 2027 05:43:46.380   11 Jun 2027 05:45:01.247            74.867                Novosib          9358.375
       459   11 Jun 2027 07:02:39.038   11 Jun 2027 07:03:20.212            41.174                  Delhi          5146.750
       460   11 Jun 2027 07:08:49.328   11 Jun 2027 07:10:01.538            72.210                  Delhi          9026.250
       461   11 Jun 2027 07:19:08.403   11 Jun 2027 07:19:23.718            15.315              Murmansk1          1914.375
       462   11 Jun 2027 07:19:30.906   11 Jun 2027 07:20:19.418            48.512              Murmansk2          6064.000
       463   11 Jun 2027 08:44:09.308   11 Jun 2027 08:44:58.032            48.724                  Delhi          6090.500
       464   11 Jun 2027 08:50:12.776   11 Jun 2027 08:50:50.337            37.561                 Moscow          4695.125
       465   11 Jun 2027 08:51:07.565   11 Jun 2027 08:52:11.474            63.909              Murmansk2          7988.625
       466   11 Jun 2027 08:52:11.474   11 Jun 2027 08:52:38.817            27.343              Murmansk1          3417.875
       467   11 Jun 2027 08:52:50.470   11 Jun 2027 08:53:14.490            24.020              Murmansk2          3002.500
       468   11 Jun 2027 08:53:17.738   11 Jun 2027 08:53:32.924            15.186              Murmansk1          1898.250
       469   11 Jun 2027 08:53:39.086   11 Jun 2027 08:54:25.942            46.856                 Moscow          5857.000
       470   11 Jun 2027 08:54:44.365   11 Jun 2027 08:55:32.721            48.356                Norilsk          6044.500
       471   11 Jun 2027 08:55:34.719   11 Jun 2027 08:55:41.741             7.022                Norilsk           877.750
       472   11 Jun 2027 08:55:49.499   11 Jun 2027 08:56:39.602            50.103                 Moscow          6262.875
       473   11 Jun 2027 08:56:55.373   11 Jun 2027 08:58:09.129            73.756              Murmansk1          9219.500
       474   11 Jun 2027 10:02:16.623   11 Jun 2027 10:05:38.858           202.235               CapeTown         25279.375
       475   11 Jun 2027 10:41:44.405   11 Jun 2027 10:43:28.629           104.224                Anadyr2         13028.000
       476   11 Jun 2027 10:44:15.553   11 Jun 2027 10:46:06.819           111.266                Anadyr2         13908.250
       477   11 Jun 2027 12:21:02.567   11 Jun 2027 12:24:40.846           218.279               Magadan1         27284.875
       478   11 Jun 2027 13:55:26.744   11 Jun 2027 13:56:44.382            77.638               Magadan1          9704.750
       479   11 Jun 2027 13:58:37.842   11 Jun 2027 14:00:03.758            85.916               Magadan2         10739.500
       480   11 Jun 2027 15:37:17.451   11 Jun 2027 15:40:16.119           178.668                Irkutsk         22333.500
       481   11 Jun 2027 15:40:22.803   11 Jun 2027 15:42:25.594           122.791                Irkutsk         15348.875
       482   11 Jun 2027 16:26:01.726   11 Jun 2027 16:26:17.048            15.322            RioGallegos          1915.250
