uniorb/output/strategy_1/Drop/Drop_KinoSat_110509.txt

KinoSat_110509
-------------------------
    Access    *     Start Time (UTCG)     *     Stop Time (UTCG)  *   Duration (s)        *       Station  *  Data (Mbytes)
         1   01 Jun 2027 03:11:02.121   01 Jun 2027 03:11:34.269            32.148                Anadyr2          4018.500
         2   01 Jun 2027 03:11:50.304   01 Jun 2027 03:12:20.037            29.733               Magadan1          3716.625
         3   01 Jun 2027 03:12:25.598   01 Jun 2027 03:12:47.740            22.142               Magadan2          2767.750
         4   01 Jun 2027 03:13:05.032   01 Jun 2027 03:13:14.215             9.183               Magadan2          1147.875
         5   01 Jun 2027 03:13:27.124   01 Jun 2027 03:14:19.730            52.606                Anadyr1          6575.750
         6   01 Jun 2027 03:16:14.608   01 Jun 2027 03:16:26.047            11.439               Magadan1          1429.875
         7   01 Jun 2027 04:46:45.440   01 Jun 2027 04:46:52.521             7.081                Irkutsk           885.125
         8   01 Jun 2027 04:47:00.269   01 Jun 2027 04:47:05.873             5.604                Irkutsk           700.500
         9   01 Jun 2027 04:47:27.123   01 Jun 2027 04:48:29.389            62.266               Magadan1          7783.250
        10   01 Jun 2027 04:48:41.811   01 Jun 2027 04:49:51.921            70.110                Irkutsk          8763.750
        11   01 Jun 2027 04:50:20.620   01 Jun 2027 04:51:32.817            72.197                Irkutsk          9024.625
        12   01 Jun 2027 04:51:55.037   01 Jun 2027 04:52:08.529            13.492                Norilsk          1686.500
        13   01 Jun 2027 04:53:09.707   01 Jun 2027 04:53:24.236            14.529                Norilsk          1816.125
        14   01 Jun 2027 05:26:50.943   01 Jun 2027 05:27:13.310            22.367            RioGallegos          2795.875
        15   01 Jun 2027 05:28:52.569   01 Jun 2027 05:29:25.333            32.764            RioGallegos          4095.500
        16   01 Jun 2027 06:02:30.957   01 Jun 2027 06:04:10.569            99.612                Sumatra         12451.500
        17   01 Jun 2027 06:24:10.521   01 Jun 2027 06:24:23.580            13.059                Irkutsk          1632.375
        18   01 Jun 2027 06:24:24.561   01 Jun 2027 06:24:27.212             2.651                Norilsk           331.375
        19   01 Jun 2027 06:24:35.817   01 Jun 2027 06:24:57.590            21.773                Irkutsk          2721.625
        20   01 Jun 2027 06:25:02.997   01 Jun 2027 06:25:51.298            48.301                Novosib          6037.625
        21   01 Jun 2027 06:25:58.655   01 Jun 2027 06:26:05.599             6.944                Norilsk           868.000
        22   01 Jun 2027 06:26:08.875   01 Jun 2027 06:26:34.990            26.115              Murmansk2          3264.375
        23   01 Jun 2027 06:26:58.133   01 Jun 2027 06:28:02.916            64.783                Novosib          8097.875
        24   01 Jun 2027 06:28:03.393   01 Jun 2027 06:28:42.304            38.911                Norilsk          4863.875
        25   01 Jun 2027 07:04:17.090   01 Jun 2027 07:05:15.137            58.047            RioGallegos          7255.875
        26   01 Jun 2027 07:46:09.397   01 Jun 2027 07:46:16.485             7.088                  Delhi           886.000
        27   01 Jun 2027 07:47:51.076   01 Jun 2027 07:48:11.072            19.996                  Delhi          2499.500
        28   01 Jun 2027 07:49:01.930   01 Jun 2027 07:49:57.097            55.167                  Delhi          6895.875
        29   01 Jun 2027 08:01:50.563   01 Jun 2027 08:03:37.593           107.030                 Moscow         13378.750
        30   01 Jun 2027 09:23:35.800   01 Jun 2027 09:23:54.602            18.802                  Delhi          2350.250
        31   01 Jun 2027 09:24:42.777   01 Jun 2027 09:25:09.132            26.355                  Delhi          3294.375
        32   01 Jun 2027 09:37:13.971   01 Jun 2027 09:37:44.586            30.615                 Moscow          3826.875
        33   01 Jun 2027 09:37:57.215   01 Jun 2027 09:38:07.328            10.113              Murmansk2          1264.125
        34   01 Jun 2027 09:38:09.988   01 Jun 2027 09:39:17.715            67.727                 Moscow          8465.875
        35   01 Jun 2027 09:39:36.680   01 Jun 2027 09:39:39.176             2.496                 Moscow           312.000
        36   01 Jun 2027 09:39:42.582   01 Jun 2027 09:40:20.292            37.710              Murmansk1          4713.750
        37   01 Jun 2027 11:25:40.993   01 Jun 2027 11:31:32.548           351.555                Anadyr1         43944.375
        38   01 Jun 2027 14:38:57.403   01 Jun 2027 14:41:18.646           141.243               Magadan2         17655.375
        39   01 Jun 2027 14:43:43.263   01 Jun 2027 14:46:12.673           149.410               Magadan2         18676.250
        40   01 Jun 2027 14:46:57.985   01 Jun 2027 14:48:28.061            90.076               Magadan2         11259.500
        41   01 Jun 2027 17:09:11.914   01 Jun 2027 17:13:16.373           244.459            RioGallegos         30557.375
        42   01 Jun 2027 18:02:04.748   01 Jun 2027 18:03:53.634           108.886                Irkutsk         13610.750
        43   01 Jun 2027 18:14:08.708   01 Jun 2027 18:14:51.374            42.666                Sumatra          5333.250
        44   01 Jun 2027 19:41:08.321   01 Jun 2027 19:45:07.772           239.451                  Delhi         29931.375
        45   01 Jun 2027 21:05:32.472   01 Jun 2027 21:06:05.071            32.599              Murmansk2          4074.875
        46   01 Jun 2027 21:06:51.662   01 Jun 2027 21:10:01.743           190.081              Murmansk1         23760.125
        47   01 Jun 2027 21:10:08.278   01 Jun 2027 21:12:53.724           165.446                 Moscow         20680.750
        48   01 Jun 2027 23:14:16.503   01 Jun 2027 23:14:25.531             9.028               CapeTown          1128.500
        49   02 Jun 2027 05:00:22.473   02 Jun 2027 05:02:08.039           105.566                Novosib         13195.750
        50   02 Jun 2027 05:02:19.455   02 Jun 2027 05:02:45.216            25.761               Magadan2          3220.125
        51   02 Jun 2027 05:02:45.216   02 Jun 2027 05:03:18.017            32.801               Magadan1          4100.125
        52   02 Jun 2027 05:03:48.700   02 Jun 2027 05:04:06.127            17.427                Irkutsk          2178.375
        53   02 Jun 2027 05:04:09.001   02 Jun 2027 05:04:28.466            19.465                Norilsk          2433.125
        54   02 Jun 2027 05:38:50.602   02 Jun 2027 05:39:37.076            46.474            RioGallegos          5809.250
        55   02 Jun 2027 05:41:18.880   02 Jun 2027 05:41:22.228             3.348            RioGallegos           418.500
        56   02 Jun 2027 05:42:02.548   02 Jun 2027 05:42:49.382            46.834            RioGallegos          5854.250
        57   02 Jun 2027 06:14:10.992   02 Jun 2027 06:15:54.190           103.198                Sumatra         12899.750
        58   02 Jun 2027 06:35:31.609   02 Jun 2027 06:36:18.999            47.390                Norilsk          5923.750
        59   02 Jun 2027 06:36:39.564   02 Jun 2027 06:37:48.691            69.127                Novosib          8640.875
        60   02 Jun 2027 06:37:57.348   02 Jun 2027 06:38:23.761            26.413                Novosib          3301.625
        61   02 Jun 2027 06:38:42.055   02 Jun 2027 06:40:32.715           110.660                Novosib         13832.500
        62   02 Jun 2027 07:58:01.359   02 Jun 2027 07:58:47.256            45.897                  Delhi          5737.125
        63   02 Jun 2027 08:00:35.047   02 Jun 2027 08:00:50.205            15.158                  Delhi          1894.750
        64   02 Jun 2027 08:14:00.058   02 Jun 2027 08:14:18.470            18.412                Irkutsk          2301.500
        65   02 Jun 2027 08:14:38.814   02 Jun 2027 08:15:06.693            27.879              Murmansk1          3484.875
        66   02 Jun 2027 08:15:19.808   02 Jun 2027 08:15:26.227             6.419                Norilsk           802.375
        67   02 Jun 2027 08:15:34.153   02 Jun 2027 08:17:26.582           112.429              Murmansk2         14053.625
        68   02 Jun 2027 09:49:00.439   02 Jun 2027 09:49:32.229            31.790                Norilsk          3973.750
        69   02 Jun 2027 09:49:37.690   02 Jun 2027 09:50:11.781            34.091                Novosib          4261.375
        70   02 Jun 2027 09:50:18.554   02 Jun 2027 09:51:18.920            60.366                Norilsk          7545.750
        71   02 Jun 2027 09:52:03.883   02 Jun 2027 09:53:16.332            72.449                Norilsk          9056.125
        72   02 Jun 2027 10:59:06.425   02 Jun 2027 11:01:16.166           129.741               CapeTown         16217.625
        73   02 Jun 2027 11:03:22.109   02 Jun 2027 11:04:40.317            78.208               CapeTown          9776.000
        74   02 Jun 2027 11:37:23.434   02 Jun 2027 11:43:45.785           382.351                Anadyr2         47793.875
        75   02 Jun 2027 13:18:01.879   02 Jun 2027 13:19:50.300           108.421               Magadan1         13552.625
        76   02 Jun 2027 14:50:52.689   02 Jun 2027 14:53:00.987           128.298               Magadan2         16037.250
        77   02 Jun 2027 17:22:29.762   02 Jun 2027 17:24:44.091           134.329            RioGallegos         16791.125
        78   02 Jun 2027 18:06:05.034   02 Jun 2027 18:06:36.317            31.283                Norilsk          3910.375
        79   02 Jun 2027 18:08:25.159   02 Jun 2027 18:13:14.640           289.481                Novosib         36185.125
        80   02 Jun 2027 19:54:41.497   02 Jun 2027 19:56:16.463            94.966                  Delhi         11870.750
        81   02 Jun 2027 21:17:39.747   02 Jun 2027 21:21:51.995           252.248              Murmansk2         31531.000
        82   02 Jun 2027 21:22:21.442   02 Jun 2027 21:27:46.249           324.807                 Moscow         40600.875
        83   03 Jun 2027 03:38:34.365   03 Jun 2027 03:39:28.892            54.527               Magadan1          6815.875
        84   03 Jun 2027 03:39:28.892   03 Jun 2027 03:40:08.112            39.220               Magadan2          4902.500
        85   03 Jun 2027 05:11:11.873   03 Jun 2027 05:13:23.509           131.636                Irkutsk         16454.500
        86   03 Jun 2027 05:13:41.948   03 Jun 2027 05:14:35.239            53.291               Magadan2          6661.375
        87   03 Jun 2027 05:14:56.792   03 Jun 2027 05:16:10.756            73.964                Irkutsk          9245.500
        88   03 Jun 2027 05:50:53.580   03 Jun 2027 05:51:44.672            51.092            RioGallegos          6386.500
        89   03 Jun 2027 06:25:57.821   03 Jun 2027 06:26:17.694            19.873                Sumatra          2484.125
        90   03 Jun 2027 06:28:18.027   03 Jun 2027 06:28:47.548            29.521                Sumatra          3690.125
        91   03 Jun 2027 06:37:34.730   03 Jun 2027 06:38:30.687            55.957                  Delhi          6994.625
        92   03 Jun 2027 06:48:10.244   03 Jun 2027 06:48:27.638            17.394                Novosib          2174.250
        93   03 Jun 2027 06:48:27.868   03 Jun 2027 06:49:04.136            36.268                Norilsk          4533.500
        94   03 Jun 2027 06:49:22.707   03 Jun 2027 06:49:51.556            28.849                Irkutsk          3606.125
        95   03 Jun 2027 06:49:55.202   03 Jun 2027 06:50:29.244            34.042                Novosib          4255.250
        96   03 Jun 2027 06:50:41.156   03 Jun 2027 06:51:41.856            60.700              Murmansk1          7587.500
        97   03 Jun 2027 06:51:48.945   03 Jun 2027 06:52:10.917            21.972                 Moscow          2746.500
        98   03 Jun 2027 06:52:11.324   03 Jun 2027 06:52:28.675            17.351                 Moscow          2168.875
        99   03 Jun 2027 06:53:14.191   03 Jun 2027 06:53:14.959             0.768                Novosib            96.000
       100   03 Jun 2027 08:03:53.067   03 Jun 2027 08:04:58.861            65.794                Sumatra          8224.250
       101   03 Jun 2027 08:09:58.622   03 Jun 2027 08:10:55.712            57.090                  Delhi          7136.250
       102   03 Jun 2027 08:26:12.657   03 Jun 2027 08:27:02.041            49.384                 Moscow          6173.000
       103   03 Jun 2027 08:27:26.480   03 Jun 2027 08:28:25.569            59.089                 Moscow          7386.125
       104   03 Jun 2027 08:29:07.135   03 Jun 2027 08:29:28.806            21.671                Novosib          2708.875
       105   03 Jun 2027 09:58:15.407   03 Jun 2027 09:59:30.171            74.764                Novosib          9345.500
       106   03 Jun 2027 09:59:49.118   03 Jun 2027 10:00:46.031            56.913              Murmansk2          7114.125
       107   03 Jun 2027 10:01:09.971   03 Jun 2027 10:02:06.252            56.281              Murmansk2          7035.125
       108   03 Jun 2027 10:02:09.540   03 Jun 2027 10:02:45.384            35.844                Novosib          4480.500
       109   03 Jun 2027 10:03:04.163   03 Jun 2027 10:04:02.075            57.912                 Moscow          7239.000
       110   03 Jun 2027 10:04:13.769   03 Jun 2027 10:04:19.400             5.631                Norilsk           703.875
       111   03 Jun 2027 10:04:24.101   03 Jun 2027 10:05:32.045            67.944              Murmansk2          8493.000
       112   03 Jun 2027 11:10:05.191   03 Jun 2027 11:12:58.793           173.602               CapeTown         21700.250
       113   03 Jun 2027 11:17:04.714   03 Jun 2027 11:17:54.004            49.290               CapeTown          6161.250
       114   03 Jun 2027 11:49:11.367   03 Jun 2027 11:53:17.250           245.883                Anadyr2         30735.375
       115   03 Jun 2027 11:53:43.351   03 Jun 2027 11:55:41.643           118.292                Anadyr1         14786.500
       116   03 Jun 2027 13:28:47.645   03 Jun 2027 13:33:42.913           295.268               Magadan2         36908.500
       117   03 Jun 2027 16:45:31.129   03 Jun 2027 16:48:31.081           179.952                Irkutsk         22494.000
       118   03 Jun 2027 18:19:43.888   03 Jun 2027 18:26:28.872           404.984                Novosib         50623.000
       119   03 Jun 2027 21:29:20.314   03 Jun 2027 21:30:05.724            45.410              Murmansk1          5676.250
       120   03 Jun 2027 21:31:14.621   03 Jun 2027 21:33:45.480           150.859              Murmansk2         18857.375
       121   03 Jun 2027 21:34:20.135   03 Jun 2027 21:40:40.861           380.726                 Moscow         47590.750
       122   04 Jun 2027 03:48:05.626   04 Jun 2027 03:48:31.793            26.167               Magadan2          3270.875
       123   04 Jun 2027 03:48:33.635   04 Jun 2027 03:48:36.917             3.282               Magadan2           410.250
       124   04 Jun 2027 03:48:43.860   04 Jun 2027 03:49:24.345            40.485               Magadan2          5060.625
       125   04 Jun 2027 03:49:43.754   04 Jun 2027 03:51:03.071            79.317                Anadyr2          9914.625
       126   04 Jun 2027 03:51:56.698   04 Jun 2027 03:52:04.944             8.246                Anadyr2          1030.750
       127   04 Jun 2027 05:23:08.473   04 Jun 2027 05:23:31.779            23.306               Magadan1          2913.250
       128   04 Jun 2027 05:23:31.779   04 Jun 2027 05:24:17.346            45.567               Magadan2          5695.875
       129   04 Jun 2027 05:24:34.571   04 Jun 2027 05:24:43.773             9.202                Novosib          1150.250
       130   04 Jun 2027 05:24:46.535   04 Jun 2027 05:26:38.137           111.602               Magadan1         13950.250
       131   04 Jun 2027 05:26:57.271   04 Jun 2027 05:27:33.036            35.765                Novosib          4470.625
       132   04 Jun 2027 05:27:46.780   04 Jun 2027 05:28:14.617            27.837                Irkutsk          3479.625
       133   04 Jun 2027 06:02:59.991   04 Jun 2027 06:04:07.506            67.515            RioGallegos          8439.375
       134   04 Jun 2027 06:37:50.671   04 Jun 2027 06:38:55.384            64.713                Sumatra          8089.125
       135   04 Jun 2027 06:50:44.838   04 Jun 2027 06:51:14.393            29.555                  Delhi          3694.375
       136   04 Jun 2027 06:56:47.581   04 Jun 2027 06:57:08.508            20.927                  Delhi          2615.875
       137   04 Jun 2027 07:00:28.601   04 Jun 2027 07:01:07.070            38.469                Norilsk          4808.625
       138   04 Jun 2027 07:01:14.408   04 Jun 2027 07:01:54.002            39.594                Norilsk          4949.250
       139   04 Jun 2027 07:02:00.962   04 Jun 2027 07:04:00.226           119.264                Irkutsk         14908.000
       140   04 Jun 2027 08:22:01.189   04 Jun 2027 08:22:53.799            52.610                  Delhi          6576.250
       141   04 Jun 2027 08:36:41.453   04 Jun 2027 08:36:55.019            13.566                Irkutsk          1695.750
       142   04 Jun 2027 08:37:09.654   04 Jun 2027 08:38:47.856            98.202                Novosib         12275.250
       143   04 Jun 2027 08:38:53.857   04 Jun 2027 08:39:46.434            52.577                 Moscow          6572.125
       144   04 Jun 2027 10:09:42.054   04 Jun 2027 10:11:00.593            78.539                 Moscow          9817.375
       145   04 Jun 2027 10:11:17.991   04 Jun 2027 10:11:55.806            37.815                 Moscow          4726.875
       146   04 Jun 2027 10:12:03.821   04 Jun 2027 10:12:35.731            31.910              Murmansk2          3988.750
       147   04 Jun 2027 10:12:43.967   04 Jun 2027 10:13:28.676            44.709                 Moscow          5588.625
       148   04 Jun 2027 10:13:33.994   04 Jun 2027 10:13:43.236             9.242                Norilsk          1155.250
       149   04 Jun 2027 10:13:57.465   04 Jun 2027 10:15:22.642            85.177                Norilsk         10647.125
       150   04 Jun 2027 10:15:35.730   04 Jun 2027 10:16:11.750            36.020              Murmansk1          4502.500
       151   04 Jun 2027 10:16:21.305   04 Jun 2027 10:17:10.039            48.734                 Moscow          6091.750
       152   04 Jun 2027 11:21:26.214   04 Jun 2027 11:24:46.301           200.087               CapeTown         25010.875
       153   04 Jun 2027 11:27:04.157   04 Jun 2027 11:29:04.273           120.116               CapeTown         15014.500
       154   04 Jun 2027 12:01:02.713   04 Jun 2027 12:02:17.786            75.073                Anadyr2          9384.125
       155   04 Jun 2027 12:03:25.728   04 Jun 2027 12:06:12.828           167.100                Anadyr1         20887.500
       156   04 Jun 2027 13:40:14.351   04 Jun 2027 13:43:05.525           171.174               Magadan1         21396.750
       157   04 Jun 2027 16:56:21.611   04 Jun 2027 17:02:13.282           351.671                Irkutsk         43958.875
       158   04 Jun 2027 17:13:41.038   04 Jun 2027 17:15:47.986           126.948                Sumatra         15868.500
       159   04 Jun 2027 18:31:17.828   04 Jun 2027 18:37:33.641           375.813                Novosib         46976.625
       160   04 Jun 2027 20:07:30.170   04 Jun 2027 20:07:34.565             4.395              Murmansk1           549.375
       161   04 Jun 2027 21:40:33.620   04 Jun 2027 21:42:08.961            95.341              Murmansk2         11917.625
       162   04 Jun 2027 21:43:57.173   04 Jun 2027 21:46:13.684           136.511              Murmansk2         17063.875
       163   04 Jun 2027 21:46:16.048   04 Jun 2027 21:49:55.422           219.374                 Moscow         27421.750
       164   04 Jun 2027 22:12:25.137   04 Jun 2027 22:13:40.903            75.766               CapeTown          9470.750
       165   05 Jun 2027 04:00:02.778   05 Jun 2027 04:03:04.271           181.493                Anadyr2         22686.625
       166   05 Jun 2027 04:03:55.658   05 Jun 2027 04:04:22.901            27.243               Magadan1          3405.375
       167   05 Jun 2027 05:18:14.099   05 Jun 2027 05:18:24.743            10.644                Sumatra          1330.500
       168   05 Jun 2027 05:19:26.851   05 Jun 2027 05:20:36.500            69.649                Sumatra          8706.125
       169   05 Jun 2027 05:35:44.381   05 Jun 2027 05:37:05.488            81.107                Irkutsk         10138.375
       170   05 Jun 2027 05:37:25.298   05 Jun 2027 05:38:37.503            72.205               Magadan2          9025.625
       171   05 Jun 2027 05:38:41.456   05 Jun 2027 05:38:48.356             6.900               Magadan1           862.500
       172   05 Jun 2027 05:39:06.697   05 Jun 2027 05:39:54.617            47.920                Norilsk          5990.000
       173   05 Jun 2027 05:40:00.536   05 Jun 2027 05:40:10.470             9.934              Murmansk1          1241.750
       174   05 Jun 2027 05:40:11.619   05 Jun 2027 05:40:25.376            13.757                Novosib          1719.625
       175   05 Jun 2027 05:42:50.331   05 Jun 2027 05:43:13.678            23.347                Norilsk          2918.375
       176   05 Jun 2027 06:15:10.011   05 Jun 2027 06:15:38.153            28.142            RioGallegos          3517.750
       177   05 Jun 2027 06:49:49.168   05 Jun 2027 06:51:51.213           122.045                Sumatra         15255.625
       178   05 Jun 2027 07:05:38.733   05 Jun 2027 07:07:17.042            98.309                  Delhi         12288.625
       179   05 Jun 2027 07:12:33.476   05 Jun 2027 07:13:37.232            63.756                Irkutsk          7969.500
       180   05 Jun 2027 07:13:50.083   05 Jun 2027 07:13:59.142             9.059                Irkutsk          1132.375
       181   05 Jun 2027 07:14:01.604   05 Jun 2027 07:14:42.608            41.004                 Moscow          5125.500
       182   05 Jun 2027 07:14:54.649   05 Jun 2027 07:16:13.620            78.971                Novosib          9871.375
       183   05 Jun 2027 07:17:53.897   05 Jun 2027 07:18:15.299            21.402                 Moscow          2675.250
       184   05 Jun 2027 08:34:09.264   05 Jun 2027 08:35:34.449            85.185                  Delhi         10648.125
       185   05 Jun 2027 08:48:18.187   05 Jun 2027 08:48:37.435            19.248              Murmansk1          2406.000
       186   05 Jun 2027 08:48:51.289   05 Jun 2027 08:49:30.539            39.250              Murmansk2          4906.250
       187   05 Jun 2027 08:49:45.442   05 Jun 2027 08:51:32.713           107.271                 Moscow         13408.875
       188   05 Jun 2027 08:51:48.853   05 Jun 2027 08:52:47.267            58.414                Novosib          7301.750
       189   05 Jun 2027 10:21:52.286   05 Jun 2027 10:22:24.775            32.489              Murmansk1          4061.125
       190   05 Jun 2027 10:22:26.998   05 Jun 2027 10:23:09.211            42.213                 Moscow          5276.625
       191   05 Jun 2027 10:23:25.711   05 Jun 2027 10:24:26.572            60.861                 Moscow          7607.625
       192   05 Jun 2027 10:24:44.772   05 Jun 2027 10:25:54.993            70.221              Murmansk1          8777.625
       193   05 Jun 2027 10:26:07.215   05 Jun 2027 10:26:40.308            33.093              Murmansk1          4136.625
       194   05 Jun 2027 10:26:52.708   05 Jun 2027 10:27:44.895            52.187                 Moscow          6523.375
       195   05 Jun 2027 10:27:59.755   05 Jun 2027 10:28:28.304            28.549              Murmansk1          3568.625
       196   05 Jun 2027 11:32:58.739   05 Jun 2027 11:34:43.554           104.815               CapeTown         13101.875
       197   05 Jun 2027 11:35:49.283   05 Jun 2027 11:39:24.772           215.489               CapeTown         26936.125
       198   05 Jun 2027 12:12:56.399   05 Jun 2027 12:14:35.828            99.429                Anadyr2         12428.625
       199   05 Jun 2027 12:16:52.050   05 Jun 2027 12:17:12.474            20.424                Anadyr1          2553.000
       200   05 Jun 2027 12:20:01.982   05 Jun 2027 12:21:43.146           101.164                Anadyr2         12645.500
       201   05 Jun 2027 13:51:52.919   05 Jun 2027 13:55:42.313           229.394               Magadan2         28674.250
       202   05 Jun 2027 13:58:11.581   05 Jun 2027 13:59:45.621            94.040               Magadan1         11755.000
       203   05 Jun 2027 16:22:06.959   05 Jun 2027 16:23:50.406           103.447            RioGallegos         12930.875
       204   05 Jun 2027 17:07:45.043   05 Jun 2027 17:11:12.023           206.980                Irkutsk         25872.500
       205   05 Jun 2027 17:12:06.916   05 Jun 2027 17:13:41.085            94.169                Irkutsk         11771.125
       206   05 Jun 2027 17:15:18.804   05 Jun 2027 17:15:19.367             0.563                Irkutsk            70.375
       207   05 Jun 2027 17:23:24.120   05 Jun 2027 17:25:13.728           109.608                Sumatra         13701.000
       208   05 Jun 2027 17:26:51.164   05 Jun 2027 17:29:04.671           133.507                Sumatra         16688.375
       209   05 Jun 2027 18:44:27.277   05 Jun 2027 18:44:44.104            16.827                Novosib          2103.375
       210   05 Jun 2027 18:46:19.309   05 Jun 2027 18:46:52.340            33.031                Novosib          4128.875
       211   05 Jun 2027 18:48:30.103   05 Jun 2027 18:51:13.467           163.364                Novosib         20420.500
       212   05 Jun 2027 20:18:54.878   05 Jun 2027 20:19:12.475            17.597              Murmansk2          2199.625
       213   05 Jun 2027 21:53:16.421   05 Jun 2027 21:54:24.898            68.477              Murmansk1          8559.625
       214   05 Jun 2027 21:56:19.187   05 Jun 2027 21:58:06.994           107.807                 Moscow         13475.875
       215   05 Jun 2027 21:59:06.415   05 Jun 2027 22:00:19.002            72.587                 Moscow          9073.375
       216   05 Jun 2027 22:02:20.054   05 Jun 2027 22:03:09.802            49.748                 Moscow          6218.500
       217   05 Jun 2027 22:23:08.479   05 Jun 2027 22:23:47.660            39.181               CapeTown          4897.625
       218   05 Jun 2027 22:26:30.813   05 Jun 2027 22:26:55.147            24.334               CapeTown          3041.750
       219   06 Jun 2027 04:13:04.291   06 Jun 2027 04:15:05.313           121.022                Anadyr2         15127.750
       220   06 Jun 2027 04:15:34.405   06 Jun 2027 04:16:00.185            25.780               Magadan1          3222.500
       221   06 Jun 2027 04:18:31.483   06 Jun 2027 04:18:46.881            15.398              Murmansk1          1924.750
       222   06 Jun 2027 04:19:29.426   06 Jun 2027 04:19:57.980            28.554              Murmansk2          3569.250
       223   06 Jun 2027 04:20:19.922   06 Jun 2027 04:21:02.666            42.744              Murmansk2          5343.000
       224   06 Jun 2027 04:54:06.046   06 Jun 2027 04:54:22.070            16.024            RioGallegos          2003.000
       225   06 Jun 2027 05:28:46.800   06 Jun 2027 05:30:41.387           114.587                Sumatra         14323.375
       226   06 Jun 2027 05:47:49.235   06 Jun 2027 05:49:03.757            74.522                Irkutsk          9315.250
       227   06 Jun 2027 05:49:20.326   06 Jun 2027 05:49:47.136            26.810               Magadan2          3351.250
       228   06 Jun 2027 05:50:10.931   06 Jun 2027 05:51:51.339           100.408                Novosib         12551.000
       229   06 Jun 2027 05:52:04.284   06 Jun 2027 05:52:13.213             8.929                Norilsk          1116.125
       230   06 Jun 2027 05:52:27.016   06 Jun 2027 05:52:49.780            22.764              Murmansk1          2845.500
       231   06 Jun 2027 06:27:23.861   06 Jun 2027 06:27:49.910            26.049            RioGallegos          3256.125
       232   06 Jun 2027 07:01:53.256   06 Jun 2027 07:02:09.632            16.376                Sumatra          2047.000
       233   06 Jun 2027 07:10:06.918   06 Jun 2027 07:10:46.166            39.248                Sumatra          4906.000
       234   06 Jun 2027 07:11:22.378   06 Jun 2027 07:12:34.207            71.829                  Delhi          8978.625
       235   06 Jun 2027 07:22:22.416   06 Jun 2027 07:22:24.153             1.737                  Delhi           217.125
       236   06 Jun 2027 07:23:44.418   06 Jun 2027 07:24:05.855            21.437                Irkutsk          2679.625
       237   06 Jun 2027 07:24:57.685   06 Jun 2027 07:25:44.679            46.994                Irkutsk          5874.250
       238   06 Jun 2027 07:25:46.581   06 Jun 2027 07:26:03.400            16.819              Murmansk1          2102.375
       239   06 Jun 2027 07:26:03.400   06 Jun 2027 07:26:08.259             4.859              Murmansk2           607.375
       240   06 Jun 2027 07:26:15.247   06 Jun 2027 07:27:17.057            61.810                Novosib          7726.250
       241   06 Jun 2027 07:27:31.623   06 Jun 2027 07:27:47.769            16.146                Irkutsk          2018.250
       242   06 Jun 2027 07:27:49.265   06 Jun 2027 07:28:03.375            14.110                 Moscow          1763.750
       243   06 Jun 2027 07:28:20.978   06 Jun 2027 07:28:35.488            14.510              Murmansk2          1813.750
       244   06 Jun 2027 07:29:40.154   06 Jun 2027 07:30:01.785            21.631                 Moscow          2703.875
       245   06 Jun 2027 08:09:12.373   06 Jun 2027 08:09:40.883            28.510            RioGallegos          3563.750
       246   06 Jun 2027 08:46:23.250   06 Jun 2027 08:47:17.493            54.243                  Delhi          6780.375
       247   06 Jun 2027 08:59:29.023   06 Jun 2027 08:59:50.648            21.625                Novosib          2703.125
       248   06 Jun 2027 09:00:05.746   06 Jun 2027 09:00:44.655            38.909                 Moscow          4863.625
       249   06 Jun 2027 09:00:52.679   06 Jun 2027 09:02:26.097            93.418              Murmansk1         11677.250
       250   06 Jun 2027 09:02:43.391   06 Jun 2027 09:03:02.824            19.433              Murmansk2          2429.125
       251   06 Jun 2027 09:03:14.468   06 Jun 2027 09:04:01.064            46.596                Norilsk          5824.500
       252   06 Jun 2027 09:04:46.672   06 Jun 2027 09:05:07.906            21.234                 Moscow          2654.250
       253   06 Jun 2027 10:34:18.521   06 Jun 2027 10:35:41.236            82.715              Murmansk2         10339.375
       254   06 Jun 2027 10:36:32.324   06 Jun 2027 10:39:21.838           169.514              Murmansk2         21189.250
       255   06 Jun 2027 10:40:37.390   06 Jun 2027 10:40:44.394             7.004                Norilsk           875.500
       256   06 Jun 2027 10:42:01.718   06 Jun 2027 10:42:30.341            28.623                 Moscow          3577.875
       257   06 Jun 2027 11:44:38.748   06 Jun 2027 11:45:26.999            48.251               CapeTown          6031.375
       258   06 Jun 2027 11:48:32.587   06 Jun 2027 11:48:50.593            18.006               CapeTown          2250.750
       259   06 Jun 2027 11:49:19.186   06 Jun 2027 11:50:57.386            98.200               CapeTown         12275.000
       260   06 Jun 2027 12:24:51.791   06 Jun 2027 12:27:29.043           157.252                Anadyr2         19656.500
       261   06 Jun 2027 12:28:40.747   06 Jun 2027 12:31:02.009           141.262                Anadyr2         17657.750
       262   06 Jun 2027 12:33:44.549   06 Jun 2027 12:34:23.590            39.041                Anadyr2          4880.125
       263   06 Jun 2027 14:03:37.772   06 Jun 2027 14:07:05.610           207.838               Magadan1         25979.750
       264   06 Jun 2027 14:08:53.044   06 Jun 2027 14:09:42.486            49.442               Magadan1          6180.250
       265   06 Jun 2027 16:32:39.844   06 Jun 2027 16:35:33.734           173.890            RioGallegos         21736.250
       266   06 Jun 2027 16:37:42.407   06 Jun 2027 16:38:12.948            30.541            RioGallegos          3817.625
       267   06 Jun 2027 17:19:20.548   06 Jun 2027 17:23:03.266           222.718                Irkutsk         27839.750
       268   06 Jun 2027 17:24:37.012   06 Jun 2027 17:25:44.254            67.242                Irkutsk          8405.250
       269   06 Jun 2027 17:34:16.868   06 Jun 2027 17:36:53.439           156.571                Sumatra         19571.375
       270   06 Jun 2027 17:38:43.436   06 Jun 2027 17:40:29.297           105.861                Sumatra         13232.625
       271   06 Jun 2027 18:57:50.210   06 Jun 2027 18:58:47.311            57.101                Novosib          7137.625
       272   06 Jun 2027 19:04:46.199   06 Jun 2027 19:06:45.592           119.393                  Delhi         14924.125
       273   06 Jun 2027 19:08:47.444   06 Jun 2027 19:10:16.939            89.495                  Delhi         11186.875
       274   06 Jun 2027 20:30:23.590   06 Jun 2027 20:31:22.135            58.545              Murmansk1          7318.125
       275   06 Jun 2027 22:06:29.454   06 Jun 2027 22:08:40.296           130.842              Murmansk2         16355.250
       276   06 Jun 2027 22:34:13.100   06 Jun 2027 22:35:57.712           104.612               CapeTown         13076.500
       277   07 Jun 2027 04:23:53.210   07 Jun 2027 04:24:02.853             9.643                Irkutsk          1205.375
       278   07 Jun 2027 04:24:47.069   07 Jun 2027 04:25:28.052            40.983                Irkutsk          5122.875
       279   07 Jun 2027 04:26:17.928   07 Jun 2027 04:27:47.088            89.160                Novosib         11145.000
       280   07 Jun 2027 04:27:57.485   07 Jun 2027 04:28:01.888             4.403                Irkutsk           550.375
       281   07 Jun 2027 04:29:18.639   07 Jun 2027 04:29:44.804            26.165                Norilsk          3270.625
       282   07 Jun 2027 04:29:46.950   07 Jun 2027 04:29:49.535             2.585                Norilsk           323.125
       283   07 Jun 2027 05:03:15.797   07 Jun 2027 05:04:32.077            76.280            RioGallegos          9535.000
       284   07 Jun 2027 05:05:47.744   07 Jun 2027 05:05:53.469             5.725            RioGallegos           715.625
       285   07 Jun 2027 05:39:52.045   07 Jun 2027 05:41:22.440            90.395                Sumatra         11299.375
       286   07 Jun 2027 05:59:53.313   07 Jun 2027 06:00:29.126            35.813                Irkutsk          4476.625
       287   07 Jun 2027 06:00:31.936   07 Jun 2027 06:00:35.809             3.873                Novosib           484.125
       288   07 Jun 2027 06:00:36.012   07 Jun 2027 06:01:03.358            27.346                Irkutsk          3418.250
       289   07 Jun 2027 06:01:28.352   07 Jun 2027 06:02:17.481            49.129                Norilsk          6141.125
       290   07 Jun 2027 06:02:23.572   07 Jun 2027 06:03:07.243            43.671              Murmansk2          5458.875
       291   07 Jun 2027 06:03:12.161   07 Jun 2027 06:03:34.990            22.829                Norilsk          2853.625
       292   07 Jun 2027 06:03:41.875   07 Jun 2027 06:04:41.805            59.930                Novosib          7491.250
       293   07 Jun 2027 06:39:41.847   07 Jun 2027 06:39:51.084             9.237            RioGallegos          1154.625
       294   07 Jun 2027 07:14:03.185   07 Jun 2027 07:15:22.749            79.564                Sumatra          9945.500
       295   07 Jun 2027 07:24:52.958   07 Jun 2027 07:26:41.178           108.220                  Delhi         13527.500
       296   07 Jun 2027 07:35:53.134   07 Jun 2027 07:35:57.148             4.014                Irkutsk           501.750
       297   07 Jun 2027 07:36:59.215   07 Jun 2027 07:37:27.541            28.326              Murmansk1          3540.750
       298   07 Jun 2027 07:37:32.332   07 Jun 2027 07:38:20.311            47.979                Novosib          5997.375
       299   07 Jun 2027 07:38:34.474   07 Jun 2027 07:39:48.277            73.803                Novosib          9225.375
       300   07 Jun 2027 08:58:43.879   07 Jun 2027 08:59:06.213            22.334                  Delhi          2791.750
       301   07 Jun 2027 09:11:39.130   07 Jun 2027 09:12:09.079            29.949                Norilsk          3743.625
       302   07 Jun 2027 09:12:23.489   07 Jun 2027 09:13:18.449            54.960              Murmansk1          6870.000
       303   07 Jun 2027 09:13:21.010   07 Jun 2027 09:14:16.281            55.271              Murmansk1          6908.875
       304   07 Jun 2027 09:14:30.737   07 Jun 2027 09:14:40.003             9.266              Murmansk1          1158.250
       305   07 Jun 2027 09:14:41.909   07 Jun 2027 09:15:13.003            31.094                 Moscow          3886.750
       306   07 Jun 2027 09:15:29.764   07 Jun 2027 09:16:05.007            35.243                Norilsk          4405.375
       307   07 Jun 2027 09:16:50.413   07 Jun 2027 09:17:29.971            39.558                Norilsk          4944.750
       308   07 Jun 2027 10:49:15.924   07 Jun 2027 10:51:01.956           106.032              Murmansk2         13254.000
       309   07 Jun 2027 11:03:33.195   07 Jun 2027 11:04:48.820            75.625                Anadyr2          9453.125
       310   07 Jun 2027 12:00:30.425   07 Jun 2027 12:01:09.876            39.451               CapeTown          4931.375
       311   07 Jun 2027 12:36:48.475   07 Jun 2027 12:39:04.362           135.887                Anadyr1         16985.875
       312   07 Jun 2027 12:41:22.829   07 Jun 2027 12:42:13.421            50.592                Anadyr1          6324.000
       313   07 Jun 2027 12:44:56.256   07 Jun 2027 12:45:45.493            49.237                Anadyr2          6154.625
       314   07 Jun 2027 14:15:26.623   07 Jun 2027 14:22:24.624           418.001               Magadan1         52250.125
       315   07 Jun 2027 14:22:24.624   07 Jun 2027 14:23:58.591            93.967               Magadan2         11745.875
       316   07 Jun 2027 16:43:59.208   07 Jun 2027 16:47:21.255           202.047            RioGallegos         25255.875
       317   07 Jun 2027 17:33:30.042   07 Jun 2027 17:37:14.793           224.751                Irkutsk         28093.875
       318   07 Jun 2027 17:45:31.115   07 Jun 2027 17:48:39.991           188.876                Sumatra         23609.500
       319   07 Jun 2027 17:51:28.754   07 Jun 2027 17:53:13.640           104.886                Sumatra         13110.750
       320   07 Jun 2027 19:15:40.038   07 Jun 2027 19:17:50.432           130.394                  Delhi         16299.250
       321   07 Jun 2027 20:42:20.542   07 Jun 2027 20:44:44.164           143.622              Murmansk1         17952.750
       322   07 Jun 2027 22:19:26.632   07 Jun 2027 22:20:00.775            34.143              Murmansk1          4267.875
       323   07 Jun 2027 22:22:48.991   07 Jun 2027 22:23:07.905            18.914              Murmansk1          2364.250
       324   07 Jun 2027 22:48:51.019   07 Jun 2027 22:50:43.576           112.557               CapeTown         14069.625
       325   08 Jun 2027 04:36:43.089   08 Jun 2027 04:37:00.358            17.269               Magadan1          2158.625
       326   08 Jun 2027 04:37:13.042   08 Jun 2027 04:37:52.571            39.529                Norilsk          4941.125
       327   08 Jun 2027 04:38:09.768   08 Jun 2027 04:38:13.660             3.892                Norilsk           486.500
       328   08 Jun 2027 04:38:16.774   08 Jun 2027 04:38:41.577            24.803                Novosib          3100.375
       329   08 Jun 2027 04:38:48.408   08 Jun 2027 04:39:20.358            31.950               Magadan2          3993.750
       330   08 Jun 2027 04:39:22.419   08 Jun 2027 04:39:37.174            14.755                Novosib          1844.375
       331   08 Jun 2027 04:40:01.562   08 Jun 2027 04:40:09.123             7.561                Irkutsk           945.125
       332   08 Jun 2027 04:40:14.732   08 Jun 2027 04:41:11.993            57.261                Novosib          7157.625
       333   08 Jun 2027 05:15:09.075   08 Jun 2027 05:16:03.700            54.625            RioGallegos          6828.125
       334   08 Jun 2027 05:51:13.324   08 Jun 2027 05:54:13.486           180.162                Sumatra         22520.250
       335   08 Jun 2027 06:11:56.636   08 Jun 2027 06:12:43.918            47.282                Irkutsk          5910.250
       336   08 Jun 2027 06:13:06.170   08 Jun 2027 06:15:18.118           131.948                Irkutsk         16493.500
       337   08 Jun 2027 06:15:47.764   08 Jun 2027 06:16:08.068            20.304                Norilsk          2538.000
       338   08 Jun 2027 06:16:27.869   08 Jun 2027 06:17:05.632            37.763              Murmansk1          4720.375
       339   08 Jun 2027 06:52:04.386   08 Jun 2027 06:52:50.762            46.376            RioGallegos          5797.000
       340   08 Jun 2027 07:26:19.613   08 Jun 2027 07:26:50.966            31.353                Sumatra          3919.125
       341   08 Jun 2027 07:36:38.299   08 Jun 2027 07:37:06.817            28.518                  Delhi          3564.750
       342   08 Jun 2027 07:49:14.824   08 Jun 2027 07:50:25.185            70.361              Murmansk2          8795.125
       343   08 Jun 2027 07:50:36.244   08 Jun 2027 07:50:45.048             8.804                 Moscow          1100.500
       344   08 Jun 2027 07:50:59.557   08 Jun 2027 07:51:25.468            25.911                Irkutsk          3238.875
       345   08 Jun 2027 07:51:36.243   08 Jun 2027 07:52:50.950            74.707                Novosib          9338.375
       346   08 Jun 2027 07:53:44.745   08 Jun 2027 07:53:47.863             3.118              Murmansk2           389.750
       347   08 Jun 2027 07:54:03.050   08 Jun 2027 07:55:02.527            59.477              Murmansk2          7434.625
       348   08 Jun 2027 09:14:50.488   08 Jun 2027 09:15:29.985            39.497                  Delhi          4937.125
       349   08 Jun 2027 09:23:59.821   08 Jun 2027 09:24:48.517            48.696                Novosib          6087.000
       350   08 Jun 2027 09:24:53.524   08 Jun 2027 09:25:11.234            17.710                Novosib          2213.750
       351   08 Jun 2027 09:25:11.377   08 Jun 2027 09:26:03.922            52.545                 Moscow          6568.125
       352   08 Jun 2027 09:26:18.326   08 Jun 2027 09:26:22.955             4.629              Murmansk1           578.625
       353   08 Jun 2027 09:26:28.317   08 Jun 2027 09:27:21.972            53.655                Novosib          6706.875
       354   08 Jun 2027 09:27:31.156   08 Jun 2027 09:28:03.258            32.102                Norilsk          4012.750
       355   08 Jun 2027 11:14:23.467   08 Jun 2027 11:18:40.439           256.972                Anadyr2         32121.500
       356   08 Jun 2027 12:53:59.938   08 Jun 2027 12:54:08.065             8.127                Anadyr2          1015.875
       357   08 Jun 2027 14:27:18.255   08 Jun 2027 14:27:41.318            23.063               Magadan1          2882.875
       358   08 Jun 2027 14:27:41.318   08 Jun 2027 14:31:07.454           206.136               Magadan2         25767.000
       359   08 Jun 2027 14:31:11.283   08 Jun 2027 14:32:58.695           107.412               Magadan2         13426.500
       360   08 Jun 2027 14:33:47.926   08 Jun 2027 14:36:00.749           132.823               Magadan1         16602.875
       361   08 Jun 2027 16:55:32.547   08 Jun 2027 17:01:51.428           378.881            RioGallegos         47360.125
       362   08 Jun 2027 17:40:37.710   08 Jun 2027 17:41:33.067            55.357                Norilsk          6919.625
       363   08 Jun 2027 17:46:42.474   08 Jun 2027 17:46:52.010             9.536                Irkutsk          1192.000
       364   08 Jun 2027 18:01:13.451   08 Jun 2027 18:03:59.816           166.365                Sumatra         20795.625
       365   08 Jun 2027 19:26:58.194   08 Jun 2027 19:30:14.126           195.932                  Delhi         24491.500
       366   08 Jun 2027 19:34:33.828   08 Jun 2027 19:34:54.897            21.069                  Delhi          2633.625
       367   08 Jun 2027 20:52:48.888   08 Jun 2027 20:53:14.201            25.313              Murmansk1          3164.125
       368   08 Jun 2027 20:54:15.682   08 Jun 2027 20:56:45.432           149.750              Murmansk2         18718.750
       369   08 Jun 2027 23:01:53.328   08 Jun 2027 23:03:52.157           118.829               CapeTown         14853.625
       370   09 Jun 2027 03:14:05.070   09 Jun 2027 03:14:27.890            22.820               Magadan1          2852.500
       371   09 Jun 2027 03:15:14.157   09 Jun 2027 03:15:55.750            41.593                Anadyr2          5199.125
       372   09 Jun 2027 04:48:00.783   09 Jun 2027 04:49:19.393            78.610               Magadan2          9826.250
       373   09 Jun 2027 04:49:54.106   09 Jun 2027 04:50:48.659            54.553                Novosib          6819.125
       374   09 Jun 2027 04:50:50.619   09 Jun 2027 04:50:59.802             9.183               Magadan1          1147.875
       375   09 Jun 2027 04:50:59.802   09 Jun 2027 04:51:31.109            31.307               Magadan2          3913.375
       376   09 Jun 2027 04:51:41.499   09 Jun 2027 04:52:02.919            21.420                Irkutsk          2677.500
       377   09 Jun 2027 04:52:11.763   09 Jun 2027 04:52:33.838            22.075              Murmansk1          2759.375
       378   09 Jun 2027 04:52:33.978   09 Jun 2027 04:52:55.645            21.667                Norilsk          2708.375
       379   09 Jun 2027 05:27:05.537   09 Jun 2027 05:27:28.319            22.782            RioGallegos          2847.750
       380   09 Jun 2027 05:31:11.071   09 Jun 2027 05:31:30.219            19.148            RioGallegos          2393.500
       381   09 Jun 2027 06:02:45.291   09 Jun 2027 06:04:25.093            99.802                Sumatra         12475.250
       382   09 Jun 2027 06:23:59.198   09 Jun 2027 06:24:26.592            27.394                Irkutsk          3424.250
       383   09 Jun 2027 06:24:40.058   09 Jun 2027 06:25:03.284            23.226                Norilsk          2903.250
       384   09 Jun 2027 06:25:17.715   09 Jun 2027 06:25:54.858            37.143                Novosib          4642.875
       385   09 Jun 2027 06:26:07.869   09 Jun 2027 06:28:18.602           130.733                Novosib         16341.625
       386   09 Jun 2027 07:46:23.886   09 Jun 2027 07:46:31.569             7.683                  Delhi           960.375
       387   09 Jun 2027 07:48:06.597   09 Jun 2027 07:49:16.644            70.047                  Delhi          8755.875
       388   09 Jun 2027 08:01:01.347   09 Jun 2027 08:02:27.475            86.128                Irkutsk         10766.000
       389   09 Jun 2027 08:02:52.127   09 Jun 2027 08:02:54.243             2.116                Novosib           264.500
       390   09 Jun 2027 08:02:58.214   09 Jun 2027 08:04:02.163            63.949              Murmansk2          7993.625
       391   09 Jun 2027 08:04:02.163   09 Jun 2027 08:04:20.833            18.670              Murmansk1          2333.750
       392   09 Jun 2027 08:04:25.338   09 Jun 2027 08:04:29.745             4.407                 Moscow           550.875
       393   09 Jun 2027 08:06:46.968   09 Jun 2027 08:06:58.615            11.647                 Moscow          1455.875
       394   09 Jun 2027 09:23:50.952   09 Jun 2027 09:24:54.479            63.527                  Delhi          7940.875
       395   09 Jun 2027 09:36:03.679   09 Jun 2027 09:36:25.701            22.022                Novosib          2752.750
       396   09 Jun 2027 09:36:35.132   09 Jun 2027 09:37:48.067            72.935                Norilsk          9116.875
       397   09 Jun 2027 09:38:01.007   09 Jun 2027 09:38:24.645            23.638                 Moscow          2954.750
       398   09 Jun 2027 09:38:35.918   09 Jun 2027 09:39:30.134            54.216              Murmansk2          6777.000
       399   09 Jun 2027 09:39:36.643   09 Jun 2027 09:39:52.646            16.003                Norilsk          2000.375
       400   09 Jun 2027 09:39:57.533   09 Jun 2027 09:40:37.251            39.718              Murmansk2          4964.750
       401   09 Jun 2027 11:25:55.366   09 Jun 2027 11:31:27.019           331.653                Anadyr2         41456.625
       402   09 Jun 2027 11:31:27.019   09 Jun 2027 11:31:47.870            20.851                Anadyr1          2606.375
       403   09 Jun 2027 14:39:11.958   09 Jun 2027 14:41:33.478           141.520               Magadan1         17690.000
       404   09 Jun 2027 14:43:58.451   09 Jun 2027 14:44:45.817            47.366               Magadan1          5920.750
       405   09 Jun 2027 14:47:13.691   09 Jun 2027 14:48:42.629            88.938               Magadan2         11117.250
       406   09 Jun 2027 17:09:27.756   09 Jun 2027 17:13:30.533           242.777            RioGallegos         30347.125
       407   09 Jun 2027 17:52:26.356   09 Jun 2027 17:54:40.192           133.836                Norilsk         16729.500
       408   09 Jun 2027 18:14:24.051   09 Jun 2027 18:15:05.447            41.396                Sumatra          5174.500
       409   09 Jun 2027 19:41:24.601   09 Jun 2027 19:45:21.617           237.016                  Delhi         29627.000
       410   09 Jun 2027 21:05:47.840   09 Jun 2027 21:09:02.901           195.061              Murmansk1         24382.625
       411   09 Jun 2027 21:09:04.581   09 Jun 2027 21:10:10.890            66.309              Murmansk2          8288.625
       412   09 Jun 2027 21:10:22.133   09 Jun 2027 21:12:24.412           122.279                 Moscow         15284.875
       413   09 Jun 2027 22:44:59.740   09 Jun 2027 22:45:35.227            35.487              Murmansk2          4435.875
       414   09 Jun 2027 22:46:07.397   09 Jun 2027 22:48:00.905           113.508                 Moscow         14188.500
       415   09 Jun 2027 23:14:31.559   09 Jun 2027 23:14:37.834             6.275               CapeTown           784.375
       416   10 Jun 2027 03:26:01.308   10 Jun 2027 03:26:03.644             2.336                Anadyr2           292.000
       417   10 Jun 2027 03:26:07.031   10 Jun 2027 03:27:15.597            68.566                Anadyr2          8570.750
       418   10 Jun 2027 04:59:37.792   10 Jun 2027 04:59:54.918            17.126               Magadan2          2140.750
       419   10 Jun 2027 04:59:54.918   10 Jun 2027 05:00:49.043            54.125               Magadan1          6765.625
       420   10 Jun 2027 05:01:00.659   10 Jun 2027 05:02:08.723            68.064               Magadan2          8508.000
       421   10 Jun 2027 05:02:34.531   10 Jun 2027 05:02:48.979            14.448               Magadan2          1806.000
       422   10 Jun 2027 05:02:50.267   10 Jun 2027 05:03:54.975            64.708                Irkutsk          8088.500
       423   10 Jun 2027 05:04:24.726   10 Jun 2027 05:05:08.639            43.913                Novosib          5489.125
       424   10 Jun 2027 05:39:05.232   10 Jun 2027 05:39:52.160            46.928            RioGallegos          5866.000
       425   10 Jun 2027 06:14:25.414   10 Jun 2027 06:16:08.618           103.204                Sumatra         12900.500
       426   10 Jun 2027 06:29:03.158   10 Jun 2027 06:29:46.828            43.670                  Delhi          5458.750
       427   10 Jun 2027 06:35:46.924   10 Jun 2027 06:35:58.692            11.768                Norilsk          1471.000
       428   10 Jun 2027 06:36:00.974   10 Jun 2027 06:36:56.729            55.755                Irkutsk          6969.375
       429   10 Jun 2027 06:37:08.844   10 Jun 2027 06:37:55.847            47.003              Murmansk1          5875.375
       430   10 Jun 2027 06:38:18.822   10 Jun 2027 06:38:38.299            19.477                Norilsk          2434.625
       431   10 Jun 2027 06:38:40.881   10 Jun 2027 06:39:08.921            28.040              Murmansk2          3505.000
       432   10 Jun 2027 06:39:13.033   10 Jun 2027 06:39:40.263            27.230                Norilsk          3403.750
       433   10 Jun 2027 06:39:54.909   10 Jun 2027 06:40:47.467            52.558                Novosib          6569.750
       434   10 Jun 2027 06:41:41.189   10 Jun 2027 06:41:56.912            15.723              Murmansk2          1965.375
       435   10 Jun 2027 07:53:10.055   10 Jun 2027 07:53:41.735            31.680                Sumatra          3960.000
       436   10 Jun 2027 07:58:15.908   10 Jun 2027 07:59:02.474            46.566                  Delhi          5820.750
       437   10 Jun 2027 08:00:07.556   10 Jun 2027 08:00:50.296            42.740                  Delhi          5342.500
       438   10 Jun 2027 08:13:00.759   10 Jun 2027 08:14:12.345            71.586                Irkutsk          8948.250
       439   10 Jun 2027 08:14:39.751   10 Jun 2027 08:14:55.392            15.641                Norilsk          1955.125
       440   10 Jun 2027 08:15:04.206   10 Jun 2027 08:15:42.673            38.467              Murmansk2          4808.375
       441   10 Jun 2027 08:15:44.942   10 Jun 2027 08:15:58.238            13.296                Norilsk          1662.000
       442   10 Jun 2027 08:16:50.478   10 Jun 2027 08:17:30.698            40.220              Murmansk2          5027.500
       443   10 Jun 2027 09:36:44.034   10 Jun 2027 09:37:00.540            16.506                  Delhi          2063.250
       444   10 Jun 2027 09:38:37.916   10 Jun 2027 09:39:11.521            33.605                  Delhi          4200.625
       445   10 Jun 2027 09:48:02.738   10 Jun 2027 09:49:56.806           114.068                 Moscow         14258.500
       446   10 Jun 2027 09:50:08.613   10 Jun 2027 09:50:56.862            48.249                 Moscow          6031.125
       447   10 Jun 2027 09:51:07.202   10 Jun 2027 09:51:40.693            33.491                 Moscow          4186.375
       448   10 Jun 2027 09:51:50.768   10 Jun 2027 09:52:03.301            12.533                Novosib          1566.625
       449   10 Jun 2027 09:52:18.881   10 Jun 2027 09:53:32.369            73.488                Norilsk          9186.000
       450   10 Jun 2027 09:54:07.479   10 Jun 2027 09:54:38.997            31.518                 Moscow          3939.750
       451   10 Jun 2027 10:59:20.073   10 Jun 2027 11:01:30.553           130.480               CapeTown         16310.000
       452   10 Jun 2027 11:37:37.888   10 Jun 2027 11:41:35.819           237.931                Anadyr2         29741.375
       453   10 Jun 2027 11:43:43.077   10 Jun 2027 11:43:59.745            16.668                Anadyr2          2083.500
       454   10 Jun 2027 13:18:14.660   10 Jun 2027 13:20:07.236           112.576               Magadan2         14072.000
       455   10 Jun 2027 14:51:07.261   10 Jun 2027 14:53:15.751           128.490               Magadan1         16061.250
       456   10 Jun 2027 14:56:38.434   10 Jun 2027 14:58:14.179            95.745               Magadan2         11968.125
       457   10 Jun 2027 17:22:45.217   10 Jun 2027 17:24:58.416           133.199            RioGallegos         16649.875
       458   10 Jun 2027 18:04:05.582   10 Jun 2027 18:06:50.972           165.390                Norilsk         20673.750
       459   10 Jun 2027 18:08:39.133   10 Jun 2027 18:13:30.323           291.190                Novosib         36398.750
       460   10 Jun 2027 19:54:57.024   10 Jun 2027 19:56:30.594            93.570                  Delhi         11696.250
       461   10 Jun 2027 21:17:56.181   10 Jun 2027 21:18:50.648            54.467              Murmansk1          6808.375
       462   10 Jun 2027 21:19:15.496   10 Jun 2027 21:22:06.559           171.063              Murmansk2         21382.875
       463   10 Jun 2027 21:22:36.427   10 Jun 2027 21:24:55.588           139.161                 Moscow         17395.125
       464   11 Jun 2027 03:36:45.510   11 Jun 2027 03:37:04.490            18.980               Magadan1          2372.500
       465   11 Jun 2027 03:37:08.763   11 Jun 2027 03:37:13.839             5.076               Magadan1           634.500
       466   11 Jun 2027 03:37:20.985   11 Jun 2027 03:37:43.363            22.378                Anadyr2          2797.250
       467   11 Jun 2027 03:37:43.363   11 Jun 2027 03:39:04.616            81.253                Anadyr1         10156.625
       468   11 Jun 2027 05:11:31.185   11 Jun 2027 05:11:55.892            24.707                Norilsk          3088.375
       469   11 Jun 2027 05:12:03.256   11 Jun 2027 05:12:55.538            52.282                Irkutsk          6535.250
       470   11 Jun 2027 05:13:04.720   11 Jun 2027 05:13:57.237            52.517               Magadan2          6564.625
       471   11 Jun 2027 05:14:06.046   11 Jun 2027 05:16:02.959           116.913                Irkutsk         14614.125
       472   11 Jun 2027 05:53:30.128   11 Jun 2027 05:54:23.844            53.716            RioGallegos          6714.500
       473   11 Jun 2027 06:28:30.015   11 Jun 2027 06:29:02.303            32.288                Sumatra          4036.000
       474   11 Jun 2027 06:37:48.563   11 Jun 2027 06:38:45.701            57.138                  Delhi          7142.250
       475   11 Jun 2027 06:41:43.047   11 Jun 2027 06:43:31.184           108.137                  Delhi         13517.125
       476   11 Jun 2027 06:48:44.242   11 Jun 2027 06:48:48.024             3.782              Murmansk1           472.750
       477   11 Jun 2027 06:48:55.617   11 Jun 2027 06:50:09.527            73.910                Novosib          9238.750
       478   11 Jun 2027 06:50:35.922   11 Jun 2027 06:51:01.465            25.543              Murmansk2          3192.875
       479   11 Jun 2027 06:51:02.913   11 Jun 2027 06:52:18.500            75.587                Irkutsk          9448.375
       480   11 Jun 2027 06:52:33.473   11 Jun 2027 06:53:03.918            30.445                Novosib          3805.625
       481   11 Jun 2027 08:10:13.238   11 Jun 2027 08:11:09.121            55.883                  Delhi          6985.375
       482   11 Jun 2027 08:24:52.835   11 Jun 2027 08:25:13.769            20.934                Irkutsk          2616.750
