uniorb/output/strategy_1/Drop/Drop_KinoSat_111209.txt

KinoSat_111209
-------------------------
    Access    *     Start Time (UTCG)     *     Stop Time (UTCG)  *   Duration (s)        *       Station  *  Data (Mbytes)
         1   01 Jun 2027 04:18:32.801   01 Jun 2027 04:20:10.865            98.064                Anadyr2          3064.500
         2   01 Jun 2027 05:52:48.142   01 Jun 2027 05:53:51.061            62.919               Magadan1          1966.219
         3   01 Jun 2027 05:53:58.125   01 Jun 2027 05:54:34.444            36.319               Magadan2          1134.969
         4   01 Jun 2027 05:54:55.793   01 Jun 2027 05:55:15.658            19.865                Anadyr1           620.781
         5   01 Jun 2027 05:55:46.350   01 Jun 2027 05:57:44.242           117.892               Magadan1          3684.125
         6   01 Jun 2027 05:57:48.379   01 Jun 2027 05:59:49.449           121.070                Anadyr1          3783.437
         7   01 Jun 2027 07:28:29.929   01 Jun 2027 07:33:59.792           329.863                Anadyr2         10308.219
         8   01 Jun 2027 07:34:26.488   01 Jun 2027 07:35:27.512            61.024                Novosib          1907.000
         9   01 Jun 2027 09:05:48.689   01 Jun 2027 09:09:09.246           200.557                Irkutsk          6267.406
        10   01 Jun 2027 09:09:26.668   01 Jun 2027 09:09:36.681            10.013              Murmansk1           312.906
        11   01 Jun 2027 09:09:52.551   01 Jun 2027 09:11:17.153            84.602                Irkutsk          2643.813
        12   01 Jun 2027 09:11:44.515   01 Jun 2027 09:12:33.140            48.625                Novosib          1519.531
        13   01 Jun 2027 09:14:47.749   01 Jun 2027 09:15:05.720            17.971              Murmansk2           561.594
        14   01 Jun 2027 09:16:30.901   01 Jun 2027 09:16:57.006            26.105              Murmansk1           815.781
        15   01 Jun 2027 09:18:59.941   01 Jun 2027 09:19:06.802             6.861              Murmansk1           214.406
        16   01 Jun 2027 09:46:09.695   01 Jun 2027 09:46:47.184            37.489            RioGallegos          1171.531
        17   01 Jun 2027 09:47:25.544   01 Jun 2027 09:47:40.820            15.276            RioGallegos           477.375
        18   01 Jun 2027 09:47:58.154   01 Jun 2027 09:48:53.936            55.782            RioGallegos          1743.187
        19   01 Jun 2027 09:49:53.272   01 Jun 2027 09:50:26.495            33.223            RioGallegos          1038.219
        20   01 Jun 2027 10:20:48.715   01 Jun 2027 10:22:58.730           130.015                Sumatra          4062.969
        21   01 Jun 2027 10:30:54.525   01 Jun 2027 10:31:14.971            20.446                  Delhi           638.938
        22   01 Jun 2027 10:40:55.444   01 Jun 2027 10:41:03.746             8.302                  Delhi           259.437
        23   01 Jun 2027 10:42:14.279   01 Jun 2027 10:43:20.527            66.248                Irkutsk          2070.250
        24   01 Jun 2027 10:43:46.972   01 Jun 2027 10:45:58.685           131.713              Murmansk1          4116.031
        25   01 Jun 2027 10:46:05.147   01 Jun 2027 10:46:54.866            49.719                Irkutsk          1553.719
        26   01 Jun 2027 10:47:09.417   01 Jun 2027 10:48:51.812           102.395                Norilsk          3199.844
        27   01 Jun 2027 11:29:11.527   01 Jun 2027 11:29:50.380            38.853            RioGallegos          1214.156
        28   01 Jun 2027 11:30:31.465   01 Jun 2027 11:30:37.758             6.293            RioGallegos           196.656
        29   01 Jun 2027 12:05:09.048   01 Jun 2027 12:05:44.275            35.227                  Delhi          1100.844
        30   01 Jun 2027 12:06:37.341   01 Jun 2027 12:07:16.147            38.806                  Delhi          1212.687
        31   01 Jun 2027 12:08:06.783   01 Jun 2027 12:09:10.936            64.153                  Delhi          2004.781
        32   01 Jun 2027 12:12:59.861   01 Jun 2027 12:14:01.877            62.016                Novosib          1938.000
        33   01 Jun 2027 12:15:26.732   01 Jun 2027 12:17:07.462           100.730                Novosib          3147.813
        34   01 Jun 2027 12:17:25.250   01 Jun 2027 12:18:06.007            40.757              Murmansk2          1273.656
        35   01 Jun 2027 12:18:19.015   01 Jun 2027 12:19:54.947            95.932              Murmansk1          2997.875
        36   01 Jun 2027 12:22:26.999   01 Jun 2027 12:22:31.989             4.990                Norilsk           155.938
        37   01 Jun 2027 13:49:24.824   01 Jun 2027 13:52:39.395           194.571                 Moscow          6080.344
        38   01 Jun 2027 13:52:51.859   01 Jun 2027 13:55:55.678           183.819              Murmansk2          5744.344
        39   01 Jun 2027 13:57:00.205   01 Jun 2027 13:58:42.544           102.339                Norilsk          3198.094
        40   01 Jun 2027 14:00:14.806   01 Jun 2027 14:00:42.262            27.456                Norilsk           858.000
        41   01 Jun 2027 15:03:57.016   01 Jun 2027 15:05:04.667            67.651               CapeTown          2114.094
        42   01 Jun 2027 15:08:47.948   01 Jun 2027 15:09:27.108            39.160               CapeTown          1223.750
        43   01 Jun 2027 15:26:51.406   01 Jun 2027 15:27:41.267            49.861                 Moscow          1558.156
        44   01 Jun 2027 15:29:58.458   01 Jun 2027 15:30:17.779            19.321              Murmansk2           603.781
        45   01 Jun 2027 15:30:26.888   01 Jun 2027 15:30:35.823             8.935              Murmansk2           279.219
        46   01 Jun 2027 15:32:10.818   01 Jun 2027 15:32:30.815            19.997              Murmansk2           624.906
        47   01 Jun 2027 15:34:28.208   01 Jun 2027 15:34:36.582             8.374              Murmansk2           261.687
        48   01 Jun 2027 15:43:54.702   01 Jun 2027 15:45:42.550           107.848                Anadyr2          3370.250
        49   01 Jun 2027 15:46:31.640   01 Jun 2027 15:46:43.638            11.998                Anadyr1           374.938
        50   01 Jun 2027 15:47:32.216   01 Jun 2027 15:47:39.947             7.731                Anadyr1           241.594
        51   01 Jun 2027 15:48:13.069   01 Jun 2027 15:48:20.236             7.167                Anadyr1           223.969
        52   01 Jun 2027 15:48:27.836   01 Jun 2027 15:48:34.745             6.909                Anadyr1           215.906
        53   01 Jun 2027 16:38:55.583   01 Jun 2027 16:39:34.021            38.438               CapeTown          1201.187
        54   01 Jun 2027 16:43:57.627   01 Jun 2027 16:44:36.507            38.880               CapeTown          1215.000
        55   01 Jun 2027 17:09:22.296   01 Jun 2027 17:12:16.111           173.815              Murmansk2          5431.719
        56   01 Jun 2027 17:12:42.288   01 Jun 2027 17:13:49.030            66.742              Murmansk2          2085.687
        57   01 Jun 2027 17:19:28.477   01 Jun 2027 17:20:15.761            47.284                Anadyr1          1477.625
        58   01 Jun 2027 17:20:56.743   01 Jun 2027 17:21:36.298            39.555                Anadyr2          1236.094
        59   01 Jun 2027 17:22:50.508   01 Jun 2027 17:24:00.534            70.026               Magadan2          2188.313
        60   01 Jun 2027 18:55:23.451   01 Jun 2027 18:59:13.711           230.260                Anadyr1          7195.625
        61   01 Jun 2027 19:00:10.942   01 Jun 2027 19:01:56.928           105.986               Magadan1          3312.062
        62   01 Jun 2027 19:03:03.309   01 Jun 2027 19:03:40.161            36.852               Magadan2          1151.625
        63   01 Jun 2027 19:52:56.717   01 Jun 2027 19:54:30.267            93.550            RioGallegos          2923.437
        64   01 Jun 2027 20:31:14.310   01 Jun 2027 20:31:49.206            34.896                Anadyr1          1090.500
        65   01 Jun 2027 20:31:52.178   01 Jun 2027 20:33:21.320            89.142                Anadyr1          2785.688
        66   01 Jun 2027 20:33:27.417   01 Jun 2027 20:36:29.490           182.073                Norilsk          5689.781
        67   01 Jun 2027 20:38:42.341   01 Jun 2027 20:39:22.133            39.792                Irkutsk          1243.500
        68   01 Jun 2027 20:40:21.868   01 Jun 2027 20:40:34.326            12.458                Norilsk           389.312
        69   01 Jun 2027 20:41:10.715   01 Jun 2027 20:41:41.879            31.164                Irkutsk           973.875
        70   01 Jun 2027 20:42:03.061   01 Jun 2027 20:42:10.530             7.469                Irkutsk           233.406
        71   01 Jun 2027 20:42:16.980   01 Jun 2027 20:43:19.167            62.187                Irkutsk          1943.344
        72   01 Jun 2027 20:44:34.868   01 Jun 2027 20:45:04.645            29.777                Irkutsk           930.531
        73   01 Jun 2027 20:54:21.227   01 Jun 2027 20:55:59.722            98.495                Sumatra          3077.969
        74   01 Jun 2027 20:58:54.897   01 Jun 2027 20:59:58.525            63.628                Sumatra          1988.375
        75   01 Jun 2027 22:09:07.559   01 Jun 2027 22:10:32.653            85.094                Norilsk          2659.188
        76   01 Jun 2027 22:10:49.797   01 Jun 2027 22:11:11.884            22.087                Norilsk           690.219
        77   01 Jun 2027 22:13:05.084   01 Jun 2027 22:14:25.768            80.684                Irkutsk          2521.375
        78   01 Jun 2027 22:17:53.924   01 Jun 2027 22:18:08.319            14.395                Novosib           449.844
        79   01 Jun 2027 22:29:26.062   01 Jun 2027 22:29:57.540            31.478                Sumatra           983.688
        80   01 Jun 2027 22:32:40.754   01 Jun 2027 22:33:19.385            38.631                Sumatra          1207.219
        81   01 Jun 2027 22:35:45.243   01 Jun 2027 22:35:55.505            10.262                Sumatra           320.687
        82   01 Jun 2027 23:40:53.244   01 Jun 2027 23:42:51.727           118.483                Anadyr2          3702.594
        83   01 Jun 2027 23:43:06.845   01 Jun 2027 23:43:10.950             4.105                Anadyr1           128.281
        84   01 Jun 2027 23:43:24.777   01 Jun 2027 23:43:45.822            21.045                Anadyr2           657.656
        85   01 Jun 2027 23:43:55.382   01 Jun 2027 23:43:55.767             0.385                Anadyr2            12.031
        86   01 Jun 2027 23:45:07.377   01 Jun 2027 23:45:25.649            18.272                Norilsk           571.000
        87   01 Jun 2027 23:45:43.498   01 Jun 2027 23:47:16.986            93.488               Magadan1          2921.500
        88   01 Jun 2027 23:48:24.422   01 Jun 2027 23:51:37.806           193.384              Murmansk1          6043.250
        89   01 Jun 2027 23:59:13.415   01 Jun 2027 23:59:19.542             6.127                  Delhi           191.469
        90   02 Jun 2027 00:00:06.507   02 Jun 2027 00:00:14.223             7.716                  Delhi           241.125
        91   02 Jun 2027 00:02:07.457   02 Jun 2027 00:02:22.220            14.763                  Delhi           461.344
        92   02 Jun 2027 00:04:18.814   02 Jun 2027 00:04:48.792            29.978                  Delhi           936.813
        93   02 Jun 2027 00:05:04.291   02 Jun 2027 00:05:52.030            47.739                  Delhi          1491.844
        94   02 Jun 2027 00:44:46.329   02 Jun 2027 00:45:03.391            17.062            RioGallegos           533.188
        95   02 Jun 2027 01:14:12.739   02 Jun 2027 01:14:37.677            24.938                Anadyr1           779.313
        96   02 Jun 2027 01:14:51.202   02 Jun 2027 01:15:21.861            30.659                Anadyr1           958.094
        97   02 Jun 2027 01:16:12.216   02 Jun 2027 01:17:00.508            48.292                Anadyr2          1509.125
        98   02 Jun 2027 01:20:21.646   02 Jun 2027 01:22:38.975           137.329               Magadan1          4291.531
        99   02 Jun 2027 01:23:19.588   02 Jun 2027 01:24:08.324            48.736              Murmansk1          1523.000
       100   02 Jun 2027 01:24:58.514   02 Jun 2027 01:26:26.887            88.373                Novosib          2761.656
       101   02 Jun 2027 01:31:40.904   02 Jun 2027 01:31:44.801             3.897                 Moscow           121.781
       102   02 Jun 2027 01:32:17.208   02 Jun 2027 01:32:44.549            27.341                 Moscow           854.406
       103   02 Jun 2027 01:35:07.012   02 Jun 2027 01:36:23.754            76.742                  Delhi          2398.187
       104   02 Jun 2027 02:01:05.579   02 Jun 2027 02:01:25.376            19.797               CapeTown           618.656
       105   02 Jun 2027 02:47:55.049   02 Jun 2027 02:49:16.646            81.597                Anadyr1          2549.906
       106   02 Jun 2027 02:50:14.456   02 Jun 2027 02:50:56.517            42.061                Anadyr1          1314.406
       107   02 Jun 2027 02:51:16.807   02 Jun 2027 02:51:17.709             0.902                Anadyr2            28.187
       108   02 Jun 2027 02:52:05.818   02 Jun 2027 02:53:23.714            77.896               Magadan2          2434.250
       109   02 Jun 2027 02:53:35.338   02 Jun 2027 02:53:44.813             9.475               Magadan2           296.094
       110   02 Jun 2027 02:56:43.871   02 Jun 2027 02:56:56.666            12.795                Norilsk           399.844
       111   02 Jun 2027 02:58:12.511   02 Jun 2027 02:58:21.790             9.279                Norilsk           289.969
       112   02 Jun 2027 02:58:57.600   02 Jun 2027 02:59:18.721            21.121                Norilsk           660.031
       113   02 Jun 2027 02:59:20.359   02 Jun 2027 02:59:41.762            21.403              Murmansk2           668.844
       114   02 Jun 2027 03:05:55.703   02 Jun 2027 03:06:16.342            20.639                Norilsk           644.969
       115   02 Jun 2027 03:06:17.233   02 Jun 2027 03:07:00.242            43.009              Murmansk2          1344.031
       116   02 Jun 2027 03:07:15.789   02 Jun 2027 03:08:18.606            62.817                 Moscow          1963.031
       117   02 Jun 2027 03:08:24.457   02 Jun 2027 03:08:56.906            32.449                Novosib          1014.031
       118   02 Jun 2027 03:09:15.262   02 Jun 2027 03:09:36.351            21.089              Murmansk2           659.031
       119   02 Jun 2027 03:09:36.351   02 Jun 2027 03:11:50.156           133.805              Murmansk1          4181.406
       120   02 Jun 2027 03:11:58.482   02 Jun 2027 03:12:16.511            18.029                 Moscow           563.406
       121   02 Jun 2027 04:23:03.983   02 Jun 2027 04:24:32.864            88.881                Anadyr1          2777.531
       122   02 Jun 2027 04:24:32.864   02 Jun 2027 04:25:16.509            43.645                Anadyr2          1363.906
       123   02 Jun 2027 04:29:40.609   02 Jun 2027 04:34:28.606           287.997               Magadan2          8999.906
       124   02 Jun 2027 06:06:32.467   02 Jun 2027 06:06:43.960            11.493               Magadan1           359.156
       125   02 Jun 2027 06:07:02.586   02 Jun 2027 06:08:30.230            87.644                Anadyr1          2738.875
       126   02 Jun 2027 06:08:38.517   02 Jun 2027 06:09:38.285            59.768                Norilsk          1867.750
       127   02 Jun 2027 06:09:38.516   02 Jun 2027 06:10:11.134            32.618                Anadyr1          1019.312
       128   02 Jun 2027 06:50:00.479   02 Jun 2027 06:51:20.632            80.153            RioGallegos          2504.781
       129   02 Jun 2027 07:40:52.823   02 Jun 2027 07:42:54.733           121.910                Anadyr2          3809.687
       130   02 Jun 2027 07:42:54.733   02 Jun 2027 07:44:26.299            91.566                Anadyr1          2861.438
       131   02 Jun 2027 07:44:46.500   02 Jun 2027 07:46:30.649           104.149               Magadan2          3254.656
       132   02 Jun 2027 07:46:34.501   02 Jun 2027 07:47:45.614            71.113                Novosib          2222.281
       133   02 Jun 2027 07:53:11.075   02 Jun 2027 07:53:28.760            17.685              Murmansk2           552.656
       134   02 Jun 2027 08:22:25.166   02 Jun 2027 08:24:23.730           118.564            RioGallegos          3705.125
       135   02 Jun 2027 08:59:57.166   02 Jun 2027 09:01:44.641           107.475                Sumatra          3358.594
       136   02 Jun 2027 09:17:52.822   02 Jun 2027 09:21:10.769           197.947               Magadan2          6185.844
       137   02 Jun 2027 09:21:46.951   02 Jun 2027 09:22:31.738            44.787                Norilsk          1399.594
       138   02 Jun 2027 09:22:40.892   02 Jun 2027 09:25:16.198           155.306              Murmansk2          4853.313
       139   02 Jun 2027 09:25:16.198   02 Jun 2027 09:26:17.103            60.905              Murmansk1          1903.281
       140   02 Jun 2027 09:26:56.377   02 Jun 2027 09:27:15.996            19.619              Murmansk1           613.094
       141   02 Jun 2027 09:58:23.790   02 Jun 2027 09:59:20.635            56.845            RioGallegos          1776.406
       142   02 Jun 2027 09:59:58.143   02 Jun 2027 10:01:00.849            62.706            RioGallegos          1959.563
       143   02 Jun 2027 10:32:53.162   02 Jun 2027 10:35:17.290           144.128                Sumatra          4504.000
       144   02 Jun 2027 10:54:51.396   02 Jun 2027 10:56:45.580           114.184              Murmansk2          3568.250
       145   02 Jun 2027 10:56:56.215   02 Jun 2027 10:58:47.855           111.640                Irkutsk          3488.750
       146   02 Jun 2027 10:58:57.748   02 Jun 2027 11:00:46.628           108.880                Novosib          3402.500
       147   02 Jun 2027 11:41:28.739   02 Jun 2027 11:42:18.186            49.447            RioGallegos          1545.219
       148   02 Jun 2027 12:17:23.369   02 Jun 2027 12:18:06.554            43.185                  Delhi          1349.531
       149   02 Jun 2027 12:19:08.557   02 Jun 2027 12:19:59.524            50.967                  Delhi          1592.719
       150   02 Jun 2027 12:22:15.833   02 Jun 2027 12:22:17.428             1.595                  Delhi            49.844
       151   02 Jun 2027 12:25:26.721   02 Jun 2027 12:26:43.116            76.395                Novosib          2387.344
       152   02 Jun 2027 12:26:47.177   02 Jun 2027 12:26:49.484             2.307                 Moscow            72.094
       153   02 Jun 2027 12:27:30.062   02 Jun 2027 12:29:06.626            96.564                Novosib          3017.625
       154   02 Jun 2027 12:29:18.620   02 Jun 2027 12:31:06.131           107.511              Murmansk1          3359.719
       155   02 Jun 2027 12:34:44.260   02 Jun 2027 12:35:14.081            29.821                Norilsk           931.906
       156   02 Jun 2027 14:01:26.243   02 Jun 2027 14:05:05.025           218.782                 Moscow          6836.937
       157   02 Jun 2027 14:05:20.747   02 Jun 2027 14:08:14.148           173.401              Murmansk2          5418.781
       158   02 Jun 2027 14:09:46.879   02 Jun 2027 14:10:44.246            57.367                Norilsk          1792.719
       159   02 Jun 2027 14:12:12.713   02 Jun 2027 14:12:44.622            31.909                Norilsk           997.156
       160   02 Jun 2027 15:15:37.409   02 Jun 2027 15:17:00.337            82.928               CapeTown          2591.500
       161   02 Jun 2027 15:39:22.248   02 Jun 2027 15:39:55.413            33.165                 Moscow          1036.406
       162   02 Jun 2027 15:42:17.461   02 Jun 2027 15:44:32.573           135.112              Murmansk2          4222.250
       163   02 Jun 2027 15:44:32.573   02 Jun 2027 15:46:08.803            96.230              Murmansk1          3007.188
       164   02 Jun 2027 15:55:50.404   02 Jun 2027 15:57:43.027           112.623                Anadyr1          3519.469
       165   02 Jun 2027 16:51:03.655   02 Jun 2027 16:51:43.470            39.815               CapeTown          1244.219
       166   02 Jun 2027 16:51:46.476   02 Jun 2027 16:51:56.893            10.417               CapeTown           325.531
       167   02 Jun 2027 17:22:03.469   02 Jun 2027 17:25:00.683           177.214              Murmansk2          5537.938
       168   02 Jun 2027 17:25:28.050   02 Jun 2027 17:26:49.432            81.382              Murmansk2          2543.187
       169   02 Jun 2027 17:31:29.371   02 Jun 2027 17:32:22.511            53.140                Anadyr2          1660.625
       170   02 Jun 2027 17:33:29.312   02 Jun 2027 17:33:35.787             6.475                Anadyr2           202.344
       171   02 Jun 2027 17:34:35.850   02 Jun 2027 17:37:04.101           148.251               Magadan2          4632.844
       172   02 Jun 2027 19:07:24.894   02 Jun 2027 19:09:28.276           123.382                Anadyr1          3855.687
       173   02 Jun 2027 19:09:43.759   02 Jun 2027 19:13:31.504           227.745               Magadan2          7117.031
       174   02 Jun 2027 20:03:35.855   02 Jun 2027 20:06:08.184           152.329            RioGallegos          4760.281
       175   02 Jun 2027 20:43:13.778   02 Jun 2027 20:43:43.893            30.115                Anadyr2           941.094
       176   02 Jun 2027 20:44:32.907   02 Jun 2027 20:45:13.745            40.838                Anadyr2          1276.188
       177   02 Jun 2027 20:45:23.682   02 Jun 2027 20:47:22.309           118.627                Norilsk          3707.094
       178   02 Jun 2027 20:48:37.667   02 Jun 2027 20:48:52.821            15.154               Magadan2           473.563
       179   02 Jun 2027 20:49:13.717   02 Jun 2027 20:49:38.866            25.149               Magadan2           785.906
       180   02 Jun 2027 20:50:18.459   02 Jun 2027 20:51:19.656            61.197                Irkutsk          1912.406
       181   02 Jun 2027 20:52:59.255   02 Jun 2027 20:53:30.668            31.413                Irkutsk           981.656
       182   02 Jun 2027 21:05:14.706   02 Jun 2027 21:07:31.839           137.133                Sumatra          4285.406
       183   02 Jun 2027 22:18:57.855   02 Jun 2027 22:19:26.904            29.049                Anadyr1           907.781
       184   02 Jun 2027 22:20:08.175   02 Jun 2027 22:20:53.462            45.287                Anadyr2          1415.219
       185   02 Jun 2027 22:21:09.171   02 Jun 2027 22:21:12.761             3.590                Norilsk           112.188
       186   02 Jun 2027 22:21:44.987   02 Jun 2027 22:23:29.009           104.022               Magadan2          3250.687
       187   02 Jun 2027 22:23:50.685   02 Jun 2027 22:23:56.522             5.837               Magadan2           182.406
       188   02 Jun 2027 22:25:03.964   02 Jun 2027 22:26:21.794            77.830                Irkutsk          2432.187
       189   02 Jun 2027 22:26:45.813   02 Jun 2027 22:28:59.783           133.970                Novosib          4186.562
       190   02 Jun 2027 22:35:50.538   02 Jun 2027 22:36:10.066            19.528                  Delhi           610.250
       191   02 Jun 2027 22:37:27.556   02 Jun 2027 22:37:28.414             0.858                  Delhi            26.812
       192   02 Jun 2027 23:52:36.879   02 Jun 2027 23:54:50.926           134.047                Anadyr1          4188.969
       193   02 Jun 2027 23:57:09.376   02 Jun 2027 23:58:39.216            89.840                Norilsk          2807.500
       194   03 Jun 2027 00:00:05.658   03 Jun 2027 00:01:34.531            88.873              Murmansk2          2777.281
       195   03 Jun 2027 00:01:56.741   03 Jun 2027 00:03:52.505           115.764              Murmansk1          3617.625
       196   03 Jun 2027 00:17:05.325   03 Jun 2027 00:17:26.722            21.397                  Delhi           668.656
       197   03 Jun 2027 00:50:11.855   03 Jun 2027 00:51:19.995            68.140            RioGallegos          2129.375
       198   03 Jun 2027 01:25:54.459   03 Jun 2027 01:26:22.522            28.063                Anadyr2           876.969
       199   03 Jun 2027 01:27:23.160   03 Jun 2027 01:28:20.603            57.443                Anadyr2          1795.094
       200   03 Jun 2027 01:28:20.603   03 Jun 2027 01:28:38.546            17.943                Anadyr1           560.719
       201   03 Jun 2027 01:31:56.972   03 Jun 2027 01:32:58.547            61.575               Magadan1          1924.219
       202   03 Jun 2027 01:33:04.654   03 Jun 2027 01:33:26.713            22.059                Norilsk           689.344
       203   03 Jun 2027 01:33:45.465   03 Jun 2027 01:34:06.599            21.134               Magadan2           660.438
       204   03 Jun 2027 01:35:19.759   03 Jun 2027 01:38:24.489           184.730              Murmansk2          5772.813
       205   03 Jun 2027 01:43:48.980   03 Jun 2027 01:43:55.688             6.708                 Moscow           209.625
       206   03 Jun 2027 01:44:32.022   03 Jun 2027 01:44:41.648             9.626                 Moscow           300.813
       207   03 Jun 2027 01:46:33.687   03 Jun 2027 01:47:03.877            30.190                  Delhi           943.438
       208   03 Jun 2027 02:07:47.459   03 Jun 2027 02:08:14.536            27.077               CapeTown           846.156
       209   03 Jun 2027 02:10:23.923   03 Jun 2027 02:10:29.135             5.212               CapeTown           162.875
       210   03 Jun 2027 02:59:44.939   03 Jun 2027 03:01:18.210            93.271                Anadyr2          2914.719
       211   03 Jun 2027 03:02:12.206   03 Jun 2027 03:02:30.415            18.209                Anadyr2           569.031
       212   03 Jun 2027 03:02:58.756   03 Jun 2027 03:03:11.330            12.574                Anadyr1           392.937
       213   03 Jun 2027 03:04:51.623   03 Jun 2027 03:05:22.851            31.228               Magadan2           975.875
       214   03 Jun 2027 03:19:00.480   03 Jun 2027 03:19:45.333            44.853                Norilsk          1401.656
       215   03 Jun 2027 03:19:50.153   03 Jun 2027 03:23:59.461           249.308              Murmansk1          7790.875
       216   03 Jun 2027 04:35:07.658   03 Jun 2027 04:35:38.348            30.690                Anadyr2           959.063
       217   03 Jun 2027 04:35:38.348   03 Jun 2027 04:36:29.722            51.374                Anadyr1          1605.437
       218   03 Jun 2027 04:41:34.160   03 Jun 2027 04:44:20.710           166.550               Magadan1          5204.687
       219   03 Jun 2027 04:44:25.098   03 Jun 2027 04:44:39.489            14.391                Anadyr1           449.719
       220   03 Jun 2027 06:18:46.723   03 Jun 2027 06:19:43.621            56.898                Norilsk          1778.063
       221   03 Jun 2027 06:19:51.976   03 Jun 2027 06:21:42.302           110.326               Magadan2          3447.688
       222   03 Jun 2027 07:52:54.417   03 Jun 2027 07:55:53.332           178.915                Irkutsk          5591.094
       223   03 Jun 2027 07:56:02.640   03 Jun 2027 07:57:49.763           107.123               Magadan1          3347.594
       224   03 Jun 2027 07:57:55.342   03 Jun 2027 07:58:06.516            11.174                Anadyr2           349.188
       225   03 Jun 2027 07:58:33.963   03 Jun 2027 07:59:21.074            47.111              Murmansk2          1472.219
       226   03 Jun 2027 07:59:21.074   03 Jun 2027 08:00:06.271            45.197              Murmansk1          1412.406
       227   03 Jun 2027 08:01:04.457   03 Jun 2027 08:01:35.174            30.717              Murmansk2           959.906
       228   03 Jun 2027 08:05:18.281   03 Jun 2027 08:05:32.517            14.236              Murmansk1           444.875
       229   03 Jun 2027 08:34:15.436   03 Jun 2027 08:36:37.589           142.153            RioGallegos          4442.281
       230   03 Jun 2027 09:10:50.152   03 Jun 2027 09:11:07.145            16.993                Sumatra           531.031
       231   03 Jun 2027 09:30:18.854   03 Jun 2027 09:30:22.381             3.527                Novosib           110.219
       232   03 Jun 2027 09:30:37.203   03 Jun 2027 09:32:53.133           135.930                Norilsk          4247.812
       233   03 Jun 2027 09:32:53.612   03 Jun 2027 09:35:21.449           147.837                Irkutsk          4619.906
       234   03 Jun 2027 09:35:41.445   03 Jun 2027 09:36:26.356            44.911              Murmansk2          1403.469
       235   03 Jun 2027 09:36:33.957   03 Jun 2027 09:36:44.907            10.950              Murmansk2           342.187
       236   03 Jun 2027 09:36:54.847   03 Jun 2027 09:37:09.484            14.637              Murmansk2           457.406
       237   03 Jun 2027 10:10:42.043   03 Jun 2027 10:11:03.635            21.592            RioGallegos           674.750
       238   03 Jun 2027 10:11:32.563   03 Jun 2027 10:12:01.491            28.928            RioGallegos           904.000
       239   03 Jun 2027 10:13:26.657   03 Jun 2027 10:14:19.143            52.486            RioGallegos          1640.188
       240   03 Jun 2027 10:45:03.501   03 Jun 2027 10:45:31.353            27.852                Sumatra           870.375
       241   03 Jun 2027 10:53:55.775   03 Jun 2027 10:54:29.638            33.863                  Delhi          1058.219
       242   03 Jun 2027 11:06:21.702   03 Jun 2027 11:07:01.655            39.953                Irkutsk          1248.531
       243   03 Jun 2027 11:07:10.099   03 Jun 2027 11:08:21.540            71.441                Novosib          2232.531
       244   03 Jun 2027 11:08:27.665   03 Jun 2027 11:09:08.584            40.919                Irkutsk          1278.719
       245   03 Jun 2027 11:09:12.343   03 Jun 2027 11:09:49.072            36.729              Murmansk2          1147.781
       246   03 Jun 2027 11:09:49.072   03 Jun 2027 11:09:58.583             9.511              Murmansk1           297.219
       247   03 Jun 2027 11:10:01.092   03 Jun 2027 11:11:02.725            61.633                 Moscow          1926.031
       248   03 Jun 2027 11:11:29.584   03 Jun 2027 11:12:04.503            34.919                 Moscow          1091.219
       249   03 Jun 2027 12:29:44.406   03 Jun 2027 12:31:41.080           116.674                  Delhi          3646.063
       250   03 Jun 2027 12:34:18.982   03 Jun 2027 12:34:41.523            22.541                  Delhi           704.406
       251   03 Jun 2027 12:37:58.699   03 Jun 2027 12:38:28.195            29.496                Novosib           921.750
       252   03 Jun 2027 12:38:29.609   03 Jun 2027 12:39:06.820            37.211                 Moscow          1162.844
       253   03 Jun 2027 12:39:32.873   03 Jun 2027 12:40:01.477            28.604                Novosib           893.875
       254   03 Jun 2027 12:41:13.115   03 Jun 2027 12:43:18.576           125.461              Murmansk1          3920.656
       255   03 Jun 2027 12:44:24.496   03 Jun 2027 12:44:28.242             3.746                Norilsk           117.062
       256   03 Jun 2027 12:46:27.780   03 Jun 2027 12:46:46.557            18.777                Norilsk           586.781
       257   03 Jun 2027 14:13:30.617   03 Jun 2027 14:15:38.759           128.142                 Moscow          4004.438
       258   03 Jun 2027 14:16:45.496   03 Jun 2027 14:17:41.841            56.345                 Moscow          1760.781
       259   03 Jun 2027 14:17:49.409   03 Jun 2027 14:20:41.812           172.403              Murmansk1          5387.594
       260   03 Jun 2027 14:22:39.576   03 Jun 2027 14:23:32.263            52.687                Norilsk          1646.469
       261   03 Jun 2027 14:24:09.169   03 Jun 2027 14:24:46.903            37.734                Norilsk          1179.187
       262   03 Jun 2027 14:26:28.147   03 Jun 2027 14:27:08.107            39.960                Norilsk          1248.750
       263   03 Jun 2027 14:34:18.715   03 Jun 2027 14:35:51.952            93.237                Anadyr2          2913.656
       264   03 Jun 2027 15:27:23.243   03 Jun 2027 15:28:20.736            57.493               CapeTown          1796.656
       265   03 Jun 2027 15:28:38.830   03 Jun 2027 15:29:17.373            38.543               CapeTown          1204.469
       266   03 Jun 2027 15:54:38.668   03 Jun 2027 15:54:39.411             0.743              Murmansk1            23.219
       267   03 Jun 2027 15:54:53.384   03 Jun 2027 15:56:13.403            80.019              Murmansk2          2500.594
       268   03 Jun 2027 15:58:16.275   03 Jun 2027 15:58:30.502            14.227              Murmansk1           444.594
       269   03 Jun 2027 15:59:00.366   03 Jun 2027 15:59:28.258            27.892              Murmansk1           871.625
       270   03 Jun 2027 16:07:47.373   03 Jun 2027 16:09:43.772           116.399                Anadyr1          3637.469
       271   03 Jun 2027 16:10:15.935   03 Jun 2027 16:11:25.919            69.984                Anadyr2          2187.000
       272   03 Jun 2027 17:03:14.920   03 Jun 2027 17:04:13.199            58.279               CapeTown          1821.219
       273   03 Jun 2027 17:34:49.210   03 Jun 2027 17:37:44.882           175.672              Murmansk1          5489.750
       274   03 Jun 2027 17:43:30.478   03 Jun 2027 17:44:59.498            89.020                Anadyr2          2781.875
       275   03 Jun 2027 17:46:25.100   03 Jun 2027 17:46:35.218            10.118               Magadan1           316.187
       276   03 Jun 2027 17:48:12.738   03 Jun 2027 17:49:55.883           103.145               Magadan1          3223.281
       277   03 Jun 2027 17:51:15.214   03 Jun 2027 17:51:18.083             2.869               Magadan2            89.656
       278   03 Jun 2027 17:51:42.256   03 Jun 2027 17:52:34.237            51.981               Magadan2          1624.406
       279   03 Jun 2027 19:19:26.242   03 Jun 2027 19:21:28.950           122.708                Anadyr1          3834.625
       280   03 Jun 2027 19:21:43.723   03 Jun 2027 19:24:33.107           169.384               Magadan2          5293.250
       281   03 Jun 2027 19:24:50.354   03 Jun 2027 19:25:39.226            48.872               Magadan2          1527.250
       282   03 Jun 2027 19:31:01.098   03 Jun 2027 19:31:15.011            13.913               Magadan1           434.781
       283   03 Jun 2027 20:14:56.476   03 Jun 2027 20:17:52.052           175.576            RioGallegos          5486.750
       284   03 Jun 2027 20:21:09.236   03 Jun 2027 20:22:03.695            54.459            RioGallegos          1701.844
       285   03 Jun 2027 20:55:39.418   03 Jun 2027 20:55:45.682             6.264                Anadyr1           195.750
       286   03 Jun 2027 20:57:21.434   03 Jun 2027 20:59:52.779           151.345                Norilsk          4729.531
       287   03 Jun 2027 21:00:33.357   03 Jun 2027 21:01:00.415            27.058                Norilsk           845.562
       288   03 Jun 2027 21:02:01.248   03 Jun 2027 21:03:18.358            77.110                Irkutsk          2409.687
       289   03 Jun 2027 21:05:01.526   03 Jun 2027 21:05:22.256            20.730                Irkutsk           647.813
       290   03 Jun 2027 21:16:29.453   03 Jun 2027 21:18:29.587           120.134                Sumatra          3754.187
       291   03 Jun 2027 21:20:06.380   03 Jun 2027 21:21:34.795            88.415                Sumatra          2762.969
       292   03 Jun 2027 22:32:34.326   03 Jun 2027 22:32:48.921            14.595                Anadyr1           456.094
       293   03 Jun 2027 22:32:54.398   03 Jun 2027 22:32:55.538             1.140                Anadyr1            35.625
       294   03 Jun 2027 22:33:10.960   03 Jun 2027 22:34:28.424            77.464                Norilsk          2420.750
       295   03 Jun 2027 22:34:58.172   03 Jun 2027 22:35:16.338            18.166               Magadan2           567.687
       296   03 Jun 2027 22:37:03.881   03 Jun 2027 22:38:40.015            96.134                Irkutsk          3004.188
       297   03 Jun 2027 22:42:19.123   03 Jun 2027 22:42:26.205             7.082                Novosib           221.312
       298   03 Jun 2027 22:43:10.810   03 Jun 2027 22:43:15.477             4.667                Novosib           145.844
       299   03 Jun 2027 22:43:29.050   03 Jun 2027 22:44:27.506            58.456                Novosib          1826.750
       300   03 Jun 2027 22:46:37.251   03 Jun 2027 22:49:03.681           146.430                  Delhi          4575.937
       301   04 Jun 2027 00:05:00.209   04 Jun 2027 00:06:36.111            95.902                Anadyr2          2996.938
       302   04 Jun 2027 00:09:11.297   04 Jun 2027 00:09:28.626            17.329                Norilsk           541.531
       303   04 Jun 2027 00:09:42.062   04 Jun 2027 00:10:53.785            71.723               Magadan2          2241.344
       304   04 Jun 2027 00:11:54.308   04 Jun 2027 00:16:31.875           277.567              Murmansk1          8673.969
       305   04 Jun 2027 01:02:33.608   04 Jun 2027 01:03:39.361            65.753            RioGallegos          2054.781
       306   04 Jun 2027 01:06:30.152   04 Jun 2027 01:06:34.735             4.583            RioGallegos           143.219
       307   04 Jun 2027 01:07:11.182   04 Jun 2027 01:07:36.332            25.150            RioGallegos           785.938
       308   04 Jun 2027 01:37:36.749   04 Jun 2027 01:38:01.593            24.844                Anadyr2           776.375
       309   04 Jun 2027 01:38:30.501   04 Jun 2027 01:38:46.627            16.126                Anadyr1           503.938
       310   04 Jun 2027 01:39:24.500   04 Jun 2027 01:40:24.332            59.832                Anadyr1          1869.750
       311   04 Jun 2027 01:40:44.828   04 Jun 2027 01:40:48.711             3.883                Anadyr1           121.344
       312   04 Jun 2027 01:43:29.146   04 Jun 2027 01:44:26.911            57.765               Magadan1          1805.156
       313   04 Jun 2027 01:44:26.911   04 Jun 2027 01:45:33.904            66.993               Magadan2          2093.531
       314   04 Jun 2027 01:47:20.373   04 Jun 2027 01:48:11.343            50.970              Murmansk1          1592.812
       315   04 Jun 2027 01:48:19.808   04 Jun 2027 01:49:28.848            69.040              Murmansk2          2157.500
       316   04 Jun 2027 01:50:59.175   04 Jun 2027 01:51:27.111            27.936                 Moscow           873.000
       317   04 Jun 2027 01:53:16.691   04 Jun 2027 01:54:32.100            75.409                Irkutsk          2356.531
       318   04 Jun 2027 01:59:43.576   04 Jun 2027 01:59:58.862            15.286                  Delhi           477.687
       319   04 Jun 2027 02:16:28.880   04 Jun 2027 02:16:30.556             1.676               CapeTown            52.375
       320   04 Jun 2027 02:19:49.115   04 Jun 2027 02:20:18.379            29.264               CapeTown           914.500
       321   04 Jun 2027 02:22:19.357   04 Jun 2027 02:23:34.008            74.651               CapeTown          2332.844
       322   04 Jun 2027 03:30:44.350   04 Jun 2027 03:34:21.729           217.379                 Moscow          6793.094
       323   04 Jun 2027 03:34:24.042   04 Jun 2027 03:35:01.637            37.595              Murmansk1          1174.844
       324   04 Jun 2027 03:35:20.845   04 Jun 2027 03:36:07.014            46.169              Murmansk1          1442.781
       325   04 Jun 2027 04:53:56.468   04 Jun 2027 04:58:33.463           276.995               Magadan1          8656.094
       326   04 Jun 2027 04:58:33.463   04 Jun 2027 04:59:39.495            66.032               Magadan2          2063.500
       327   04 Jun 2027 06:31:07.535   04 Jun 2027 06:35:14.952           247.417               Magadan1          7731.781
       328   04 Jun 2027 06:35:38.992   04 Jun 2027 06:35:45.047             6.055                Anadyr2           189.219
       329   04 Jun 2027 06:40:42.201   04 Jun 2027 06:41:04.734            22.533                 Moscow           704.156
       330   04 Jun 2027 08:05:32.797   04 Jun 2027 08:06:09.953            37.156               Magadan2          1161.125
       331   04 Jun 2027 08:06:22.556   04 Jun 2027 08:07:23.355            60.799                Norilsk          1899.969
       332   04 Jun 2027 08:07:37.665   04 Jun 2027 08:08:25.114            47.449               Magadan2          1482.781
       333   04 Jun 2027 08:08:25.114   04 Jun 2027 08:08:40.789            15.675               Magadan1           489.844
       334   04 Jun 2027 08:08:57.103   04 Jun 2027 08:08:59.698             2.595                Norilsk            81.094
       335   04 Jun 2027 08:09:13.413   04 Jun 2027 08:09:40.308            26.895                Norilsk           840.469
       336   04 Jun 2027 08:09:47.380   04 Jun 2027 08:10:00.740            13.360                Norilsk           417.500
       337   04 Jun 2027 08:10:01.643   04 Jun 2027 08:10:07.757             6.114                Novosib           191.063
       338   04 Jun 2027 08:10:17.330   04 Jun 2027 08:11:08.679            51.349                Irkutsk          1604.656
       339   04 Jun 2027 08:11:09.231   04 Jun 2027 08:11:20.414            11.183              Murmansk1           349.469
       340   04 Jun 2027 08:11:32.629   04 Jun 2027 08:12:10.805            38.176                Novosib          1193.000
       341   04 Jun 2027 08:13:04.153   04 Jun 2027 08:13:23.694            19.541              Murmansk1           610.656
       342   04 Jun 2027 08:46:08.890   04 Jun 2027 08:47:08.791            59.901            RioGallegos          1871.906
       343   04 Jun 2027 08:48:49.991   04 Jun 2027 08:48:55.589             5.598            RioGallegos           174.937
       344   04 Jun 2027 09:22:11.881   04 Jun 2027 09:23:17.101            65.220                Sumatra          2038.125
       345   04 Jun 2027 09:40:55.688   04 Jun 2027 09:41:28.387            32.699                Novosib          1021.844
       346   04 Jun 2027 09:41:33.661   04 Jun 2027 09:41:34.084             0.423                Irkutsk            13.219
       347   04 Jun 2027 09:41:42.119   04 Jun 2027 09:41:44.354             2.235                Norilsk            69.844
       348   04 Jun 2027 09:41:59.009   04 Jun 2027 09:42:41.676            42.667                Norilsk          1333.344
       349   04 Jun 2027 09:42:58.372   04 Jun 2027 09:43:01.762             3.390                Irkutsk           105.937
       350   04 Jun 2027 09:43:06.880   04 Jun 2027 09:43:14.752             7.872                Novosib           246.000
       351   04 Jun 2027 09:43:18.151   04 Jun 2027 09:43:48.104            29.953                Novosib           936.031
       352   04 Jun 2027 09:43:49.810   04 Jun 2027 09:44:43.446            53.636                Novosib          1676.125
       353   04 Jun 2027 09:44:44.918   04 Jun 2027 09:45:00.102            15.184              Murmansk1           474.500
       354   04 Jun 2027 09:45:13.817   04 Jun 2027 09:45:32.538            18.721              Murmansk2           585.031
       355   04 Jun 2027 09:46:13.934   04 Jun 2027 09:46:38.734            24.800              Murmansk2           775.000
       356   04 Jun 2027 09:46:40.556   04 Jun 2027 09:47:11.915            31.359                Irkutsk           979.969
       357   04 Jun 2027 09:47:31.068   04 Jun 2027 09:47:58.672            27.604              Murmansk2           862.625
       358   04 Jun 2027 10:23:04.888   04 Jun 2027 10:23:24.493            19.605            RioGallegos           612.656
       359   04 Jun 2027 10:23:34.751   04 Jun 2027 10:23:58.360            23.609            RioGallegos           737.781
       360   04 Jun 2027 10:26:09.456   04 Jun 2027 10:26:13.149             3.693            RioGallegos           115.406
       361   04 Jun 2027 10:27:05.026   04 Jun 2027 10:27:16.934            11.908            RioGallegos           372.125
       362   04 Jun 2027 10:31:10.509   04 Jun 2027 10:31:12.753             2.244            RioGallegos            70.125
       363   04 Jun 2027 10:57:20.427   04 Jun 2027 10:58:58.202            97.775                Sumatra          3055.469
       364   04 Jun 2027 11:18:27.737   04 Jun 2027 11:18:38.955            11.218              Murmansk1           350.563
       365   04 Jun 2027 11:18:41.040   04 Jun 2027 11:18:51.248            10.208              Murmansk2           319.000
       366   04 Jun 2027 11:18:54.147   04 Jun 2027 11:19:36.350            42.203                 Moscow          1318.844
       367   04 Jun 2027 11:19:48.857   04 Jun 2027 11:20:02.672            13.815                Irkutsk           431.719
       368   04 Jun 2027 11:20:04.290   04 Jun 2027 11:20:16.838            12.548                Norilsk           392.125
       369   04 Jun 2027 11:20:21.990   04 Jun 2027 11:20:40.303            18.313              Murmansk2           572.281
       370   04 Jun 2027 11:20:40.303   04 Jun 2027 11:21:12.682            32.379              Murmansk1          1011.844
       371   04 Jun 2027 11:21:17.701   04 Jun 2027 11:21:33.621            15.920                Irkutsk           497.500
       372   04 Jun 2027 11:21:36.493   04 Jun 2027 11:22:12.157            35.664              Murmansk1          1114.500
       373   04 Jun 2027 11:22:18.754   04 Jun 2027 11:22:25.652             6.898              Murmansk2           215.562
       374   04 Jun 2027 11:22:25.652   04 Jun 2027 11:22:34.927             9.275              Murmansk1           289.844
       375   04 Jun 2027 11:22:41.603   04 Jun 2027 11:23:05.893            24.290                Novosib           759.062
       376   04 Jun 2027 11:23:13.434   04 Jun 2027 11:23:20.556             7.122                Norilsk           222.562
       377   04 Jun 2027 11:28:58.286   04 Jun 2027 11:29:02.039             3.753              Murmansk1           117.281
       378   04 Jun 2027 12:42:13.400   04 Jun 2027 12:45:39.345           205.945                  Delhi          6435.781
       379   04 Jun 2027 12:50:36.745   04 Jun 2027 12:51:35.135            58.390                Novosib          1824.687
       380   04 Jun 2027 12:53:08.814   04 Jun 2027 12:54:30.005            81.191              Murmansk1          2537.219
       381   04 Jun 2027 12:54:30.005   04 Jun 2027 12:54:48.867            18.862              Murmansk2           589.437
       382   04 Jun 2027 12:55:55.355   04 Jun 2027 12:56:15.631            20.276              Murmansk2           633.625
       383   04 Jun 2027 12:58:53.596   04 Jun 2027 12:59:15.182            21.586                Norilsk           674.562
       384   04 Jun 2027 14:25:38.061   04 Jun 2027 14:27:34.687           116.626                 Moscow          3644.563
       385   04 Jun 2027 14:29:09.480   04 Jun 2027 14:32:17.806           188.326              Murmansk1          5885.188
       386   04 Jun 2027 14:32:17.806   04 Jun 2027 14:32:52.281            34.475              Murmansk2          1077.344
       387   04 Jun 2027 14:35:42.301   04 Jun 2027 14:36:49.077            66.776                Norilsk          2086.750
       388   04 Jun 2027 14:38:27.947   04 Jun 2027 14:39:13.776            45.829                Norilsk          1432.156
       389   04 Jun 2027 14:45:18.920   04 Jun 2027 14:46:03.406            44.486                Anadyr1          1390.188
       390   04 Jun 2027 14:46:47.045   04 Jun 2027 14:47:08.744            21.699                Anadyr1           678.094
       391   04 Jun 2027 14:47:52.188   04 Jun 2027 14:48:07.259            15.071                Anadyr1           470.969
       392   04 Jun 2027 15:39:13.376   04 Jun 2027 15:40:17.858            64.482               CapeTown          2015.062
       393   04 Jun 2027 16:05:07.082   04 Jun 2027 16:05:44.256            37.174                 Moscow          1161.687
       394   04 Jun 2027 16:07:02.168   04 Jun 2027 16:08:14.293            72.125              Murmansk1          2253.906
       395   04 Jun 2027 16:15:47.607   04 Jun 2027 16:16:08.841            21.234              Murmansk1           663.563
       396   04 Jun 2027 16:19:45.323   04 Jun 2027 16:22:05.827           140.504                Anadyr1          4390.750
       397   04 Jun 2027 16:24:42.251   04 Jun 2027 16:24:54.508            12.257                Anadyr2           383.031
       398   04 Jun 2027 16:30:00.390   04 Jun 2027 16:30:04.888             4.498                Anadyr2           140.563
       399   04 Jun 2027 17:15:29.905   04 Jun 2027 17:16:59.151            89.246               CapeTown          2788.937
       400   04 Jun 2027 17:21:59.873   04 Jun 2027 17:22:29.314            29.441               CapeTown           920.031
       401   04 Jun 2027 17:47:40.989   04 Jun 2027 17:50:22.693           161.704              Murmansk2          5053.250
       402   04 Jun 2027 17:50:22.693   04 Jun 2027 17:52:01.736            99.043              Murmansk1          3095.094
       403   04 Jun 2027 17:55:31.758   04 Jun 2027 17:56:13.058            41.300                Anadyr2          1290.625
       404   04 Jun 2027 17:58:17.081   04 Jun 2027 17:59:58.430           101.349               Magadan2          3167.156
       405   04 Jun 2027 18:06:25.638   04 Jun 2027 18:07:03.095            37.457               Magadan1          1170.531
       406   04 Jun 2027 19:31:27.455   04 Jun 2027 19:33:30.588           123.133                Anadyr1          3847.906
       407   04 Jun 2027 19:33:35.709   04 Jun 2027 19:35:36.383           120.674                Anadyr2          3771.062
       408   04 Jun 2027 19:35:42.085   04 Jun 2027 19:37:24.645           102.560               Magadan2          3205.000
       409   04 Jun 2027 19:38:05.434   04 Jun 2027 19:38:18.898            13.464               Magadan2           420.750
       410   04 Jun 2027 19:43:30.421   04 Jun 2027 19:43:40.601            10.180               Magadan1           318.125
       411   04 Jun 2027 20:26:30.529   04 Jun 2027 20:29:40.006           189.477            RioGallegos          5921.156
       412   04 Jun 2027 20:32:55.724   04 Jun 2027 20:33:07.905            12.181            RioGallegos           380.656
       413   04 Jun 2027 21:07:11.175   04 Jun 2027 21:07:47.416            36.241                Anadyr2          1132.531
       414   04 Jun 2027 21:09:20.262   04 Jun 2027 21:11:40.334           140.072                Norilsk          4377.250
       415   04 Jun 2027 21:12:01.165   04 Jun 2027 21:12:15.236            14.071               Magadan2           439.719
       416   04 Jun 2027 21:13:34.994   04 Jun 2027 21:13:37.249             2.255               Magadan2            70.469
       417   04 Jun 2027 21:13:43.659   04 Jun 2027 21:14:50.553            66.894               Magadan1          2090.438
       418   04 Jun 2027 21:15:18.094   04 Jun 2027 21:17:16.040           117.946                Irkutsk          3685.813
       419   04 Jun 2027 21:27:56.938   04 Jun 2027 21:30:59.243           182.305                Sumatra          5697.031
       420   04 Jun 2027 22:45:12.875   04 Jun 2027 22:45:44.578            31.703                Norilsk           990.719
       421   04 Jun 2027 22:45:50.450   04 Jun 2027 22:46:05.930            15.480               Magadan1           483.750
       422   04 Jun 2027 22:46:29.062   04 Jun 2027 22:47:08.865            39.803               Magadan2          1243.844
       423   04 Jun 2027 22:48:37.002   04 Jun 2027 22:49:04.842            27.840                Norilsk           870.000
       424   04 Jun 2027 22:49:05.530   04 Jun 2027 22:49:27.937            22.407               Magadan2           700.219
       425   04 Jun 2027 22:49:29.930   04 Jun 2027 22:50:04.635            34.705                Irkutsk          1084.531
       426   04 Jun 2027 22:50:52.424   04 Jun 2027 22:52:40.937           108.513                Novosib          3391.031
       427   04 Jun 2027 22:57:56.186   04 Jun 2027 23:00:47.702           171.516                  Delhi          5359.875
       428   05 Jun 2027 00:16:30.439   05 Jun 2027 00:16:51.638            21.199                Anadyr2           662.469
       429   05 Jun 2027 00:18:22.512   05 Jun 2027 00:18:46.619            24.107                Anadyr2           753.344
       430   05 Jun 2027 00:21:13.108   05 Jun 2027 00:21:48.484            35.376                Norilsk          1105.500
       431   05 Jun 2027 00:22:09.624   05 Jun 2027 00:23:13.831            64.207                Norilsk          2006.469
       432   05 Jun 2027 00:23:24.798   05 Jun 2027 00:24:16.341            51.543               Magadan2          1610.719
       433   05 Jun 2027 00:24:57.608   05 Jun 2027 00:25:34.974            37.366              Murmansk1          1167.688
       434   05 Jun 2027 00:25:35.905   05 Jun 2027 00:27:10.469            94.564                Novosib          2955.125
       435   05 Jun 2027 00:29:19.028   05 Jun 2027 00:29:38.998            19.970              Murmansk1           624.063
       436   05 Jun 2027 00:31:55.682   05 Jun 2027 00:32:07.029            11.347                Novosib           354.594
       437   05 Jun 2027 00:32:22.132   05 Jun 2027 00:33:53.923            91.791                  Delhi          2868.469
       438   05 Jun 2027 00:42:02.201   05 Jun 2027 00:42:21.586            19.385                  Delhi           605.781
       439   05 Jun 2027 01:15:04.783   05 Jun 2027 01:15:20.937            16.154            RioGallegos           504.812
       440   05 Jun 2027 01:15:36.040   05 Jun 2027 01:15:51.079            15.039            RioGallegos           469.969
       441   05 Jun 2027 01:17:27.161   05 Jun 2027 01:17:48.694            21.533            RioGallegos           672.906
       442   05 Jun 2027 01:49:19.773   05 Jun 2027 01:50:31.194            71.421                Anadyr2          2231.906
       443   05 Jun 2027 01:50:31.194   05 Jun 2027 01:50:45.281            14.087                Anadyr1           440.219
       444   05 Jun 2027 01:51:25.856   05 Jun 2027 01:52:03.067            37.211                Anadyr2          1162.844
       445   05 Jun 2027 01:54:59.109   05 Jun 2027 01:56:06.202            67.093               Magadan2          2096.656
       446   05 Jun 2027 01:57:02.235   05 Jun 2027 01:57:46.800            44.565               Magadan1          1392.656
       447   05 Jun 2027 01:58:34.499   05 Jun 2027 01:58:49.197            14.698                Norilsk           459.313
       448   05 Jun 2027 01:59:21.336   05 Jun 2027 02:00:27.405            66.069              Murmansk1          2064.656
       449   05 Jun 2027 02:01:13.458   05 Jun 2027 02:02:25.203            71.745                Novosib          2242.031
       450   05 Jun 2027 02:07:25.545   05 Jun 2027 02:07:58.061            32.516                 Moscow          1016.125
       451   05 Jun 2027 02:12:40.508   05 Jun 2027 02:13:08.569            28.061                 Moscow           876.906
       452   05 Jun 2027 02:27:54.807   05 Jun 2027 02:28:40.196            45.389               CapeTown          1418.406
       453   05 Jun 2027 02:35:28.966   05 Jun 2027 02:37:07.290            98.324               CapeTown          3072.625
       454   05 Jun 2027 03:44:07.598   05 Jun 2027 03:44:24.537            16.939              Murmansk2           529.344
       455   05 Jun 2027 03:44:24.537   05 Jun 2027 03:46:00.209            95.672              Murmansk1          2989.750
       456   05 Jun 2027 03:46:25.197   05 Jun 2027 03:48:06.053           100.856              Murmansk1          3151.750
       457   05 Jun 2027 04:07:15.208   05 Jun 2027 04:07:37.521            22.313               CapeTown           697.281
       458   05 Jun 2027 04:07:55.488   05 Jun 2027 04:08:07.617            12.129               CapeTown           379.031
       459   05 Jun 2027 04:08:13.288   05 Jun 2027 04:08:51.450            38.162               CapeTown          1192.563
       460   05 Jun 2027 05:05:52.265   05 Jun 2027 05:09:51.050           238.785               Magadan2          7462.031
       461   05 Jun 2027 05:10:22.538   05 Jun 2027 05:10:35.850            13.312                Anadyr2           416.000
       462   05 Jun 2027 06:43:03.396   05 Jun 2027 06:44:01.438            58.042                Irkutsk          1813.812
       463   05 Jun 2027 06:44:05.972   05 Jun 2027 06:44:13.525             7.553               Magadan1           236.031
       464   05 Jun 2027 06:44:13.525   05 Jun 2027 06:45:40.753            87.228               Magadan2          2725.875
       465   05 Jun 2027 06:45:47.968   05 Jun 2027 06:45:56.015             8.047               Magadan2           251.469
       466   05 Jun 2027 06:45:58.054   05 Jun 2027 06:46:28.008            29.954               Magadan2           936.062
       467   05 Jun 2027 08:17:36.626   05 Jun 2027 08:19:13.830            97.204                Irkutsk          3037.625
       468   05 Jun 2027 08:19:32.163   05 Jun 2027 08:21:53.150           140.987               Magadan2          4405.844
       469   05 Jun 2027 08:22:02.139   05 Jun 2027 08:22:43.457            41.318              Murmansk1          1291.188
       470   05 Jun 2027 08:22:53.807   05 Jun 2027 08:23:15.200            21.393                Novosib           668.531
       471   05 Jun 2027 08:23:19.306   05 Jun 2027 08:23:42.572            23.266              Murmansk2           727.063
       472   05 Jun 2027 08:23:42.572   05 Jun 2027 08:23:47.430             4.858              Murmansk1           151.812
       473   05 Jun 2027 08:25:39.836   05 Jun 2027 08:25:54.938            15.102              Murmansk1           471.937
       474   05 Jun 2027 08:32:07.787   05 Jun 2027 08:32:22.106            14.319              Murmansk1           447.469
       475   05 Jun 2027 08:58:05.554   05 Jun 2027 08:59:17.687            72.133            RioGallegos          2254.156
       476   05 Jun 2027 09:00:44.129   05 Jun 2027 09:00:46.087             1.958            RioGallegos            61.187
       477   05 Jun 2027 09:33:44.261   05 Jun 2027 09:35:26.387           102.126                Sumatra          3191.437
       478   05 Jun 2027 09:53:41.081   05 Jun 2027 09:54:25.537            44.456                Irkutsk          1389.250
       479   05 Jun 2027 09:54:45.606   05 Jun 2027 09:55:20.984            35.378                Norilsk          1105.562
       480   05 Jun 2027 09:55:24.788   05 Jun 2027 09:55:32.974             8.186                Irkutsk           255.813
       481   05 Jun 2027 09:55:36.954   05 Jun 2027 09:55:38.848             1.894                Irkutsk            59.187
       482   05 Jun 2027 09:55:39.302   05 Jun 2027 09:56:12.629            33.327                Norilsk          1041.469
