uniorb/output/strategy_1/Drop/Drop_KinoSat_112003.txt

KinoSat_112003
-------------------------
    Access    *     Start Time (UTCG)     *     Stop Time (UTCG)  *   Duration (s)        *       Station  *  Data (Mbytes)
         1   01 Jun 2027 03:17:18.269   01 Jun 2027 03:18:30.523            72.254               Magadan2          2257.937
         2   01 Jun 2027 03:18:52.429   01 Jun 2027 03:19:18.146            25.717                Norilsk           803.656
         3   01 Jun 2027 03:19:25.480   01 Jun 2027 03:19:56.090            30.610                Norilsk           956.562
         4   01 Jun 2027 03:20:04.850   01 Jun 2027 03:20:17.610            12.760                Irkutsk           398.750
         5   01 Jun 2027 03:20:31.916   01 Jun 2027 03:21:30.784            58.868                Irkutsk          1839.625
         6   01 Jun 2027 03:21:40.344   01 Jun 2027 03:22:30.968            50.624                Norilsk          1582.000
         7   01 Jun 2027 03:22:37.858   01 Jun 2027 03:24:42.369           124.511                Novosib          3890.969
         8   01 Jun 2027 03:25:47.434   01 Jun 2027 03:27:50.323           122.889                Irkutsk          3840.281
         9   01 Jun 2027 04:05:04.861   01 Jun 2027 04:06:47.365           102.504            RioGallegos          3203.250
        10   01 Jun 2027 04:08:04.682   01 Jun 2027 04:10:03.388           118.706            RioGallegos          3709.563
        11   01 Jun 2027 04:55:32.250   01 Jun 2027 04:55:53.432            21.182              Murmansk1           661.938
        12   01 Jun 2027 04:55:55.325   01 Jun 2027 04:57:39.308           103.983                Norilsk          3249.469
        13   01 Jun 2027 04:57:48.523   01 Jun 2027 04:59:16.627            88.104                 Moscow          2753.250
        14   01 Jun 2027 04:59:24.190   01 Jun 2027 04:59:57.179            32.989                Norilsk          1030.906
        15   01 Jun 2027 05:00:29.483   01 Jun 2027 05:00:46.336            16.853                Norilsk           526.656
        16   01 Jun 2027 05:00:48.626   01 Jun 2027 05:08:56.955           488.329                  Delhi         15260.281
        17   01 Jun 2027 06:34:28.252   01 Jun 2027 06:37:23.940           175.688              Murmansk1          5490.250
        18   01 Jun 2027 06:37:24.252   01 Jun 2027 06:38:00.853            36.601                 Moscow          1143.781
        19   01 Jun 2027 06:38:44.686   01 Jun 2027 06:39:24.387            39.701                 Moscow          1240.656
        20   01 Jun 2027 06:53:20.576   01 Jun 2027 06:56:34.004           193.428               CapeTown          6044.625
        21   01 Jun 2027 07:57:20.410   01 Jun 2027 07:58:29.681            69.271                Anadyr1          2164.719
        22   01 Jun 2027 08:32:31.942   01 Jun 2027 08:39:30.451           418.509               CapeTown         13078.406
        23   01 Jun 2027 09:33:33.180   01 Jun 2027 09:34:44.353            71.173                Anadyr2          2224.156
        24   01 Jun 2027 09:34:49.445   01 Jun 2027 09:35:18.157            28.712               Magadan2           897.250
        25   01 Jun 2027 09:36:39.703   01 Jun 2027 09:37:20.847            41.144                Anadyr2          1285.750
        26   01 Jun 2027 09:38:00.161   01 Jun 2027 09:38:37.937            37.776               Magadan1          1180.500
        27   01 Jun 2027 11:07:31.222   01 Jun 2027 11:08:25.188            53.966               Magadan2          1686.437
        28   01 Jun 2027 11:08:25.188   01 Jun 2027 11:13:09.113           283.925               Magadan1          8872.656
        29   01 Jun 2027 12:28:34.511   01 Jun 2027 12:29:03.415            28.904                Sumatra           903.250
        30   01 Jun 2027 12:37:29.615   01 Jun 2027 12:40:08.438           158.823                Irkutsk          4963.219
        31   01 Jun 2027 12:44:29.886   01 Jun 2027 12:47:49.685           199.799               Magadan1          6243.719
        32   01 Jun 2027 13:25:30.952   01 Jun 2027 13:28:03.402           152.450            RioGallegos          4764.062
        33   01 Jun 2027 13:28:22.389   01 Jun 2027 13:30:24.801           122.412            RioGallegos          3825.375
        34   01 Jun 2027 13:31:39.040   01 Jun 2027 13:31:45.768             6.728            RioGallegos           210.250
        35   01 Jun 2027 13:59:57.078   01 Jun 2027 14:04:38.334           281.256                Sumatra          8789.250
        36   01 Jun 2027 14:06:00.976   01 Jun 2027 14:09:41.626           220.650                Sumatra          6895.313
        37   01 Jun 2027 14:15:23.584   01 Jun 2027 14:15:49.021            25.437                Irkutsk           794.906
        38   01 Jun 2027 14:16:17.142   01 Jun 2027 14:20:03.397           226.255                Irkutsk          7070.469
        39   01 Jun 2027 14:24:23.356   01 Jun 2027 14:25:45.194            81.838                Irkutsk          2557.438
        40   01 Jun 2027 15:46:55.340   01 Jun 2027 15:49:45.548           170.208                  Delhi          5319.000
        41   01 Jun 2027 15:52:39.478   01 Jun 2027 15:53:41.164            61.686                Novosib          1927.687
        42   01 Jun 2027 15:54:25.057   01 Jun 2027 15:56:19.502           114.445                  Delhi          3576.406
        43   01 Jun 2027 17:39:40.673   01 Jun 2027 17:42:44.635           183.962                Norilsk          5748.813
        44   01 Jun 2027 19:06:36.917   01 Jun 2027 19:08:58.007           141.090                 Moscow          4409.062
        45   01 Jun 2027 19:11:13.961   01 Jun 2027 19:13:01.980           108.019              Murmansk1          3375.594
        46   01 Jun 2027 20:19:14.953   01 Jun 2027 20:20:35.091            80.138               CapeTown          2504.313
        47   01 Jun 2027 20:22:43.351   01 Jun 2027 20:23:04.734            21.383               CapeTown           668.219
        48   01 Jun 2027 20:23:24.144   01 Jun 2027 20:24:57.196            93.052               CapeTown          2907.875
        49   01 Jun 2027 20:26:21.409   01 Jun 2027 20:27:53.581            92.172               CapeTown          2880.375
        50   01 Jun 2027 20:49:20.350   01 Jun 2027 20:55:30.176           369.826              Murmansk2         11557.063
        51   01 Jun 2027 22:36:42.983   01 Jun 2027 22:38:32.132           109.149               Magadan1          3410.906
        52   01 Jun 2027 22:40:29.847   01 Jun 2027 22:40:37.706             7.859               Magadan2           245.594
        53   01 Jun 2027 22:44:50.417   01 Jun 2027 22:44:56.571             6.154               Magadan2           192.313
        54   01 Jun 2027 22:45:10.753   01 Jun 2027 22:45:54.952            44.199               Magadan2          1381.219
        55   01 Jun 2027 23:30:11.385   01 Jun 2027 23:33:01.043           169.658            RioGallegos          5301.812
        56   02 Jun 2027 00:10:14.715   02 Jun 2027 00:11:42.252            87.537                Anadyr2          2735.531
        57   02 Jun 2027 00:11:50.861   02 Jun 2027 00:11:56.917             6.056                Anadyr1           189.250
        58   02 Jun 2027 00:12:19.213   02 Jun 2027 00:13:55.303            96.090                Norilsk          3002.813
        59   02 Jun 2027 00:14:21.144   02 Jun 2027 00:14:24.446             3.302               Magadan2           103.188
        60   02 Jun 2027 00:14:43.114   02 Jun 2027 00:15:33.339            50.225               Magadan2          1569.531
        61   02 Jun 2027 00:15:37.968   02 Jun 2027 00:16:06.869            28.901               Magadan2           903.156
        62   02 Jun 2027 00:16:48.990   02 Jun 2027 00:17:14.378            25.388               Magadan1           793.375
        63   02 Jun 2027 00:17:38.234   02 Jun 2027 00:18:09.755            31.521                Irkutsk           985.031
        64   02 Jun 2027 00:19:17.543   02 Jun 2027 00:20:01.558            44.015                Irkutsk          1375.469
        65   02 Jun 2027 00:22:46.055   02 Jun 2027 00:23:23.446            37.391                Irkutsk          1168.469
        66   02 Jun 2027 00:25:58.450   02 Jun 2027 00:26:27.227            28.777                Irkutsk           899.281
        67   02 Jun 2027 00:31:51.254   02 Jun 2027 00:33:38.860           107.606                Sumatra          3362.688
        68   02 Jun 2027 00:36:09.074   02 Jun 2027 00:36:30.499            21.425                Sumatra           669.531
        69   02 Jun 2027 00:40:50.799   02 Jun 2027 00:40:53.875             3.076                Sumatra            96.125
        70   02 Jun 2027 01:04:13.157   02 Jun 2027 01:05:35.211            82.054            RioGallegos          2564.188
        71   02 Jun 2027 01:12:19.720   02 Jun 2027 01:12:30.228            10.508            RioGallegos           328.375
        72   02 Jun 2027 01:45:28.642   02 Jun 2027 01:45:34.271             5.629                Anadyr2           175.906
        73   02 Jun 2027 01:45:48.023   02 Jun 2027 01:45:57.420             9.397                Anadyr2           293.656
        74   02 Jun 2027 01:46:46.005   02 Jun 2027 01:47:42.173            56.168                Anadyr2          1755.250
        75   02 Jun 2027 01:48:08.611   02 Jun 2027 01:50:12.758           124.147                Norilsk          3879.594
        76   02 Jun 2027 01:50:27.776   02 Jun 2027 01:50:29.837             2.061               Magadan1            64.406
        77   02 Jun 2027 01:51:45.327   02 Jun 2027 01:51:45.698             0.371               Magadan2            11.594
        78   02 Jun 2027 01:52:03.402   02 Jun 2027 01:54:38.663           155.261                Irkutsk          4851.906
        79   02 Jun 2027 01:55:10.667   02 Jun 2027 01:55:30.270            19.603                Novosib           612.594
        80   02 Jun 2027 02:02:05.107   02 Jun 2027 02:03:39.753            94.646                  Delhi          2957.688
        81   02 Jun 2027 02:06:03.138   02 Jun 2027 02:06:32.977            29.839                Sumatra           932.469
        82   02 Jun 2027 02:08:47.442   02 Jun 2027 02:10:54.949           127.507                Sumatra          3984.594
        83   02 Jun 2027 02:41:52.511   02 Jun 2027 02:42:47.520            55.009            RioGallegos          1719.031
        84   02 Jun 2027 02:47:30.932   02 Jun 2027 02:47:39.016             8.084            RioGallegos           252.625
        85   02 Jun 2027 02:52:09.769   02 Jun 2027 02:52:10.407             0.638            RioGallegos            19.938
        86   02 Jun 2027 03:28:17.048   02 Jun 2027 03:28:50.678            33.630               Magadan2          1050.938
        87   02 Jun 2027 03:29:04.588   02 Jun 2027 03:29:21.143            16.555               Magadan1           517.344
        88   02 Jun 2027 03:30:12.342   02 Jun 2027 03:31:20.469            68.127                Irkutsk          2128.969
        89   02 Jun 2027 03:31:52.452   02 Jun 2027 03:32:07.890            15.438              Murmansk1           482.438
        90   02 Jun 2027 03:32:15.416   02 Jun 2027 03:33:05.578            50.162                Irkutsk          1567.562
        91   02 Jun 2027 03:33:29.978   02 Jun 2027 03:34:51.633            81.655                Norilsk          2551.719
        92   02 Jun 2027 03:35:06.404   02 Jun 2027 03:39:31.020           264.616                Irkutsk          8269.250
        93   02 Jun 2027 03:39:40.685   02 Jun 2027 03:44:23.334           282.649                  Delhi          8832.781
        94   02 Jun 2027 04:17:57.226   02 Jun 2027 04:19:15.169            77.943            RioGallegos          2435.719
        95   02 Jun 2027 04:20:03.426   02 Jun 2027 04:23:05.688           182.262            RioGallegos          5695.688
        96   02 Jun 2027 04:23:11.505   02 Jun 2027 04:23:35.533            24.028            RioGallegos           750.875
        97   02 Jun 2027 05:07:35.189   02 Jun 2027 05:08:21.385            46.196                Irkutsk          1443.625
        98   02 Jun 2027 05:08:45.944   02 Jun 2027 05:10:15.823            89.879                Irkutsk          2808.719
        99   02 Jun 2027 05:10:17.740   02 Jun 2027 05:10:30.707            12.967                 Moscow           405.219
       100   02 Jun 2027 05:10:39.056   02 Jun 2027 05:11:26.867            47.811              Murmansk1          1494.094
       101   02 Jun 2027 05:11:26.867   02 Jun 2027 05:12:57.277            90.410              Murmansk2          2825.313
       102   02 Jun 2027 05:13:33.061   02 Jun 2027 05:19:49.674           376.613                  Delhi         11769.156
       103   02 Jun 2027 06:45:48.429   02 Jun 2027 06:46:07.721            19.292                 Moscow           602.875
       104   02 Jun 2027 06:46:28.870   02 Jun 2027 06:49:18.309           169.439              Murmansk1          5294.969
       105   02 Jun 2027 06:49:22.297   02 Jun 2027 06:50:53.071            90.774                 Moscow          2836.687
       106   02 Jun 2027 07:05:23.002   02 Jun 2027 07:08:34.929           191.927               CapeTown          5997.719
       107   02 Jun 2027 07:09:30.121   02 Jun 2027 07:09:44.943            14.822               CapeTown           463.187
       108   02 Jun 2027 08:09:45.264   02 Jun 2027 08:12:19.823           154.559               Magadan1          4829.969
       109   02 Jun 2027 08:12:59.401   02 Jun 2027 08:14:36.171            96.770               Magadan1          3024.063
       110   02 Jun 2027 08:46:14.534   02 Jun 2027 08:50:06.753           232.219               CapeTown          7256.844
       111   02 Jun 2027 09:44:42.641   02 Jun 2027 09:45:00.422            17.781                Anadyr1           555.656
       112   02 Jun 2027 09:46:29.567   02 Jun 2027 09:50:48.058           258.491                Anadyr2          8077.844
       113   02 Jun 2027 11:17:11.482   02 Jun 2027 11:18:21.756            70.274               Magadan2          2196.063
       114   02 Jun 2027 11:20:07.613   02 Jun 2027 11:26:16.246           368.633               Magadan1         11519.781
       115   02 Jun 2027 14:12:10.850   02 Jun 2027 14:13:15.034            64.184                Sumatra          2005.750
       116   02 Jun 2027 14:14:41.126   02 Jun 2027 14:17:14.769           153.643                Sumatra          4801.344
       117   02 Jun 2027 14:22:00.974   02 Jun 2027 14:24:01.891           120.917                Sumatra          3778.656
       118   02 Jun 2027 14:27:11.213   02 Jun 2027 14:29:11.240           120.027                Irkutsk          3750.844
       119   02 Jun 2027 14:33:40.435   02 Jun 2027 14:35:54.330           133.895                Irkutsk          4184.219
       120   02 Jun 2027 14:37:14.045   02 Jun 2027 14:37:34.944            20.899                Irkutsk           653.094
       121   02 Jun 2027 15:56:56.732   02 Jun 2027 16:00:22.966           206.234                  Delhi          6444.813
       122   02 Jun 2027 16:01:35.339   02 Jun 2027 16:02:40.669            65.330                  Delhi          2041.562
       123   02 Jun 2027 16:05:14.365   02 Jun 2027 16:07:56.713           162.348                Novosib          5073.375
       124   02 Jun 2027 16:10:37.154   02 Jun 2027 16:14:57.996           260.842                Novosib          8151.312
       125   02 Jun 2027 17:50:00.753   02 Jun 2027 17:52:04.108           123.355                Norilsk          3854.844
       126   02 Jun 2027 17:52:31.659   02 Jun 2027 17:54:32.570           120.911                Norilsk          3778.469
       127   02 Jun 2027 19:19:16.920   02 Jun 2027 19:21:12.991           116.071                 Moscow          3627.219
       128   02 Jun 2027 19:21:54.347   02 Jun 2027 19:25:38.023           223.676                 Moscow          6989.875
       129   02 Jun 2027 20:38:37.107   02 Jun 2027 20:40:10.359            93.252               CapeTown          2914.125
       130   02 Jun 2027 21:02:08.418   02 Jun 2027 21:08:14.968           366.550              Murmansk1         11454.688
       131   02 Jun 2027 22:48:43.631   02 Jun 2027 22:49:46.824            63.193               Magadan1          1974.781
       132   02 Jun 2027 22:50:10.130   02 Jun 2027 22:50:18.603             8.473               Magadan2           264.781
       133   02 Jun 2027 22:50:18.603   02 Jun 2027 22:50:42.870            24.267               Magadan1           758.344
       134   02 Jun 2027 22:52:28.557   02 Jun 2027 22:52:32.750             4.193               Magadan2           131.031
       135   02 Jun 2027 22:53:40.793   02 Jun 2027 22:55:03.418            82.625               Magadan2          2582.031
       136   02 Jun 2027 23:41:40.433   02 Jun 2027 23:44:47.961           187.528            RioGallegos          5860.250
       137   02 Jun 2027 23:48:15.822   02 Jun 2027 23:49:13.078            57.256            RioGallegos          1789.250
       138   03 Jun 2027 00:22:13.838   03 Jun 2027 00:23:45.492            91.654                Anadyr1          2864.188
       139   03 Jun 2027 00:23:52.440   03 Jun 2027 00:24:32.024            39.584                Anadyr2          1237.000
       140   03 Jun 2027 00:24:43.142   03 Jun 2027 00:26:14.582            91.440               Magadan2          2857.500
       141   03 Jun 2027 00:27:14.648   03 Jun 2027 00:27:23.567             8.919               Magadan2           278.719
       142   03 Jun 2027 00:27:47.613   03 Jun 2027 00:28:09.351            21.738               Magadan2           679.313
       143   03 Jun 2027 00:28:16.737   03 Jun 2027 00:28:26.711             9.974               Magadan1           311.688
       144   03 Jun 2027 00:28:47.262   03 Jun 2027 00:29:15.315            28.053               Magadan1           876.656
       145   03 Jun 2027 00:30:52.828   03 Jun 2027 00:33:20.207           147.379                Irkutsk          4605.594
       146   03 Jun 2027 00:35:59.130   03 Jun 2027 00:36:00.690             1.560                Irkutsk            48.750
       147   03 Jun 2027 00:37:11.313   03 Jun 2027 00:37:13.644             2.331                Irkutsk            72.844
       148   03 Jun 2027 00:37:40.644   03 Jun 2027 00:37:41.150             0.506                Irkutsk            15.813
       149   03 Jun 2027 00:38:53.120   03 Jun 2027 00:39:11.063            17.943                Irkutsk           560.719
       150   03 Jun 2027 00:43:12.603   03 Jun 2027 00:46:08.692           176.089                Sumatra          5502.781
       151   03 Jun 2027 00:52:53.559   03 Jun 2027 00:53:50.774            57.215                Sumatra          1787.969
       152   03 Jun 2027 01:25:45.699   03 Jun 2027 01:26:14.582            28.883            RioGallegos           902.594
       153   03 Jun 2027 01:28:41.848   03 Jun 2027 01:28:51.619             9.771            RioGallegos           305.344
       154   03 Jun 2027 01:57:20.515   03 Jun 2027 01:57:40.942            20.427                Anadyr1           638.344
       155   03 Jun 2027 01:57:55.781   03 Jun 2027 01:58:17.996            22.215                Anadyr1           694.219
       156   03 Jun 2027 01:59:41.424   03 Jun 2027 02:00:14.427            33.003                Anadyr1          1031.344
       157   03 Jun 2027 02:00:51.528   03 Jun 2027 02:02:30.784            99.256               Magadan1          3101.750
       158   03 Jun 2027 02:03:32.494   03 Jun 2027 02:03:42.030             9.536                Norilsk           298.000
       159   03 Jun 2027 02:04:04.219   03 Jun 2027 02:06:59.091           174.872                Irkutsk          5464.750
       160   03 Jun 2027 02:13:14.424   03 Jun 2027 02:13:55.432            41.008                  Delhi          1281.500
       161   03 Jun 2027 02:16:34.794   03 Jun 2027 02:17:33.575            58.781                  Delhi          1836.906
       162   03 Jun 2027 02:18:20.350   03 Jun 2027 02:20:20.175           119.825                Sumatra          3744.531
       163   03 Jun 2027 02:23:10.094   03 Jun 2027 02:23:38.647            28.553                Sumatra           892.281
       164   03 Jun 2027 02:53:12.002   03 Jun 2027 02:53:23.551            11.549            RioGallegos           360.906
       165   03 Jun 2027 02:54:23.093   03 Jun 2027 02:54:32.856             9.763            RioGallegos           305.094
       166   03 Jun 2027 02:54:50.045   03 Jun 2027 02:55:23.114            33.069            RioGallegos          1033.406
       167   03 Jun 2027 02:59:49.275   03 Jun 2027 03:00:22.915            33.640            RioGallegos          1051.250
       168   03 Jun 2027 03:40:55.217   03 Jun 2027 03:41:25.697            30.480               Magadan1           952.500
       169   03 Jun 2027 03:43:07.751   03 Jun 2027 03:47:03.229           235.478                Novosib          7358.688
       170   03 Jun 2027 03:47:05.896   03 Jun 2027 03:52:52.181           346.285                Novosib         10821.406
       171   03 Jun 2027 03:53:52.765   03 Jun 2027 03:59:58.723           365.958                  Delhi         11436.187
       172   03 Jun 2027 04:29:51.836   03 Jun 2027 04:34:52.075           300.239            RioGallegos          9382.469
       173   03 Jun 2027 05:19:14.841   03 Jun 2027 05:20:16.120            61.279                Irkutsk          1914.969
       174   03 Jun 2027 05:21:15.831   03 Jun 2027 05:21:40.312            24.481                Norilsk           765.031
       175   03 Jun 2027 05:21:46.899   03 Jun 2027 05:22:46.329            59.430              Murmansk2          1857.187
       176   03 Jun 2027 05:22:54.019   03 Jun 2027 05:24:35.148           101.129                Norilsk          3160.281
       177   03 Jun 2027 05:24:46.400   03 Jun 2027 05:25:41.721            55.321              Murmansk1          1728.781
       178   03 Jun 2027 05:27:04.137   03 Jun 2027 05:29:56.060           171.923                  Delhi          5372.594
       179   03 Jun 2027 06:58:58.355   03 Jun 2027 06:59:02.523             4.168                Norilsk           130.250
       180   03 Jun 2027 06:59:05.247   03 Jun 2027 07:01:09.036           123.789              Murmansk2          3868.406
       181   03 Jun 2027 07:02:30.096   03 Jun 2027 07:02:56.043            25.947              Murmansk1           810.844
       182   03 Jun 2027 07:17:30.655   03 Jun 2027 07:17:47.070            16.415               CapeTown           512.969
       183   03 Jun 2027 07:20:05.125   03 Jun 2027 07:22:08.129           123.004               CapeTown          3843.875
       184   03 Jun 2027 07:27:00.739   03 Jun 2027 07:27:14.843            14.104               CapeTown           440.750
       185   03 Jun 2027 08:21:41.208   03 Jun 2027 08:22:50.736            69.528               Magadan1          2172.750
       186   03 Jun 2027 08:26:26.296   03 Jun 2027 08:27:04.009            37.713                Anadyr2          1178.531
       187   03 Jun 2027 09:52:19.416   03 Jun 2027 09:53:13.404            53.988                Anadyr1          1687.125
       188   03 Jun 2027 09:54:01.787   03 Jun 2027 09:54:55.333            53.546                Anadyr1          1673.312
       189   03 Jun 2027 09:56:34.572   03 Jun 2027 09:57:37.529            62.957                Anadyr1          1967.406
       190   03 Jun 2027 09:58:19.190   03 Jun 2027 10:00:21.510           122.320                Anadyr2          3822.500
       191   03 Jun 2027 10:00:21.510   03 Jun 2027 10:02:45.695           144.185                Anadyr1          4505.781
       192   03 Jun 2027 11:28:23.539   03 Jun 2027 11:28:41.086            17.547               Magadan2           548.344
       193   03 Jun 2027 11:31:54.879   03 Jun 2027 11:38:11.070           376.191               Magadan2         11755.969
       194   03 Jun 2027 14:28:46.561   03 Jun 2027 14:30:08.048            81.487                Sumatra          2546.469
       195   03 Jun 2027 14:42:58.713   03 Jun 2027 14:45:58.937           180.224                Irkutsk          5632.000
       196   03 Jun 2027 16:09:30.567   03 Jun 2027 16:16:04.627           394.060                  Delhi         12314.375
       197   03 Jun 2027 16:17:55.925   03 Jun 2027 16:19:34.003            98.078                Novosib          3064.937
       198   03 Jun 2027 16:20:16.893   03 Jun 2027 16:24:25.827           248.934                Novosib          7779.187
       199   03 Jun 2027 18:05:35.546   03 Jun 2027 18:06:09.983            34.437                Norilsk          1076.156
       200   03 Jun 2027 19:32:05.094   03 Jun 2027 19:39:58.258           473.164                 Moscow         14786.375
       201   03 Jun 2027 20:46:00.046   03 Jun 2027 20:47:48.172           108.126               CapeTown          3378.938
       202   03 Jun 2027 21:15:03.275   03 Jun 2027 21:20:02.341           299.066              Murmansk2          9345.812
       203   03 Jun 2027 22:58:29.123   03 Jun 2027 22:58:52.107            22.984                Anadyr2           718.250
       204   03 Jun 2027 22:59:11.161   03 Jun 2027 22:59:46.027            34.866                Anadyr2          1089.563
       205   03 Jun 2027 23:00:44.754   03 Jun 2027 23:02:06.388            81.634               Magadan2          2551.063
       206   03 Jun 2027 23:02:25.568   03 Jun 2027 23:03:46.093            80.525               Magadan1          2516.406
       207   03 Jun 2027 23:05:51.637   03 Jun 2027 23:06:31.337            39.700               Magadan1          1240.625
       208   03 Jun 2027 23:11:44.789   03 Jun 2027 23:11:53.090             8.301               Magadan1           259.406
       209   03 Jun 2027 23:13:11.320   03 Jun 2027 23:13:39.417            28.097               Magadan1           878.031
       210   03 Jun 2027 23:53:19.113   03 Jun 2027 23:55:39.001           139.888            RioGallegos          4371.500
       211   03 Jun 2027 23:58:15.481   03 Jun 2027 23:58:25.704            10.223            RioGallegos           319.469
       212   03 Jun 2027 23:59:53.036   04 Jun 2027 00:00:11.559            18.523            RioGallegos           578.844
       213   04 Jun 2027 00:00:32.559   04 Jun 2027 00:01:17.612            45.053            RioGallegos          1407.906
       214   04 Jun 2027 00:34:12.363   04 Jun 2027 00:35:18.989            66.626                Anadyr1          2082.063
       215   04 Jun 2027 00:36:17.974   04 Jun 2027 00:38:28.956           130.982                Norilsk          4093.187
       216   04 Jun 2027 00:39:44.786   04 Jun 2027 00:40:11.712            26.926               Magadan1           841.437
       217   04 Jun 2027 00:40:29.357   04 Jun 2027 00:40:36.480             7.123               Magadan2           222.594
       218   04 Jun 2027 00:40:42.441   04 Jun 2027 00:42:09.524            87.083                Irkutsk          2721.344
       219   04 Jun 2027 00:44:17.574   04 Jun 2027 00:45:14.912            57.338                Irkutsk          1791.812
       220   04 Jun 2027 00:49:09.698   04 Jun 2027 00:49:19.651             9.953                Irkutsk           311.031
       221   04 Jun 2027 00:50:56.003   04 Jun 2027 00:51:04.992             8.989                Irkutsk           280.906
       222   04 Jun 2027 00:51:20.313   04 Jun 2027 00:51:42.377            22.064                Irkutsk           689.500
       223   04 Jun 2027 00:54:44.889   04 Jun 2027 00:55:19.159            34.270                Sumatra          1070.937
       224   04 Jun 2027 00:56:25.674   04 Jun 2027 00:57:59.680            94.006                Sumatra          2937.688
       225   04 Jun 2027 01:02:53.509   04 Jun 2027 01:04:03.157            69.648                Sumatra          2176.500
       226   04 Jun 2027 01:36:48.561   04 Jun 2027 01:37:31.315            42.754            RioGallegos          1336.063
       227   04 Jun 2027 02:09:11.093   04 Jun 2027 02:10:19.500            68.407                Anadyr2          2137.719
       228   04 Jun 2027 02:12:09.292   04 Jun 2027 02:12:17.188             7.896                Anadyr1           246.750
       229   04 Jun 2027 02:12:54.689   04 Jun 2027 02:14:32.538            97.849               Magadan2          3057.781
       230   04 Jun 2027 02:16:05.935   04 Jun 2027 02:18:14.672           128.737                Irkutsk          4023.031
       231   04 Jun 2027 02:22:50.108   04 Jun 2027 02:23:37.631            47.523                Novosib          1485.094
       232   04 Jun 2027 02:27:51.131   04 Jun 2027 02:28:05.539            14.408                Irkutsk           450.250
       233   04 Jun 2027 02:30:45.533   04 Jun 2027 02:36:45.882           360.349                Sumatra         11260.906
       234   04 Jun 2027 03:53:48.190   04 Jun 2027 03:55:09.029            80.839              Murmansk1          2526.219
       235   04 Jun 2027 03:55:11.091   04 Jun 2027 03:56:44.456            93.365              Murmansk1          2917.656
       236   04 Jun 2027 03:56:49.918   04 Jun 2027 03:57:04.748            14.830                 Moscow           463.438
       237   04 Jun 2027 03:57:08.017   04 Jun 2027 03:58:42.244            94.227                Norilsk          2944.594
       238   04 Jun 2027 03:58:45.155   04 Jun 2027 03:58:56.115            10.960                Novosib           342.500
       239   04 Jun 2027 03:59:04.005   04 Jun 2027 03:59:16.354            12.349                Norilsk           385.906
       240   04 Jun 2027 03:59:26.093   04 Jun 2027 04:03:43.911           257.818                  Delhi          8056.812
       241   04 Jun 2027 04:42:35.986   04 Jun 2027 04:45:35.681           179.695            RioGallegos          5615.469
       242   04 Jun 2027 05:32:28.554   04 Jun 2027 05:32:36.209             7.655                Novosib           239.219
       243   04 Jun 2027 05:32:49.468   04 Jun 2027 05:33:40.279            50.811                Norilsk          1587.844
       244   04 Jun 2027 05:33:44.567   04 Jun 2027 05:34:22.560            37.993              Murmansk1          1187.281
       245   04 Jun 2027 05:34:24.028   04 Jun 2027 05:35:50.160            86.132                Novosib          2691.625
       246   04 Jun 2027 05:35:54.805   04 Jun 2027 05:36:55.196            60.391              Murmansk1          1887.219
       247   04 Jun 2027 05:37:09.283   04 Jun 2027 05:37:32.299            23.016              Murmansk1           719.250
       248   04 Jun 2027 05:37:34.012   04 Jun 2027 05:37:58.068            24.056                Novosib           751.750
       249   04 Jun 2027 06:00:29.638   04 Jun 2027 06:01:16.433            46.795               CapeTown          1462.344
       250   04 Jun 2027 07:10:30.789   04 Jun 2027 07:10:58.986            28.197              Murmansk1           881.156
       251   04 Jun 2027 07:11:12.166   04 Jun 2027 07:14:22.458           190.292                 Moscow          5946.625
       252   04 Jun 2027 07:14:39.556   04 Jun 2027 07:15:10.029            30.473                 Moscow           952.281
       253   04 Jun 2027 07:29:43.886   04 Jun 2027 07:34:39.200           295.314               CapeTown          9228.562
       254   04 Jun 2027 08:33:05.163   04 Jun 2027 08:33:21.775            16.612               Magadan1           519.125
       255   04 Jun 2027 08:33:23.835   04 Jun 2027 08:35:15.193           111.358                Anadyr2          3479.938
       256   04 Jun 2027 08:35:15.193   04 Jun 2027 08:36:08.930            53.737                Anadyr1          1679.281
       257   04 Jun 2027 08:49:17.384   04 Jun 2027 08:49:56.307            38.923                 Moscow          1216.344
       258   04 Jun 2027 10:05:25.371   04 Jun 2027 10:06:20.498            55.127                Anadyr2          1722.719
       259   04 Jun 2027 10:08:49.182   04 Jun 2027 10:11:43.861           174.679                Anadyr1          5458.719
       260   04 Jun 2027 10:11:43.861   04 Jun 2027 10:14:42.566           178.705                Anadyr2          5584.531
       261   04 Jun 2027 11:40:07.984   04 Jun 2027 11:43:48.774           220.790               Magadan1          6899.687
       262   04 Jun 2027 11:44:00.949   04 Jun 2027 11:45:48.365           107.416               Magadan1          3356.750
       263   04 Jun 2027 11:46:06.107   04 Jun 2027 11:50:03.975           237.868               Magadan1          7433.375
       264   04 Jun 2027 13:00:34.259   04 Jun 2027 13:01:17.822            43.563                Sumatra          1361.344
       265   04 Jun 2027 13:07:03.832   04 Jun 2027 13:07:34.271            30.439                Sumatra           951.219
       266   04 Jun 2027 13:12:25.249   04 Jun 2027 13:12:27.807             2.558                Sumatra            79.938
       267   04 Jun 2027 13:13:36.215   04 Jun 2027 13:14:42.641            66.426                Irkutsk          2075.812
       268   04 Jun 2027 13:16:33.805   04 Jun 2027 13:17:08.153            34.348                Novosib          1073.375
       269   04 Jun 2027 13:18:06.526   04 Jun 2027 13:19:43.637            97.111                Irkutsk          3034.719
       270   04 Jun 2027 13:22:59.049   04 Jun 2027 13:23:17.250            18.201                Irkutsk           568.781
       271   04 Jun 2027 13:28:01.632   04 Jun 2027 13:29:15.153            73.521                Norilsk          2297.531
       272   04 Jun 2027 14:02:48.097   04 Jun 2027 14:03:44.042            55.945            RioGallegos          1748.281
       273   04 Jun 2027 14:09:56.066   04 Jun 2027 14:12:07.231           131.165            RioGallegos          4098.906
       274   04 Jun 2027 14:37:01.830   04 Jun 2027 14:43:39.929           398.099                Sumatra         12440.594
       275   04 Jun 2027 14:52:33.106   04 Jun 2027 14:59:35.507           422.401                Irkutsk         13200.031
       276   04 Jun 2027 16:23:20.957   04 Jun 2027 16:31:02.556           461.599                  Delhi         14424.969
       277   04 Jun 2027 16:31:30.769   04 Jun 2027 16:38:22.728           411.959                Novosib         12873.719
       278   04 Jun 2027 19:45:04.975   04 Jun 2027 19:51:30.482           385.507                 Moscow         12047.094
       279   04 Jun 2027 19:51:38.862   04 Jun 2027 19:51:54.374            15.512              Murmansk2           484.750
       280   04 Jun 2027 20:56:58.126   04 Jun 2027 21:00:47.942           229.816               CapeTown          7181.750
       281   04 Jun 2027 21:28:09.832   04 Jun 2027 21:31:40.101           210.269              Murmansk1          6570.906
       282   04 Jun 2027 23:16:05.884   04 Jun 2027 23:16:10.212             4.328               Magadan2           135.250
       283   04 Jun 2027 23:16:17.985   04 Jun 2027 23:16:26.747             8.762               Magadan2           273.812
       284   04 Jun 2027 23:17:20.940   04 Jun 2027 23:17:42.098            21.158               Magadan1           661.187
       285   04 Jun 2027 23:19:36.357   04 Jun 2027 23:19:49.621            13.264               Magadan2           414.500
       286   04 Jun 2027 23:25:19.234   04 Jun 2027 23:25:41.647            22.413               Magadan2           700.406
       287   05 Jun 2027 00:05:03.660   05 Jun 2027 00:08:03.264           179.604            RioGallegos          5612.625
       288   05 Jun 2027 00:11:06.770   05 Jun 2027 00:11:44.459            37.689            RioGallegos          1177.781
       289   05 Jun 2027 00:46:10.198   05 Jun 2027 00:47:21.887            71.689                Anadyr2          2240.281
       290   05 Jun 2027 00:47:54.767   05 Jun 2027 00:48:34.410            39.643                Anadyr2          1238.844
       291   05 Jun 2027 00:48:49.534   05 Jun 2027 00:49:12.637            23.103               Magadan2           721.969
       292   05 Jun 2027 00:49:33.281   05 Jun 2027 00:50:00.150            26.869                Norilsk           839.656
       293   05 Jun 2027 00:50:18.430   05 Jun 2027 00:50:26.104             7.674                Norilsk           239.813
       294   05 Jun 2027 00:50:32.029   05 Jun 2027 00:51:20.323            48.294                Norilsk          1509.187
       295   05 Jun 2027 00:51:29.620   05 Jun 2027 00:52:01.826            32.206                Norilsk          1006.437
       296   05 Jun 2027 00:52:32.038   05 Jun 2027 00:52:58.810            26.772               Magadan1           836.625
       297   05 Jun 2027 00:53:12.691   05 Jun 2027 00:54:10.840            58.149                Irkutsk          1817.156
       298   05 Jun 2027 00:55:00.989   05 Jun 2027 00:55:36.596            35.607                Novosib          1112.719
       299   05 Jun 2027 00:56:34.736   05 Jun 2027 00:57:29.079            54.343                Irkutsk          1698.219
       300   05 Jun 2027 01:06:25.496   05 Jun 2027 01:08:42.705           137.209                Sumatra          4287.781
       301   05 Jun 2027 01:40:12.385   05 Jun 2027 01:40:35.997            23.612            RioGallegos           737.875
       302   05 Jun 2027 01:43:30.105   05 Jun 2027 01:43:33.869             3.764            RioGallegos           117.625
       303   05 Jun 2027 01:44:09.754   05 Jun 2027 01:44:20.466            10.712            RioGallegos           334.750
       304   05 Jun 2027 01:47:14.833   05 Jun 2027 01:47:36.960            22.127            RioGallegos           691.469
       305   05 Jun 2027 01:49:42.800   05 Jun 2027 01:50:22.728            39.928            RioGallegos          1247.750
       306   05 Jun 2027 02:21:00.330   05 Jun 2027 02:21:32.227            31.897                Anadyr2           996.781
       307   05 Jun 2027 02:22:16.755   05 Jun 2027 02:22:46.344            29.589                Anadyr1           924.656
       308   05 Jun 2027 02:24:15.767   05 Jun 2027 02:25:26.694            70.927                Norilsk          2216.469
       309   05 Jun 2027 02:26:56.198   05 Jun 2027 02:27:18.873            22.675                Norilsk           708.594
       310   05 Jun 2027 02:28:08.494   05 Jun 2027 02:30:33.002           144.508                Irkutsk          4515.875
       311   05 Jun 2027 02:36:48.672   05 Jun 2027 02:37:26.880            38.208                Irkutsk          1194.000
       312   05 Jun 2027 02:38:13.358   05 Jun 2027 02:38:53.988            40.630                Irkutsk          1269.687
       313   05 Jun 2027 02:43:21.258   05 Jun 2027 02:52:43.078           561.820                Sumatra         17556.875
       314   05 Jun 2027 04:05:24.625   05 Jun 2027 04:06:43.507            78.882                Irkutsk          2465.063
       315   05 Jun 2027 04:07:54.628   05 Jun 2027 04:08:03.629             9.001                Novosib           281.281
       316   05 Jun 2027 04:08:12.621   05 Jun 2027 04:11:08.236           175.615              Murmansk2          5487.969
       317   05 Jun 2027 04:11:17.935   05 Jun 2027 04:11:32.987            15.052                 Moscow           470.375
       318   05 Jun 2027 04:11:35.831   05 Jun 2027 04:14:10.953           155.122                  Delhi          4847.563
       319   05 Jun 2027 04:14:19.140   05 Jun 2027 04:14:44.192            25.052                Novosib           782.875
       320   05 Jun 2027 04:16:25.382   05 Jun 2027 04:17:03.339            37.957                  Delhi          1186.156
       321   05 Jun 2027 04:18:59.417   05 Jun 2027 04:23:31.692           272.275                  Delhi          8508.594
       322   05 Jun 2027 05:44:37.787   05 Jun 2027 05:45:48.973            71.186                Novosib          2224.562
       323   05 Jun 2027 05:46:25.747   05 Jun 2027 05:46:36.736            10.989                Norilsk           343.406
       324   05 Jun 2027 05:46:47.380   05 Jun 2027 05:48:20.140            92.760                Norilsk          2898.750
       325   05 Jun 2027 05:48:29.433   05 Jun 2027 05:50:11.541           102.108                Novosib          3190.875
       326   05 Jun 2027 05:51:13.280   05 Jun 2027 05:54:04.207           170.927                 Moscow          5341.469
       327   05 Jun 2027 06:06:18.223   05 Jun 2027 06:15:37.824           559.601               CapeTown         17487.531
       328   05 Jun 2027 07:21:37.636   05 Jun 2027 07:22:15.234            37.598                 Moscow          1174.938
       329   05 Jun 2027 07:22:32.031   05 Jun 2027 07:23:16.935            44.904              Murmansk2          1403.250
       330   05 Jun 2027 07:23:16.935   05 Jun 2027 07:23:40.347            23.412              Murmansk1           731.625
       331   05 Jun 2027 07:23:58.061   05 Jun 2027 07:24:57.126            59.065              Murmansk1          1845.781
       332   05 Jun 2027 07:25:24.456   05 Jun 2027 07:25:45.713            21.257                 Moscow           664.281
       333   05 Jun 2027 07:26:30.727   05 Jun 2027 07:27:04.862            34.135              Murmansk1          1066.719
       334   05 Jun 2027 07:27:25.548   05 Jun 2027 07:27:46.422            20.874                 Moscow           652.312
       335   05 Jun 2027 07:28:01.125   05 Jun 2027 07:28:19.614            18.489                 Moscow           577.781
       336   05 Jun 2027 07:28:38.149   05 Jun 2027 07:28:53.411            15.262                 Moscow           476.937
       337   05 Jun 2027 07:42:03.275   05 Jun 2027 07:43:20.423            77.148               CapeTown          2410.875
       338   05 Jun 2027 07:44:19.338   05 Jun 2027 07:47:20.381           181.043               CapeTown          5657.594
       339   05 Jun 2027 08:44:57.031   05 Jun 2027 08:45:07.754            10.723               Magadan2           335.094
       340   05 Jun 2027 08:45:24.325   05 Jun 2027 08:46:47.934            83.609                Anadyr1          2612.781
       341   05 Jun 2027 08:46:55.301   05 Jun 2027 08:47:49.643            54.342               Magadan2          1698.187
       342   05 Jun 2027 08:47:49.643   05 Jun 2027 08:47:53.274             3.631               Magadan1           113.469
       343   05 Jun 2027 08:48:04.888   05 Jun 2027 08:48:18.596            13.708               Magadan1           428.375
       344   05 Jun 2027 08:49:10.232   05 Jun 2027 08:50:05.127            54.895                Anadyr2          1715.469
       345   05 Jun 2027 10:15:44.174   05 Jun 2027 10:17:08.045            83.871               Magadan2          2620.969
       346   05 Jun 2027 10:17:25.051   05 Jun 2027 10:20:40.214           195.163                Anadyr1          6098.844
       347   05 Jun 2027 10:20:40.214   05 Jun 2027 10:23:07.534           147.320                Anadyr2          4603.750
       348   05 Jun 2027 10:23:41.178   05 Jun 2027 10:26:37.766           176.588                Anadyr2          5518.375
       349   05 Jun 2027 11:52:45.471   05 Jun 2027 12:01:54.320           548.849               Magadan1         17151.531
       350   05 Jun 2027 14:15:25.841   05 Jun 2027 14:21:42.296           376.455            RioGallegos         11764.219
       351   05 Jun 2027 14:49:45.933   05 Jun 2027 14:58:17.504           511.571                Sumatra         15986.594
       352   05 Jun 2027 15:05:29.112   05 Jun 2027 15:12:35.087           425.975                Irkutsk         13311.719
       353   05 Jun 2027 16:35:21.343   05 Jun 2027 16:42:10.727           409.384                  Delhi         12793.250
       354   05 Jun 2027 16:43:49.441   05 Jun 2027 16:49:52.248           362.807                Novosib         11337.719
       355   05 Jun 2027 19:58:26.640   05 Jun 2027 20:02:44.039           257.399                 Moscow          8043.719
       356   05 Jun 2027 20:03:05.824   05 Jun 2027 20:05:25.965           140.141              Murmansk2          4379.406
       357   05 Jun 2027 21:07:34.672   05 Jun 2027 21:15:30.502           475.830               CapeTown         14869.687
       358   06 Jun 2027 00:58:07.258   06 Jun 2027 00:59:06.541            59.283                Anadyr2          1852.594
       359   06 Jun 2027 01:00:19.474   06 Jun 2027 01:00:45.364            25.890                Norilsk           809.062
       360   06 Jun 2027 01:00:52.868   06 Jun 2027 01:01:55.994            63.126               Magadan1          1972.688
       361   06 Jun 2027 01:02:20.679   06 Jun 2027 01:02:20.734             0.055                Norilsk             1.719
       362   06 Jun 2027 01:02:41.443   06 Jun 2027 01:03:12.554            31.111               Magadan2           972.219
       363   06 Jun 2027 01:03:12.554   06 Jun 2027 01:04:13.386            60.832               Magadan1          1901.000
       364   06 Jun 2027 01:04:28.936   06 Jun 2027 01:06:12.997           104.061                Irkutsk          3251.906
       365   06 Jun 2027 01:07:51.240   06 Jun 2027 01:08:16.634            25.394                Novosib           793.563
       366   06 Jun 2027 01:18:13.015   06 Jun 2027 01:21:03.718           170.703                Sumatra          5334.469
       367   06 Jun 2027 01:52:14.215   06 Jun 2027 01:52:58.032            43.817            RioGallegos          1369.281
       368   06 Jun 2027 02:01:56.992   06 Jun 2027 02:02:26.824            29.832            RioGallegos           932.250
       369   06 Jun 2027 02:32:48.227   06 Jun 2027 02:33:33.595            45.368                Anadyr1          1417.750
       370   06 Jun 2027 02:36:18.265   06 Jun 2027 02:37:37.926            79.661                Norilsk          2489.406
       371   06 Jun 2027 02:38:37.021   06 Jun 2027 02:39:01.501            24.480               Magadan2           765.000
       372   06 Jun 2027 02:40:11.848   06 Jun 2027 02:42:45.992           154.144                Irkutsk          4817.000
       373   06 Jun 2027 02:45:43.686   06 Jun 2027 02:46:23.123            39.437                Irkutsk          1232.406
       374   06 Jun 2027 02:48:43.034   06 Jun 2027 02:48:51.702             8.668                  Delhi           270.875
       375   06 Jun 2027 02:51:27.576   06 Jun 2027 02:52:20.348            52.772                  Delhi          1649.125
       376   06 Jun 2027 02:56:13.292   06 Jun 2027 03:03:46.400           453.108                Sumatra         14159.625
       377   06 Jun 2027 04:17:27.532   06 Jun 2027 04:18:26.094            58.562                Irkutsk          1830.063
       378   06 Jun 2027 04:19:39.678   06 Jun 2027 04:23:52.999           253.321                Novosib          7916.281
       379   06 Jun 2027 04:25:33.405   06 Jun 2027 04:25:39.249             5.844                Irkutsk           182.625
       380   06 Jun 2027 04:28:08.011   06 Jun 2027 04:28:26.789            18.778                  Delhi           586.812
       381   06 Jun 2027 04:28:54.582   06 Jun 2027 04:29:43.341            48.759                  Delhi          1523.719
       382   06 Jun 2027 05:58:13.857   06 Jun 2027 05:58:43.109            29.252              Murmansk2           914.125
       383   06 Jun 2027 05:58:46.265   06 Jun 2027 05:59:26.140            39.875              Murmansk2          1246.094
       384   06 Jun 2027 05:59:26.140   06 Jun 2027 05:59:34.696             8.556              Murmansk1           267.375
       385   06 Jun 2027 05:59:44.559   06 Jun 2027 06:01:42.013           117.454                Novosib          3670.438
       386   06 Jun 2027 06:02:02.870   06 Jun 2027 06:02:36.625            33.755              Murmansk1          1054.844
       387   06 Jun 2027 06:03:10.552   06 Jun 2027 06:06:17.993           187.441                 Moscow          5857.531
       388   06 Jun 2027 06:18:00.336   06 Jun 2027 06:27:24.288           563.952               CapeTown         17623.500
       389   06 Jun 2027 07:23:13.931   06 Jun 2027 07:23:29.138            15.207               Magadan2           475.219
       390   06 Jun 2027 07:24:40.685   06 Jun 2027 07:25:53.199            72.514               Magadan2          2266.063
       391   06 Jun 2027 07:32:44.885   06 Jun 2027 07:32:52.537             7.652                Norilsk           239.125
       392   06 Jun 2027 07:33:00.463   06 Jun 2027 07:34:52.315           111.852                 Moscow          3495.375
       393   06 Jun 2027 07:34:58.947   06 Jun 2027 07:35:29.063            30.116                 Moscow           941.125
       394   06 Jun 2027 07:37:05.317   06 Jun 2027 07:37:22.157            16.840                 Moscow           526.250
       395   06 Jun 2027 07:39:17.596   06 Jun 2027 07:40:13.076            55.480                 Moscow          1733.750
       396   06 Jun 2027 07:54:29.763   06 Jun 2027 07:57:45.349           195.586               CapeTown          6112.062
       397   06 Jun 2027 07:59:25.180   06 Jun 2027 08:00:16.192            51.012               CapeTown          1594.125
       398   06 Jun 2027 08:55:59.819   06 Jun 2027 08:56:31.678            31.859               Magadan1           995.594
       399   06 Jun 2027 08:56:31.678   06 Jun 2027 08:57:10.109            38.431               Magadan2          1200.969
       400   06 Jun 2027 08:57:24.357   06 Jun 2027 08:58:40.168            75.811                Anadyr2          2369.094
       401   06 Jun 2027 08:58:54.829   06 Jun 2027 08:59:42.775            47.946               Magadan2          1498.312
       402   06 Jun 2027 08:59:56.076   06 Jun 2027 09:00:40.245            44.169               Magadan1          1380.281
       403   06 Jun 2027 09:00:42.585   06 Jun 2027 09:01:08.577            25.992                Anadyr1           812.250
       404   06 Jun 2027 09:01:46.645   06 Jun 2027 09:03:07.366            80.721                Anadyr2          2522.531
       405   06 Jun 2027 10:30:04.213   06 Jun 2027 10:38:30.953           506.740                Anadyr1         15835.625
       406   06 Jun 2027 12:05:29.279   06 Jun 2027 12:12:03.444           394.165               Magadan2         12317.656
       407   06 Jun 2027 12:12:44.577   06 Jun 2027 12:13:41.053            56.476               Magadan1          1764.875
       408   06 Jun 2027 14:29:46.239   06 Jun 2027 14:35:31.361           345.122            RioGallegos         10785.062
       409   06 Jun 2027 15:02:49.926   06 Jun 2027 15:09:07.085           377.159                Sumatra         11786.219
       410   06 Jun 2027 15:18:43.885   06 Jun 2027 15:23:52.408           308.523                Irkutsk          9641.344
       411   06 Jun 2027 16:49:14.766   06 Jun 2027 16:52:32.450           197.684                  Delhi          6177.625
       412   06 Jun 2027 16:57:19.522   06 Jun 2027 17:00:58.073           218.551                Novosib          6829.719
       413   06 Jun 2027 17:04:56.723   06 Jun 2027 17:04:56.793             0.070                Norilsk             2.187
       414   06 Jun 2027 20:12:10.664   06 Jun 2027 20:13:25.708            75.044              Murmansk2          2345.125
       415   06 Jun 2027 20:15:02.742   06 Jun 2027 20:18:01.214           178.472              Murmansk2          5577.250
       416   06 Jun 2027 20:18:31.887   06 Jun 2027 20:19:27.481            55.594              Murmansk2          1737.312
       417   06 Jun 2027 21:20:19.731   06 Jun 2027 21:26:23.646           363.915               CapeTown         11372.344
       418   06 Jun 2027 23:34:32.390   06 Jun 2027 23:35:49.572            77.182                Anadyr2          2411.938
       419   06 Jun 2027 23:35:49.572   06 Jun 2027 23:36:12.841            23.269                Anadyr1           727.156
       420   06 Jun 2027 23:36:49.122   06 Jun 2027 23:37:41.216            52.094                Norilsk          1627.937
       421   06 Jun 2027 23:37:41.538   06 Jun 2027 23:38:26.271            44.733               Magadan2          1397.906
       422   06 Jun 2027 23:40:03.848   06 Jun 2027 23:40:06.833             2.985               Magadan2            93.281
       423   06 Jun 2027 23:40:31.992   06 Jun 2027 23:40:51.916            19.924               Magadan2           622.625
       424   06 Jun 2027 23:42:24.125   06 Jun 2027 23:42:27.385             3.260               Magadan1           101.875
       425   06 Jun 2027 23:42:53.804   06 Jun 2027 23:43:25.167            31.363                Irkutsk           980.094
       426   06 Jun 2027 23:44:14.234   06 Jun 2027 23:44:55.448            41.214                Irkutsk          1287.938
       427   06 Jun 2027 23:46:02.958   06 Jun 2027 23:46:09.792             6.834                Irkutsk           213.562
       428   06 Jun 2027 23:47:15.338   06 Jun 2027 23:47:45.377            30.039                Irkutsk           938.719
       429   07 Jun 2027 00:28:43.831   07 Jun 2027 00:31:03.198           139.367            RioGallegos          4355.219
       430   07 Jun 2027 00:32:21.641   07 Jun 2027 00:33:29.119            67.478            RioGallegos          2108.688
       431   07 Jun 2027 01:10:03.446   07 Jun 2027 01:10:24.146            20.700                Anadyr2           646.875
       432   07 Jun 2027 01:10:56.311   07 Jun 2027 01:11:30.650            34.339                Anadyr1          1073.094
       433   07 Jun 2027 01:11:56.454   07 Jun 2027 01:12:37.062            40.608                Anadyr2          1269.000
       434   07 Jun 2027 01:12:37.581   07 Jun 2027 01:14:23.082           105.501                Norilsk          3296.906
       435   07 Jun 2027 01:14:23.319   07 Jun 2027 01:15:56.565            93.246               Magadan1          2913.938
       436   07 Jun 2027 01:16:25.041   07 Jun 2027 01:17:44.338            79.297                Irkutsk          2478.031
       437   07 Jun 2027 01:23:09.377   07 Jun 2027 01:23:42.374            32.997                Novosib          1031.156
       438   07 Jun 2027 01:27:49.619   07 Jun 2027 01:27:53.152             3.533                Irkutsk           110.406
       439   07 Jun 2027 01:30:06.664   07 Jun 2027 01:33:12.571           185.907                Sumatra          5809.594
       440   07 Jun 2027 02:13:17.520   07 Jun 2027 02:13:36.451            18.931            RioGallegos           591.594
       441   07 Jun 2027 02:14:08.454   07 Jun 2027 02:15:18.470            70.016            RioGallegos          2188.000
       442   07 Jun 2027 02:46:56.847   07 Jun 2027 02:47:17.234            20.387                Anadyr1           637.094
       443   07 Jun 2027 02:48:20.767   07 Jun 2027 02:49:26.519            65.752                Norilsk          2054.750
       444   07 Jun 2027 02:52:09.335   07 Jun 2027 02:52:17.876             8.541                Norilsk           266.906
       445   07 Jun 2027 02:52:18.945   07 Jun 2027 02:54:10.890           111.945                Novosib          3498.281
       446   07 Jun 2027 02:54:27.271   07 Jun 2027 02:54:46.911            19.640                Irkutsk           613.750
       447   07 Jun 2027 02:55:51.850   07 Jun 2027 02:56:36.722            44.872                Irkutsk          1402.250
       448   07 Jun 2027 02:59:45.550   07 Jun 2027 03:00:26.280            40.730                Irkutsk          1272.812
       449   07 Jun 2027 03:09:41.262   07 Jun 2027 03:14:12.777           271.515                Sumatra          8484.844
       450   07 Jun 2027 04:29:05.172   07 Jun 2027 04:29:49.560            44.388                Irkutsk          1387.125
       451   07 Jun 2027 04:30:15.371   07 Jun 2027 04:30:58.983            43.612                Irkutsk          1362.875
       452   07 Jun 2027 04:32:33.565   07 Jun 2027 04:32:52.197            18.632                Norilsk           582.250
       453   07 Jun 2027 04:32:52.876   07 Jun 2027 04:35:19.931           147.055                Irkutsk          4595.469
       454   07 Jun 2027 04:36:08.126   07 Jun 2027 04:37:29.104            80.978                  Delhi          2530.563
       455   07 Jun 2027 04:39:38.919   07 Jun 2027 04:41:22.368           103.449                  Delhi          3232.781
       456   07 Jun 2027 06:10:15.996   07 Jun 2027 06:11:01.864            45.868              Murmansk2          1433.375
       457   07 Jun 2027 06:11:14.619   07 Jun 2027 06:12:01.995            47.376                Norilsk          1480.500
       458   07 Jun 2027 06:12:02.889   07 Jun 2027 06:14:50.814           167.925              Murmansk2          5247.656
       459   07 Jun 2027 06:15:18.778   07 Jun 2027 06:16:30.895            72.117                 Moscow          2253.656
       460   07 Jun 2027 06:17:51.743   07 Jun 2027 06:18:17.589            25.846                 Moscow           807.687
       461   07 Jun 2027 06:29:47.915   07 Jun 2027 06:32:42.373           174.458               CapeTown          5451.812
       462   07 Jun 2027 06:36:43.663   07 Jun 2027 06:37:41.425            57.762               CapeTown          1805.062
       463   07 Jun 2027 07:33:49.063   07 Jun 2027 07:34:12.044            22.981               Magadan1           718.156
       464   07 Jun 2027 07:34:21.446   07 Jun 2027 07:35:30.619            69.173               Magadan1          2161.656
       465   07 Jun 2027 07:35:54.145   07 Jun 2027 07:36:30.668            36.523                Anadyr2          1141.344
       466   07 Jun 2027 07:36:30.668   07 Jun 2027 07:37:49.845            79.177                Anadyr1          2474.281
       467   07 Jun 2027 07:43:05.956   07 Jun 2027 07:43:53.167            47.211                 Moscow          1475.344
       468   07 Jun 2027 07:44:41.789   07 Jun 2027 07:45:33.339            51.550                Norilsk          1610.938
       469   07 Jun 2027 07:45:36.344   07 Jun 2027 07:46:34.059            57.715              Murmansk1          1803.594
       470   07 Jun 2027 07:49:22.687   07 Jun 2027 07:50:22.456            59.769                 Moscow          1867.781
       471   07 Jun 2027 07:53:32.817   07 Jun 2027 07:53:47.223            14.406                 Moscow           450.188
       472   07 Jun 2027 08:07:04.966   07 Jun 2027 08:13:39.397           394.431               CapeTown         12325.969
       473   07 Jun 2027 09:07:52.010   07 Jun 2027 09:09:23.836            91.826                Anadyr2          2869.562
       474   07 Jun 2027 09:09:23.836   07 Jun 2027 09:10:29.210            65.374                Anadyr1          2042.937
       475   07 Jun 2027 09:10:53.639   07 Jun 2027 09:11:44.189            50.550               Magadan2          1579.687
       476   07 Jun 2027 09:11:44.189   07 Jun 2027 09:13:02.857            78.668               Magadan1          2458.375
       477   07 Jun 2027 09:13:15.650   07 Jun 2027 09:13:31.026            15.376                Anadyr1           480.500
       478   07 Jun 2027 10:39:00.559   07 Jun 2027 10:41:08.190           127.631               Magadan2          3988.469
       479   07 Jun 2027 10:42:03.779   07 Jun 2027 10:42:21.497            17.718                Irkutsk           553.688
       480   07 Jun 2027 10:42:25.423   07 Jun 2027 10:43:07.941            42.518               Magadan1          1328.688
       481   07 Jun 2027 10:43:07.941   07 Jun 2027 10:43:21.666            13.725               Magadan2           428.906
       482   07 Jun 2027 10:43:37.828   07 Jun 2027 10:44:28.162            50.334                Irkutsk          1572.937
