uniorb/output/strategy_1/Drop/Drop_KinoSat_110506.txt

KinoSat_110506
-------------------------
    Access    *     Start Time (UTCG)     *     Stop Time (UTCG)  *   Duration (s)        *       Station  *  Data (Mbytes)
         1   01 Jun 2027 03:38:49.485   01 Jun 2027 03:39:21.527            32.042               Magadan2          4005.250
         2   01 Jun 2027 03:39:33.572   01 Jun 2027 03:39:51.131            17.559                Anadyr2          2194.875
         3   01 Jun 2027 03:39:51.131   01 Jun 2027 03:40:27.072            35.941                Anadyr1          4492.625
         4   01 Jun 2027 03:40:48.867   01 Jun 2027 03:42:16.178            87.311               Magadan2         10913.875
         5   01 Jun 2027 03:42:16.178   01 Jun 2027 03:42:23.230             7.052               Magadan1           881.500
         6   01 Jun 2027 03:42:28.074   01 Jun 2027 03:43:45.719            77.645                Anadyr1          9705.625
         7   01 Jun 2027 05:16:03.803   01 Jun 2027 05:16:19.398            15.595               Magadan1          1949.375
         8   01 Jun 2027 05:16:38.142   01 Jun 2027 05:18:02.939            84.797                Irkutsk         10599.625
         9   01 Jun 2027 05:18:19.524   01 Jun 2027 05:20:47.914           148.390                Irkutsk         18548.750
        10   01 Jun 2027 06:30:37.909   01 Jun 2027 06:31:04.239            26.330                Sumatra          3291.250
        11   01 Jun 2027 06:33:35.231   01 Jun 2027 06:34:31.524            56.293                Sumatra          7036.625
        12   01 Jun 2027 06:49:51.030   01 Jun 2027 06:49:56.985             5.955                  Delhi           744.375
        13   01 Jun 2027 06:52:51.605   01 Jun 2027 06:53:37.933            46.328                Novosib          5791.000
        14   01 Jun 2027 06:53:47.781   01 Jun 2027 06:54:16.124            28.343              Murmansk2          3542.875
        15   01 Jun 2027 06:54:33.853   01 Jun 2027 06:55:04.328            30.475                Irkutsk          3809.375
        16   01 Jun 2027 06:55:10.553   01 Jun 2027 06:57:25.154           134.601                Novosib         16825.125
        17   01 Jun 2027 08:14:42.612   01 Jun 2027 08:15:09.606            26.994                  Delhi          3374.250
        18   01 Jun 2027 08:30:48.656   01 Jun 2027 08:31:13.803            25.147                Norilsk          3143.375
        19   01 Jun 2027 08:31:16.875   01 Jun 2027 08:31:37.554            20.679              Murmansk2          2584.875
        20   01 Jun 2027 08:31:56.805   01 Jun 2027 08:33:12.390            75.585                 Moscow          9448.125
        21   01 Jun 2027 08:33:27.823   01 Jun 2027 08:33:40.190            12.367                Norilsk          1545.875
        22   01 Jun 2027 08:33:53.646   01 Jun 2027 08:34:10.926            17.280                Novosib          2160.000
        23   01 Jun 2027 09:55:20.504   01 Jun 2027 09:55:55.764            35.260                  Delhi          4407.500
        24   01 Jun 2027 10:03:19.661   01 Jun 2027 10:03:49.921            30.260              Murmansk1          3782.500
        25   01 Jun 2027 10:04:09.991   01 Jun 2027 10:04:38.777            28.786                Novosib          3598.250
        26   01 Jun 2027 10:04:46.920   01 Jun 2027 10:06:17.115            90.195                 Moscow         11274.375
        27   01 Jun 2027 10:06:27.390   01 Jun 2027 10:06:56.211            28.821                 Moscow          3602.625
        28   01 Jun 2027 10:07:11.700   01 Jun 2027 10:07:53.224            41.524              Murmansk2          5190.500
        29   01 Jun 2027 10:08:11.089   01 Jun 2027 10:08:36.658            25.569              Murmansk2          3196.125
        30   01 Jun 2027 10:08:44.496   01 Jun 2027 10:08:53.815             9.319                 Moscow          1164.875
        31   01 Jun 2027 10:09:02.245   01 Jun 2027 10:10:16.103            73.858              Murmansk1          9232.250
        32   01 Jun 2027 11:14:31.561   01 Jun 2027 11:17:36.925           185.364               CapeTown         23170.500
        33   01 Jun 2027 11:21:47.796   01 Jun 2027 11:22:46.457            58.661               CapeTown          7332.625
        34   01 Jun 2027 11:53:51.215   01 Jun 2027 11:57:59.609           248.394                Anadyr2         31049.250
        35   01 Jun 2027 11:58:39.058   01 Jun 2027 12:00:29.929           110.871                Anadyr1         13858.875
        36   01 Jun 2027 13:33:15.957   01 Jun 2027 13:36:38.866           202.909               Magadan1         25363.625
        37   01 Jun 2027 13:38:36.702   01 Jun 2027 13:38:56.218            19.516               Magadan2          2439.500
        38   01 Jun 2027 16:49:39.481   01 Jun 2027 16:54:03.299           263.818                Irkutsk         32977.250
        39   01 Jun 2027 18:24:15.950   01 Jun 2027 18:31:36.264           440.314                Novosib         55039.250
        40   01 Jun 2027 21:33:51.565   01 Jun 2027 21:34:41.921            50.356              Murmansk1          6294.500
        41   01 Jun 2027 21:36:15.623   01 Jun 2027 21:38:27.131           131.508              Murmansk1         16438.500
        42   01 Jun 2027 21:39:02.360   01 Jun 2027 21:43:48.972           286.612                 Moscow         35264.499
        43   02 Jun 2027 03:53:49.974   02 Jun 2027 03:54:12.343            22.369                Anadyr2          2796.125
        44   02 Jun 2027 03:54:19.757   02 Jun 2027 03:55:46.998            87.241                Anadyr1         10905.125
        45   02 Jun 2027 03:56:33.616   02 Jun 2027 03:57:07.690            34.074               Magadan2          4259.250
        46   02 Jun 2027 05:28:05.021   02 Jun 2027 05:28:47.947            42.926               Magadan1          5365.750
        47   02 Jun 2027 05:29:17.507   02 Jun 2027 05:30:44.924            87.417                Norilsk         10927.125
        48   02 Jun 2027 05:30:55.403   02 Jun 2027 05:31:01.672             6.269                Novosib           783.625
        49   02 Jun 2027 05:31:04.349   02 Jun 2027 05:31:49.276            44.927              Murmansk2          5615.875
        50   02 Jun 2027 05:32:05.891   02 Jun 2027 05:32:13.131             7.240              Murmansk2           905.000
        51   02 Jun 2027 05:32:13.131   02 Jun 2027 05:32:51.371            38.240              Murmansk1          4780.000
        52   02 Jun 2027 05:33:00.637   02 Jun 2027 05:33:55.311            54.674              Murmansk1          6834.250
        53   02 Jun 2027 06:07:47.139   02 Jun 2027 06:07:54.348             7.209            RioGallegos           901.125
        54   02 Jun 2027 06:08:13.325   02 Jun 2027 06:08:47.289            33.964            RioGallegos          4245.500
        55   02 Jun 2027 06:42:33.024   02 Jun 2027 06:43:24.730            51.706                Sumatra          6463.250
        56   02 Jun 2027 06:58:00.428   02 Jun 2027 06:59:58.230           117.802                  Delhi         14725.250
        57   02 Jun 2027 07:04:44.737   02 Jun 2027 07:05:25.482            40.745                Novosib          5093.125
        58   02 Jun 2027 07:05:36.320   02 Jun 2027 07:06:32.776            56.456                Irkutsk          7057.000
        59   02 Jun 2027 07:07:03.473   02 Jun 2027 07:08:12.059            68.586              Murmansk2          8573.250
        60   02 Jun 2027 07:08:31.186   02 Jun 2027 07:08:53.311            22.125                Norilsk          2765.625
        61   02 Jun 2027 07:09:00.574   02 Jun 2027 07:09:37.769            37.195                Norilsk          4649.375
        62   02 Jun 2027 07:09:54.549   02 Jun 2027 07:10:07.832            13.283                Novosib          1660.375
        63   02 Jun 2027 07:10:22.120   02 Jun 2027 07:10:25.534             3.414              Murmansk2           426.750
        64   02 Jun 2027 07:47:30.160   02 Jun 2027 07:47:54.959            24.799            RioGallegos          3099.875
        65   02 Jun 2027 08:23:02.095   02 Jun 2027 08:23:24.551            22.456                Sumatra          2807.000
        66   02 Jun 2027 08:26:47.328   02 Jun 2027 08:27:19.811            32.483                  Delhi          4060.375
        67   02 Jun 2027 08:42:50.108   02 Jun 2027 08:43:25.351            35.243                 Moscow          4405.375
        68   02 Jun 2027 08:43:27.862   02 Jun 2027 08:43:47.118            19.256              Murmansk2          2407.000
        69   02 Jun 2027 08:44:02.902   02 Jun 2027 08:45:46.869           103.967                Novosib         12995.875
        70   02 Jun 2027 08:46:01.313   02 Jun 2027 08:46:06.148             4.835                Novosib           604.375
        71   02 Jun 2027 10:16:27.122   02 Jun 2027 10:18:56.178           149.056                 Moscow         18632.000
        72   02 Jun 2027 10:19:13.524   02 Jun 2027 10:20:25.037            71.513                 Moscow          8939.125
        73   02 Jun 2027 10:20:43.442   02 Jun 2027 10:21:12.929            29.487                 Moscow          3685.875
        74   02 Jun 2027 10:21:16.349   02 Jun 2027 10:22:17.262            60.913              Murmansk2          7614.125
        75   02 Jun 2027 11:25:57.853   02 Jun 2027 11:33:11.438           433.585               CapeTown         54198.125
        76   02 Jun 2027 12:05:43.586   02 Jun 2027 12:09:57.154           253.568                Anadyr2         31696.000
        77   02 Jun 2027 12:11:07.172   02 Jun 2027 12:12:40.326            93.154                Anadyr1         11644.250
        78   02 Jun 2027 13:44:48.490   02 Jun 2027 13:50:49.053           360.563               Magadan2         45070.375
        79   02 Jun 2027 17:00:48.667   02 Jun 2027 17:07:25.519           396.852                Irkutsk         49606.500
        80   02 Jun 2027 17:17:10.831   02 Jun 2027 17:18:13.456            62.625                Sumatra          7828.125
        81   02 Jun 2027 17:19:16.729   02 Jun 2027 17:21:42.408           145.679                Sumatra         18209.875
        82   02 Jun 2027 18:35:53.445   02 Jun 2027 18:39:02.424           188.979                Novosib         23622.375
        83   02 Jun 2027 18:42:19.204   02 Jun 2027 18:43:55.191            95.987                Novosib         11998.375
        84   02 Jun 2027 21:45:04.857   02 Jun 2027 21:46:28.489            83.632              Murmansk1         10454.000
        85   02 Jun 2027 21:48:56.489   02 Jun 2027 21:49:32.490            36.001              Murmansk2          4500.125
        86   02 Jun 2027 21:51:00.451   02 Jun 2027 21:52:33.810            93.359                 Moscow         11669.875
        87   02 Jun 2027 21:55:52.588   02 Jun 2027 21:57:28.179            95.591                 Moscow         11948.875
        88   02 Jun 2027 22:19:02.490   02 Jun 2027 22:19:39.781            37.291               CapeTown          4661.375
        89   02 Jun 2027 22:21:31.448   02 Jun 2027 22:22:13.494            42.046               CapeTown          5255.750
        90   03 Jun 2027 04:03:51.378   03 Jun 2027 04:04:06.392            15.014                Irkutsk          1876.750
        91   03 Jun 2027 04:06:24.047   03 Jun 2027 04:07:48.141            84.094                Anadyr2         10511.750
        92   03 Jun 2027 04:08:58.473   03 Jun 2027 04:09:05.568             7.095               Magadan1           886.875
        93   03 Jun 2027 04:12:11.836   03 Jun 2027 04:12:56.258            44.422              Murmansk1          5552.750
        94   03 Jun 2027 04:44:16.788   03 Jun 2027 04:44:53.403            36.615            RioGallegos          4576.875
        95   03 Jun 2027 04:45:52.288   03 Jun 2027 04:46:33.669            41.381            RioGallegos          5172.625
        96   03 Jun 2027 04:47:07.355   03 Jun 2027 04:47:24.818            17.463            RioGallegos          2182.875
        97   03 Jun 2027 04:51:51.332   03 Jun 2027 04:52:00.623             9.291            RioGallegos          1161.375
        98   03 Jun 2027 05:22:16.762   03 Jun 2027 05:23:59.886           103.124                Sumatra         12890.500
        99   03 Jun 2027 05:25:31.935   03 Jun 2027 05:27:48.410           136.475                Sumatra         17059.375
       100   03 Jun 2027 05:41:04.177   03 Jun 2027 05:43:59.271           175.094                Irkutsk         21886.750
       101   03 Jun 2027 05:44:26.267   03 Jun 2027 05:45:02.357            36.090                Irkutsk          4511.250
       102   03 Jun 2027 06:54:33.730   03 Jun 2027 06:56:00.661            86.931                Sumatra         10866.375
       103   03 Jun 2027 07:10:26.022   03 Jun 2027 07:11:38.232            72.210                  Delhi          9026.250
       104   03 Jun 2027 07:17:38.125   03 Jun 2027 07:18:55.464            77.339                Novosib          9667.375
       105   03 Jun 2027 07:18:55.991   03 Jun 2027 07:20:35.969            99.978                Irkutsk         12497.250
       106   03 Jun 2027 08:38:57.679   03 Jun 2027 08:40:10.619            72.940                  Delhi          9117.500
       107   03 Jun 2027 08:53:54.771   03 Jun 2027 08:54:02.925             8.154                Novosib          1019.250
       108   03 Jun 2027 08:54:44.247   03 Jun 2027 08:55:09.720            25.473                Novosib          3184.125
       109   03 Jun 2027 08:55:26.762   03 Jun 2027 08:55:43.470            16.708                Norilsk          2088.500
       110   03 Jun 2027 08:55:52.142   03 Jun 2027 08:56:24.916            32.774                 Moscow          4096.750
       111   03 Jun 2027 08:56:33.917   03 Jun 2027 08:57:59.697            85.780                Novosib         10722.500
       112   03 Jun 2027 10:27:39.375   03 Jun 2027 10:29:22.828           103.453              Murmansk1         12931.625
       113   03 Jun 2027 10:29:39.998   03 Jun 2027 10:30:36.422            56.424              Murmansk1          7053.000
       114   03 Jun 2027 10:30:51.042   03 Jun 2027 10:31:27.630            36.588              Murmansk2          4573.500
       115   03 Jun 2027 10:31:37.382   03 Jun 2027 10:32:30.546            53.164                 Moscow          6645.500
       116   03 Jun 2027 11:37:33.673   03 Jun 2027 11:38:24.699            51.026               CapeTown          6378.250
       117   03 Jun 2027 11:41:14.715   03 Jun 2027 11:44:07.120           172.405               CapeTown         21550.625
       118   03 Jun 2027 12:17:38.013   03 Jun 2027 12:20:12.354           154.341                Anadyr2         19292.625
       119   03 Jun 2027 12:20:56.014   03 Jun 2027 12:23:32.053           156.039                Anadyr2         19504.875
       120   03 Jun 2027 12:24:48.508   03 Jun 2027 12:26:27.204            98.696                Anadyr2         12337.000
       121   03 Jun 2027 13:56:29.940   03 Jun 2027 14:00:23.534           233.594               Magadan2         29199.250
       122   03 Jun 2027 14:01:19.162   03 Jun 2027 14:02:58.553            99.391               Magadan1         12423.875
       123   03 Jun 2027 16:26:03.440   03 Jun 2027 16:28:26.809           143.369            RioGallegos         17921.125
       124   03 Jun 2027 17:12:17.901   03 Jun 2027 17:18:26.282           368.381                Irkutsk         46047.625
       125   03 Jun 2027 17:27:37.438   03 Jun 2027 17:29:48.410           130.972                Sumatra         16371.500
       126   03 Jun 2027 17:31:38.870   03 Jun 2027 17:33:48.237           129.367                Sumatra         16170.875
       127   03 Jun 2027 18:49:48.079   03 Jun 2027 18:51:33.766           105.687                Novosib         13210.875
       128   03 Jun 2027 18:53:23.633   03 Jun 2027 18:53:44.454            20.821                Novosib          2602.625
       129   03 Jun 2027 18:58:45.096   03 Jun 2027 18:59:43.565            58.469                  Delhi          7308.625
       130   03 Jun 2027 19:00:06.376   03 Jun 2027 19:01:34.037            87.661                  Delhi         10957.625
       131   03 Jun 2027 20:23:07.457   03 Jun 2027 20:25:26.154           138.697              Murmansk1         17337.125
       132   03 Jun 2027 22:00:58.152   03 Jun 2027 22:02:49.314           111.162                 Moscow         13895.250
       133   03 Jun 2027 22:05:00.914   03 Jun 2027 22:07:12.225           131.311                 Moscow         16413.875
       134   04 Jun 2027 04:18:22.995   04 Jun 2027 04:19:49.102            86.107                Anadyr2         10763.375
       135   04 Jun 2027 04:20:17.929   04 Jun 2027 04:20:33.418            15.489                Irkutsk          1936.125
       136   04 Jun 2027 04:20:49.560   04 Jun 2027 04:21:06.946            17.386                Norilsk          2173.250
       137   04 Jun 2027 04:22:53.576   04 Jun 2027 04:23:09.068            15.492              Murmansk1          1936.500
       138   04 Jun 2027 04:56:04.997   04 Jun 2027 04:57:28.502            83.505            RioGallegos         10438.125
       139   04 Jun 2027 05:33:06.206   04 Jun 2027 05:35:33.569           147.363                Sumatra         18420.375
       140   04 Jun 2027 05:52:34.543   04 Jun 2027 05:53:14.194            39.651                Irkutsk          4956.375
       141   04 Jun 2027 05:53:26.587   04 Jun 2027 05:53:40.962            14.375                Norilsk          1796.875
       142   04 Jun 2027 05:53:43.335   04 Jun 2027 05:54:19.460            36.125               Magadan1          4515.625
       143   04 Jun 2027 05:54:32.619   04 Jun 2027 05:55:02.851            30.232                Norilsk          3779.000
       144   04 Jun 2027 05:55:23.573   04 Jun 2027 05:56:02.145            38.572                Norilsk          4821.500
       145   04 Jun 2027 05:56:21.586   04 Jun 2027 05:57:04.388            42.802                Irkutsk          5350.250
       146   04 Jun 2027 05:57:11.167   04 Jun 2027 05:58:27.668            76.501                Norilsk          9562.625
       147   04 Jun 2027 06:32:14.090   04 Jun 2027 06:32:35.658            21.568            RioGallegos          2696.000
       148   04 Jun 2027 07:14:53.368   04 Jun 2027 07:15:07.607            14.239                Sumatra          1779.875
       149   04 Jun 2027 07:15:54.943   04 Jun 2027 07:17:25.912            90.969                  Delhi         11371.125
       150   04 Jun 2027 07:29:24.314   04 Jun 2027 07:30:07.128            42.814                Novosib          5351.750
       151   04 Jun 2027 07:30:28.895   04 Jun 2027 07:30:42.103            13.208              Murmansk2          1651.000
       152   04 Jun 2027 07:30:50.969   04 Jun 2027 07:31:07.352            16.383                 Moscow          2047.875
       153   04 Jun 2027 07:31:07.651   04 Jun 2027 07:31:57.457            49.806              Murmansk2          6225.750
       154   04 Jun 2027 07:32:18.664   04 Jun 2027 07:32:28.446             9.782              Murmansk1          1222.750
       155   04 Jun 2027 07:32:28.446   04 Jun 2027 07:33:14.593            46.147              Murmansk2          5768.375
       156   04 Jun 2027 07:33:45.674   04 Jun 2027 07:34:32.672            46.998                Novosib          5874.750
       157   04 Jun 2027 08:54:44.437   04 Jun 2027 08:55:44.677            60.240                  Delhi          7530.000
       158   04 Jun 2027 09:04:35.960   04 Jun 2027 09:05:50.820            74.860                Novosib          9357.500
       159   04 Jun 2027 09:06:04.408   04 Jun 2027 09:07:06.281            61.873              Murmansk1          7734.125
       160   04 Jun 2027 09:07:17.788   04 Jun 2027 09:07:42.255            24.467              Murmansk1          3058.375
       161   04 Jun 2027 09:07:50.762   04 Jun 2027 09:08:12.380            21.618                Norilsk          2702.250
       162   04 Jun 2027 09:08:19.202   04 Jun 2027 09:08:37.748            18.546                Novosib          2318.250
       163   04 Jun 2027 09:08:51.223   04 Jun 2027 09:09:44.276            53.053              Murmansk2          6631.625
       164   04 Jun 2027 10:40:48.447   04 Jun 2027 10:41:10.486            22.039              Murmansk1          2754.875
       165   04 Jun 2027 10:41:28.683   04 Jun 2027 10:42:53.664            84.981                 Moscow         10622.625
       166   04 Jun 2027 10:43:07.568   04 Jun 2027 10:44:35.509            87.941                 Moscow         10992.625
       167   04 Jun 2027 11:49:16.029   04 Jun 2027 11:50:29.529            73.500               CapeTown          9187.500
       168   04 Jun 2027 11:54:28.291   04 Jun 2027 11:55:26.843            58.552               CapeTown          7319.000
       169   04 Jun 2027 12:29:33.953   04 Jun 2027 12:31:40.346           126.393                Anadyr1         15799.125
       170   04 Jun 2027 12:33:41.695   04 Jun 2027 12:35:53.954           132.259                Anadyr1         16532.375
       171   04 Jun 2027 12:37:04.463   04 Jun 2027 12:39:56.874           172.411                Anadyr1         21551.375
       172   04 Jun 2027 14:08:16.570   04 Jun 2027 14:12:18.607           242.037               Magadan1         30254.625
       173   04 Jun 2027 14:13:47.290   04 Jun 2027 14:14:14.417            27.127               Magadan2          3390.875
       174   04 Jun 2027 16:37:04.897   04 Jun 2027 16:40:11.971           187.074            RioGallegos         23384.250
       175   04 Jun 2027 17:25:10.613   04 Jun 2027 17:27:44.050           153.437                Irkutsk         19179.625
       176   04 Jun 2027 17:29:31.031   04 Jun 2027 17:32:04.173           153.142                Irkutsk         19142.750
       177   04 Jun 2027 17:38:40.451   04 Jun 2027 17:41:30.955           170.504                Sumatra         21313.000
       178   04 Jun 2027 17:43:17.724   04 Jun 2027 17:44:04.075            46.351                Sumatra          5793.875
       179   04 Jun 2027 19:02:59.404   04 Jun 2027 19:05:45.655           166.251                Novosib         20781.375
       180   04 Jun 2027 19:08:59.068   04 Jun 2027 19:10:29.223            90.155                  Delhi         11269.375
       181   04 Jun 2027 20:36:21.545   04 Jun 2027 20:37:27.051            65.506              Murmansk1          8188.250
       182   04 Jun 2027 22:12:48.490   04 Jun 2027 22:14:38.755           110.265                 Moscow         13783.125
       183   04 Jun 2027 22:38:38.401   04 Jun 2027 22:39:13.680            35.279               CapeTown          4409.875
       184   04 Jun 2027 22:39:54.982   04 Jun 2027 22:40:46.783            51.801               CapeTown          6475.125
       185   05 Jun 2027 04:30:19.771   05 Jun 2027 04:31:21.613            61.842                Irkutsk          7730.250
       186   05 Jun 2027 04:31:41.241   05 Jun 2027 04:31:46.155             4.914               Magadan2           614.250
       187   05 Jun 2027 04:31:55.833   05 Jun 2027 04:32:06.634            10.801                Norilsk          1350.125
       188   05 Jun 2027 04:32:14.562   05 Jun 2027 04:32:58.201            43.639               Magadan2          5454.875
       189   05 Jun 2027 04:33:01.589   05 Jun 2027 04:33:59.726            58.137              Murmansk1          7267.125
       190   05 Jun 2027 05:09:05.648   05 Jun 2027 05:10:26.757            81.109            RioGallegos         10138.625
       191   05 Jun 2027 05:44:18.791   05 Jun 2027 05:45:22.078            63.287                Sumatra          7910.875
       192   05 Jun 2027 06:04:38.326   05 Jun 2027 06:05:47.697            69.371                Irkutsk          8671.375
       193   05 Jun 2027 06:06:17.568   05 Jun 2027 06:06:59.867            42.299                Norilsk          5287.375
       194   05 Jun 2027 06:07:10.382   05 Jun 2027 06:07:21.905            11.523              Murmansk1          1440.375
       195   05 Jun 2027 06:07:23.437   05 Jun 2027 06:08:26.878            63.441                Irkutsk          7930.125
       196   05 Jun 2027 06:08:50.496   05 Jun 2027 06:10:36.297           105.801                Norilsk         13225.125
       197   05 Jun 2027 07:18:52.479   05 Jun 2027 07:19:58.737            66.258                Sumatra          8282.250
       198   05 Jun 2027 07:41:02.856   05 Jun 2027 07:41:32.144            29.288                Irkutsk          3661.000
       199   05 Jun 2027 07:41:43.311   05 Jun 2027 07:42:05.848            22.537              Murmansk2          2817.125
       200   05 Jun 2027 07:42:12.281   05 Jun 2027 07:42:22.418            10.137                Norilsk          1267.125
       201   05 Jun 2027 07:42:26.018   05 Jun 2027 07:42:49.288            23.270              Murmansk1          2908.750
       202   05 Jun 2027 07:43:03.702   05 Jun 2027 07:44:08.217            64.515                Norilsk          8064.375
       203   05 Jun 2027 07:45:24.427   05 Jun 2027 07:45:38.454            14.027                 Moscow          1753.375
       204   05 Jun 2027 09:03:37.754   05 Jun 2027 09:05:26.043           108.289                  Delhi         13536.125
       205   05 Jun 2027 09:16:31.644   05 Jun 2027 09:17:45.300            73.656                 Moscow          9207.000
       206   05 Jun 2027 09:18:04.823   05 Jun 2027 09:18:54.596            49.773              Murmansk2          6221.625
       207   05 Jun 2027 09:19:04.702   05 Jun 2027 09:19:27.769            23.067                 Moscow          2883.375
       208   05 Jun 2027 09:19:46.264   05 Jun 2027 09:21:14.201            87.937                Norilsk         10992.125
       209   05 Jun 2027 10:54:17.508   05 Jun 2027 10:54:50.921            33.413                 Moscow          4176.625
       210   05 Jun 2027 10:54:52.812   05 Jun 2027 10:55:47.032            54.220              Murmansk1          6777.500
       211   05 Jun 2027 11:07:36.688   05 Jun 2027 11:10:29.467           172.779                Anadyr1         21597.375
       212   05 Jun 2027 12:41:31.063   05 Jun 2027 12:43:10.593            99.530                Anadyr1         12441.250
       213   05 Jun 2027 12:46:21.688   05 Jun 2027 12:48:13.074           111.386                Anadyr2         13923.250
       214   05 Jun 2027 14:20:06.634   05 Jun 2027 14:25:52.286           345.652               Magadan1         43206.500
       215   05 Jun 2027 16:48:31.075   05 Jun 2027 16:53:10.442           279.367            RioGallegos         34920.875
       216   05 Jun 2027 16:54:33.689   05 Jun 2027 16:56:11.889            98.200            RioGallegos         12275.000
       217   05 Jun 2027 17:38:45.403   05 Jun 2027 17:39:38.276            52.873                Irkutsk          6609.125
       218   05 Jun 2027 17:52:38.662   05 Jun 2027 17:56:16.539           217.877                Sumatra         27234.625
       219   05 Jun 2027 19:20:05.118   05 Jun 2027 19:23:05.036           179.918                  Delhi         22489.750
       220   05 Jun 2027 19:25:16.501   05 Jun 2027 19:27:16.645           120.144                  Delhi         15018.000
       221   05 Jun 2027 20:47:01.629   05 Jun 2027 20:47:32.676            31.047              Murmansk1          3880.875
       222   05 Jun 2027 20:48:58.856   05 Jun 2027 20:49:28.195            29.339              Murmansk1          3667.375
       223   05 Jun 2027 22:54:04.156   05 Jun 2027 22:55:46.223           102.067               CapeTown         12758.375
       224   06 Jun 2027 03:06:43.918   06 Jun 2027 03:06:56.191            12.273                Anadyr1          1534.125
       225   06 Jun 2027 03:06:59.224   06 Jun 2027 03:07:07.426             8.202               Magadan1          1025.250
       226   06 Jun 2027 03:07:15.676   06 Jun 2027 03:07:26.775            11.099               Magadan1          1387.375
       227   06 Jun 2027 03:08:42.539   06 Jun 2027 03:09:12.353            29.814               Magadan2          3726.750
       228   06 Jun 2027 04:39:33.853   06 Jun 2027 04:39:51.862            18.009                Irkutsk          2251.125
       229   06 Jun 2027 04:40:29.393   06 Jun 2027 04:40:45.959            16.566               Magadan2          2070.750
       230   06 Jun 2027 04:40:52.428   06 Jun 2027 04:40:55.908             3.480                Novosib           435.000
       231   06 Jun 2027 04:41:04.284   06 Jun 2027 04:41:55.036            50.752                Norilsk          6344.000
       232   06 Jun 2027 04:42:02.486   06 Jun 2027 04:43:11.626            69.140               Magadan2          8642.500
       233   06 Jun 2027 04:43:32.735   06 Jun 2027 04:43:59.241            26.506               Magadan1          3313.250
       234   06 Jun 2027 04:44:14.603   06 Jun 2027 04:44:52.452            37.849               Magadan1          4731.125
       235   06 Jun 2027 04:44:57.222   06 Jun 2027 04:45:06.623             9.401                Norilsk          1175.125
       236   06 Jun 2027 04:45:14.448   06 Jun 2027 04:45:52.776            38.328              Murmansk2          4791.000
       237   06 Jun 2027 05:19:50.900   06 Jun 2027 05:19:59.808             8.908            RioGallegos          1113.500
       238   06 Jun 2027 05:22:26.568   06 Jun 2027 05:23:03.979            37.411            RioGallegos          4676.375
       239   06 Jun 2027 05:55:44.730   06 Jun 2027 05:56:51.497            66.767                Sumatra          8345.875
       240   06 Jun 2027 05:59:46.903   06 Jun 2027 06:00:29.259            42.356                Sumatra          5294.500
       241   06 Jun 2027 06:16:41.346   06 Jun 2027 06:17:30.289            48.943                Irkutsk          6117.875
       242   06 Jun 2027 06:18:01.254   06 Jun 2027 06:18:09.029             7.775              Murmansk1           971.875
       243   06 Jun 2027 06:18:20.037   06 Jun 2027 06:19:46.228            86.191                Irkutsk         10773.875
       244   06 Jun 2027 06:19:57.070   06 Jun 2027 06:20:17.287            20.217                Novosib          2527.125
       245   06 Jun 2027 06:20:42.417   06 Jun 2027 06:21:38.368            55.951                Novosib          6993.875
       246   06 Jun 2027 06:21:44.133   06 Jun 2027 06:22:06.588            22.455              Murmansk1          2806.875
       247   06 Jun 2027 06:59:53.457   06 Jun 2027 07:01:06.812            73.355            RioGallegos          9169.375
       248   06 Jun 2027 07:31:11.798   06 Jun 2027 07:31:44.267            32.469                Sumatra          4058.625
       249   06 Jun 2027 07:41:17.412   06 Jun 2027 07:41:54.778            37.366                  Delhi          4670.750
       250   06 Jun 2027 07:53:44.786   06 Jun 2027 07:54:29.391            44.605                Irkutsk          5575.625
       251   06 Jun 2027 07:54:40.391   06 Jun 2027 07:54:57.688            17.297                 Moscow          2162.125
       252   06 Jun 2027 07:55:01.648   06 Jun 2027 07:55:11.291             9.643                Irkutsk          1205.375
       253   06 Jun 2027 07:55:29.062   06 Jun 2027 07:57:13.854           104.792                Novosib         13099.000
       254   06 Jun 2027 09:16:09.910   06 Jun 2027 09:16:28.120            18.210                  Delhi          2276.250
       255   06 Jun 2027 09:17:07.203   06 Jun 2027 09:18:24.404            77.201                  Delhi          9650.125
       256   06 Jun 2027 09:28:44.750   06 Jun 2027 09:29:22.590            37.840                Novosib          4730.000
       257   06 Jun 2027 09:29:39.995   06 Jun 2027 09:30:42.470            62.475              Murmansk1          7809.375
       258   06 Jun 2027 09:30:56.692   06 Jun 2027 09:31:24.148            27.456              Murmansk1          3432.000
       259   06 Jun 2027 09:31:25.711   06 Jun 2027 09:31:58.617            32.906                Norilsk          4113.250
       260   06 Jun 2027 09:32:08.897   06 Jun 2027 09:32:43.958            35.061                Novosib          4382.625
       261   06 Jun 2027 11:18:54.020   06 Jun 2027 11:23:53.006           298.986                Anadyr2         37373.250
       262   06 Jun 2027 14:31:59.156   06 Jun 2027 14:34:41.217           162.061               Magadan1         20257.625
       263   06 Jun 2027 14:36:14.575   06 Jun 2027 14:37:36.719            82.144               Magadan2         10268.000
       264   06 Jun 2027 14:39:10.252   06 Jun 2027 14:41:29.079           138.827               Magadan1         17353.375
       265   06 Jun 2027 17:00:58.363   06 Jun 2027 17:06:42.256           343.893            RioGallegos         42986.625
       266   06 Jun 2027 17:45:16.811   06 Jun 2027 17:46:00.384            43.573                Norilsk          5446.625
       267   06 Jun 2027 18:06:29.714   06 Jun 2027 18:08:19.407           109.693                Sumatra         13711.625
       268   06 Jun 2027 19:31:28.980   06 Jun 2027 19:36:59.340           330.360                  Delhi         41295.000
       269   06 Jun 2027 20:57:53.321   06 Jun 2027 20:58:22.429            29.108              Murmansk1          3638.500
       270   06 Jun 2027 20:58:55.894   06 Jun 2027 21:01:29.542           153.648              Murmansk2         19206.000
       271   06 Jun 2027 21:04:03.814   06 Jun 2027 21:04:50.229            46.415                 Moscow          5801.875
       272   06 Jun 2027 23:06:53.851   06 Jun 2027 23:08:15.133            81.282               CapeTown         10160.250
       273   07 Jun 2027 03:18:46.649   07 Jun 2027 03:20:11.135            84.486                Anadyr2         10560.750
       274   07 Jun 2027 04:52:43.164   07 Jun 2027 04:55:29.742           166.578               Magadan2         20822.250
       275   07 Jun 2027 04:56:15.091   07 Jun 2027 04:56:44.806            29.715               Magadan1          3714.375
       276   07 Jun 2027 04:56:46.807   07 Jun 2027 04:57:01.255            14.448                Irkutsk          1806.000
       277   07 Jun 2027 05:31:48.641   07 Jun 2027 05:32:20.748            32.107            RioGallegos          4013.375
       278   07 Jun 2027 06:07:20.145   07 Jun 2027 06:09:02.964           102.819                Sumatra         12852.375
       279   07 Jun 2027 06:22:31.008   07 Jun 2027 06:23:56.011            85.003                  Delhi         10625.375
       280   07 Jun 2027 06:29:15.097   07 Jun 2027 06:30:03.309            48.212                Novosib          6026.500
       281   07 Jun 2027 06:30:33.599   07 Jun 2027 06:31:10.210            36.611                Irkutsk          4576.375
       282   07 Jun 2027 06:31:14.863   07 Jun 2027 06:32:48.978            94.115              Murmansk2         11764.375
       283   07 Jun 2027 06:35:11.489   07 Jun 2027 06:35:16.207             4.718              Murmansk2           589.750
       284   07 Jun 2027 07:09:28.264   07 Jun 2027 07:10:13.531            45.267            RioGallegos          5658.375
       285   07 Jun 2027 07:45:53.132   07 Jun 2027 07:46:39.043            45.911                Sumatra          5738.875
       286   07 Jun 2027 07:53:02.732   07 Jun 2027 07:54:03.146            60.414                  Delhi          7551.750
       287   07 Jun 2027 08:05:44.785   07 Jun 2027 08:07:10.754            85.969                Irkutsk         10746.125
       288   07 Jun 2027 08:07:32.400   07 Jun 2027 08:08:15.572            43.172                Novosib          5396.500
       289   07 Jun 2027 08:08:25.094   07 Jun 2027 08:08:33.435             8.341                Norilsk          1042.625
       290   07 Jun 2027 08:08:38.615   07 Jun 2027 08:09:08.177            29.562                 Moscow          3695.250
       291   07 Jun 2027 08:10:38.750   07 Jun 2027 08:11:15.858            37.108                 Moscow          4638.500
       292   07 Jun 2027 09:28:53.487   07 Jun 2027 09:29:57.217            63.730                  Delhi          7966.250
       293   07 Jun 2027 09:40:32.818   07 Jun 2027 09:41:29.290            56.472                 Moscow          7059.000
       294   07 Jun 2027 09:42:04.850   07 Jun 2027 09:43:21.143            76.293                Norilsk          9536.625
       295   07 Jun 2027 09:43:37.830   07 Jun 2027 09:44:17.745            39.915                 Moscow          4989.375
       296   07 Jun 2027 09:44:19.532   07 Jun 2027 09:44:41.407            21.875                 Moscow          2734.375
       297   07 Jun 2027 09:44:46.305   07 Jun 2027 09:44:52.541             6.236                Novosib           779.500
       298   07 Jun 2027 09:44:57.985   07 Jun 2027 09:45:57.899            59.914                 Moscow          7489.250
       299   07 Jun 2027 10:53:10.059   07 Jun 2027 10:54:27.579            77.520               CapeTown          9690.000
       300   07 Jun 2027 10:56:21.984   07 Jun 2027 10:56:22.332             0.348               CapeTown            43.500
       301   07 Jun 2027 11:30:31.183   07 Jun 2027 11:33:48.204           197.021                Anadyr2         24627.625
       302   07 Jun 2027 11:36:17.217   07 Jun 2027 11:36:54.176            36.959                Anadyr1          4619.875
       303   07 Jun 2027 14:43:53.539   07 Jun 2027 14:46:04.010           130.471               Magadan1         16308.875
       304   07 Jun 2027 14:48:58.660   07 Jun 2027 14:50:48.970           110.310               Magadan2         13788.750
       305   07 Jun 2027 14:52:23.513   07 Jun 2027 14:53:24.651            61.138               Magadan2          7642.250
       306   07 Jun 2027 17:14:45.731   07 Jun 2027 17:17:59.813           194.082            RioGallegos         24260.250
       307   07 Jun 2027 18:02:06.718   07 Jun 2027 18:05:08.573           181.855                Novosib         22731.875
       308   07 Jun 2027 18:19:27.566   07 Jun 2027 18:19:32.296             4.730                Sumatra           591.250
       309   07 Jun 2027 19:46:51.720   07 Jun 2027 19:49:42.276           170.556                  Delhi         21319.500
       310   07 Jun 2027 21:10:46.989   07 Jun 2027 21:11:58.264            71.275              Murmansk2          8909.375
       311   07 Jun 2027 21:13:20.290   07 Jun 2027 21:14:55.525            95.235              Murmansk2         11904.375
       312   07 Jun 2027 21:15:19.370   07 Jun 2027 21:19:47.549           268.179                 Moscow         33522.375
       313   08 Jun 2027 03:29:48.130   08 Jun 2027 03:30:50.603            62.473               Magadan1          7809.125
       314   08 Jun 2027 03:31:02.167   08 Jun 2027 03:31:32.367            30.200               Magadan2          3775.000
       315   08 Jun 2027 03:31:59.587   08 Jun 2027 03:32:12.463            12.876                Anadyr1          1609.500
       316   08 Jun 2027 03:32:31.752   08 Jun 2027 03:32:50.431            18.679               Magadan1          2334.875
       317   08 Jun 2027 05:04:19.343   08 Jun 2027 05:05:25.257            65.914                Novosib          8239.250
       318   08 Jun 2027 05:05:33.381   08 Jun 2027 05:06:47.304            73.923               Magadan1          9240.375
       319   08 Jun 2027 05:07:03.168   08 Jun 2027 05:07:43.281            40.113               Magadan1          5014.125
       320   08 Jun 2027 05:07:46.631   08 Jun 2027 05:08:18.052            31.421               Magadan2          3927.625
       321   08 Jun 2027 05:08:34.454   08 Jun 2027 05:08:34.636             0.182               Magadan2            22.750
       322   08 Jun 2027 05:08:46.934   08 Jun 2027 05:09:06.343            19.409                Irkutsk          2426.125
       323   08 Jun 2027 05:09:19.580   08 Jun 2027 05:09:31.000            11.420              Murmansk1          1427.500
       324   08 Jun 2027 05:10:35.597   08 Jun 2027 05:11:00.702            25.105              Murmansk1          3138.125
       325   08 Jun 2027 05:12:19.353   08 Jun 2027 05:12:38.847            19.494                Norilsk          2436.750
       326   08 Jun 2027 05:43:49.640   08 Jun 2027 05:44:46.609            56.969            RioGallegos          7121.125
       327   08 Jun 2027 06:20:43.725   08 Jun 2027 06:21:37.860            54.135                Sumatra          6766.875
       328   08 Jun 2027 06:31:15.998   08 Jun 2027 06:31:23.544             7.546                  Delhi           943.250
       329   08 Jun 2027 06:33:56.263   08 Jun 2027 06:34:29.309            33.046                  Delhi          4130.750
       330   08 Jun 2027 06:40:18.146   08 Jun 2027 06:40:45.066            26.920                Irkutsk          3365.000
       331   08 Jun 2027 06:41:11.433   08 Jun 2027 06:41:38.452            27.019                Novosib          3377.375
       332   08 Jun 2027 06:41:42.388   08 Jun 2027 06:42:10.345            27.957                Irkutsk          3494.625
       333   08 Jun 2027 06:42:37.331   08 Jun 2027 06:43:47.304            69.973              Murmansk2          8746.625
       334   08 Jun 2027 06:43:53.975   08 Jun 2027 06:44:21.279            27.304                Norilsk          3413.000
       335   08 Jun 2027 06:44:30.896   08 Jun 2027 06:45:03.696            32.800                Irkutsk          4100.000
       336   08 Jun 2027 06:45:04.203   08 Jun 2027 06:45:39.086            34.883                Norilsk          4360.375
       337   08 Jun 2027 07:56:19.395   08 Jun 2027 07:57:01.236            41.841                Sumatra          5230.125
       338   08 Jun 2027 08:02:57.838   08 Jun 2027 08:03:05.267             7.429                  Delhi           928.625
       339   08 Jun 2027 08:04:42.234   08 Jun 2027 08:04:50.111             7.877                  Delhi           984.625
       340   08 Jun 2027 08:17:27.433   08 Jun 2027 08:17:46.717            19.284              Murmansk2          2410.500
       341   08 Jun 2027 08:17:58.528   08 Jun 2027 08:19:14.239            75.711              Murmansk2          9463.875
       342   08 Jun 2027 08:19:35.371   08 Jun 2027 08:20:21.327            45.956              Murmansk2          5744.500
       343   08 Jun 2027 08:20:25.068   08 Jun 2027 08:20:40.669            15.601                Norilsk          1950.125
       344   08 Jun 2027 08:20:45.433   08 Jun 2027 08:20:57.000            11.567                 Moscow          1445.875
       345   08 Jun 2027 09:41:54.795   08 Jun 2027 09:42:52.548            57.753                  Delhi          7219.125
       346   08 Jun 2027 09:52:22.133   08 Jun 2027 09:53:43.340            81.207              Murmansk2         10150.875
       347   08 Jun 2027 09:54:07.478   08 Jun 2027 09:55:05.002            57.524              Murmansk1          7190.500
       348   08 Jun 2027 09:55:09.031   08 Jun 2027 09:55:20.976            11.945              Murmansk2          1493.125
       349   08 Jun 2027 09:55:32.257   08 Jun 2027 09:55:42.101             9.844                 Moscow          1230.500
       350   08 Jun 2027 09:55:50.463   08 Jun 2027 09:56:33.233            42.770                Novosib          5346.250
       351   08 Jun 2027 09:56:37.264   08 Jun 2027 09:57:31.015            53.751              Murmansk2          6718.875
       352   08 Jun 2027 11:03:35.534   08 Jun 2027 11:06:06.641           151.107               CapeTown         18888.375
       353   08 Jun 2027 11:42:16.228   08 Jun 2027 11:48:32.288           376.060                Anadyr2         47007.500
       354   08 Jun 2027 13:22:18.527   08 Jun 2027 13:25:05.022           166.495               Magadan2         20811.875
       355   08 Jun 2027 14:57:34.059   08 Jun 2027 14:57:40.854             6.795               Magadan1           849.375
       356   08 Jun 2027 17:27:53.052   08 Jun 2027 17:29:32.311            99.259            RioGallegos         12407.375
       357   08 Jun 2027 18:08:34.844   08 Jun 2027 18:09:06.366            31.522                Norilsk          3940.250
       358   08 Jun 2027 18:11:13.531   08 Jun 2027 18:12:23.815            70.284                Irkutsk          8785.500
       359   08 Jun 2027 18:13:03.735   08 Jun 2027 18:18:46.366           342.631                Novosib         42828.875
       360   08 Jun 2027 20:00:06.220   08 Jun 2027 20:00:59.031            52.811                  Delhi          6601.375
       361   08 Jun 2027 21:22:32.595   08 Jun 2027 21:23:19.176            46.581              Murmansk1          5822.625
       362   08 Jun 2027 21:23:45.438   08 Jun 2027 21:26:47.282           181.844              Murmansk2         22730.500
       363   08 Jun 2027 21:26:51.731   08 Jun 2027 21:30:18.697           206.966              Murmansk1         25870.750
       364   08 Jun 2027 21:31:57.299   08 Jun 2027 21:33:10.283            72.984                 Moscow          9123.000
       365   09 Jun 2027 03:41:03.516   09 Jun 2027 03:41:29.607            26.091               Magadan2          3261.375
       366   09 Jun 2027 03:41:45.278   09 Jun 2027 03:42:38.017            52.739               Magadan2          6592.375
       367   09 Jun 2027 03:42:38.017   09 Jun 2027 03:43:02.982            24.965               Magadan1          3120.625
       368   09 Jun 2027 03:43:34.191   09 Jun 2027 03:45:01.508            87.317               Magadan1         10914.625
       369   09 Jun 2027 05:16:19.004   09 Jun 2027 05:17:35.228            76.224               Magadan1          9528.000
       370   09 Jun 2027 05:17:36.451   09 Jun 2027 05:18:40.966            64.515                Novosib          8064.375
       371   09 Jun 2027 05:19:18.312   09 Jun 2027 05:20:56.967            98.655                Novosib         12331.875
       372   09 Jun 2027 05:21:02.224   09 Jun 2027 05:21:10.654             8.430                Irkutsk          1053.750
       373   09 Jun 2027 06:30:52.435   09 Jun 2027 06:31:29.832            37.397                Sumatra          4674.625
       374   09 Jun 2027 06:33:49.958   09 Jun 2027 06:34:45.195            55.237                Sumatra          6904.625
       375   09 Jun 2027 06:42:08.011   09 Jun 2027 06:43:34.138            86.127                  Delhi         10765.875
       376   09 Jun 2027 06:53:06.340   09 Jun 2027 06:53:39.610            33.270                Novosib          4158.750
       377   09 Jun 2027 06:53:47.195   09 Jun 2027 06:54:09.924            22.729                Irkutsk          2841.125
       378   09 Jun 2027 06:54:21.580   09 Jun 2027 06:54:32.525            10.945                Norilsk          1368.125
       379   09 Jun 2027 06:54:32.654   09 Jun 2027 06:54:55.758            23.104              Murmansk2          2888.000
       380   09 Jun 2027 06:54:57.825   09 Jun 2027 06:55:25.469            27.644                Novosib          3455.500
       381   09 Jun 2027 06:55:41.803   09 Jun 2027 06:55:48.039             6.236                Norilsk           779.500
       382   09 Jun 2027 06:55:48.803   09 Jun 2027 06:57:39.586           110.783                Novosib         13847.875
       383   09 Jun 2027 08:14:57.252   09 Jun 2027 08:15:23.225            25.973                  Delhi          3246.625
       384   09 Jun 2027 08:29:37.297   09 Jun 2027 08:30:34.156            56.859                Irkutsk          7107.375
       385   09 Jun 2027 08:30:37.514   09 Jun 2027 08:31:13.418            35.904              Murmansk2          4488.000
       386   09 Jun 2027 08:31:28.729   09 Jun 2027 08:31:47.888            19.159                Norilsk          2394.875
       387   09 Jun 2027 08:31:54.250   09 Jun 2027 08:33:00.874            66.624              Murmansk2          8328.000
       388   09 Jun 2027 09:55:36.939   09 Jun 2027 09:56:07.032            30.093                  Delhi          3761.625
       389   09 Jun 2027 10:02:21.716   09 Jun 2027 10:02:38.987            17.271                 Moscow          2158.875
       390   09 Jun 2027 10:02:47.267   09 Jun 2027 10:04:46.361           119.094              Murmansk2         14886.750
       391   09 Jun 2027 10:05:01.419   09 Jun 2027 10:05:23.649            22.230                 Moscow          2778.750
       392   09 Jun 2027 10:05:31.060   09 Jun 2027 10:06:14.991            43.931                Novosib          5491.375
       393   09 Jun 2027 10:06:22.530   09 Jun 2027 10:07:02.609            40.079              Murmansk1          5009.875
       394   09 Jun 2027 10:07:10.855   09 Jun 2027 10:07:45.896            35.041                 Moscow          4380.125
       395   09 Jun 2027 10:07:51.892   09 Jun 2027 10:08:33.900            42.008                 Moscow          5251.000
       396   09 Jun 2027 10:08:53.485   09 Jun 2027 10:09:40.806            47.321              Murmansk2          5915.125
       397   09 Jun 2027 10:13:03.730   09 Jun 2027 10:13:34.314            30.584              Murmansk2          3823.000
       398   09 Jun 2027 11:14:45.701   09 Jun 2027 11:17:51.402           185.701               CapeTown         23212.625
       399   09 Jun 2027 11:22:02.491   09 Jun 2027 11:23:01.955            59.464               CapeTown          7433.000
       400   09 Jun 2027 11:54:05.732   09 Jun 2027 11:56:21.766           136.034                Anadyr2         17004.250
       401   09 Jun 2027 11:56:21.766   09 Jun 2027 11:58:14.213           112.447                Anadyr1         14055.875
       402   09 Jun 2027 13:33:30.176   09 Jun 2027 13:36:04.295           154.119               Magadan2         19264.875
       403   09 Jun 2027 13:36:23.601   09 Jun 2027 13:38:51.765           148.164               Magadan1         18520.500
       404   09 Jun 2027 16:49:53.264   09 Jun 2027 16:54:19.150           265.886                Irkutsk         33235.750
       405   09 Jun 2027 18:24:30.256   09 Jun 2027 18:31:51.557           441.301                Novosib         55162.625
       406   09 Jun 2027 21:34:05.777   09 Jun 2027 21:34:56.374            50.597              Murmansk2          6324.625
       407   09 Jun 2027 21:36:30.796   09 Jun 2027 21:38:41.732           130.936              Murmansk1         16367.000
       408   09 Jun 2027 21:38:41.895   09 Jun 2027 21:42:36.895           235.000                 Moscow         29375.000
       409   09 Jun 2027 22:06:33.868   09 Jun 2027 22:07:54.185            80.317               CapeTown         10039.625
       410   10 Jun 2027 03:52:08.101   10 Jun 2027 03:52:31.506            23.405                Anadyr2          2925.625
       411   10 Jun 2027 03:53:19.855   10 Jun 2027 03:53:28.971             9.116               Magadan2          1139.500
       412   10 Jun 2027 03:53:42.067   10 Jun 2027 03:54:05.270            23.203               Magadan2          2900.375
       413   10 Jun 2027 03:54:11.316   10 Jun 2027 03:54:19.127             7.811               Magadan2           976.375
       414   10 Jun 2027 03:54:27.171   10 Jun 2027 03:54:43.020            15.849                Anadyr2          1981.125
       415   10 Jun 2027 03:54:53.662   10 Jun 2027 03:56:48.398           114.736               Magadan1         14342.000
       416   10 Jun 2027 05:13:19.160   10 Jun 2027 05:14:07.055            47.895                Sumatra          5986.875
       417   10 Jun 2027 05:28:39.392   10 Jun 2027 05:31:28.620           169.228                Irkutsk         21153.500
       418   10 Jun 2027 05:32:31.506   10 Jun 2027 05:33:05.995            34.489              Murmansk2          4311.125
       419   10 Jun 2027 05:33:09.399   10 Jun 2027 05:33:39.727            30.328                Norilsk          3791.000
       420   10 Jun 2027 05:33:54.072   10 Jun 2027 05:34:14.256            20.184                Norilsk          2523.000
       421   10 Jun 2027 05:34:21.920   10 Jun 2027 05:34:29.055             7.135                Novosib           891.875
       422   10 Jun 2027 05:36:37.932   10 Jun 2027 05:36:39.258             1.326                Norilsk           165.750
       423   10 Jun 2027 05:37:13.909   10 Jun 2027 05:37:48.455            34.546                Norilsk          4318.250
       424   10 Jun 2027 06:08:01.873   10 Jun 2027 06:08:10.954             9.081            RioGallegos          1135.125
       425   10 Jun 2027 06:17:45.328   10 Jun 2027 06:18:14.007            28.679            RioGallegos          3584.875
       426   10 Jun 2027 06:42:47.617   10 Jun 2027 06:43:38.814            51.197                Sumatra          6399.625
       427   10 Jun 2027 06:58:15.069   10 Jun 2027 06:58:30.377            15.308                  Delhi          1913.500
       428   10 Jun 2027 07:00:12.972   10 Jun 2027 07:01:14.818            61.846                  Delhi          7730.750
       429   10 Jun 2027 07:04:57.254   10 Jun 2027 07:05:40.127            42.873                Novosib          5359.125
       430   10 Jun 2027 07:05:45.056   10 Jun 2027 07:05:51.227             6.171                Irkutsk           771.375
       431   10 Jun 2027 07:05:54.341   10 Jun 2027 07:06:26.787            32.446              Murmansk1          4055.750
       432   10 Jun 2027 07:06:31.978   10 Jun 2027 07:06:57.241            25.263                 Moscow          3157.875
       433   10 Jun 2027 07:07:04.451   10 Jun 2027 07:07:41.636            37.185                Novosib          4648.125
       434   10 Jun 2027 07:08:01.255   10 Jun 2027 07:08:12.689            11.434                Irkutsk          1429.250
       435   10 Jun 2027 07:08:27.508   10 Jun 2027 07:09:49.863            82.355              Murmansk2         10294.375
       436   10 Jun 2027 07:11:04.449   10 Jun 2027 07:11:42.455            38.006                Norilsk          4750.750
       437   10 Jun 2027 08:23:19.515   10 Jun 2027 08:23:39.980            20.465                Sumatra          2558.125
       438   10 Jun 2027 08:27:02.039   10 Jun 2027 08:27:33.839            31.800                  Delhi          3975.000
       439   10 Jun 2027 08:41:12.795   10 Jun 2027 08:41:24.965            12.170                Norilsk          1521.250
       440   10 Jun 2027 08:41:29.279   10 Jun 2027 08:43:04.946            95.667                 Moscow         11958.375
       441   10 Jun 2027 08:43:24.630   10 Jun 2027 08:43:31.845             7.215                Novosib           901.875
       442   10 Jun 2027 08:43:34.440   10 Jun 2027 08:43:39.869             5.429                Norilsk           678.625
       443   10 Jun 2027 08:43:44.492   10 Jun 2027 08:44:18.430            33.938              Murmansk1          4242.250
       444   10 Jun 2027 08:44:25.938   10 Jun 2027 08:44:58.487            32.549                Norilsk          4068.625
       445   10 Jun 2027 08:45:13.554   10 Jun 2027 08:45:42.939            29.385                 Moscow          3673.125
       446   10 Jun 2027 10:14:41.067   10 Jun 2027 10:15:41.172            60.105                 Moscow          7513.125
       447   10 Jun 2027 10:15:58.700   10 Jun 2027 10:17:13.846            75.146              Murmansk2          9393.250
       448   10 Jun 2027 10:17:34.970   10 Jun 2027 10:19:10.813            95.843                 Moscow         11980.375
       449   10 Jun 2027 10:19:27.954   10 Jun 2027 10:20:39.992            72.038                 Moscow          9004.750
       450   10 Jun 2027 10:20:58.064   10 Jun 2027 10:21:54.774            56.710                 Moscow          7088.750
       451   10 Jun 2027 11:26:12.136   10 Jun 2027 11:31:56.290           344.154               CapeTown         43019.250
       452   10 Jun 2027 12:05:58.130   10 Jun 2027 12:10:11.767           253.637                Anadyr1         31704.625
       453   10 Jun 2027 13:45:02.846   10 Jun 2027 13:48:03.746           180.900               Magadan2         22612.500
       454   10 Jun 2027 13:51:04.065   10 Jun 2027 13:52:13.239            69.174               Magadan2          8646.750
       455   10 Jun 2027 17:01:02.840   10 Jun 2027 17:07:40.940           398.100                Irkutsk         49762.500
       456   10 Jun 2027 17:17:23.858   10 Jun 2027 17:18:27.732            63.874                Sumatra          7984.250
       457   10 Jun 2027 17:19:31.780   10 Jun 2027 17:21:58.531           146.751                Sumatra         18343.875
       458   10 Jun 2027 18:36:07.841   10 Jun 2027 18:37:45.651            97.810                Novosib         12226.250
       459   10 Jun 2027 18:39:17.253   10 Jun 2027 18:39:54.357            37.104                Novosib          4638.000
       460   10 Jun 2027 18:41:12.173   10 Jun 2027 18:42:34.104            81.931                Novosib         10241.375
       461   10 Jun 2027 21:45:19.470   10 Jun 2027 21:46:43.089            83.619              Murmansk2         10452.375
       462   10 Jun 2027 21:49:11.611   10 Jun 2027 21:51:21.176           129.565              Murmansk1         16195.625
       463   10 Jun 2027 21:52:48.653   10 Jun 2027 21:53:20.221            31.568                 Moscow          3946.000
       464   10 Jun 2027 21:55:04.282   10 Jun 2027 21:56:07.449            63.167                 Moscow          7895.875
       465   10 Jun 2027 22:16:48.304   10 Jun 2027 22:18:25.633            97.329               CapeTown         12166.125
       466   10 Jun 2027 22:21:46.008   10 Jun 2027 22:22:29.067            43.059               CapeTown          5382.375
       467   11 Jun 2027 04:04:31.768   11 Jun 2027 04:04:55.330            23.562                Anadyr2          2945.250
       468   11 Jun 2027 04:04:58.792   11 Jun 2027 04:05:33.152            34.360                Anadyr2          4295.000
       469   11 Jun 2027 04:06:07.493   11 Jun 2027 04:08:03.368           115.875                Anadyr2         14484.375
       470   11 Jun 2027 04:08:37.984   11 Jun 2027 04:08:44.995             7.011                Anadyr1           876.375
       471   11 Jun 2027 04:09:14.074   11 Jun 2027 04:09:20.148             6.074               Magadan1           759.250
       472   11 Jun 2027 04:10:45.907   11 Jun 2027 04:10:51.642             5.735                Norilsk           716.875
       473   11 Jun 2027 04:44:31.243   11 Jun 2027 04:45:58.443            87.200            RioGallegos         10900.000
       474   11 Jun 2027 04:50:28.525   11 Jun 2027 04:51:17.650            49.125            RioGallegos          6140.625
       475   11 Jun 2027 05:22:30.307   11 Jun 2027 05:23:29.131            58.824                Sumatra          7353.000
       476   11 Jun 2027 05:40:17.516   11 Jun 2027 05:40:30.786            13.270               Magadan1          1658.750
       477   11 Jun 2027 05:40:40.127   11 Jun 2027 05:41:06.355            26.228                Norilsk          3278.500
       478   11 Jun 2027 05:41:19.223   11 Jun 2027 05:43:00.188           100.965                Irkutsk         12620.625
       479   11 Jun 2027 05:43:11.038   11 Jun 2027 05:43:46.380            35.342                Novosib          4417.750
       480   11 Jun 2027 05:44:00.705   11 Jun 2027 05:44:50.063            49.358                Norilsk          6169.750
       481   11 Jun 2027 05:45:01.247   11 Jun 2027 05:45:46.860            45.613                Novosib          5701.625
       482   11 Jun 2027 05:46:16.511   11 Jun 2027 05:46:34.624            18.113                Novosib          2264.125
