uniorb/output/strategy_1/Drop/Drop_KinoSat_110703.txt

KinoSat_110703
-------------------------
    Access    *     Start Time (UTCG)     *     Stop Time (UTCG)  *   Duration (s)        *       Station  *  Data (Mbytes)
         1   01 Jun 2027 04:00:26.507   01 Jun 2027 04:00:48.752            22.245                Irkutsk           695.156
         2   01 Jun 2027 04:01:05.015   01 Jun 2027 04:02:21.362            76.347               Magadan2          2385.844
         3   01 Jun 2027 04:02:56.660   01 Jun 2027 04:05:15.332           138.672                Anadyr2          4333.500
         4   01 Jun 2027 05:34:44.484   01 Jun 2027 05:35:37.692            53.208               Magadan1          1662.750
         5   01 Jun 2027 05:35:56.655   01 Jun 2027 05:39:36.777           220.122                Irkutsk          6878.812
         6   01 Jun 2027 05:39:40.690   01 Jun 2027 05:40:07.460            26.770               Magadan1           836.563
         7   01 Jun 2027 05:40:23.503   01 Jun 2027 05:40:53.399            29.896               Magadan2           934.250
         8   01 Jun 2027 05:40:56.792   01 Jun 2027 05:41:56.550            59.758              Murmansk1          1867.438
         9   01 Jun 2027 05:42:50.103   01 Jun 2027 05:43:26.673            36.570              Murmansk1          1142.813
        10   01 Jun 2027 05:43:32.300   01 Jun 2027 05:44:32.866            60.566              Murmansk1          1892.687
        11   01 Jun 2027 05:50:10.677   01 Jun 2027 05:50:21.343            10.666              Murmansk1           333.312
        12   01 Jun 2027 06:15:51.541   01 Jun 2027 06:17:17.195            85.654            RioGallegos          2676.687
        13   01 Jun 2027 06:18:00.012   01 Jun 2027 06:18:56.028            56.016            RioGallegos          1750.500
        14   01 Jun 2027 06:19:53.912   01 Jun 2027 06:19:58.616             4.704            RioGallegos           147.000
        15   01 Jun 2027 06:21:41.716   01 Jun 2027 06:22:10.829            29.113            RioGallegos           909.781
        16   01 Jun 2027 06:24:13.987   01 Jun 2027 06:24:47.892            33.905            RioGallegos          1059.531
        17   01 Jun 2027 06:52:14.485   01 Jun 2027 06:52:48.758            34.273                Sumatra          1071.031
        18   01 Jun 2027 06:53:43.673   01 Jun 2027 06:54:48.924            65.251                Sumatra          2039.094
        19   01 Jun 2027 06:57:48.090   01 Jun 2027 06:58:48.102            60.012                Sumatra          1875.375
        20   01 Jun 2027 06:59:19.172   01 Jun 2027 06:59:56.637            37.465                Sumatra          1170.781
        21   01 Jun 2027 07:12:22.200   01 Jun 2027 07:12:47.818            25.618                Norilsk           800.563
        22   01 Jun 2027 07:12:56.290   01 Jun 2027 07:14:21.725            85.435                Novosib          2669.844
        23   01 Jun 2027 07:14:24.515   01 Jun 2027 07:15:04.808            40.293                Norilsk          1259.156
        24   01 Jun 2027 07:15:14.136   01 Jun 2027 07:17:00.654           106.518                Irkutsk          3328.687
        25   01 Jun 2027 07:17:01.543   01 Jun 2027 07:18:24.426            82.883                Novosib          2590.094
        26   01 Jun 2027 07:19:03.454   01 Jun 2027 07:19:16.664            13.210              Murmansk2           412.812
        27   01 Jun 2027 07:52:28.482   01 Jun 2027 07:53:44.669            76.187            RioGallegos          2380.844
        28   01 Jun 2027 07:54:36.940   01 Jun 2027 07:55:04.575            27.635            RioGallegos           863.594
        29   01 Jun 2027 08:26:47.284   01 Jun 2027 08:28:09.811            82.527                Sumatra          2578.969
        30   01 Jun 2027 08:30:44.069   01 Jun 2027 08:31:55.555            71.486                Sumatra          2233.938
        31   01 Jun 2027 08:35:27.239   01 Jun 2027 08:37:37.371           130.132                  Delhi          4066.625
        32   01 Jun 2027 08:49:11.204   01 Jun 2027 08:50:06.377            55.173                Novosib          1724.156
        33   01 Jun 2027 08:50:07.002   01 Jun 2027 08:50:15.926             8.924              Murmansk1           278.875
        34   01 Jun 2027 08:50:16.553   01 Jun 2027 08:51:16.599            60.046                Irkutsk          1876.437
        35   01 Jun 2027 08:51:26.268   01 Jun 2027 08:51:34.897             8.629                 Moscow           269.656
        36   01 Jun 2027 08:51:41.185   01 Jun 2027 08:51:47.986             6.801                Novosib           212.531
        37   01 Jun 2027 08:51:49.945   01 Jun 2027 08:52:12.515            22.570                Irkutsk           705.312
        38   01 Jun 2027 08:52:17.890   01 Jun 2027 08:54:40.120           142.230                 Moscow          4444.687
        39   01 Jun 2027 08:54:58.053   01 Jun 2027 08:55:41.038            42.985              Murmansk1          1343.281
        40   01 Jun 2027 10:11:32.344   01 Jun 2027 10:15:02.890           210.546                  Delhi          6579.562
        41   01 Jun 2027 10:25:47.226   01 Jun 2027 10:27:30.819           103.593              Murmansk2          3237.281
        42   01 Jun 2027 10:27:35.537   01 Jun 2027 10:27:50.476            14.939                Novosib           466.844
        43   01 Jun 2027 10:27:53.247   01 Jun 2027 10:28:35.331            42.084                 Moscow          1315.125
        44   01 Jun 2027 10:29:24.192   01 Jun 2027 10:29:26.869             2.677              Murmansk2            83.656
        45   01 Jun 2027 10:29:56.903   01 Jun 2027 10:30:28.836            31.933                 Moscow           997.906
        46   01 Jun 2027 10:30:44.744   01 Jun 2027 10:31:07.661            22.917              Murmansk1           716.156
        47   01 Jun 2027 10:31:22.600   01 Jun 2027 10:31:26.604             4.004              Murmansk1           125.125
        48   01 Jun 2027 10:32:21.443   01 Jun 2027 10:33:08.506            47.063              Murmansk1          1470.719
        49   01 Jun 2027 12:10:38.913   01 Jun 2027 12:10:55.722            16.809              Murmansk1           525.281
        50   01 Jun 2027 12:15:32.425   01 Jun 2027 12:18:23.094           170.669                Anadyr2          5333.406
        51   01 Jun 2027 13:19:19.988   01 Jun 2027 13:20:13.271            53.283               CapeTown          1665.094
        52   01 Jun 2027 13:46:18.746   01 Jun 2027 13:46:36.655            17.909              Murmansk2           559.656
        53   01 Jun 2027 13:47:08.404   01 Jun 2027 13:47:26.932            18.528              Murmansk1           579.000
        54   01 Jun 2027 13:52:10.635   01 Jun 2027 13:52:52.175            41.540                Anadyr1          1298.125
        55   01 Jun 2027 13:53:35.807   01 Jun 2027 13:54:40.957            65.150                Anadyr1          2035.937
        56   01 Jun 2027 13:54:40.957   01 Jun 2027 13:55:40.878            59.921                Anadyr2          1872.531
        57   01 Jun 2027 13:56:09.596   01 Jun 2027 13:57:56.989           107.393                Anadyr1          3356.031
        58   01 Jun 2027 15:21:29.340   01 Jun 2027 15:21:53.691            24.351              Murmansk1           760.969
        59   01 Jun 2027 15:22:35.140   01 Jun 2027 15:22:48.001            12.861              Murmansk2           401.906
        60   01 Jun 2027 15:28:01.745   01 Jun 2027 15:31:47.009           225.264               Magadan2          7039.500
        61   01 Jun 2027 15:33:43.137   01 Jun 2027 15:33:54.995            11.858               Magadan1           370.562
        62   01 Jun 2027 15:34:20.366   01 Jun 2027 15:37:30.126           189.760               Magadan2          5930.000
        63   01 Jun 2027 17:06:32.086   01 Jun 2027 17:07:00.919            28.833               Magadan1           901.031
        64   01 Jun 2027 17:07:39.046   01 Jun 2027 17:08:50.931            71.885               Magadan2          2246.406
        65   01 Jun 2027 17:11:18.980   01 Jun 2027 17:11:20.251             1.271                Anadyr2            39.719
        66   01 Jun 2027 17:11:26.644   01 Jun 2027 17:12:05.273            38.629               Magadan1          1207.156
        67   01 Jun 2027 17:13:06.787   01 Jun 2027 17:13:31.943            25.156               Magadan2           786.125
        68   01 Jun 2027 17:15:07.139   01 Jun 2027 17:16:05.224            58.085               Magadan1          1815.156
        69   01 Jun 2027 17:56:26.467   01 Jun 2027 17:59:45.852           199.385            RioGallegos          6230.781
        70   01 Jun 2027 18:03:09.762   01 Jun 2027 18:03:42.889            33.127            RioGallegos          1035.219
        71   01 Jun 2027 18:39:00.912   01 Jun 2027 18:39:24.480            23.568                Norilsk           736.500
        72   01 Jun 2027 18:40:34.587   01 Jun 2027 18:41:37.961            63.374                Norilsk          1980.437
        73   01 Jun 2027 18:43:36.012   01 Jun 2027 18:44:30.632            54.620                Irkutsk          1706.875
        74   01 Jun 2027 18:44:55.709   01 Jun 2027 18:46:25.028            89.319                Irkutsk          2791.219
        75   01 Jun 2027 18:47:14.780   01 Jun 2027 18:48:17.366            62.586                Irkutsk          1955.812
        76   01 Jun 2027 18:49:28.227   01 Jun 2027 18:51:08.943           100.716                Irkutsk          3147.375
        77   01 Jun 2027 19:01:01.833   01 Jun 2027 19:03:54.600           172.767                Sumatra          5398.969
        78   01 Jun 2027 20:20:11.342   01 Jun 2027 20:22:19.696           128.354                Novosib          4011.062
        79   01 Jun 2027 20:27:31.807   01 Jun 2027 20:27:52.192            20.385                Novosib           637.031
        80   01 Jun 2027 20:28:00.815   01 Jun 2027 20:30:51.505           170.690                  Delhi          5334.062
        81   01 Jun 2027 20:34:45.279   01 Jun 2027 20:36:36.603           111.324                  Delhi          3478.875
        82   01 Jun 2027 21:53:31.947   01 Jun 2027 21:59:40.407           368.460              Murmansk1         11514.375
        83   01 Jun 2027 23:28:12.746   01 Jun 2027 23:28:22.967            10.221               Magadan1           319.406
        84   01 Jun 2027 23:29:00.063   01 Jun 2027 23:30:59.501           119.438              Murmansk2          3732.437
        85   01 Jun 2027 23:30:59.501   01 Jun 2027 23:32:27.106            87.605              Murmansk1          2737.656
        86   01 Jun 2027 23:33:44.514   01 Jun 2027 23:34:05.295            20.781                 Moscow           649.406
        87   01 Jun 2027 23:34:34.460   01 Jun 2027 23:35:13.251            38.791                 Moscow          1212.219
        88   01 Jun 2027 23:38:21.048   01 Jun 2027 23:39:06.034            44.986                 Moscow          1405.812
        89   01 Jun 2027 23:39:23.000   01 Jun 2027 23:40:27.282            64.282                 Moscow          2008.813
        90   01 Jun 2027 23:57:54.723   01 Jun 2027 23:58:19.885            25.162               CapeTown           786.312
        91   01 Jun 2027 23:59:11.480   02 Jun 2027 00:00:02.006            50.526               CapeTown          1578.938
        92   02 Jun 2027 00:02:29.534   02 Jun 2027 00:03:24.556            55.022               CapeTown          1719.437
        93   02 Jun 2027 00:04:48.514   02 Jun 2027 00:05:01.515            13.001               CapeTown           406.281
        94   02 Jun 2027 01:00:56.287   02 Jun 2027 01:01:16.094            19.807               Magadan1           618.969
        95   02 Jun 2027 01:02:41.406   02 Jun 2027 01:03:05.413            24.007               Magadan1           750.219
        96   02 Jun 2027 01:04:05.899   02 Jun 2027 01:04:26.322            20.423               Magadan1           638.219
        97   02 Jun 2027 01:04:56.647   02 Jun 2027 01:06:17.038            80.391              Murmansk2          2512.219
        98   02 Jun 2027 01:08:07.374   02 Jun 2027 01:08:33.700            26.326              Murmansk2           822.688
        99   02 Jun 2027 01:09:40.377   02 Jun 2027 01:09:53.694            13.317                Novosib           416.156
       100   02 Jun 2027 01:11:27.174   02 Jun 2027 01:12:10.373            43.199                 Moscow          1349.969
       101   02 Jun 2027 01:15:43.439   02 Jun 2027 01:16:49.110            65.671                 Moscow          2052.219
       102   02 Jun 2027 01:37:19.916   02 Jun 2027 01:37:55.604            35.688               CapeTown          1115.250
       103   02 Jun 2027 01:40:10.654   02 Jun 2027 01:40:28.309            17.655               CapeTown           551.719
       104   02 Jun 2027 01:41:45.662   02 Jun 2027 01:41:51.696             6.034               CapeTown           188.563
       105   02 Jun 2027 01:44:26.652   02 Jun 2027 01:44:41.946            15.294               CapeTown           477.938
       106   02 Jun 2027 02:28:54.663   02 Jun 2027 02:30:09.027            74.364                Anadyr2          2323.875
       107   02 Jun 2027 02:30:10.482   02 Jun 2027 02:31:07.415            56.933                Anadyr1          1779.156
       108   02 Jun 2027 02:31:42.975   02 Jun 2027 02:32:11.693            28.718               Magadan1           897.438
       109   02 Jun 2027 02:32:11.693   02 Jun 2027 02:32:55.600            43.907               Magadan2          1372.094
       110   02 Jun 2027 02:37:04.499   02 Jun 2027 02:37:11.262             6.763               Magadan1           211.344
       111   02 Jun 2027 02:37:26.443   02 Jun 2027 02:37:35.198             8.755               Magadan2           273.594
       112   02 Jun 2027 02:37:41.553   02 Jun 2027 02:38:12.490            30.937                Norilsk           966.781
       113   02 Jun 2027 02:40:30.535   02 Jun 2027 02:40:49.295            18.760               Magadan1           586.250
       114   02 Jun 2027 02:40:52.141   02 Jun 2027 02:42:04.109            71.968              Murmansk1          2249.000
       115   02 Jun 2027 02:44:42.521   02 Jun 2027 02:45:27.630            45.109                 Moscow          1409.656
       116   02 Jun 2027 02:50:56.365   02 Jun 2027 02:51:02.687             6.322                 Moscow           197.563
       117   02 Jun 2027 02:51:45.988   02 Jun 2027 02:51:48.555             2.567              Murmansk2            80.219
       118   02 Jun 2027 02:51:49.946   02 Jun 2027 02:52:18.692            28.746                 Moscow           898.312
       119   02 Jun 2027 04:11:49.503   02 Jun 2027 04:13:20.666            91.163                Anadyr1          2848.844
       120   02 Jun 2027 04:13:28.042   02 Jun 2027 04:14:57.702            89.660                Anadyr1          2801.875
       121   02 Jun 2027 04:15:26.660   02 Jun 2027 04:15:32.087             5.427               Magadan2           169.594
       122   02 Jun 2027 04:15:52.272   02 Jun 2027 04:17:19.052            86.780               Magadan2          2711.875
       123   02 Jun 2027 05:48:28.679   02 Jun 2027 05:48:36.045             7.366                Novosib           230.187
       124   02 Jun 2027 05:48:36.052   02 Jun 2027 05:48:47.709            11.657               Magadan2           364.281
       125   02 Jun 2027 05:48:47.709   02 Jun 2027 05:49:12.550            24.841               Magadan1           776.281
       126   02 Jun 2027 05:49:16.293   02 Jun 2027 05:50:56.320           100.027                Irkutsk          3125.844
       127   02 Jun 2027 05:51:13.964   02 Jun 2027 05:53:54.254           160.290                Novosib          5009.063
       128   02 Jun 2027 05:54:02.691   02 Jun 2027 05:54:56.718            54.027                Norilsk          1688.344
       129   02 Jun 2027 06:27:46.032   02 Jun 2027 06:29:57.245           131.213            RioGallegos          4100.406
       130   02 Jun 2027 07:03:40.250   02 Jun 2027 07:05:24.967           104.717                Sumatra          3272.406
       131   02 Jun 2027 07:24:50.243   02 Jun 2027 07:26:07.655            77.412                Irkutsk          2419.125
       132   02 Jun 2027 07:26:15.224   02 Jun 2027 07:27:09.379            54.155              Murmansk1          1692.344
       133   02 Jun 2027 07:27:24.230   02 Jun 2027 07:29:01.037            96.807                Irkutsk          3025.219
       134   02 Jun 2027 07:29:20.776   02 Jun 2027 07:29:35.426            14.650              Murmansk1           457.813
       135   02 Jun 2027 07:29:36.696   02 Jun 2027 07:31:03.906            87.210              Murmansk1          2725.313
       136   02 Jun 2027 08:04:52.909   02 Jun 2027 08:05:00.466             7.557            RioGallegos           236.156
       137   02 Jun 2027 08:05:53.805   02 Jun 2027 08:06:30.219            36.414            RioGallegos          1137.937
       138   02 Jun 2027 08:08:29.867   02 Jun 2027 08:09:04.144            34.277            RioGallegos          1071.156
       139   02 Jun 2027 08:39:06.499   02 Jun 2027 08:39:59.111            52.612                Sumatra          1644.125
       140   02 Jun 2027 08:41:03.874   02 Jun 2027 08:42:41.356            97.482                Sumatra          3046.312
       141   02 Jun 2027 08:47:10.235   02 Jun 2027 08:49:49.650           159.415                  Delhi          4981.719
       142   02 Jun 2027 09:01:35.094   02 Jun 2027 09:02:19.618            44.524                Novosib          1391.375
       143   02 Jun 2027 09:03:14.064   02 Jun 2027 09:03:31.403            17.339                Irkutsk           541.844
       144   02 Jun 2027 09:03:33.450   02 Jun 2027 09:04:38.942            65.492                 Moscow          2046.625
       145   02 Jun 2027 09:04:41.513   02 Jun 2027 09:05:45.596            64.083                Norilsk          2002.594
       146   02 Jun 2027 09:06:52.070   02 Jun 2027 09:07:06.652            14.582                 Moscow           455.688
       147   02 Jun 2027 09:08:24.278   02 Jun 2027 09:08:48.160            23.882              Murmansk2           746.312
       148   02 Jun 2027 10:24:04.357   02 Jun 2027 10:26:36.492           152.135                  Delhi          4754.219
       149   02 Jun 2027 10:28:07.581   02 Jun 2027 10:28:29.024            21.443                  Delhi           670.094
       150   02 Jun 2027 10:38:20.210   02 Jun 2027 10:41:20.048           179.838                Novosib          5619.937
       151   02 Jun 2027 10:41:21.160   02 Jun 2027 10:42:57.476            96.316              Murmansk2          3009.875
       152   02 Jun 2027 12:07:20.142   02 Jun 2027 12:09:00.230           100.088                 Moscow          3127.750
       153   02 Jun 2027 12:09:16.998   02 Jun 2027 12:10:03.245            46.247                 Moscow          1445.219
       154   02 Jun 2027 12:11:16.462   02 Jun 2027 12:12:53.852            97.390              Murmansk2          3043.437
       155   02 Jun 2027 12:12:53.852   02 Jun 2027 12:13:56.915            63.063              Murmansk1          1970.719
       156   02 Jun 2027 12:14:14.878   02 Jun 2027 12:15:15.290            60.412              Murmansk2          1887.875
       157   02 Jun 2027 12:15:15.290   02 Jun 2027 12:15:23.026             7.736              Murmansk1           241.750
       158   02 Jun 2027 12:26:49.326   02 Jun 2027 12:30:13.481           204.155                Anadyr1          6379.844
       159   02 Jun 2027 12:30:54.552   02 Jun 2027 12:31:47.150            52.598                Anadyr2          1643.687
       160   02 Jun 2027 13:52:53.749   02 Jun 2027 13:53:09.663            15.914              Murmansk2           497.313
       161   02 Jun 2027 13:53:15.339   02 Jun 2027 13:53:27.865            12.526              Murmansk2           391.438
       162   02 Jun 2027 13:55:18.283   02 Jun 2027 13:55:56.462            38.179              Murmansk2          1193.094
       163   02 Jun 2027 13:57:23.608   02 Jun 2027 13:57:33.054             9.446              Murmansk1           295.188
       164   02 Jun 2027 13:58:13.522   02 Jun 2027 13:58:34.862            21.340              Murmansk1           666.875
       165   02 Jun 2027 14:01:24.117   02 Jun 2027 14:03:11.980           107.863                Anadyr2          3370.719
       166   02 Jun 2027 14:03:13.599   02 Jun 2027 14:03:24.087            10.488                Anadyr1           327.750
       167   02 Jun 2027 14:04:41.084   02 Jun 2027 14:04:53.419            12.335                Anadyr1           385.469
       168   02 Jun 2027 14:05:24.317   02 Jun 2027 14:06:56.832            92.515                Anadyr1          2891.094
       169   02 Jun 2027 15:29:41.649   02 Jun 2027 15:30:48.863            67.214              Murmansk2          2100.437
       170   02 Jun 2027 15:32:43.304   02 Jun 2027 15:32:52.954             9.650              Murmansk2           301.562
       171   02 Jun 2027 15:37:49.743   02 Jun 2027 15:38:33.435            43.692                Anadyr2          1365.375
       172   02 Jun 2027 15:39:54.257   02 Jun 2027 15:43:54.791           240.534               Magadan2          7516.688
       173   02 Jun 2027 15:44:36.847   02 Jun 2027 15:45:32.105            55.258               Magadan2          1726.813
       174   02 Jun 2027 15:46:24.488   02 Jun 2027 15:47:44.704            80.216               Magadan2          2506.750
       175   02 Jun 2027 15:49:15.623   02 Jun 2027 15:49:24.167             8.544               Magadan2           267.000
       176   02 Jun 2027 17:18:31.288   02 Jun 2027 17:19:17.781            46.493                Anadyr2          1452.906
       177   02 Jun 2027 17:20:50.242   02 Jun 2027 17:21:18.772            28.530               Magadan1           891.563
       178   02 Jun 2027 17:22:32.979   02 Jun 2027 17:22:57.684            24.705               Magadan2           772.031
       179   02 Jun 2027 17:23:48.015   02 Jun 2027 17:23:56.376             8.361               Magadan1           261.281
       180   02 Jun 2027 17:24:07.505   02 Jun 2027 17:24:45.841            38.336               Magadan2          1198.000
       181   02 Jun 2027 17:27:52.187   02 Jun 2027 17:28:17.109            24.922               Magadan2           778.813
       182   02 Jun 2027 18:08:03.168   02 Jun 2027 18:09:47.858           104.690            RioGallegos          3271.562
       183   02 Jun 2027 18:10:31.348   02 Jun 2027 18:11:36.607            65.259            RioGallegos          2039.344
       184   02 Jun 2027 18:12:38.541   02 Jun 2027 18:14:34.987           116.446            RioGallegos          3638.938
       185   02 Jun 2027 18:52:44.551   02 Jun 2027 18:55:13.958           149.407                Norilsk          4668.969
       186   02 Jun 2027 18:57:05.794   02 Jun 2027 18:58:26.834            81.040                Irkutsk          2532.500
       187   02 Jun 2027 19:03:13.525   02 Jun 2027 19:04:05.130            51.605                Irkutsk          1612.656
       188   02 Jun 2027 19:04:51.430   02 Jun 2027 19:05:45.005            53.575                Irkutsk          1674.219
       189   02 Jun 2027 19:11:01.010   02 Jun 2027 19:12:57.538           116.528                Sumatra          3641.500
       190   02 Jun 2027 19:16:02.999   02 Jun 2027 19:16:11.709             8.710                Sumatra           272.187
       191   02 Jun 2027 19:18:44.215   02 Jun 2027 19:20:10.885            86.670                Sumatra          2708.437
       192   02 Jun 2027 20:35:48.913   02 Jun 2027 20:36:49.351            60.438                Novosib          1888.688
       193   02 Jun 2027 20:38:49.868   02 Jun 2027 20:39:06.845            16.977                Novosib           530.531
       194   02 Jun 2027 20:39:24.484   02 Jun 2027 20:40:21.459            56.975                  Delhi          1780.469
       195   02 Jun 2027 20:41:28.553   02 Jun 2027 20:42:38.723            70.170                  Delhi          2192.813
       196   02 Jun 2027 20:45:07.740   02 Jun 2027 20:46:34.439            86.699                  Delhi          2709.344
       197   02 Jun 2027 22:05:25.133   02 Jun 2027 22:11:11.484           346.351              Murmansk1         10823.469
       198   02 Jun 2027 22:12:01.072   02 Jun 2027 22:13:57.680           116.608                 Moscow          3644.000
       199   02 Jun 2027 23:41:00.928   02 Jun 2027 23:42:26.779            85.851              Murmansk1          2682.844
       200   02 Jun 2027 23:43:10.179   02 Jun 2027 23:44:32.933            82.754              Murmansk2          2586.063
       201   02 Jun 2027 23:44:32.933   02 Jun 2027 23:44:41.078             8.145              Murmansk1           254.531
       202   02 Jun 2027 23:44:53.577   02 Jun 2027 23:46:30.223            96.646                 Moscow          3020.188
       203   02 Jun 2027 23:49:01.694   02 Jun 2027 23:50:57.507           115.813                 Moscow          3619.156
       204   03 Jun 2027 00:09:23.314   03 Jun 2027 00:10:27.824            64.510               CapeTown          2015.938
       205   03 Jun 2027 00:14:37.852   03 Jun 2027 00:15:43.985            66.133               CapeTown          2066.656
       206   03 Jun 2027 01:12:47.150   03 Jun 2027 01:13:19.312            32.162               Magadan2          1005.063
       207   03 Jun 2027 01:13:30.933   03 Jun 2027 01:14:09.964            39.031               Magadan1          1219.719
       208   03 Jun 2027 01:16:04.833   03 Jun 2027 01:16:09.916             5.083               Magadan2           158.844
       209   03 Jun 2027 01:16:58.303   03 Jun 2027 01:18:07.959            69.656              Murmansk1          2176.750
       210   03 Jun 2027 01:21:12.326   03 Jun 2027 01:21:14.652             2.326              Murmansk2            72.688
       211   03 Jun 2027 01:23:01.271   03 Jun 2027 01:23:32.046            30.775                Novosib           961.719
       212   03 Jun 2027 01:25:25.663   03 Jun 2027 01:25:40.306            14.643              Murmansk1           457.594
       213   03 Jun 2027 01:27:34.623   03 Jun 2027 01:27:52.001            17.378              Murmansk1           543.062
       214   03 Jun 2027 01:29:41.494   03 Jun 2027 01:30:42.167            60.673                 Moscow          1896.031
       215   03 Jun 2027 01:50:38.148   03 Jun 2027 01:51:46.619            68.471               CapeTown          2139.719
       216   03 Jun 2027 02:41:03.127   03 Jun 2027 02:43:06.343           123.216                Anadyr2          3850.500
       217   03 Jun 2027 02:43:25.258   03 Jun 2027 02:44:19.376            54.118               Magadan2          1691.188
       218   03 Jun 2027 02:46:49.503   03 Jun 2027 02:47:00.143            10.640               Magadan2           332.500
       219   03 Jun 2027 02:49:01.776   03 Jun 2027 02:49:36.253            34.477                Norilsk          1077.406
       220   03 Jun 2027 02:52:01.669   03 Jun 2027 02:52:08.927             7.258                Norilsk           226.812
       221   03 Jun 2027 02:52:52.604   03 Jun 2027 02:53:31.992            39.388              Murmansk2          1230.875
       222   03 Jun 2027 02:54:09.282   03 Jun 2027 02:54:14.345             5.063              Murmansk1           158.219
       223   03 Jun 2027 02:54:50.920   03 Jun 2027 02:55:53.304            62.384              Murmansk2          1949.500
       224   03 Jun 2027 04:22:19.876   03 Jun 2027 04:23:01.237            41.361                Irkutsk          1292.531
       225   03 Jun 2027 04:23:04.181   03 Jun 2027 04:24:39.744            95.563                Irkutsk          2986.344
       226   03 Jun 2027 04:26:10.573   03 Jun 2027 04:28:35.984           145.411               Magadan2          4544.094
       227   03 Jun 2027 04:28:42.342   03 Jun 2027 04:29:18.043            35.701                Anadyr1          1115.656
       228   03 Jun 2027 04:29:21.460   03 Jun 2027 04:30:17.959            56.499              Murmansk1          1765.594
       229   03 Jun 2027 04:30:17.959   03 Jun 2027 04:30:27.682             9.723              Murmansk2           303.844
       230   03 Jun 2027 04:30:40.602   03 Jun 2027 04:30:58.978            18.376              Murmansk1           574.250
       231   03 Jun 2027 04:31:14.642   03 Jun 2027 04:31:21.831             7.189              Murmansk1           224.656
       232   03 Jun 2027 05:05:46.306   03 Jun 2027 05:07:25.924            99.618            RioGallegos          3113.062
       233   03 Jun 2027 05:08:46.343   03 Jun 2027 05:08:53.176             6.833            RioGallegos           213.531
       234   03 Jun 2027 05:59:45.966   03 Jun 2027 06:00:22.779            36.813                Irkutsk          1150.406
       235   03 Jun 2027 06:00:28.511   03 Jun 2027 06:00:56.041            27.530                Irkutsk           860.312
       236   03 Jun 2027 06:01:38.806   03 Jun 2027 06:05:41.682           242.876                Norilsk          7589.875
       237   03 Jun 2027 06:06:04.899   03 Jun 2027 06:07:55.314           110.415                Norilsk          3450.469
       238   03 Jun 2027 06:08:59.179   03 Jun 2027 06:09:18.519            19.340              Murmansk1           604.375
       239   03 Jun 2027 06:39:43.729   03 Jun 2027 06:41:48.845           125.116            RioGallegos          3909.875
       240   03 Jun 2027 06:41:53.005   03 Jun 2027 06:41:53.147             0.142            RioGallegos             4.438
       241   03 Jun 2027 06:43:17.158   03 Jun 2027 06:43:23.382             6.224            RioGallegos           194.500
       242   03 Jun 2027 07:15:15.538   03 Jun 2027 07:16:40.057            84.519                Sumatra          2641.219
       243   03 Jun 2027 07:17:13.597   03 Jun 2027 07:18:56.127           102.530                Sumatra          3204.062
       244   03 Jun 2027 07:29:22.200   03 Jun 2027 07:29:44.373            22.173                  Delhi           692.906
       245   03 Jun 2027 07:37:24.320   03 Jun 2027 07:39:35.581           131.261                Norilsk          4101.906
       246   03 Jun 2027 07:39:36.388   03 Jun 2027 07:39:40.991             4.603                Novosib           143.844
       247   03 Jun 2027 07:39:46.988   03 Jun 2027 07:42:32.082           165.094                Novosib          5159.187
       248   03 Jun 2027 07:42:59.233   03 Jun 2027 07:43:06.800             7.567              Murmansk1           236.469
       249   03 Jun 2027 07:46:44.127   03 Jun 2027 07:47:08.649            24.522              Murmansk2           766.313
       250   03 Jun 2027 08:17:22.775   03 Jun 2027 08:18:21.175            58.400            RioGallegos          1825.000
       251   03 Jun 2027 08:20:13.300   03 Jun 2027 08:20:55.084            41.784            RioGallegos          1305.750
       252   03 Jun 2027 08:51:34.237   03 Jun 2027 08:52:39.041            64.804                Sumatra          2025.125
       253   03 Jun 2027 08:58:58.916   03 Jun 2027 09:00:41.091           102.175                  Delhi          3192.969
       254   03 Jun 2027 09:14:22.813   03 Jun 2027 09:16:47.822           145.009              Murmansk1          4531.531
       255   03 Jun 2027 09:16:58.518   03 Jun 2027 09:18:10.551            72.033                 Moscow          2251.031
       256   03 Jun 2027 10:36:47.733   03 Jun 2027 10:38:16.706            88.973                  Delhi          2780.406
       257   03 Jun 2027 10:49:08.605   03 Jun 2027 10:49:38.739            30.134              Murmansk2           941.687
       258   03 Jun 2027 10:49:41.046   03 Jun 2027 10:49:57.541            16.495                Norilsk           515.469
       259   03 Jun 2027 10:50:01.443   03 Jun 2027 10:51:25.600            84.157              Murmansk2          2629.906
       260   03 Jun 2027 10:51:25.600   03 Jun 2027 10:51:29.039             3.439              Murmansk1           107.469
       261   03 Jun 2027 10:51:32.946   03 Jun 2027 10:51:37.156             4.210                Norilsk           131.562
       262   03 Jun 2027 10:51:41.662   03 Jun 2027 10:52:45.811            64.149                Novosib          2004.656
       263   03 Jun 2027 10:52:54.330   03 Jun 2027 10:54:15.274            80.944                 Moscow          2529.500
       264   03 Jun 2027 12:01:07.534   03 Jun 2027 12:02:17.936            70.402               CapeTown          2200.063
       265   03 Jun 2027 12:03:35.543   03 Jun 2027 12:04:14.630            39.087               CapeTown          1221.469
       266   03 Jun 2027 12:19:31.823   03 Jun 2027 12:20:30.793            58.970                 Moscow          1842.812
       267   03 Jun 2027 12:23:01.117   03 Jun 2027 12:24:41.070            99.953              Murmansk1          3123.531
       268   03 Jun 2027 12:24:41.070   03 Jun 2027 12:26:06.585            85.515              Murmansk2          2672.344
       269   03 Jun 2027 12:27:16.742   03 Jun 2027 12:28:37.766            81.024              Murmansk2          2532.000
       270   03 Jun 2027 12:38:26.378   03 Jun 2027 12:44:48.508           382.130                Anadyr2         11941.563
       271   03 Jun 2027 14:03:41.304   03 Jun 2027 14:03:41.994             0.690              Murmansk1            21.563
       272   03 Jun 2027 14:07:43.935   03 Jun 2027 14:08:50.889            66.954              Murmansk2          2092.312
       273   03 Jun 2027 14:13:22.879   03 Jun 2027 14:15:12.249           109.370                Anadyr2          3417.812
       274   03 Jun 2027 14:15:33.170   03 Jun 2027 14:16:41.974            68.804                Anadyr2          2150.125
       275   03 Jun 2027 15:42:49.001   03 Jun 2027 15:44:39.282           110.281              Murmansk2          3446.281
       276   03 Jun 2027 15:49:12.254   03 Jun 2027 15:52:22.155           189.901                Anadyr2          5934.406
       277   03 Jun 2027 15:53:02.902   03 Jun 2027 15:55:52.829           169.927               Magadan1          5310.219
       278   03 Jun 2027 15:57:18.837   03 Jun 2027 15:58:25.095            66.258               Magadan1          2070.563
       279   03 Jun 2027 17:25:06.992   03 Jun 2027 17:26:27.831            80.839                Anadyr2          2526.219
       280   03 Jun 2027 17:27:24.093   03 Jun 2027 17:28:50.835            86.742               Magadan2          2710.688
       281   03 Jun 2027 17:29:22.232   03 Jun 2027 17:29:54.263            32.031               Magadan1          1000.969
       282   03 Jun 2027 17:31:00.766   03 Jun 2027 17:31:06.318             5.552                Norilsk           173.500
       283   03 Jun 2027 17:31:09.255   03 Jun 2027 17:31:16.833             7.578               Magadan2           236.813
       284   03 Jun 2027 17:35:57.790   03 Jun 2027 17:36:09.891            12.101               Magadan1           378.156
       285   03 Jun 2027 17:36:21.909   03 Jun 2027 17:38:48.155           146.246               Magadan1          4570.188
       286   03 Jun 2027 18:19:46.196   03 Jun 2027 18:20:35.919            49.723            RioGallegos          1553.844
       287   03 Jun 2027 18:22:32.412   03 Jun 2027 18:25:58.421           206.009            RioGallegos          6437.781
       288   03 Jun 2027 19:02:59.397   03 Jun 2027 19:07:14.970           255.573                Norilsk          7986.656
       289   03 Jun 2027 19:08:46.882   03 Jun 2027 19:10:09.429            82.547                Irkutsk          2579.594
       290   03 Jun 2027 19:10:14.919   03 Jun 2027 19:12:14.584           119.665                Novosib          3739.531
       291   03 Jun 2027 19:22:33.528   03 Jun 2027 19:23:24.084            50.556                Sumatra          1579.875
       292   03 Jun 2027 19:24:56.107   03 Jun 2027 19:26:24.429            88.322                Sumatra          2760.063
       293   03 Jun 2027 20:45:09.174   03 Jun 2027 20:45:14.328             5.154                Novosib           161.062
       294   03 Jun 2027 20:47:25.964   03 Jun 2027 20:48:39.804            73.840                Novosib          2307.500
       295   03 Jun 2027 20:50:58.538   03 Jun 2027 20:52:22.903            84.365                  Delhi          2636.406
       296   03 Jun 2027 20:54:05.305   03 Jun 2027 20:55:26.083            80.778                  Delhi          2524.312
       297   03 Jun 2027 20:56:13.884   03 Jun 2027 20:57:23.446            69.562                  Delhi          2173.812
       298   03 Jun 2027 22:17:20.533   03 Jun 2027 22:19:53.697           153.164              Murmansk1          4786.375
       299   03 Jun 2027 22:20:34.519   03 Jun 2027 22:21:28.069            53.550              Murmansk2          1673.437
       300   03 Jun 2027 22:22:39.469   03 Jun 2027 22:27:54.844           315.375                 Moscow          9855.469
       301   03 Jun 2027 23:53:02.043   03 Jun 2027 23:54:15.607            73.564              Murmansk1          2298.875
       302   03 Jun 2027 23:56:26.895   03 Jun 2027 23:57:16.928            50.033                 Moscow          1563.531
       303   03 Jun 2027 23:58:41.224   03 Jun 2027 23:59:57.336            76.112                 Moscow          2378.500
       304   04 Jun 2027 00:04:45.617   04 Jun 2027 00:04:48.649             3.032                 Moscow            94.750
       305   04 Jun 2027 00:20:58.606   04 Jun 2027 00:22:57.442           118.836               CapeTown          3713.625
       306   04 Jun 2027 00:24:30.921   04 Jun 2027 00:25:56.457            85.536               CapeTown          2673.000
       307   04 Jun 2027 01:24:03.645   04 Jun 2027 01:24:46.820            43.175               Magadan1          1349.219
       308   04 Jun 2027 01:28:59.906   04 Jun 2027 01:30:23.565            83.659              Murmansk1          2614.344
       309   04 Jun 2027 01:32:13.201   04 Jun 2027 01:33:03.453            50.252                 Moscow          1570.375
       310   04 Jun 2027 01:33:33.189   04 Jun 2027 01:35:20.344           107.155                 Moscow          3348.594
       311   04 Jun 2027 02:02:13.033   04 Jun 2027 02:02:39.809            26.776               CapeTown           836.750
       312   04 Jun 2027 02:53:00.929   04 Jun 2027 02:55:52.575           171.646               Magadan1          5363.937
       313   04 Jun 2027 02:56:24.176   04 Jun 2027 02:56:50.946            26.770               Magadan1           836.562
       314   04 Jun 2027 03:00:08.152   04 Jun 2027 03:01:09.888            61.736               Magadan2          1929.250
       315   04 Jun 2027 03:01:09.888   04 Jun 2027 03:02:06.647            56.759               Magadan1          1773.719
       316   04 Jun 2027 03:47:26.565   04 Jun 2027 03:47:46.022            19.457            RioGallegos           608.031
       317   04 Jun 2027 04:36:18.648   04 Jun 2027 04:38:51.655           153.007                Anadyr1          4781.469
       318   04 Jun 2027 04:38:55.045   04 Jun 2027 04:38:59.094             4.049                Anadyr2           126.531
       319   04 Jun 2027 04:39:09.696   04 Jun 2027 04:40:51.794           102.098                Anadyr2          3190.562
       320   04 Jun 2027 05:17:21.320   04 Jun 2027 05:17:37.297            15.977            RioGallegos           499.281
       321   04 Jun 2027 05:18:11.976   04 Jun 2027 05:19:19.453            67.477            RioGallegos          2108.656
       322   04 Jun 2027 06:11:34.522   04 Jun 2027 06:15:33.037           238.515               Magadan2          7453.594
       323   04 Jun 2027 06:15:39.397   04 Jun 2027 06:15:59.655            20.258                Novosib           633.063
       324   04 Jun 2027 06:16:09.002   04 Jun 2027 06:17:50.834           101.832                Norilsk          3182.250
       325   04 Jun 2027 06:17:51.197   04 Jun 2027 06:18:31.702            40.505              Murmansk1          1265.781
       326   04 Jun 2027 06:18:31.702   04 Jun 2027 06:18:48.322            16.620              Murmansk2           519.375
       327   04 Jun 2027 06:20:55.729   04 Jun 2027 06:21:27.568            31.839              Murmansk2           994.969
       328   04 Jun 2027 06:51:44.686   04 Jun 2027 06:51:56.927            12.241            RioGallegos           382.531
       329   04 Jun 2027 06:52:44.093   04 Jun 2027 06:53:38.174            54.081            RioGallegos          1690.031
       330   04 Jun 2027 07:26:58.375   04 Jun 2027 07:29:32.693           154.318                Sumatra          4822.437
       331   04 Jun 2027 07:30:54.446   04 Jun 2027 07:30:57.484             3.038                Sumatra            94.937
       332   04 Jun 2027 07:39:12.452   04 Jun 2027 07:40:44.538            92.086                  Delhi          2877.688
       333   04 Jun 2027 07:48:47.364   04 Jun 2027 07:49:16.124            28.760                Norilsk           898.750
       334   04 Jun 2027 07:49:19.516   04 Jun 2027 07:50:17.403            57.887                Novosib          1808.969
       335   04 Jun 2027 07:50:17.782   04 Jun 2027 07:51:12.576            54.794              Murmansk2          1712.313
       336   04 Jun 2027 07:51:17.754   04 Jun 2027 07:51:28.534            10.780                Novosib           336.875
       337   04 Jun 2027 07:51:28.656   04 Jun 2027 07:51:47.403            18.747                Irkutsk           585.844
       338   04 Jun 2027 07:51:53.827   04 Jun 2027 07:51:55.832             2.005                Norilsk            62.656
       339   04 Jun 2027 07:52:05.914   04 Jun 2027 07:53:37.328            91.414              Murmansk1          2856.688
       340   04 Jun 2027 07:53:37.328   04 Jun 2027 07:53:55.735            18.407              Murmansk2           575.219
       341   04 Jun 2027 07:54:55.225   04 Jun 2027 07:55:10.787            15.562              Murmansk1           486.313
       342   04 Jun 2027 07:56:37.918   04 Jun 2027 07:56:46.195             8.277              Murmansk2           258.656
       343   04 Jun 2027 08:29:59.116   04 Jun 2027 08:31:47.786           108.670            RioGallegos          3395.937
       344   04 Jun 2027 09:08:01.206   04 Jun 2027 09:08:30.203            28.997                Sumatra           906.156
       345   04 Jun 2027 09:10:52.979   04 Jun 2027 09:12:04.485            71.506                  Delhi          2234.562
       346   04 Jun 2027 09:18:54.508   04 Jun 2027 09:19:15.264            20.756                  Delhi           648.625
       347   04 Jun 2027 09:25:05.305   04 Jun 2027 09:25:34.134            28.829                Novosib           900.906
       348   04 Jun 2027 09:25:56.072   04 Jun 2027 09:26:06.956            10.884              Murmansk2           340.125
       349   04 Jun 2027 09:26:10.393   04 Jun 2027 09:26:15.602             5.209              Murmansk2           162.781
       350   04 Jun 2027 09:26:36.273   04 Jun 2027 09:27:02.451            26.178                Norilsk           818.062
       351   04 Jun 2027 09:27:13.335   04 Jun 2027 09:27:34.483            21.148                Novosib           660.875
       352   04 Jun 2027 09:27:39.199   04 Jun 2027 09:28:22.914            43.715                 Moscow          1366.094
       353   04 Jun 2027 09:28:34.089   04 Jun 2027 09:28:48.370            14.281                Novosib           446.281
       354   04 Jun 2027 09:29:10.354   04 Jun 2027 09:29:24.133            13.779              Murmansk2           430.594
       355   04 Jun 2027 09:29:34.559   04 Jun 2027 09:30:16.994            42.435                 Moscow          1326.094
       356   04 Jun 2027 10:49:48.685   04 Jun 2027 10:52:12.780           144.095                  Delhi          4502.969
       357   04 Jun 2027 10:59:30.943   04 Jun 2027 11:00:27.875            56.932              Murmansk2          1779.125
       358   04 Jun 2027 11:00:34.118   04 Jun 2027 11:00:34.722             0.604              Murmansk2            18.875
       359   04 Jun 2027 11:00:34.722   04 Jun 2027 11:01:10.263            35.541              Murmansk1          1110.656
       360   04 Jun 2027 11:01:18.233   04 Jun 2027 11:01:51.791            33.558                 Moscow          1048.688
       361   04 Jun 2027 11:01:57.774   04 Jun 2027 11:02:00.193             2.419                 Moscow            75.594
       362   04 Jun 2027 11:02:02.544   04 Jun 2027 11:02:48.044            45.500              Murmansk1          1421.875
       363   04 Jun 2027 11:02:51.423   04 Jun 2027 11:03:51.432            60.009                 Moscow          1875.281
       364   04 Jun 2027 11:03:59.170   04 Jun 2027 11:04:27.311            28.141                 Moscow           879.406
       365   04 Jun 2027 11:04:58.075   04 Jun 2027 11:05:04.730             6.655                 Moscow           207.969
       366   04 Jun 2027 11:05:10.072   04 Jun 2027 11:05:27.836            17.764              Murmansk2           555.125
       367   04 Jun 2027 11:05:43.260   04 Jun 2027 11:05:46.143             2.883                Norilsk            90.094
       368   04 Jun 2027 11:07:11.942   04 Jun 2027 11:07:23.638            11.696                 Moscow           365.500
       369   04 Jun 2027 12:11:31.507   04 Jun 2027 12:13:54.631           143.124               CapeTown          4472.625
       370   04 Jun 2027 12:17:23.226   04 Jun 2027 12:18:08.525            45.299               CapeTown          1415.594
       371   04 Jun 2027 12:31:46.961   04 Jun 2027 12:32:30.334            43.373                 Moscow          1355.406
       372   04 Jun 2027 12:35:12.750   04 Jun 2027 12:37:11.439           118.689              Murmansk1          3709.031
       373   04 Jun 2027 12:38:48.683   04 Jun 2027 12:39:18.306            29.623              Murmansk1           925.719
       374   04 Jun 2027 12:39:41.173   04 Jun 2027 12:40:15.123            33.950              Murmansk1          1060.938
       375   04 Jun 2027 12:50:11.379   04 Jun 2027 12:54:00.767           229.388                Anadyr1          7168.375
       376   04 Jun 2027 12:55:32.317   04 Jun 2027 12:57:39.061           126.744                Anadyr2          3960.750
       377   04 Jun 2027 14:13:45.940   04 Jun 2027 14:13:55.601             9.661              Murmansk2           301.906
       378   04 Jun 2027 14:15:08.089   04 Jun 2027 14:15:39.298            31.209              Murmansk1           975.281
       379   04 Jun 2027 14:25:22.231   04 Jun 2027 14:26:58.975            96.744                Anadyr1          3023.250
       380   04 Jun 2027 14:27:05.543   04 Jun 2027 14:29:33.465           147.922                Anadyr2          4622.562
       381   04 Jun 2027 14:30:14.430   04 Jun 2027 14:32:51.461           157.031               Magadan2          4907.219
       382   04 Jun 2027 14:33:33.107   04 Jun 2027 14:33:39.786             6.679               Magadan1           208.719
       383   04 Jun 2027 16:01:13.579   04 Jun 2027 16:03:12.194           118.615                Anadyr1          3706.719
       384   04 Jun 2027 16:03:44.469   04 Jun 2027 16:07:02.365           197.896               Magadan1          6184.250
       385   04 Jun 2027 16:07:28.276   04 Jun 2027 16:07:51.635            23.359               Magadan1           729.969
       386   04 Jun 2027 17:37:07.553   04 Jun 2027 17:38:29.194            81.641                Anadyr2          2551.281
       387   04 Jun 2027 17:39:03.916   04 Jun 2027 17:39:26.737            22.821                Anadyr2           713.156
       388   04 Jun 2027 17:39:48.312   04 Jun 2027 17:41:19.448            91.136                Norilsk          2848.000
       389   04 Jun 2027 17:41:43.337   04 Jun 2027 17:42:44.997            61.660               Magadan1          1926.875
       390   04 Jun 2027 17:43:25.896   04 Jun 2027 17:43:34.360             8.464                Norilsk           264.500
       391   04 Jun 2027 18:31:33.507   04 Jun 2027 18:35:23.832           230.325            RioGallegos          7197.656
       392   04 Jun 2027 18:41:48.742   04 Jun 2027 18:42:23.239            34.497            RioGallegos          1078.031
       393   04 Jun 2027 19:14:59.589   04 Jun 2027 19:16:32.302            92.713                Norilsk          2897.281
       394   04 Jun 2027 19:19:08.672   04 Jun 2027 19:20:28.259            79.587                Irkutsk          2487.094
       395   04 Jun 2027 19:20:59.313   04 Jun 2027 19:26:40.411           341.098                Novosib         10659.313
       396   04 Jun 2027 19:32:52.255   04 Jun 2027 19:33:51.722            59.467                Sumatra          1858.344
       397   04 Jun 2027 19:35:39.599   04 Jun 2027 19:36:58.778            79.179                Sumatra          2474.344
       398   04 Jun 2027 20:56:23.615   04 Jun 2027 20:57:10.480            46.865                Novosib          1464.531
       399   04 Jun 2027 21:00:19.491   04 Jun 2027 21:01:20.714            61.223                Novosib          1913.219
       400   04 Jun 2027 21:02:39.749   04 Jun 2027 21:06:22.304           222.555                  Delhi          6954.844
       401   04 Jun 2027 21:07:50.375   04 Jun 2027 21:08:05.857            15.482                  Delhi           483.813
       402   04 Jun 2027 22:29:17.490   04 Jun 2027 22:31:23.667           126.177              Murmansk1          3943.031
       403   04 Jun 2027 22:32:08.093   04 Jun 2027 22:35:21.056           192.963              Murmansk2          6030.094
       404   04 Jun 2027 22:35:50.230   04 Jun 2027 22:41:04.540           314.310                 Moscow          9822.188
       405   05 Jun 2027 00:08:24.173   05 Jun 2027 00:10:27.186           123.013                 Moscow          3844.156
       406   05 Jun 2027 00:32:39.790   05 Jun 2027 00:36:28.112           228.322               CapeTown          7135.063
       407   05 Jun 2027 01:36:06.333   05 Jun 2027 01:36:17.684            11.351               Magadan1           354.719
       408   05 Jun 2027 01:41:01.428   05 Jun 2027 01:42:19.533            78.105              Murmansk1          2440.781
       409   05 Jun 2027 01:43:57.861   05 Jun 2027 01:44:22.620            24.759              Murmansk2           773.719
       410   05 Jun 2027 01:44:28.132   05 Jun 2027 01:47:03.030           154.898                 Moscow          4840.562
       411   05 Jun 2027 02:13:37.878   05 Jun 2027 02:13:45.072             7.194               CapeTown           224.812
       412   05 Jun 2027 02:15:15.603   05 Jun 2027 02:15:43.281            27.678               CapeTown           864.938
       413   05 Jun 2027 02:19:01.583   05 Jun 2027 02:19:03.059             1.476               CapeTown            46.125
       414   05 Jun 2027 03:05:26.821   05 Jun 2027 03:05:47.536            20.715                Anadyr2           647.344
       415   05 Jun 2027 03:06:17.831   05 Jun 2027 03:06:46.349            28.518               Magadan1           891.187
       416   05 Jun 2027 03:10:28.975   05 Jun 2027 03:15:48.196           319.221                Anadyr1          9975.656
       417   05 Jun 2027 03:15:48.196   05 Jun 2027 03:16:50.366            62.170                Anadyr2          1942.813
       418   05 Jun 2027 04:47:13.214   05 Jun 2027 04:47:23.307            10.093                Irkutsk           315.406
       419   05 Jun 2027 04:47:26.805   05 Jun 2027 04:49:05.869            99.064                Anadyr2          3095.750
       420   05 Jun 2027 04:49:11.970   05 Jun 2027 04:50:01.981            50.011               Magadan1          1562.844
       421   05 Jun 2027 04:50:14.736   05 Jun 2027 04:50:42.983            28.247               Magadan2           882.719
       422   05 Jun 2027 04:50:43.601   05 Jun 2027 04:50:59.329            15.728                Anadyr1           491.500
       423   05 Jun 2027 04:51:11.237   05 Jun 2027 04:51:33.718            22.481                Anadyr2           702.531
       424   05 Jun 2027 04:51:55.557   05 Jun 2027 04:52:17.789            22.232                Irkutsk           694.750
       425   05 Jun 2027 04:52:28.763   05 Jun 2027 04:53:18.765            50.002               Magadan2          1562.563
       426   05 Jun 2027 05:29:32.651   05 Jun 2027 05:31:38.447           125.796            RioGallegos          3931.125
       427   05 Jun 2027 06:22:57.143   05 Jun 2027 06:23:53.238            56.095               Magadan1          1752.969
       428   05 Jun 2027 06:24:21.957   05 Jun 2027 06:24:42.944            20.987               Magadan2           655.844
       429   05 Jun 2027 06:24:44.945   05 Jun 2027 06:25:47.343            62.398                Novosib          1949.938
       430   05 Jun 2027 06:25:52.498   05 Jun 2027 06:26:05.193            12.695                Norilsk           396.719
       431   05 Jun 2027 06:26:07.135   05 Jun 2027 06:28:06.738           119.603                Norilsk          3737.594
       432   05 Jun 2027 06:28:09.478   05 Jun 2027 06:28:45.542            36.064              Murmansk1          1127.000
       433   05 Jun 2027 06:28:49.633   05 Jun 2027 06:29:52.351            62.718                Norilsk          1959.937
       434   05 Jun 2027 06:29:58.721   05 Jun 2027 06:30:02.265             3.544              Murmansk1           110.750
       435   05 Jun 2027 06:30:26.989   05 Jun 2027 06:30:35.460             8.471              Murmansk1           264.719
       436   05 Jun 2027 06:32:48.475   05 Jun 2027 06:33:20.189            31.714              Murmansk1           991.063
       437   05 Jun 2027 07:03:49.011   05 Jun 2027 07:05:26.394            97.383            RioGallegos          3043.219
       438   05 Jun 2027 07:08:18.511   05 Jun 2027 07:08:39.461            20.950            RioGallegos           654.688
       439   05 Jun 2027 07:38:47.649   05 Jun 2027 07:41:40.766           173.117                Sumatra          5409.906
       440   05 Jun 2027 07:50:04.041   05 Jun 2027 07:50:38.529            34.488                  Delhi          1077.750
       441   05 Jun 2027 07:51:04.566   05 Jun 2027 07:52:15.239            70.673                  Delhi          2208.531
       442   05 Jun 2027 08:00:14.274   05 Jun 2027 08:00:26.117            11.843                Novosib           370.094
       443   05 Jun 2027 08:00:27.843   05 Jun 2027 08:01:08.597            40.754                Norilsk          1273.562
       444   05 Jun 2027 08:01:20.875   05 Jun 2027 08:02:44.746            83.871                Novosib          2620.969
       445   05 Jun 2027 08:02:50.887   05 Jun 2027 08:03:04.258            13.371              Murmansk1           417.844
       446   05 Jun 2027 08:03:04.258   05 Jun 2027 08:03:22.627            18.369              Murmansk2           574.031
       447   05 Jun 2027 08:03:26.277   05 Jun 2027 08:03:35.354             9.077                Novosib           283.656
       448   05 Jun 2027 08:03:45.137   05 Jun 2027 08:04:12.972            27.835                 Moscow           869.844
       449   05 Jun 2027 08:04:14.198   05 Jun 2027 08:04:56.004            41.806                Irkutsk          1306.438
       450   05 Jun 2027 08:05:44.873   05 Jun 2027 08:06:34.156            49.283                 Moscow          1540.094
       451   05 Jun 2027 08:43:50.688   05 Jun 2027 08:45:09.155            78.467            RioGallegos          2452.094
       452   05 Jun 2027 09:17:13.028   05 Jun 2027 09:18:04.767            51.739                Sumatra          1616.844
       453   05 Jun 2027 09:22:52.323   05 Jun 2027 09:23:43.375            51.052                  Delhi          1595.375
       454   05 Jun 2027 09:24:48.647   05 Jun 2027 09:25:16.349            27.702                  Delhi           865.688
       455   05 Jun 2027 09:36:50.041   05 Jun 2027 09:36:52.574             2.533              Murmansk1            79.156
       456   05 Jun 2027 09:36:55.283   05 Jun 2027 09:37:15.082            19.799              Murmansk1           618.719
       457   05 Jun 2027 09:37:23.842   05 Jun 2027 09:37:53.621            29.779                 Moscow           930.594
       458   05 Jun 2027 09:37:58.317   05 Jun 2027 09:38:28.210            29.893              Murmansk1           934.156
       459   05 Jun 2027 09:38:31.428   05 Jun 2027 09:39:15.867            44.439                Norilsk          1388.719
       460   05 Jun 2027 09:39:18.010   05 Jun 2027 09:39:23.186             5.176                Novosib           161.750
       461   05 Jun 2027 09:39:24.973   05 Jun 2027 09:39:28.877             3.904                Norilsk           122.000
       462   05 Jun 2027 09:39:45.163   05 Jun 2027 09:39:53.576             8.413                Norilsk           262.906
       463   05 Jun 2027 09:39:54.378   05 Jun 2027 09:40:09.702            15.324                Novosib           478.875
       464   05 Jun 2027 09:40:14.616   05 Jun 2027 09:40:57.580            42.964              Murmansk1          1342.625
       465   05 Jun 2027 09:41:20.594   05 Jun 2027 09:41:36.522            15.928              Murmansk1           497.750
       466   05 Jun 2027 09:43:18.205   05 Jun 2027 09:43:53.563            35.358                 Moscow          1104.938
       467   05 Jun 2027 11:03:29.625   05 Jun 2027 11:05:08.868            99.243                  Delhi          3101.344
       468   05 Jun 2027 11:11:17.999   05 Jun 2027 11:11:30.235            12.236              Murmansk1           382.375
       469   05 Jun 2027 11:11:30.235   05 Jun 2027 11:12:21.599            51.364              Murmansk2          1605.125
       470   05 Jun 2027 11:12:27.256   05 Jun 2027 11:13:11.927            44.671              Murmansk1          1395.969
       471   05 Jun 2027 11:13:20.294   05 Jun 2027 11:13:52.936            32.642                 Moscow          1020.063
       472   05 Jun 2027 11:14:03.811   05 Jun 2027 11:14:23.538            19.727              Murmansk1           616.469
       473   05 Jun 2027 11:14:28.185   05 Jun 2027 11:15:35.500            67.315                Novosib          2103.594
       474   05 Jun 2027 11:15:39.685   05 Jun 2027 11:16:02.957            23.272                Norilsk           727.250
       475   05 Jun 2027 11:16:11.328   05 Jun 2027 11:17:15.336            64.008              Murmansk2          2000.250
       476   05 Jun 2027 11:17:27.130   05 Jun 2027 11:17:44.397            17.267              Murmansk2           539.594
       477   05 Jun 2027 11:18:34.678   05 Jun 2027 11:18:52.800            18.122                 Moscow           566.313
       478   05 Jun 2027 11:22:47.781   05 Jun 2027 11:22:50.213             2.432              Murmansk2            76.000
       479   05 Jun 2027 12:22:41.343   05 Jun 2027 12:25:37.632           176.289               CapeTown          5509.031
       480   05 Jun 2027 12:29:31.640   05 Jun 2027 12:31:09.401            97.761               CapeTown          3055.031
       481   05 Jun 2027 12:47:26.279   05 Jun 2027 12:49:06.575           100.296              Murmansk2          3134.250
       482   05 Jun 2027 12:49:06.575   05 Jun 2027 12:50:01.303            54.728              Murmansk1          1710.250
