uniorb/output/strategy_1/Drop/Drop_KinoSat_111901.txt

KinoSat_111901
-------------------------
    Access    *     Start Time (UTCG)     *     Stop Time (UTCG)  *   Duration (s)        *       Station  *  Data (Mbytes)
         1   01 Jun 2027 03:41:21.888   01 Jun 2027 03:41:23.210             1.322              Murmansk2            41.313
         2   01 Jun 2027 03:41:25.341   01 Jun 2027 03:42:05.808            40.467                Irkutsk          1264.594
         3   01 Jun 2027 03:42:12.838   01 Jun 2027 03:42:23.669            10.831              Murmansk1           338.469
         4   01 Jun 2027 03:42:23.669   01 Jun 2027 03:43:26.955            63.286              Murmansk2          1977.688
         5   01 Jun 2027 03:43:28.368   01 Jun 2027 03:44:20.138            51.770                Novosib          1617.812
         6   01 Jun 2027 03:44:28.877   01 Jun 2027 03:46:26.709           117.832                Irkutsk          3682.250
         7   01 Jun 2027 03:46:36.906   01 Jun 2027 03:49:08.230           151.324                  Delhi          4728.875
         8   01 Jun 2027 05:20:09.635   01 Jun 2027 05:21:03.729            54.094              Murmansk2          1690.437
         9   01 Jun 2027 05:21:32.171   01 Jun 2027 05:23:18.417           106.246                Norilsk          3320.188
        10   01 Jun 2027 05:23:33.957   01 Jun 2027 05:25:07.053            93.096                Novosib          2909.250
        11   01 Jun 2027 05:25:11.094   01 Jun 2027 05:29:05.790           234.696                 Moscow          7334.250
        12   01 Jun 2027 05:41:14.720   01 Jun 2027 05:43:21.981           127.261               CapeTown          3976.906
        13   01 Jun 2027 05:44:28.950   01 Jun 2027 05:44:29.407             0.457               CapeTown            14.281
        14   01 Jun 2027 05:47:05.538   01 Jun 2027 05:48:11.967            66.429               CapeTown          2075.906
        15   01 Jun 2027 06:56:21.743   01 Jun 2027 06:57:42.069            80.326              Murmansk1          2510.188
        16   01 Jun 2027 06:58:09.929   01 Jun 2027 06:59:55.964           106.035              Murmansk1          3313.594
        17   01 Jun 2027 07:00:29.869   01 Jun 2027 07:00:39.106             9.237                 Moscow           288.656
        18   01 Jun 2027 07:01:30.647   01 Jun 2027 07:02:49.238            78.591                 Moscow          2455.969
        19   01 Jun 2027 07:17:06.035   01 Jun 2027 07:22:17.527           311.492               CapeTown          9734.125
        20   01 Jun 2027 08:20:19.849   01 Jun 2027 08:21:37.826            77.977                Anadyr2          2436.781
        21   01 Jun 2027 08:22:11.783   01 Jun 2027 08:22:40.638            28.855                Anadyr2           901.719
        22   01 Jun 2027 08:24:02.760   01 Jun 2027 08:24:52.797            50.037                Anadyr1          1563.656
        23   01 Jun 2027 09:52:38.746   01 Jun 2027 09:52:52.622            13.876               Magadan1           433.625
        24   01 Jun 2027 09:55:34.944   01 Jun 2027 09:58:33.787           178.843                Anadyr2          5588.844
        25   01 Jun 2027 09:58:38.426   01 Jun 2027 09:59:22.272            43.846                Anadyr1          1370.188
        26   01 Jun 2027 11:30:37.819   01 Jun 2027 11:32:29.763           111.944               Magadan1          3498.250
        27   01 Jun 2027 11:33:21.865   01 Jun 2027 11:33:46.023            24.158               Magadan2           754.937
        28   01 Jun 2027 11:36:08.816   01 Jun 2027 11:36:51.858            43.042               Magadan2          1345.063
        29   01 Jun 2027 11:36:55.478   01 Jun 2027 11:37:23.598            28.120                Irkutsk           878.750
        30   01 Jun 2027 11:37:26.442   01 Jun 2027 11:37:38.308            11.866              Murmansk1           370.812
        31   01 Jun 2027 11:37:54.748   01 Jun 2027 11:38:32.080            37.332                Novosib          1166.625
        32   01 Jun 2027 11:41:23.872   01 Jun 2027 11:42:03.970            40.098              Murmansk2          1253.062
        33   01 Jun 2027 12:12:07.423   01 Jun 2027 12:15:24.571           197.148            RioGallegos          6160.875
        34   01 Jun 2027 12:47:16.182   01 Jun 2027 12:48:03.640            47.458                Sumatra          1483.062
        35   01 Jun 2027 12:53:10.013   01 Jun 2027 12:55:00.821           110.808                Sumatra          3462.750
        36   01 Jun 2027 13:01:28.710   01 Jun 2027 13:03:47.900           139.190                Irkutsk          4349.688
        37   01 Jun 2027 13:04:44.270   01 Jun 2027 13:05:12.816            28.546                Irkutsk           892.063
        38   01 Jun 2027 13:05:28.106   01 Jun 2027 13:06:33.296            65.190                Norilsk          2037.187
        39   01 Jun 2027 13:50:31.396   01 Jun 2027 13:56:32.441           361.045            RioGallegos         11282.656
        40   01 Jun 2027 14:24:51.523   01 Jun 2027 14:29:24.423           272.900                Sumatra          8528.125
        41   01 Jun 2027 14:40:37.976   01 Jun 2027 14:44:46.450           248.474                Irkutsk          7764.812
        42   01 Jun 2027 16:10:32.600   01 Jun 2027 16:17:00.174           387.574                  Delhi         12111.688
        43   01 Jun 2027 16:18:59.767   01 Jun 2027 16:22:56.072           236.305                Novosib          7384.531
        44   01 Jun 2027 19:05:03.803   01 Jun 2027 19:07:49.792           165.989               CapeTown          5187.156
        45   01 Jun 2027 19:33:41.814   01 Jun 2027 19:37:08.319           206.505                 Moscow          6453.281
        46   01 Jun 2027 19:37:28.281   01 Jun 2027 19:39:59.665           151.384              Murmansk1          4730.750
        47   01 Jun 2027 20:42:39.220   01 Jun 2027 20:47:30.798           291.578               CapeTown          9111.813
        48   01 Jun 2027 20:48:21.819   01 Jun 2027 20:49:38.122            76.303               CapeTown          2384.469
        49   01 Jun 2027 21:25:58.772   01 Jun 2027 21:26:13.764            14.992               Magadan2           468.500
        50   01 Jun 2027 21:26:44.603   01 Jun 2027 21:27:03.000            18.397               Magadan2           574.906
        51   01 Jun 2027 21:27:59.664   01 Jun 2027 21:28:35.319            35.655               Magadan2          1114.219
        52   01 Jun 2027 21:32:43.723   01 Jun 2027 21:32:54.421            10.698               Magadan2           334.313
        53   01 Jun 2027 21:33:32.532   01 Jun 2027 21:33:42.727            10.195               Magadan2           318.594
        54   01 Jun 2027 21:34:20.419   01 Jun 2027 21:34:43.833            23.414               Magadan2           731.687
        55   01 Jun 2027 21:34:43.833   01 Jun 2027 21:35:23.900            40.067               Magadan1          1252.094
        56   01 Jun 2027 22:57:31.027   01 Jun 2027 23:01:19.178           228.151                Anadyr2          7129.719
        57   01 Jun 2027 23:01:19.783   01 Jun 2027 23:02:39.130            79.347                Anadyr1          2479.594
        58   01 Jun 2027 23:02:39.578   01 Jun 2027 23:03:21.536            41.958               Magadan1          1311.187
        59   01 Jun 2027 23:03:23.013   01 Jun 2027 23:04:08.199            45.186               Magadan2          1412.062
        60   01 Jun 2027 23:04:24.675   01 Jun 2027 23:04:55.484            30.809               Magadan2           962.781
        61   01 Jun 2027 23:06:47.151   01 Jun 2027 23:07:01.464            14.313               Magadan1           447.281
        62   01 Jun 2027 23:07:18.415   01 Jun 2027 23:08:39.592            81.177                Irkutsk          2536.781
        63   01 Jun 2027 23:11:44.371   01 Jun 2027 23:12:36.399            52.028               Magadan1          1625.875
        64   01 Jun 2027 23:51:50.423   01 Jun 2027 23:54:03.975           133.552            RioGallegos          4173.500
        65   01 Jun 2027 23:56:24.782   01 Jun 2027 23:56:53.406            28.624            RioGallegos           894.500
        66   01 Jun 2027 23:57:33.051   01 Jun 2027 23:57:47.114            14.063            RioGallegos           439.469
        67   02 Jun 2027 00:02:49.260   02 Jun 2027 00:02:54.647             5.387            RioGallegos           168.344
        68   02 Jun 2027 00:33:05.999   02 Jun 2027 00:34:34.351            88.352                Anadyr1          2761.000
        69   02 Jun 2027 00:35:08.298   02 Jun 2027 00:35:39.435            31.137                Anadyr2           973.031
        70   02 Jun 2027 00:35:50.722   02 Jun 2027 00:37:11.324            80.602                Norilsk          2518.812
        71   02 Jun 2027 00:37:38.080   02 Jun 2027 00:38:11.577            33.497               Magadan1          1046.781
        72   02 Jun 2027 00:39:20.984   02 Jun 2027 00:39:24.463             3.479               Magadan2           108.719
        73   02 Jun 2027 00:39:27.775   02 Jun 2027 00:40:32.767            64.992                Irkutsk          2031.000
        74   02 Jun 2027 00:41:04.062   02 Jun 2027 00:42:05.665            61.603                Novosib          1925.094
        75   02 Jun 2027 00:42:40.889   02 Jun 2027 00:43:22.821            41.932                Irkutsk          1310.375
        76   02 Jun 2027 00:44:37.430   02 Jun 2027 00:45:21.857            44.427                Irkutsk          1388.344
        77   02 Jun 2027 00:53:11.168   02 Jun 2027 00:56:02.746           171.578                Sumatra          5361.812
        78   02 Jun 2027 01:03:19.731   02 Jun 2027 01:05:45.785           146.054                Sumatra          4564.187
        79   02 Jun 2027 02:09:00.903   02 Jun 2027 02:09:32.601            31.698                Anadyr1           990.562
        80   02 Jun 2027 02:11:18.086   02 Jun 2027 02:12:20.555            62.469                Norilsk          1952.156
        81   02 Jun 2027 02:12:39.397   02 Jun 2027 02:12:43.010             3.613                Norilsk           112.906
        82   02 Jun 2027 02:12:55.766   02 Jun 2027 02:13:42.477            46.711               Magadan2          1459.719
        83   02 Jun 2027 02:15:11.753   02 Jun 2027 02:18:08.840           177.087                Irkutsk          5533.969
        84   02 Jun 2027 02:27:20.459   02 Jun 2027 02:27:37.293            16.834                Irkutsk           526.063
        85   02 Jun 2027 02:29:27.176   02 Jun 2027 02:29:41.519            14.343                  Delhi           448.219
        86   02 Jun 2027 02:30:07.163   02 Jun 2027 02:32:21.137           133.974                  Delhi          4186.688
        87   02 Jun 2027 02:37:40.936   02 Jun 2027 02:38:35.557            54.621                Sumatra          1706.906
        88   02 Jun 2027 03:06:51.640   02 Jun 2027 03:07:56.474            64.834            RioGallegos          2026.063
        89   02 Jun 2027 03:10:49.934   02 Jun 2027 03:12:13.696            83.762            RioGallegos          2617.563
        90   02 Jun 2027 03:53:33.314   02 Jun 2027 03:56:20.864           167.550                Irkutsk          5235.938
        91   02 Jun 2027 03:56:40.391   02 Jun 2027 03:56:44.366             3.975                Novosib           124.219
        92   02 Jun 2027 03:56:59.903   02 Jun 2027 03:58:10.249            70.346                Novosib          2198.312
        93   02 Jun 2027 03:58:12.315   02 Jun 2027 03:58:30.685            18.370                Norilsk           574.063
        94   02 Jun 2027 03:58:35.717   02 Jun 2027 03:58:36.350             0.633                Norilsk            19.781
        95   02 Jun 2027 03:58:39.918   02 Jun 2027 03:58:46.826             6.908              Murmansk1           215.875
        96   02 Jun 2027 03:58:46.826   02 Jun 2027 03:58:48.238             1.412              Murmansk2            44.125
        97   02 Jun 2027 03:58:51.219   02 Jun 2027 04:00:49.656           118.437                  Delhi          3701.156
        98   02 Jun 2027 04:01:44.973   02 Jun 2027 04:02:21.028            36.055                Novosib          1126.719
        99   02 Jun 2027 04:02:57.929   02 Jun 2027 04:03:35.448            37.519                Novosib          1172.469
       100   02 Jun 2027 04:07:01.647   02 Jun 2027 04:08:45.743           104.096                  Delhi          3253.000
       101   02 Jun 2027 05:32:24.842   02 Jun 2027 05:34:15.246           110.404                Norilsk          3450.125
       102   02 Jun 2027 05:34:24.220   02 Jun 2027 05:35:35.980            71.760              Murmansk2          2242.500
       103   02 Jun 2027 05:35:35.980   02 Jun 2027 05:35:45.490             9.510              Murmansk1           297.187
       104   02 Jun 2027 05:35:46.671   02 Jun 2027 05:36:26.846            40.175                 Moscow          1255.469
       105   02 Jun 2027 05:36:31.615   02 Jun 2027 05:36:37.124             5.509                Novosib           172.156
       106   02 Jun 2027 05:36:46.763   02 Jun 2027 05:38:11.884            85.121                 Moscow          2660.031
       107   02 Jun 2027 05:38:54.012   02 Jun 2027 05:41:19.046           145.034                 Moscow          4532.312
       108   02 Jun 2027 06:57:30.329   02 Jun 2027 06:57:42.008            11.679               Magadan1           364.969
       109   02 Jun 2027 06:57:42.008   02 Jun 2027 06:57:52.166            10.158               Magadan2           317.438
       110   02 Jun 2027 07:00:03.512   02 Jun 2027 07:00:11.934             8.422                Anadyr2           263.188
       111   02 Jun 2027 07:04:40.053   02 Jun 2027 07:04:56.177            16.124                 Moscow           503.875
       112   02 Jun 2027 07:08:00.999   02 Jun 2027 07:11:43.496           222.497                 Moscow          6953.031
       113   02 Jun 2027 07:11:54.601   02 Jun 2027 07:14:00.246           125.645              Murmansk1          3926.406
       114   02 Jun 2027 07:14:05.936   02 Jun 2027 07:15:59.499           113.563                 Moscow          3548.844
       115   02 Jun 2027 07:29:33.611   02 Jun 2027 07:31:03.707            90.096               CapeTown          2815.500
       116   02 Jun 2027 07:34:23.387   02 Jun 2027 07:34:32.965             9.578               CapeTown           299.313
       117   02 Jun 2027 08:32:36.042   02 Jun 2027 08:33:44.398            68.356               Magadan1          2136.125
       118   02 Jun 2027 08:34:13.266   02 Jun 2027 08:38:06.761           233.495                Anadyr1          7296.719
       119   02 Jun 2027 10:04:07.760   02 Jun 2027 10:05:25.976            78.216               Magadan2          2444.250
       120   02 Jun 2027 10:05:25.976   02 Jun 2027 10:05:28.044             2.068               Magadan1            64.625
       121   02 Jun 2027 10:06:25.633   02 Jun 2027 10:13:28.897           423.264                Anadyr1         13227.000
       122   02 Jun 2027 11:42:11.366   02 Jun 2027 11:48:37.889           386.523               Magadan1         12078.844
       123   02 Jun 2027 14:04:38.515   02 Jun 2027 14:10:36.632           358.117            RioGallegos         11191.156
       124   02 Jun 2027 14:38:01.778   02 Jun 2027 14:41:58.580           236.802                Sumatra          7400.063
       125   02 Jun 2027 14:53:56.957   02 Jun 2027 14:58:42.813           285.856                Irkutsk          8933.000
       126   02 Jun 2027 16:24:45.353   02 Jun 2027 16:27:02.782           137.429                  Delhi          4294.656
       127   02 Jun 2027 16:32:37.639   02 Jun 2027 16:35:43.973           186.334                Novosib          5822.937
       128   02 Jun 2027 16:39:38.938   02 Jun 2027 16:41:19.588           100.650                Norilsk          3145.312
       129   02 Jun 2027 19:47:02.298   02 Jun 2027 19:49:29.058           146.760              Murmansk1          4586.250
       130   02 Jun 2027 19:49:57.778   02 Jun 2027 19:54:16.526           258.748              Murmansk1          8085.875
       131   02 Jun 2027 20:55:27.111   02 Jun 2027 21:01:11.580           344.469               CapeTown         10764.656
       132   03 Jun 2027 00:13:11.762   03 Jun 2027 00:14:13.465            61.703            RioGallegos          1928.219
       133   03 Jun 2027 00:45:02.019   03 Jun 2027 00:45:47.469            45.450                Anadyr2          1420.312
       134   03 Jun 2027 00:46:32.355   03 Jun 2027 00:47:19.917            47.562                Anadyr1          1486.312
       135   03 Jun 2027 00:47:43.009   03 Jun 2027 00:49:13.614            90.605                Norilsk          2831.406
       136   03 Jun 2027 00:49:42.049   03 Jun 2027 00:50:49.537            67.488               Magadan2          2109.000
       137   03 Jun 2027 00:52:36.092   03 Jun 2027 00:53:00.444            24.352                Novosib           761.000
       138   03 Jun 2027 00:53:59.677   03 Jun 2027 00:54:56.331            56.654               Magadan1          1770.438
       139   03 Jun 2027 00:57:39.664   03 Jun 2027 00:58:18.738            39.074                Irkutsk          1221.062
       140   03 Jun 2027 01:02:12.119   03 Jun 2027 01:02:25.642            13.523                Irkutsk           422.594
       141   03 Jun 2027 01:02:41.072   03 Jun 2027 01:02:43.422             2.350                Irkutsk            73.437
       142   03 Jun 2027 01:03:43.599   03 Jun 2027 01:03:47.435             3.836                Irkutsk           119.875
       143   03 Jun 2027 01:05:41.454   03 Jun 2027 01:08:11.382           149.928                Sumatra          4685.250
       144   03 Jun 2027 01:14:39.520   03 Jun 2027 01:14:57.399            17.879                Sumatra           558.719
       145   03 Jun 2027 01:17:05.100   03 Jun 2027 01:17:49.126            44.026                Sumatra          1375.813
       146   03 Jun 2027 01:48:13.652   03 Jun 2027 01:49:01.600            47.948            RioGallegos          1498.375
       147   03 Jun 2027 01:51:17.456   03 Jun 2027 01:51:32.902            15.446            RioGallegos           482.688
       148   03 Jun 2027 01:51:47.263   03 Jun 2027 01:51:58.422            11.159            RioGallegos           348.719
       149   03 Jun 2027 02:22:04.109   03 Jun 2027 02:22:04.167             0.058                Anadyr1             1.812
       150   03 Jun 2027 02:22:16.641   03 Jun 2027 02:22:45.912            29.271                Anadyr2           914.719
       151   03 Jun 2027 02:23:01.725   03 Jun 2027 02:23:58.709            56.984                Anadyr2          1780.750
       152   03 Jun 2027 02:24:14.604   03 Jun 2027 02:24:24.775            10.171                Norilsk           317.844
       153   03 Jun 2027 02:25:45.028   03 Jun 2027 02:25:54.377             9.349               Magadan2           292.156
       154   03 Jun 2027 02:26:14.102   03 Jun 2027 02:26:47.703            33.601                Norilsk          1050.031
       155   03 Jun 2027 02:27:14.031   03 Jun 2027 02:28:09.556            55.525                Novosib          1735.156
       156   03 Jun 2027 02:31:52.602   03 Jun 2027 02:32:39.707            47.105                Irkutsk          1472.031
       157   03 Jun 2027 02:34:58.679   03 Jun 2027 02:35:20.645            21.966                Novosib           686.437
       158   03 Jun 2027 02:36:03.764   03 Jun 2027 02:36:15.418            11.654                Irkutsk           364.187
       159   03 Jun 2027 02:38:05.947   03 Jun 2027 02:38:10.334             4.387                Novosib           137.094
       160   03 Jun 2027 02:38:28.308   03 Jun 2027 02:39:07.928            39.620                Novosib          1238.125
       161   03 Jun 2027 02:41:33.393   03 Jun 2027 02:41:35.919             2.526                  Delhi            78.938
       162   03 Jun 2027 02:42:19.317   03 Jun 2027 02:43:23.519            64.202                  Delhi          2006.312
       163   03 Jun 2027 02:45:00.403   03 Jun 2027 02:48:20.830           200.427                Sumatra          6263.344
       164   03 Jun 2027 03:19:32.837   03 Jun 2027 03:19:45.150            12.313            RioGallegos           384.781
       165   03 Jun 2027 03:24:59.213   03 Jun 2027 03:25:03.033             3.820            RioGallegos           119.375
       166   03 Jun 2027 04:04:06.392   03 Jun 2027 04:04:29.918            23.526                Irkutsk           735.188
       167   03 Jun 2027 04:05:20.961   03 Jun 2027 04:08:12.828           171.867                Irkutsk          5370.844
       168   03 Jun 2027 04:08:37.930   03 Jun 2027 04:11:19.843           161.913                Irkutsk          5059.781
       169   03 Jun 2027 04:12:09.603   03 Jun 2027 04:12:47.940            38.337                Novosib          1198.031
       170   03 Jun 2027 05:45:10.800   03 Jun 2027 05:45:31.454            20.654                Novosib           645.437
       171   03 Jun 2027 05:45:39.125   03 Jun 2027 05:46:20.669            41.544                Norilsk          1298.250
       172   03 Jun 2027 05:46:22.750   03 Jun 2027 05:47:38.178            75.428              Murmansk2          2357.125
       173   03 Jun 2027 05:47:41.905   03 Jun 2027 05:48:04.166            22.261                Novosib           695.656
       174   03 Jun 2027 05:48:12.603   03 Jun 2027 05:49:51.989            99.386              Murmansk1          3105.812
       175   03 Jun 2027 05:50:16.188   03 Jun 2027 05:53:16.403           180.215                 Moscow          5631.719
       176   03 Jun 2027 06:05:07.446   03 Jun 2027 06:05:45.716            38.270               CapeTown          1195.937
       177   03 Jun 2027 06:07:15.262   03 Jun 2027 06:08:23.488            68.226               CapeTown          2132.063
       178   03 Jun 2027 06:11:39.234   03 Jun 2027 06:12:00.751            21.517               CapeTown           672.406
       179   03 Jun 2027 06:12:33.676   03 Jun 2027 06:13:08.192            34.516               CapeTown          1078.625
       180   03 Jun 2027 06:15:15.354   03 Jun 2027 06:17:13.900           118.546               CapeTown          3704.563
       181   03 Jun 2027 07:09:15.220   03 Jun 2027 07:10:09.446            54.226                Anadyr2          1694.563
       182   03 Jun 2027 07:11:23.104   03 Jun 2027 07:12:37.108            74.004                Anadyr1          2312.625
       183   03 Jun 2027 07:20:04.801   03 Jun 2027 07:24:28.928           264.127              Murmansk1          8253.969
       184   03 Jun 2027 07:24:41.682   03 Jun 2027 07:25:20.985            39.303                 Moscow          1228.219
       185   03 Jun 2027 07:25:21.469   03 Jun 2027 07:26:22.096            60.627                 Moscow          1894.594
       186   03 Jun 2027 07:42:10.208   03 Jun 2027 07:46:54.857           284.649               CapeTown          8895.281
       187   03 Jun 2027 08:42:46.284   03 Jun 2027 08:42:48.883             2.599                Anadyr1            81.219
       188   03 Jun 2027 08:44:19.203   03 Jun 2027 08:46:14.520           115.317                Anadyr1          3603.656
       189   03 Jun 2027 08:46:14.520   03 Jun 2027 08:47:03.572            49.052                Anadyr2          1532.875
       190   03 Jun 2027 08:47:52.857   03 Jun 2027 08:47:55.405             2.548               Magadan2            79.625
       191   03 Jun 2027 08:47:58.404   03 Jun 2027 08:50:07.094           128.690                Anadyr2          4021.562
       192   03 Jun 2027 10:17:16.481   03 Jun 2027 10:18:04.775            48.294               Magadan2          1509.187
       193   03 Jun 2027 10:18:09.326   03 Jun 2027 10:18:47.533            38.207               Magadan2          1193.969
       194   03 Jun 2027 10:19:01.618   03 Jun 2027 10:25:18.675           377.057                Anadyr2         11783.031
       195   03 Jun 2027 11:53:29.257   03 Jun 2027 12:00:18.009           408.752               Magadan2         12773.500
       196   03 Jun 2027 14:16:19.570   03 Jun 2027 14:22:57.895           398.325            RioGallegos         12447.656
       197   03 Jun 2027 16:46:59.954   03 Jun 2027 16:47:21.634            21.680                Norilsk           677.500
       198   03 Jun 2027 16:48:12.440   03 Jun 2027 16:48:52.778            40.338                Norilsk          1260.562
       199   03 Jun 2027 16:51:07.687   03 Jun 2027 16:52:48.619           100.932                Norilsk          3154.125
       200   03 Jun 2027 18:16:58.545   03 Jun 2027 18:17:36.256            37.711                 Moscow          1178.469
       201   03 Jun 2027 18:20:08.764   03 Jun 2027 18:20:22.450            13.686              Murmansk1           427.687
       202   03 Jun 2027 18:21:47.796   03 Jun 2027 18:22:27.878            40.082              Murmansk2          1252.563
       203   03 Jun 2027 18:23:41.396   03 Jun 2027 18:24:27.925            46.529              Murmansk2          1454.031
       204   03 Jun 2027 18:25:04.000   03 Jun 2027 18:26:25.181            81.181                 Moscow          2536.906
       205   03 Jun 2027 19:29:10.517   03 Jun 2027 19:31:01.212           110.695               CapeTown          3459.219
       206   03 Jun 2027 19:32:55.542   03 Jun 2027 19:33:22.122            26.580               CapeTown           830.625
       207   03 Jun 2027 19:34:47.222   03 Jun 2027 19:35:26.560            39.338               CapeTown          1229.313
       208   03 Jun 2027 19:41:21.694   03 Jun 2027 19:41:40.024            18.330               CapeTown           572.813
       209   03 Jun 2027 19:59:24.462   03 Jun 2027 20:00:37.526            73.064              Murmansk2          2283.250
       210   03 Jun 2027 20:01:30.123   03 Jun 2027 20:07:47.555           377.432              Murmansk1         11794.750
       211   03 Jun 2027 21:09:08.261   03 Jun 2027 21:11:04.959           116.698               CapeTown          3646.813
       212   03 Jun 2027 21:45:39.842   03 Jun 2027 21:46:12.276            32.434                Anadyr2          1013.562
       213   03 Jun 2027 21:46:27.831   03 Jun 2027 21:46:29.093             1.262                Anadyr2            39.438
       214   03 Jun 2027 21:46:31.833   03 Jun 2027 21:47:18.483            46.650                Anadyr2          1457.813
       215   03 Jun 2027 21:48:00.600   03 Jun 2027 21:49:11.746            71.146               Magadan2          2223.313
       216   03 Jun 2027 21:50:12.395   03 Jun 2027 21:50:38.176            25.781               Magadan1           805.656
       217   03 Jun 2027 21:50:38.176   03 Jun 2027 21:51:30.195            52.019               Magadan2          1625.594
       218   03 Jun 2027 21:56:35.113   03 Jun 2027 21:56:42.411             7.298               Magadan2           228.062
       219   03 Jun 2027 21:56:42.411   03 Jun 2027 21:56:53.150            10.739               Magadan1           335.594
       220   03 Jun 2027 21:57:36.425   03 Jun 2027 21:57:49.400            12.975               Magadan1           405.469
       221   03 Jun 2027 23:21:32.132   03 Jun 2027 23:25:18.104           225.972                Anadyr2          7061.625
       222   03 Jun 2027 23:25:21.082   03 Jun 2027 23:26:28.177            67.095                Anadyr1          2096.719
       223   03 Jun 2027 23:26:28.440   03 Jun 2027 23:28:09.168           100.728               Magadan1          3147.750
       224   03 Jun 2027 23:28:09.168   03 Jun 2027 23:28:26.320            17.152               Magadan2           536.000
       225   03 Jun 2027 23:28:51.756   03 Jun 2027 23:29:31.565            39.809               Magadan1          1244.031
       226   03 Jun 2027 23:30:16.948   03 Jun 2027 23:30:49.933            32.985                Irkutsk          1030.781
       227   03 Jun 2027 23:31:45.076   03 Jun 2027 23:31:59.145            14.069                Irkutsk           439.656
       228   03 Jun 2027 23:32:58.133   03 Jun 2027 23:34:04.757            66.624                Irkutsk          2082.000
       229   03 Jun 2027 23:45:06.621   03 Jun 2027 23:46:26.306            79.685                Sumatra          2490.156
       230   03 Jun 2027 23:47:58.563   03 Jun 2027 23:49:12.438            73.875                Sumatra          2308.594
       231   04 Jun 2027 00:19:13.639   04 Jun 2027 00:19:16.421             2.782            RioGallegos            86.937
       232   04 Jun 2027 00:20:26.481   04 Jun 2027 00:20:38.496            12.015            RioGallegos           375.469
       233   04 Jun 2027 00:22:17.814   04 Jun 2027 00:22:24.796             6.982            RioGallegos           218.187
       234   04 Jun 2027 00:23:00.739   04 Jun 2027 00:23:17.604            16.865            RioGallegos           527.031
       235   04 Jun 2027 00:25:32.733   04 Jun 2027 00:26:18.557            45.824            RioGallegos          1432.000
       236   04 Jun 2027 00:56:57.053   04 Jun 2027 00:58:00.369            63.316                Anadyr2          1978.625
       237   04 Jun 2027 00:59:13.977   04 Jun 2027 00:59:39.942            25.965                Anadyr2           811.406
       238   04 Jun 2027 00:59:50.043   04 Jun 2027 01:00:08.902            18.859                Anadyr2           589.344
       239   04 Jun 2027 01:00:11.046   04 Jun 2027 01:01:15.927            64.881                Norilsk          2027.531
       240   04 Jun 2027 01:01:38.766   04 Jun 2027 01:02:41.555            62.789               Magadan1          1962.156
       241   04 Jun 2027 01:03:21.776   04 Jun 2027 01:05:02.630           100.854                Irkutsk          3151.687
       242   04 Jun 2027 01:08:13.950   04 Jun 2027 01:08:32.399            18.449                Novosib           576.531
       243   04 Jun 2027 01:09:57.483   04 Jun 2027 01:10:18.599            21.116                Novosib           659.875
       244   04 Jun 2027 01:13:05.942   04 Jun 2027 01:13:16.271            10.329                Novosib           322.781
       245   04 Jun 2027 01:17:05.794   04 Jun 2027 01:19:18.015           132.221                Sumatra          4131.906
       246   04 Jun 2027 01:27:49.823   04 Jun 2027 01:29:46.771           116.948                Sumatra          3654.625
       247   04 Jun 2027 02:33:42.765   04 Jun 2027 02:33:58.136            15.371                Anadyr2           480.344
       248   04 Jun 2027 02:35:22.981   04 Jun 2027 02:36:50.617            87.636                Norilsk          2738.625
       249   04 Jun 2027 02:37:08.005   04 Jun 2027 02:37:37.452            29.447                Norilsk           920.219
       250   04 Jun 2027 02:38:42.233   04 Jun 2027 02:39:45.322            63.089              Murmansk1          1971.531
       251   04 Jun 2027 02:40:31.263   04 Jun 2027 02:40:54.485            23.222                Novosib           725.688
       252   04 Jun 2027 02:41:07.069   04 Jun 2027 02:41:49.164            42.095                Irkutsk          1315.469
       253   04 Jun 2027 02:46:37.852   04 Jun 2027 02:47:33.839            55.987                  Delhi          1749.594
       254   04 Jun 2027 02:53:34.107   04 Jun 2027 02:53:39.844             5.737                  Delhi           179.281
       255   04 Jun 2027 02:53:59.511   04 Jun 2027 02:54:24.851            25.340                  Delhi           791.875
       256   04 Jun 2027 03:28:09.414   04 Jun 2027 03:29:08.626            59.212            RioGallegos          1850.375
       257   04 Jun 2027 03:30:20.418   04 Jun 2027 03:30:39.695            19.277            RioGallegos           602.406
       258   04 Jun 2027 03:32:33.375   04 Jun 2027 03:33:30.218            56.843            RioGallegos          1776.344
       259   04 Jun 2027 03:36:15.677   04 Jun 2027 03:36:25.993            10.316            RioGallegos           322.375
       260   04 Jun 2027 04:17:08.655   04 Jun 2027 04:17:33.786            25.131                Irkutsk           785.344
       261   04 Jun 2027 04:18:37.937   04 Jun 2027 04:19:07.993            30.056              Murmansk1           939.250
       262   04 Jun 2027 04:19:07.993   04 Jun 2027 04:21:11.607           123.614              Murmansk2          3862.938
       263   04 Jun 2027 04:21:14.319   04 Jun 2027 04:22:05.568            51.249              Murmansk1          1601.531
       264   04 Jun 2027 04:22:06.712   04 Jun 2027 04:22:53.576            46.864              Murmansk1          1464.500
       265   04 Jun 2027 04:23:03.654   04 Jun 2027 04:23:11.214             7.560                Irkutsk           236.250
       266   04 Jun 2027 04:23:21.514   04 Jun 2027 04:23:50.171            28.657              Murmansk1           895.531
       267   04 Jun 2027 04:23:51.651   04 Jun 2027 04:25:08.828            77.177                  Delhi          2411.781
       268   04 Jun 2027 04:25:59.146   04 Jun 2027 04:26:18.332            19.186                Novosib           599.562
       269   04 Jun 2027 05:57:18.870   04 Jun 2027 05:57:58.072            39.202                Novosib          1225.063
       270   04 Jun 2027 05:58:11.620   04 Jun 2027 05:59:27.949            76.329                Novosib          2385.281
       271   04 Jun 2027 05:59:31.610   04 Jun 2027 06:02:03.949           152.339              Murmansk1          4760.594
       272   04 Jun 2027 06:03:11.126   04 Jun 2027 06:03:25.878            14.752                 Moscow           461.000
       273   04 Jun 2027 06:03:29.094   04 Jun 2027 06:04:15.768            46.674                 Moscow          1458.563
       274   04 Jun 2027 07:21:09.632   04 Jun 2027 07:21:48.668            39.036               Magadan1          1219.875
       275   04 Jun 2027 07:23:32.252   04 Jun 2027 07:24:35.233            62.981               Magadan2          1968.156
       276   04 Jun 2027 07:24:50.576   04 Jun 2027 07:25:33.526            42.950               Magadan1          1342.188
       277   04 Jun 2027 07:25:46.094   04 Jun 2027 07:26:16.498            30.404                Anadyr2           950.125
       278   04 Jun 2027 07:54:59.089   04 Jun 2027 07:59:24.351           265.262               CapeTown          8289.438
       279   04 Jun 2027 08:53:52.334   04 Jun 2027 08:55:15.285            82.951                Anadyr1          2592.219
       280   04 Jun 2027 08:55:24.433   04 Jun 2027 08:55:39.570            15.137               Magadan2           473.031
       281   04 Jun 2027 08:55:39.570   04 Jun 2027 08:56:09.576            30.006               Magadan1           937.688
       282   04 Jun 2027 08:56:17.890   04 Jun 2027 09:00:17.066           239.176                Anadyr1          7474.250
       283   04 Jun 2027 10:28:26.085   04 Jun 2027 10:29:08.847            42.762                Irkutsk          1336.312
       284   04 Jun 2027 10:29:49.363   04 Jun 2027 10:30:23.661            34.298                Irkutsk          1071.812
       285   04 Jun 2027 10:30:31.295   04 Jun 2027 10:33:51.043           199.748               Magadan1          6242.125
       286   04 Jun 2027 10:33:51.093   04 Jun 2027 10:37:03.772           192.679                Anadyr1          6021.219
       287   04 Jun 2027 10:37:33.430   04 Jun 2027 10:37:54.080            20.650              Murmansk2           645.312
       288   04 Jun 2027 10:38:18.340   04 Jun 2027 10:38:42.010            23.670              Murmansk1           739.687
       289   04 Jun 2027 11:12:46.012   04 Jun 2027 11:13:06.074            20.062            RioGallegos           626.937
       290   04 Jun 2027 11:14:01.408   04 Jun 2027 11:14:13.588            12.180            RioGallegos           380.625
       291   04 Jun 2027 11:17:21.187   04 Jun 2027 11:18:04.260            43.073            RioGallegos          1346.031
       292   04 Jun 2027 11:50:22.697   04 Jun 2027 11:52:07.516           104.819                Sumatra          3275.594
       293   04 Jun 2027 12:06:36.555   04 Jun 2027 12:11:47.286           310.731               Magadan2          9710.344
       294   04 Jun 2027 13:24:41.751   04 Jun 2027 13:26:13.815            92.064                Sumatra          2877.000
       295   04 Jun 2027 13:37:38.179   04 Jun 2027 13:38:02.878            24.699                Irkutsk           771.844
       296   04 Jun 2027 13:39:38.901   04 Jun 2027 13:42:46.258           187.357                Irkutsk          5854.906
       297   04 Jun 2027 14:29:44.688   04 Jun 2027 14:33:14.683           209.995            RioGallegos          6562.344
       298   04 Jun 2027 15:15:33.863   04 Jun 2027 15:16:18.029            44.166                Novosib          1380.187
       299   04 Jun 2027 15:19:33.780   04 Jun 2027 15:19:50.412            16.632                Norilsk           519.750
       300   04 Jun 2027 15:20:28.697   04 Jun 2027 15:22:54.272           145.575                Novosib          4549.219
       301   04 Jun 2027 16:51:42.312   04 Jun 2027 16:54:42.021           179.709                 Moscow          5615.906
       302   04 Jun 2027 16:59:45.002   04 Jun 2027 17:05:52.114           367.112                Norilsk         11472.250
       303   04 Jun 2027 18:29:27.989   04 Jun 2027 18:30:41.068            73.079                 Moscow          2283.719
       304   04 Jun 2027 18:32:27.361   04 Jun 2027 18:33:29.362            62.001              Murmansk2          1937.531
       305   04 Jun 2027 18:36:11.328   04 Jun 2027 18:37:39.067            87.739              Murmansk2          2741.844
       306   04 Jun 2027 18:42:05.213   04 Jun 2027 18:42:17.843            12.630              Murmansk2           394.688
       307   04 Jun 2027 19:41:18.154   04 Jun 2027 19:43:59.313           161.159               CapeTown          5036.219
       308   04 Jun 2027 20:12:04.463   04 Jun 2027 20:18:16.733           372.270              Murmansk2         11633.437
       309   04 Jun 2027 21:57:41.682   04 Jun 2027 21:59:27.845           106.163                Anadyr1          3317.594
       310   04 Jun 2027 21:59:31.118   04 Jun 2027 22:00:47.618            76.500                Anadyr2          2390.625
       311   04 Jun 2027 22:00:50.894   04 Jun 2027 22:00:59.882             8.988                Anadyr2           280.875
       312   04 Jun 2027 22:01:13.652   04 Jun 2027 22:01:28.387            14.735                Anadyr2           460.469
       313   04 Jun 2027 22:01:40.813   04 Jun 2027 22:04:20.475           159.662               Magadan1          4989.437
       314   04 Jun 2027 22:04:31.758   04 Jun 2027 22:04:41.054             9.296               Magadan1           290.500
       315   04 Jun 2027 22:07:16.997   04 Jun 2027 22:07:23.844             6.847               Magadan1           213.969
       316   04 Jun 2027 22:07:45.681   04 Jun 2027 22:08:02.276            16.595               Magadan1           518.594
       317   04 Jun 2027 22:08:23.596   04 Jun 2027 22:08:27.396             3.800               Magadan1           118.750
       318   04 Jun 2027 22:08:54.247   04 Jun 2027 22:09:01.751             7.504               Magadan1           234.500
       319   04 Jun 2027 22:10:50.956   04 Jun 2027 22:11:12.270            21.314               Magadan1           666.063
       320   04 Jun 2027 22:54:05.438   04 Jun 2027 22:56:29.578           144.140            RioGallegos          4504.375
       321   04 Jun 2027 23:33:32.103   04 Jun 2027 23:34:55.192            83.089                Anadyr2          2596.531
       322   04 Jun 2027 23:35:09.343   04 Jun 2027 23:36:14.930            65.587                Anadyr1          2049.594
       323   04 Jun 2027 23:36:16.398   04 Jun 2027 23:37:05.049            48.651                Norilsk          1520.344
       324   04 Jun 2027 23:37:07.229   04 Jun 2027 23:38:22.609            75.380               Magadan2          2355.625
       325   04 Jun 2027 23:40:11.739   04 Jun 2027 23:40:29.099            17.360               Magadan1           542.500
       326   04 Jun 2027 23:40:39.491   04 Jun 2027 23:41:19.320            39.829                Irkutsk          1244.656
       327   04 Jun 2027 23:41:44.373   04 Jun 2027 23:42:22.652            38.279                Irkutsk          1196.219
       328   04 Jun 2027 23:43:49.899   04 Jun 2027 23:44:04.938            15.039                Irkutsk           469.969
       329   04 Jun 2027 23:44:37.607   04 Jun 2027 23:44:57.725            20.118                Irkutsk           628.688
       330   04 Jun 2027 23:46:00.164   04 Jun 2027 23:47:16.997            76.833                Irkutsk          2401.031
       331   04 Jun 2027 23:55:48.799   04 Jun 2027 23:57:12.822            84.023                Sumatra          2625.719
       332   05 Jun 2027 00:35:15.475   05 Jun 2027 00:35:34.577            19.102            RioGallegos           596.937
       333   05 Jun 2027 00:37:01.903   05 Jun 2027 00:37:22.129            20.226            RioGallegos           632.062
       334   05 Jun 2027 01:08:51.016   05 Jun 2027 01:09:00.042             9.026                Anadyr2           282.062
       335   05 Jun 2027 01:09:20.148   05 Jun 2027 01:09:36.676            16.528                Anadyr1           516.500
       336   05 Jun 2027 01:09:36.676   05 Jun 2027 01:09:54.446            17.770                Anadyr2           555.312
       337   05 Jun 2027 01:10:30.089   05 Jun 2027 01:11:05.815            35.726                Anadyr1          1116.438
       338   05 Jun 2027 01:11:24.325   05 Jun 2027 01:13:18.227           113.902                Norilsk          3559.437
       339   05 Jun 2027 01:13:28.454   05 Jun 2027 01:15:22.782           114.328               Magadan1          3572.750
       340   05 Jun 2027 01:16:03.027   05 Jun 2027 01:16:56.275            53.248                Novosib          1664.000
       341   05 Jun 2027 01:17:51.138   05 Jun 2027 01:18:18.436            27.298                Novosib           853.062
       342   05 Jun 2027 01:21:04.893   05 Jun 2027 01:21:52.103            47.210                Novosib          1475.313
       343   05 Jun 2027 01:27:53.956   05 Jun 2027 01:28:11.340            17.384                  Delhi           543.250
       344   05 Jun 2027 01:29:11.709   05 Jun 2027 01:29:53.612            41.903                Sumatra          1309.469
       345   05 Jun 2027 01:32:11.323   05 Jun 2027 01:34:48.407           157.084                Sumatra          4908.875
       346   05 Jun 2027 02:43:01.146   05 Jun 2027 02:43:08.864             7.718                Anadyr1           241.188
       347   05 Jun 2027 02:44:48.315   05 Jun 2027 02:45:34.630            46.315                Anadyr1          1447.344
       348   05 Jun 2027 02:47:25.364   05 Jun 2027 02:48:52.230            86.866                Norilsk          2714.562
       349   05 Jun 2027 02:49:28.930   05 Jun 2027 02:50:03.137            34.207                Norilsk          1068.969
       350   05 Jun 2027 02:50:21.996   05 Jun 2027 02:51:01.943            39.947              Murmansk2          1248.344
       351   05 Jun 2027 02:51:01.943   05 Jun 2027 02:51:10.349             8.406              Murmansk1           262.687
       352   05 Jun 2027 02:51:13.661   05 Jun 2027 02:51:48.900            35.239                Novosib          1101.219
       353   05 Jun 2027 02:52:28.723   05 Jun 2027 02:53:19.351            50.628                Irkutsk          1582.125
       354   05 Jun 2027 02:58:34.542   05 Jun 2027 02:59:20.291            45.749                  Delhi          1429.656
       355   05 Jun 2027 03:40:25.976   05 Jun 2027 03:41:19.920            53.944            RioGallegos          1685.750
       356   05 Jun 2027 04:31:03.734   05 Jun 2027 04:31:55.833            52.099                Norilsk          1628.094
       357   05 Jun 2027 04:32:20.082   05 Jun 2027 04:35:37.801           197.719                Norilsk          6178.719
       358   05 Jun 2027 04:35:39.062   05 Jun 2027 04:35:46.039             6.977              Murmansk1           218.031
       359   05 Jun 2027 04:36:11.653   05 Jun 2027 04:40:59.142           287.489                  Delhi          8984.031
       360   05 Jun 2027 06:09:53.532   05 Jun 2027 06:09:57.041             3.509              Murmansk1           109.656
       361   05 Jun 2027 06:10:13.027   05 Jun 2027 06:10:29.488            16.461                Novosib           514.406
       362   05 Jun 2027 06:10:34.785   05 Jun 2027 06:10:47.321            12.536                 Moscow           391.750
       363   05 Jun 2027 06:10:49.298   05 Jun 2027 06:11:37.753            48.455                 Moscow          1514.219
       364   05 Jun 2027 06:11:47.008   05 Jun 2027 06:14:14.049           147.041              Murmansk2          4595.031
       365   05 Jun 2027 06:14:20.259   05 Jun 2027 06:16:12.332           112.073                 Moscow          3502.281
       366   05 Jun 2027 06:28:37.907   05 Jun 2027 06:31:51.690           193.783               CapeTown          6055.719
       367   05 Jun 2027 07:32:43.056   05 Jun 2027 07:33:40.600            57.544                Anadyr2          1798.250
       368   05 Jun 2027 07:33:40.600   05 Jun 2027 07:35:01.452            80.852                Anadyr1          2526.625
       369   05 Jun 2027 07:35:01.955   05 Jun 2027 07:36:20.406            78.451                Anadyr2          2451.594
       370   05 Jun 2027 07:37:34.819   05 Jun 2027 07:38:05.121            30.302                Anadyr1           946.938
       371   05 Jun 2027 08:08:08.019   05 Jun 2027 08:12:03.433           235.414               CapeTown          7356.687
       372   05 Jun 2027 09:07:56.621   05 Jun 2027 09:09:16.888            80.267                Anadyr2          2508.344
       373   05 Jun 2027 09:09:16.888   05 Jun 2027 09:10:16.098            59.210                Anadyr1          1850.312
       374   05 Jun 2027 09:10:33.580   05 Jun 2027 09:11:48.963            75.383                Anadyr1          2355.719
       375   05 Jun 2027 09:11:48.963   05 Jun 2027 09:12:44.144            55.181                Anadyr2          1724.406
       376   05 Jun 2027 09:21:30.521   05 Jun 2027 09:21:55.640            25.119                 Moscow           784.969
       377   05 Jun 2027 10:40:04.323   05 Jun 2027 10:42:39.225           154.902               Magadan1          4840.688
       378   05 Jun 2027 10:43:02.113   05 Jun 2027 10:45:50.561           168.448               Magadan1          5264.000
       379   05 Jun 2027 10:45:50.776   05 Jun 2027 10:48:40.399           169.623                Anadyr1          5300.719
       380   05 Jun 2027 10:49:01.612   05 Jun 2027 10:49:13.443            11.831                Norilsk           369.719
       381   05 Jun 2027 10:49:32.333   05 Jun 2027 10:50:08.943            36.610                Novosib          1144.062
       382   05 Jun 2027 10:53:23.132   05 Jun 2027 10:53:27.370             4.238              Murmansk2           132.438
       383   05 Jun 2027 11:24:35.378   05 Jun 2027 11:25:34.340            58.962            RioGallegos          1842.562
       384   05 Jun 2027 11:29:57.939   05 Jun 2027 11:30:39.724            41.785            RioGallegos          1305.781
       385   05 Jun 2027 12:03:18.827   05 Jun 2027 12:03:44.748            25.921                Sumatra           810.031
       386   05 Jun 2027 12:12:46.284   05 Jun 2027 12:14:49.206           122.922                Irkutsk          3841.313
       387   05 Jun 2027 12:17:15.586   05 Jun 2027 12:18:11.331            55.745                Novosib          1742.031
       388   05 Jun 2027 12:20:18.939   05 Jun 2027 12:22:44.480           145.541               Magadan2          4548.156
       389   05 Jun 2027 13:00:52.612   05 Jun 2027 13:00:52.727             0.115            RioGallegos             3.594
       390   05 Jun 2027 13:03:19.652   05 Jun 2027 13:05:42.371           142.719            RioGallegos          4459.969
       391   05 Jun 2027 13:41:10.492   05 Jun 2027 13:43:13.665           123.173                Sumatra          3849.156
       392   05 Jun 2027 13:51:32.544   05 Jun 2027 13:54:52.085           199.541                Irkutsk          6235.656
       393   05 Jun 2027 15:19:54.161   05 Jun 2027 15:21:00.762            66.601                  Delhi          2081.281
       394   05 Jun 2027 15:28:04.416   05 Jun 2027 15:29:26.958            82.542                Novosib          2579.437
       395   05 Jun 2027 15:31:58.581   05 Jun 2027 15:32:58.065            59.484                Norilsk          1858.875
       396   05 Jun 2027 15:33:34.420   05 Jun 2027 15:34:50.571            76.151                Novosib          2379.719
       397   05 Jun 2027 15:35:28.469   05 Jun 2027 15:36:47.667            79.198                Norilsk          2474.938
       398   05 Jun 2027 15:37:15.309   05 Jun 2027 15:38:06.835            51.526                Novosib          1610.187
       399   05 Jun 2027 17:03:45.954   05 Jun 2027 17:03:49.049             3.095                 Moscow            96.719
       400   05 Jun 2027 17:04:56.488   05 Jun 2027 17:07:02.624           126.136                 Moscow          3941.750
       401   05 Jun 2027 17:08:38.299   05 Jun 2027 17:09:29.273            50.974              Murmansk1          1592.937
       402   05 Jun 2027 17:12:35.189   05 Jun 2027 17:16:52.924           257.735                Norilsk          8054.219
       403   05 Jun 2027 18:42:02.974   05 Jun 2027 18:44:16.117           133.143                 Moscow          4160.719
       404   05 Jun 2027 18:44:48.137   05 Jun 2027 18:45:17.456            29.319              Murmansk1           916.219
       405   05 Jun 2027 18:46:31.401   05 Jun 2027 18:48:09.228            97.827              Murmansk1          3057.094
       406   05 Jun 2027 19:06:13.172   05 Jun 2027 19:06:38.708            25.536                Anadyr1           798.000
       407   05 Jun 2027 19:53:28.925   05 Jun 2027 19:55:48.341           139.416               CapeTown          4356.750
       408   05 Jun 2027 20:24:48.652   05 Jun 2027 20:31:38.119           409.467              Murmansk1         12795.844
       409   05 Jun 2027 22:09:43.436   05 Jun 2027 22:12:43.586           180.150                Anadyr1          5629.688
       410   05 Jun 2027 22:13:10.331   05 Jun 2027 22:15:04.783           114.452               Magadan2          3576.625
       411   05 Jun 2027 22:16:03.183   05 Jun 2027 22:16:56.142            52.959               Magadan1          1654.969
       412   05 Jun 2027 22:16:59.441   05 Jun 2027 22:17:07.825             8.384               Magadan2           262.000
       413   05 Jun 2027 22:21:04.511   05 Jun 2027 22:21:17.028            12.517               Magadan1           391.156
       414   05 Jun 2027 23:05:20.544   05 Jun 2027 23:08:12.461           171.917            RioGallegos          5372.406
       415   05 Jun 2027 23:10:50.433   05 Jun 2027 23:11:31.681            41.248            RioGallegos          1289.000
       416   05 Jun 2027 23:45:31.601   05 Jun 2027 23:47:05.071            93.470                Anadyr2          2920.938
       417   05 Jun 2027 23:47:36.401   05 Jun 2027 23:47:51.228            14.827                Norilsk           463.344
       418   05 Jun 2027 23:47:57.953   05 Jun 2027 23:48:38.437            40.484               Magadan1          1265.125
       419   05 Jun 2027 23:48:51.358   05 Jun 2027 23:49:06.871            15.513                Norilsk           484.781
       420   05 Jun 2027 23:49:26.734   05 Jun 2027 23:49:55.576            28.842               Magadan1           901.312
       421   05 Jun 2027 23:50:42.335   05 Jun 2027 23:51:02.446            20.111                Norilsk           628.469
       422   05 Jun 2027 23:51:37.199   05 Jun 2027 23:52:31.527            54.328               Magadan2          1697.750
       423   05 Jun 2027 23:53:30.880   05 Jun 2027 23:53:36.379             5.499               Magadan1           171.844
       424   05 Jun 2027 23:54:23.658   05 Jun 2027 23:54:56.415            32.757                Irkutsk          1023.656
       425   05 Jun 2027 23:56:18.237   05 Jun 2027 23:56:58.298            40.061                Irkutsk          1251.906
       426   05 Jun 2027 23:57:53.007   05 Jun 2027 23:58:41.549            48.542                Irkutsk          1516.937
       427   06 Jun 2027 00:06:58.312   06 Jun 2027 00:08:46.517           108.205                Sumatra          3381.406
       428   06 Jun 2027 00:12:07.539   06 Jun 2027 00:12:54.443            46.904                Sumatra          1465.750
       429   06 Jun 2027 00:43:49.291   06 Jun 2027 00:44:15.061            25.770            RioGallegos           805.313
       430   06 Jun 2027 00:47:50.184   06 Jun 2027 00:47:50.712             0.528            RioGallegos            16.500
       431   06 Jun 2027 00:49:03.191   06 Jun 2027 00:49:10.250             7.059            RioGallegos           220.594
       432   06 Jun 2027 01:20:43.807   06 Jun 2027 01:22:29.672           105.865                Anadyr1          3308.281
       433   06 Jun 2027 01:22:54.447   06 Jun 2027 01:23:14.960            20.513                Anadyr1           641.031
       434   06 Jun 2027 01:23:26.467   06 Jun 2027 01:25:05.484            99.017                Norilsk          3094.281
       435   06 Jun 2027 01:25:20.301   06 Jun 2027 01:25:38.265            17.964               Magadan1           561.375
       436   06 Jun 2027 01:27:20.737   06 Jun 2027 01:29:19.500           118.763                Irkutsk          3711.344
       437   06 Jun 2027 01:30:39.695   06 Jun 2027 01:30:45.183             5.488                Novosib           171.500
       438   06 Jun 2027 01:32:19.518   06 Jun 2027 01:32:59.644            40.126                Novosib          1253.938
       439   06 Jun 2027 01:36:28.927   06 Jun 2027 01:36:55.676            26.749                Irkutsk           835.906
       440   06 Jun 2027 01:37:17.136   06 Jun 2027 01:39:27.052           129.916                  Delhi          4059.875
       441   06 Jun 2027 01:49:57.852   06 Jun 2027 01:51:12.217            74.365                Sumatra          2323.906
       442   06 Jun 2027 02:24:49.742   06 Jun 2027 02:25:09.759            20.017            RioGallegos           625.531
       443   06 Jun 2027 02:27:02.225   06 Jun 2027 02:27:23.937            21.712            RioGallegos           678.500
       444   06 Jun 2027 02:56:49.529   06 Jun 2027 02:57:22.782            33.253                Anadyr2          1039.156
       445   06 Jun 2027 02:59:27.670   06 Jun 2027 03:00:31.087            63.417                Norilsk          1981.781
       446   06 Jun 2027 03:03:28.968   06 Jun 2027 03:03:40.605            11.637               Magadan2           363.656
       447   06 Jun 2027 03:03:47.218   06 Jun 2027 03:03:59.065            11.847               Magadan1           370.219
       448   06 Jun 2027 03:04:02.872   06 Jun 2027 03:04:52.670            49.798              Murmansk2          1556.188
       449   06 Jun 2027 03:04:59.785   06 Jun 2027 03:05:08.048             8.263               Magadan2           258.219
       450   06 Jun 2027 03:05:18.374   06 Jun 2027 03:05:53.848            35.474                Norilsk          1108.563
       451   06 Jun 2027 03:06:24.134   06 Jun 2027 03:07:59.868            95.734                Norilsk          2991.687
       452   06 Jun 2027 03:08:15.235   06 Jun 2027 03:11:53.463           218.228                Irkutsk          6819.625
       453   06 Jun 2027 03:13:28.653   06 Jun 2027 03:13:47.506            18.853                  Delhi           589.156
       454   06 Jun 2027 03:52:47.067   06 Jun 2027 03:53:35.200            48.133            RioGallegos          1504.156
       455   06 Jun 2027 03:56:09.205   06 Jun 2027 03:56:16.770             7.565            RioGallegos           236.406
       456   06 Jun 2027 03:56:56.227   06 Jun 2027 03:57:48.774            52.547            RioGallegos          1642.094
       457   06 Jun 2027 04:42:52.147   06 Jun 2027 04:43:34.317            42.170                Norilsk          1317.812
       458   06 Jun 2027 04:43:38.603   06 Jun 2027 04:44:04.062            25.459                Novosib           795.594
       459   06 Jun 2027 04:44:10.767   06 Jun 2027 04:45:59.464           108.697                Novosib          3396.781
       460   06 Jun 2027 04:46:02.643   06 Jun 2027 04:47:05.727            63.084                 Moscow          1971.375
       461   06 Jun 2027 04:47:11.123   06 Jun 2027 04:47:22.187            11.064              Murmansk2           345.750
       462   06 Jun 2027 04:47:25.107   06 Jun 2027 04:47:32.256             7.149                Norilsk           223.406
       463   06 Jun 2027 04:47:58.195   06 Jun 2027 04:49:03.470            65.275                Novosib          2039.844
       464   06 Jun 2027 04:49:04.872   06 Jun 2027 04:53:26.850           261.978                  Delhi          8186.813
       465   06 Jun 2027 06:21:38.368   06 Jun 2027 06:22:03.874            25.506                Novosib           797.063
       466   06 Jun 2027 06:22:06.588   06 Jun 2027 06:26:22.361           255.773              Murmansk2          7992.906
       467   06 Jun 2027 06:40:41.508   06 Jun 2027 06:43:51.913           190.405               CapeTown          5950.156
       468   06 Jun 2027 07:44:13.070   06 Jun 2027 07:44:28.957            15.887               Magadan1           496.469
       469   06 Jun 2027 07:44:35.063   06 Jun 2027 07:45:15.026            39.963                Anadyr1          1248.844
       470   06 Jun 2027 07:45:26.787   06 Jun 2027 07:46:24.531            57.744                Anadyr1          1804.500
       471   06 Jun 2027 07:46:39.066   06 Jun 2027 07:47:28.124            49.058               Magadan1          1533.062
       472   06 Jun 2027 07:48:10.428   06 Jun 2027 07:48:31.274            20.846               Magadan2           651.438
       473   06 Jun 2027 07:49:38.426   06 Jun 2027 07:50:13.560            35.134                Anadyr1          1097.938
       474   06 Jun 2027 08:22:14.878   06 Jun 2027 08:24:45.360           150.482               CapeTown          4702.563
       475   06 Jun 2027 09:19:49.539   06 Jun 2027 09:22:16.267           146.728                Anadyr2          4585.250
       476   06 Jun 2027 09:22:24.875   06 Jun 2027 09:23:41.194            76.319                Anadyr2          2384.969
       477   06 Jun 2027 09:24:57.348   06 Jun 2027 09:25:35.178            37.830               Magadan2          1182.187
       478   06 Jun 2027 10:52:01.290   06 Jun 2027 10:52:18.365            17.075               Magadan1           533.594
       479   06 Jun 2027 10:55:33.326   06 Jun 2027 10:58:48.935           195.609               Magadan2          6112.781
       480   06 Jun 2027 10:58:48.935   06 Jun 2027 11:00:27.904            98.969               Magadan1          3092.781
       481   06 Jun 2027 11:00:56.365   06 Jun 2027 11:01:16.726            20.361                Novosib           636.281
       482   06 Jun 2027 11:01:17.686   06 Jun 2027 11:01:32.204            14.518               Magadan2           453.687
