uniorb/output/strategy_1/Drop/Drop_KinoSat_111709.txt

KinoSat_111709
-------------------------
    Access    *     Start Time (UTCG)     *     Stop Time (UTCG)  *   Duration (s)        *       Station  *  Data (Mbytes)
         1   01 Jun 2027 04:10:50.835   01 Jun 2027 04:11:36.993            46.158                Norilsk          1442.437
         2   01 Jun 2027 04:11:49.777   01 Jun 2027 04:13:04.118            74.341              Murmansk1          2323.156
         3   01 Jun 2027 04:13:04.118   01 Jun 2027 04:13:53.393            49.275              Murmansk2          1539.844
         4   01 Jun 2027 04:13:58.769   01 Jun 2027 04:14:27.528            28.759                Norilsk           898.719
         5   01 Jun 2027 04:14:36.799   01 Jun 2027 04:16:43.470           126.671                Novosib          3958.469
         6   01 Jun 2027 04:18:17.812   01 Jun 2027 04:18:48.136            30.324                 Moscow           947.625
         7   01 Jun 2027 04:42:46.135   01 Jun 2027 04:43:02.607            16.472               CapeTown           514.750
         8   01 Jun 2027 04:43:31.738   01 Jun 2027 04:43:43.570            11.832               CapeTown           369.750
         9   01 Jun 2027 05:48:24.567   01 Jun 2027 05:48:52.112            27.545                Norilsk           860.781
        10   01 Jun 2027 05:49:10.108   01 Jun 2027 05:52:51.113           221.005              Murmansk2          6906.406
        11   01 Jun 2027 06:07:35.870   01 Jun 2027 06:08:10.795            34.925               CapeTown          1091.406
        12   01 Jun 2027 06:10:26.614   01 Jun 2027 06:12:09.159           102.545               CapeTown          3204.531
        13   01 Jun 2027 07:11:45.918   01 Jun 2027 07:13:13.970            88.052                Anadyr2          2751.625
        14   01 Jun 2027 07:13:13.970   01 Jun 2027 07:14:02.138            48.168                Anadyr1          1505.250
        15   01 Jun 2027 08:47:35.088   01 Jun 2027 08:47:41.186             6.098                Anadyr2           190.562
        16   01 Jun 2027 08:48:12.554   01 Jun 2027 08:49:57.313           104.759                Anadyr2          3273.719
        17   01 Jun 2027 08:51:14.257   01 Jun 2027 08:52:38.575            84.318               Magadan2          2634.937
        18   01 Jun 2027 10:22:57.023   01 Jun 2027 10:23:09.762            12.739               Magadan2           398.094
        19   01 Jun 2027 10:23:34.345   01 Jun 2027 10:26:33.636           179.291               Magadan1          5602.844
        20   01 Jun 2027 10:26:33.636   01 Jun 2027 10:27:56.304            82.668               Magadan2          2583.375
        21   01 Jun 2027 11:59:36.949   01 Jun 2027 12:04:19.858           282.909                Irkutsk          8840.906
        22   01 Jun 2027 12:04:20.750   01 Jun 2027 12:05:49.457            88.707                Novosib          2772.094
        23   01 Jun 2027 12:07:15.977   01 Jun 2027 12:09:18.998           123.021                Norilsk          3844.406
        24   01 Jun 2027 12:09:22.444   01 Jun 2027 12:11:50.337           147.893              Murmansk2          4621.656
        25   01 Jun 2027 12:47:45.442   01 Jun 2027 12:51:09.483           204.041            RioGallegos          6376.281
        26   01 Jun 2027 13:22:27.026   01 Jun 2027 13:25:13.291           166.265                Sumatra          5195.781
        27   01 Jun 2027 13:32:37.816   01 Jun 2027 13:34:54.615           136.799                  Delhi          4274.969
        28   01 Jun 2027 13:35:55.083   01 Jun 2027 13:39:04.987           189.904                Irkutsk          5934.500
        29   01 Jun 2027 13:39:21.476   01 Jun 2027 13:41:46.108           144.632                Novosib          4519.750
        30   01 Jun 2027 15:06:27.741   01 Jun 2027 15:09:11.513           163.772                  Delhi          5117.875
        31   01 Jun 2027 15:13:05.361   01 Jun 2027 15:15:03.179           117.818                Novosib          3681.813
        32   01 Jun 2027 15:21:03.974   01 Jun 2027 15:21:14.541            10.567                Norilsk           330.219
        33   01 Jun 2027 15:22:48.001   01 Jun 2027 15:22:55.250             7.249              Murmansk1           226.531
        34   01 Jun 2027 16:47:10.591   01 Jun 2027 16:47:42.792            32.201                 Moscow          1006.281
        35   01 Jun 2027 16:48:21.252   01 Jun 2027 16:51:33.042           191.790                 Moscow          5993.438
        36   01 Jun 2027 16:52:46.385   01 Jun 2027 16:53:21.394            35.009                 Moscow          1094.031
        37   01 Jun 2027 16:53:59.628   01 Jun 2027 16:55:15.543            75.915                 Moscow          2372.344
        38   01 Jun 2027 16:58:22.674   01 Jun 2027 16:58:53.720            31.046              Murmansk1           970.188
        39   01 Jun 2027 17:04:58.157   01 Jun 2027 17:05:21.168            23.011                Anadyr2           719.094
        40   01 Jun 2027 17:05:45.852   01 Jun 2027 17:06:09.207            23.355                Anadyr2           729.844
        41   01 Jun 2027 17:06:46.339   01 Jun 2027 17:07:08.417            22.078                Anadyr2           689.937
        42   01 Jun 2027 17:07:45.961   01 Jun 2027 17:08:00.822            14.861                Anadyr2           464.406
        43   01 Jun 2027 18:02:57.211   01 Jun 2027 18:03:31.732            34.521               CapeTown          1078.781
        44   01 Jun 2027 18:04:29.904   01 Jun 2027 18:05:30.363            60.459               CapeTown          1889.344
        45   01 Jun 2027 18:07:52.051   01 Jun 2027 18:08:10.359            18.308               CapeTown           572.125
        46   01 Jun 2027 18:08:12.660   01 Jun 2027 18:08:45.645            32.985               CapeTown          1030.781
        47   01 Jun 2027 18:22:41.542   01 Jun 2027 18:23:15.513            33.971                 Moscow          1061.594
        48   01 Jun 2027 18:26:39.968   01 Jun 2027 18:27:17.474            37.506                 Moscow          1172.063
        49   01 Jun 2027 18:28:55.056   01 Jun 2027 18:29:37.704            42.648              Murmansk1          1332.750
        50   01 Jun 2027 18:30:12.060   01 Jun 2027 18:30:32.657            20.597              Murmansk1           643.656
        51   01 Jun 2027 18:30:54.941   01 Jun 2027 18:31:02.289             7.348              Murmansk1           229.625
        52   01 Jun 2027 18:32:30.507   01 Jun 2027 18:32:50.979            20.472              Murmansk2           639.750
        53   01 Jun 2027 18:34:47.551   01 Jun 2027 18:34:48.088             0.537              Murmansk2            16.781
        54   01 Jun 2027 18:41:15.302   01 Jun 2027 18:41:22.456             7.154                Anadyr1           223.562
        55   01 Jun 2027 18:41:27.664   01 Jun 2027 18:42:00.114            32.450                Anadyr1          1014.063
        56   01 Jun 2027 18:42:55.411   01 Jun 2027 18:43:11.426            16.015                Anadyr1           500.469
        57   01 Jun 2027 18:43:37.878   01 Jun 2027 18:43:56.652            18.774                Anadyr1           586.687
        58   01 Jun 2027 18:44:40.731   01 Jun 2027 18:44:58.005            17.274                Anadyr2           539.812
        59   01 Jun 2027 18:45:20.805   01 Jun 2027 18:45:47.822            27.017                Anadyr2           844.281
        60   01 Jun 2027 18:47:25.958   01 Jun 2027 18:47:53.909            27.951                Anadyr1           873.469
        61   01 Jun 2027 19:36:52.716   01 Jun 2027 19:37:57.761            65.045               CapeTown          2032.656
        62   01 Jun 2027 19:40:01.231   01 Jun 2027 19:42:31.267           150.036               CapeTown          4688.625
        63   01 Jun 2027 20:05:45.426   01 Jun 2027 20:09:43.281           237.855              Murmansk1          7432.969
        64   01 Jun 2027 20:23:25.219   01 Jun 2027 20:23:31.664             6.445               Magadan2           201.406
        65   01 Jun 2027 20:24:08.912   01 Jun 2027 20:24:34.468            25.556               Magadan1           798.625
        66   01 Jun 2027 21:48:26.606   01 Jun 2027 21:53:32.883           306.277                Anadyr2          9571.156
        67   01 Jun 2027 21:53:42.742   01 Jun 2027 21:54:55.645            72.903               Magadan1          2278.219
        68   01 Jun 2027 21:55:08.139   01 Jun 2027 21:55:26.762            18.623               Magadan2           581.969
        69   01 Jun 2027 21:59:02.777   01 Jun 2027 21:59:42.327            39.550               Magadan1          1235.937
        70   01 Jun 2027 22:00:05.365   01 Jun 2027 22:00:19.164            13.799               Magadan1           431.219
        71   01 Jun 2027 22:00:38.014   01 Jun 2027 22:00:49.159            11.145               Magadan1           348.281
        72   01 Jun 2027 22:01:13.506   01 Jun 2027 22:01:19.675             6.169               Magadan2           192.781
        73   01 Jun 2027 22:01:37.107   01 Jun 2027 22:02:20.523            43.416               Magadan1          1356.750
        74   01 Jun 2027 22:44:28.670   01 Jun 2027 22:45:04.293            35.623            RioGallegos          1113.219
        75   01 Jun 2027 22:46:59.724   01 Jun 2027 22:47:24.582            24.858            RioGallegos           776.812
        76   01 Jun 2027 22:49:03.214   01 Jun 2027 22:49:26.210            22.996            RioGallegos           718.625
        77   01 Jun 2027 22:51:27.304   01 Jun 2027 22:51:44.578            17.274            RioGallegos           539.812
        78   01 Jun 2027 23:24:07.204   01 Jun 2027 23:26:14.464           127.260                Anadyr1          3976.875
        79   01 Jun 2027 23:26:15.800   01 Jun 2027 23:27:55.197            99.397                Norilsk          3106.156
        80   01 Jun 2027 23:27:58.609   01 Jun 2027 23:28:12.746            14.137               Magadan1           441.781
        81   01 Jun 2027 23:28:22.967   01 Jun 2027 23:28:59.411            36.444               Magadan2          1138.875
        82   01 Jun 2027 23:31:02.535   01 Jun 2027 23:31:06.755             4.220                Irkutsk           131.875
        83   01 Jun 2027 23:32:01.372   01 Jun 2027 23:32:27.558            26.186                Irkutsk           818.313
        84   01 Jun 2027 23:32:57.369   01 Jun 2027 23:33:37.285            39.916                Irkutsk          1247.375
        85   01 Jun 2027 23:35:19.543   01 Jun 2027 23:35:45.837            26.294                Novosib           821.688
        86   01 Jun 2027 23:38:46.655   01 Jun 2027 23:38:59.292            12.637                Irkutsk           394.906
        87   01 Jun 2027 23:46:38.870   01 Jun 2027 23:46:59.020            20.150                Sumatra           629.688
        88   01 Jun 2027 23:47:45.323   01 Jun 2027 23:48:17.459            32.136                Sumatra          1004.250
        89   01 Jun 2027 23:50:55.269   01 Jun 2027 23:50:57.354             2.085                Sumatra            65.156
        90   01 Jun 2027 23:50:58.128   01 Jun 2027 23:51:33.426            35.298                Sumatra          1103.062
        91   01 Jun 2027 23:54:29.945   01 Jun 2027 23:56:01.723            91.778                Sumatra          2868.062
        92   02 Jun 2027 00:28:09.513   02 Jun 2027 00:28:31.979            22.466            RioGallegos           702.062
        93   02 Jun 2027 00:58:59.952   02 Jun 2027 01:00:28.388            88.436                Anadyr2          2763.625
        94   02 Jun 2027 01:01:15.583   02 Jun 2027 01:01:23.099             7.516                Anadyr2           234.875
        95   02 Jun 2027 01:01:34.165   02 Jun 2027 01:01:37.633             3.468                Anadyr2           108.375
        96   02 Jun 2027 01:02:12.057   02 Jun 2027 01:03:55.771           103.714                Norilsk          3241.063
        97   02 Jun 2027 01:04:05.899   02 Jun 2027 01:04:37.353            31.454               Magadan2           982.938
        98   02 Jun 2027 01:06:04.319   02 Jun 2027 01:07:41.995            97.676                Irkutsk          3052.375
        99   02 Jun 2027 01:09:20.080   02 Jun 2027 01:09:37.758            17.678                Irkutsk           552.438
       100   02 Jun 2027 01:11:40.301   02 Jun 2027 01:11:51.354            11.053                Irkutsk           345.406
       101   02 Jun 2027 01:12:44.440   02 Jun 2027 01:12:59.927            15.487                Novosib           483.969
       102   02 Jun 2027 01:13:30.670   02 Jun 2027 01:13:51.133            20.463                Irkutsk           639.469
       103   02 Jun 2027 01:15:09.172   02 Jun 2027 01:15:40.865            31.693                Irkutsk           990.406
       104   02 Jun 2027 01:18:02.922   02 Jun 2027 01:18:10.705             7.783                Novosib           243.219
       105   02 Jun 2027 01:19:34.768   02 Jun 2027 01:19:57.053            22.285                  Delhi           696.406
       106   02 Jun 2027 01:21:48.869   02 Jun 2027 01:23:34.242           105.373                Sumatra          3292.906
       107   02 Jun 2027 01:28:18.754   02 Jun 2027 01:30:36.132           137.378                Sumatra          4293.063
       108   02 Jun 2027 02:38:12.490   02 Jun 2027 02:39:49.002            96.512                Norilsk          3016.000
       109   02 Jun 2027 02:40:36.729   02 Jun 2027 02:40:52.141            15.412              Murmansk1           481.625
       110   02 Jun 2027 02:41:25.957   02 Jun 2027 02:42:19.768            53.811              Murmansk2          1681.594
       111   02 Jun 2027 02:42:28.506   02 Jun 2027 02:42:40.113            11.607                Novosib           362.719
       112   02 Jun 2027 02:43:08.603   02 Jun 2027 02:43:24.863            16.260                Irkutsk           508.125
       113   02 Jun 2027 02:45:30.066   02 Jun 2027 02:45:59.051            28.985                Novosib           905.781
       114   02 Jun 2027 02:46:13.256   02 Jun 2027 02:46:29.162            15.906                Irkutsk           497.063
       115   02 Jun 2027 02:48:47.609   02 Jun 2027 02:48:52.525             4.916                Irkutsk           153.625
       116   02 Jun 2027 02:49:28.987   02 Jun 2027 02:49:37.948             8.961                Irkutsk           280.031
       117   02 Jun 2027 02:49:45.031   02 Jun 2027 02:51:18.884            93.853                  Delhi          2932.906
       118   02 Jun 2027 02:59:12.453   02 Jun 2027 02:59:38.248            25.795                  Delhi           806.094
       119   02 Jun 2027 04:22:44.116   02 Jun 2027 04:23:05.865            21.749              Murmansk1           679.656
       120   02 Jun 2027 04:23:32.029   02 Jun 2027 04:24:44.135            72.106                Norilsk          2253.313
       121   02 Jun 2027 04:25:02.048   02 Jun 2027 04:26:22.829            80.781                 Moscow          2524.406
       122   02 Jun 2027 04:26:24.487   02 Jun 2027 04:28:17.783           113.296                Novosib          3540.500
       123   02 Jun 2027 04:28:54.757   02 Jun 2027 04:31:55.583           180.826                 Moscow          5650.813
       124   02 Jun 2027 04:44:22.006   02 Jun 2027 04:47:26.363           184.357               CapeTown          5761.156
       125   02 Jun 2027 04:49:04.184   02 Jun 2027 04:49:35.025            30.841               CapeTown           963.781
       126   02 Jun 2027 04:50:21.309   02 Jun 2027 04:51:31.218            69.909               CapeTown          2184.656
       127   02 Jun 2027 04:54:39.881   02 Jun 2027 04:54:57.609            17.728               CapeTown           554.000
       128   02 Jun 2027 06:00:02.877   02 Jun 2027 06:00:13.056            10.179                Norilsk           318.094
       129   02 Jun 2027 06:00:35.293   02 Jun 2027 06:01:54.212            78.919              Murmansk2          2466.219
       130   02 Jun 2027 06:01:54.212   02 Jun 2027 06:04:12.820           138.608              Murmansk1          4331.500
       131   02 Jun 2027 06:06:08.474   02 Jun 2027 06:07:02.018            53.544                 Moscow          1673.250
       132   02 Jun 2027 07:23:44.580   02 Jun 2027 07:26:14.528           149.948                Anadyr2          4685.875
       133   02 Jun 2027 07:26:14.528   02 Jun 2027 07:26:51.768            37.240                Anadyr1          1163.750
       134   02 Jun 2027 08:59:34.092   02 Jun 2027 09:00:23.403            49.311               Magadan2          1540.969
       135   02 Jun 2027 09:00:28.142   02 Jun 2027 09:04:35.487           247.345                Anadyr2          7729.531
       136   02 Jun 2027 10:35:25.097   02 Jun 2027 10:36:02.049            36.952               Magadan2          1154.750
       137   02 Jun 2027 10:36:02.049   02 Jun 2027 10:36:11.609             9.560               Magadan1           298.750
       138   02 Jun 2027 10:36:11.609   02 Jun 2027 10:39:53.782           222.173               Magadan2          6942.906
       139   02 Jun 2027 12:04:41.047   02 Jun 2027 12:05:30.824            49.777                Irkutsk          1555.531
       140   02 Jun 2027 12:53:09.795   02 Jun 2027 12:55:25.905           136.110            RioGallegos          4253.438
       141   02 Jun 2027 13:01:50.868   02 Jun 2027 13:02:55.767            64.899            RioGallegos          2028.094
       142   02 Jun 2027 13:27:31.413   02 Jun 2027 13:28:49.705            78.292                Sumatra          2446.625
       143   02 Jun 2027 13:30:54.783   02 Jun 2027 13:32:20.554            85.771                Sumatra          2680.344
       144   02 Jun 2027 13:43:06.702   02 Jun 2027 13:47:35.154           268.452                Irkutsk          8389.125
       145   02 Jun 2027 15:14:59.102   02 Jun 2027 15:17:20.464           141.362                  Delhi          4417.562
       146   02 Jun 2027 15:21:43.641   02 Jun 2027 15:25:06.576           202.935                Novosib          6341.719
       147   02 Jun 2027 17:10:20.218   02 Jun 2027 17:10:55.787            35.569              Murmansk1          1111.531
       148   02 Jun 2027 17:17:09.753   02 Jun 2027 17:17:21.394            11.641                Anadyr2           363.781
       149   02 Jun 2027 17:18:09.027   02 Jun 2027 17:18:31.288            22.261                Anadyr1           695.656
       150   02 Jun 2027 17:19:33.275   02 Jun 2027 17:19:45.758            12.483                Anadyr2           390.094
       151   02 Jun 2027 17:20:28.432   02 Jun 2027 17:20:35.474             7.042                Anadyr1           220.063
       152   02 Jun 2027 17:20:44.026   02 Jun 2027 17:20:53.035             9.009                Anadyr1           281.531
       153   02 Jun 2027 18:14:53.159   02 Jun 2027 18:15:07.951            14.792               CapeTown           462.250
       154   02 Jun 2027 18:15:50.816   02 Jun 2027 18:16:35.014            44.198               CapeTown          1381.188
       155   02 Jun 2027 18:16:56.232   02 Jun 2027 18:17:35.676            39.444               CapeTown          1232.625
       156   02 Jun 2027 18:20:13.046   02 Jun 2027 18:20:45.484            32.438               CapeTown          1013.688
       157   02 Jun 2027 18:35:54.211   02 Jun 2027 18:39:14.010           199.799                 Moscow          6243.719
       158   02 Jun 2027 18:42:27.774   02 Jun 2027 18:42:47.138            19.364              Murmansk1           605.125
       159   02 Jun 2027 18:55:44.613   02 Jun 2027 18:55:52.776             8.163               Magadan2           255.094
       160   02 Jun 2027 18:55:55.818   02 Jun 2027 18:56:46.587            50.769               Magadan2          1586.531
       161   02 Jun 2027 18:59:51.140   02 Jun 2027 18:59:51.670             0.530                Anadyr2            16.562
       162   02 Jun 2027 19:46:04.493   02 Jun 2027 19:46:10.624             6.131               CapeTown           191.594
       163   02 Jun 2027 19:48:41.057   02 Jun 2027 19:50:28.421           107.364               CapeTown          3355.125
       164   02 Jun 2027 19:51:01.266   02 Jun 2027 19:51:21.524            20.258               CapeTown           633.062
       165   02 Jun 2027 20:19:13.746   02 Jun 2027 20:21:00.368           106.622              Murmansk1          3331.938
       166   02 Jun 2027 20:27:02.828   02 Jun 2027 20:28:07.971            65.143               Magadan2          2035.719
       167   02 Jun 2027 20:28:11.608   02 Jun 2027 20:28:27.317            15.709               Magadan2           490.906
       168   02 Jun 2027 20:28:54.720   02 Jun 2027 20:29:32.369            37.649               Magadan2          1176.531
       169   02 Jun 2027 20:30:47.548   02 Jun 2027 20:30:54.231             6.683               Magadan2           208.844
       170   02 Jun 2027 20:31:34.240   02 Jun 2027 20:31:36.133             1.893                Anadyr2            59.156
       171   02 Jun 2027 20:31:44.610   02 Jun 2027 20:32:13.802            29.192               Magadan2           912.250
       172   02 Jun 2027 20:32:51.056   02 Jun 2027 20:33:00.518             9.462               Magadan1           295.687
       173   02 Jun 2027 20:33:08.057   02 Jun 2027 20:33:15.037             6.980               Magadan1           218.125
       174   02 Jun 2027 20:33:17.128   02 Jun 2027 20:33:49.450            32.322               Magadan2          1010.063
       175   02 Jun 2027 20:35:43.272   02 Jun 2027 20:36:06.882            23.610               Magadan2           737.813
       176   02 Jun 2027 20:37:26.437   02 Jun 2027 20:37:43.107            16.670               Magadan2           520.937
       177   02 Jun 2027 20:38:36.095   02 Jun 2027 20:38:37.389             1.294               Magadan2            40.438
       178   02 Jun 2027 22:00:27.653   02 Jun 2027 22:02:25.043           117.390                Anadyr1          3668.438
       179   02 Jun 2027 22:02:29.975   02 Jun 2027 22:04:10.851           100.876                Anadyr2          3152.375
       180   02 Jun 2027 22:04:46.289   02 Jun 2027 22:06:25.246            98.957               Magadan1          3092.406
       181   02 Jun 2027 22:06:31.470   02 Jun 2027 22:06:55.190            23.720               Magadan1           741.250
       182   02 Jun 2027 22:07:07.309   02 Jun 2027 22:07:30.386            23.077                Norilsk           721.156
       183   02 Jun 2027 22:08:47.716   02 Jun 2027 22:08:50.016             2.300               Magadan2            71.875
       184   02 Jun 2027 22:09:03.450   02 Jun 2027 22:09:13.333             9.883               Magadan2           308.844
       185   02 Jun 2027 22:09:42.264   02 Jun 2027 22:10:00.516            18.252               Magadan1           570.375
       186   02 Jun 2027 22:10:22.144   02 Jun 2027 22:10:26.778             4.634               Magadan1           144.812
       187   02 Jun 2027 22:10:41.401   02 Jun 2027 22:11:48.200            66.799               Magadan1          2087.469
       188   02 Jun 2027 22:56:38.793   02 Jun 2027 22:56:54.830            16.037            RioGallegos           501.156
       189   02 Jun 2027 22:57:51.583   02 Jun 2027 22:58:28.322            36.739            RioGallegos          1148.094
       190   02 Jun 2027 22:59:39.570   02 Jun 2027 23:00:20.346            40.776            RioGallegos          1274.250
       191   02 Jun 2027 23:01:59.876   02 Jun 2027 23:02:56.161            56.285            RioGallegos          1758.906
       192   02 Jun 2027 23:36:04.399   02 Jun 2027 23:36:59.504            55.105                Anadyr2          1722.031
       193   02 Jun 2027 23:37:12.643   02 Jun 2027 23:37:55.068            42.425                Anadyr2          1325.781
       194   02 Jun 2027 23:38:33.933   02 Jun 2027 23:39:57.269            83.336                Norilsk          2604.250
       195   02 Jun 2027 23:39:57.965   02 Jun 2027 23:40:14.836            16.871               Magadan2           527.219
       196   02 Jun 2027 23:40:24.669   02 Jun 2027 23:40:36.009            11.340               Magadan2           354.375
       197   02 Jun 2027 23:41:39.284   02 Jun 2027 23:42:16.808            37.524               Magadan1          1172.625
       198   02 Jun 2027 23:42:27.676   02 Jun 2027 23:42:47.550            19.874                Irkutsk           621.063
       199   02 Jun 2027 23:43:16.640   02 Jun 2027 23:43:49.169            32.529                Irkutsk          1016.531
       200   02 Jun 2027 23:45:36.400   02 Jun 2027 23:45:47.632            11.232                Novosib           351.000
       201   02 Jun 2027 23:47:28.265   02 Jun 2027 23:48:19.880            51.615                Novosib          1612.969
       202   02 Jun 2027 23:56:53.883   02 Jun 2027 23:58:42.430           108.547                Sumatra          3392.094
       203   03 Jun 2027 00:34:58.694   03 Jun 2027 00:35:08.211             9.517            RioGallegos           297.406
       204   03 Jun 2027 00:35:54.952   03 Jun 2027 00:36:09.697            14.745            RioGallegos           460.781
       205   03 Jun 2027 00:37:51.105   03 Jun 2027 00:38:04.343            13.238            RioGallegos           413.688
       206   03 Jun 2027 00:39:46.248   03 Jun 2027 00:40:07.275            21.027            RioGallegos           657.094
       207   03 Jun 2027 00:40:19.169   03 Jun 2027 00:40:23.737             4.568            RioGallegos           142.750
       208   03 Jun 2027 01:10:48.214   03 Jun 2027 01:11:49.129            60.915                Anadyr1          1903.594
       209   03 Jun 2027 01:11:49.129   03 Jun 2027 01:12:29.730            40.601                Anadyr2          1268.781
       210   03 Jun 2027 01:13:02.669   03 Jun 2027 01:13:25.328            22.659                Anadyr1           708.094
       211   03 Jun 2027 01:14:14.403   03 Jun 2027 01:15:57.635           103.232                Norilsk          3226.000
       212   03 Jun 2027 01:16:04.833   03 Jun 2027 01:17:05.778            60.945               Magadan1          1904.531
       213   03 Jun 2027 01:18:07.256   03 Jun 2027 01:18:22.214            14.958                Irkutsk           467.437
       214   03 Jun 2027 01:19:08.297   03 Jun 2027 01:20:03.295            54.998                Irkutsk          1718.687
       215   03 Jun 2027 01:24:06.737   03 Jun 2027 01:24:54.607            47.870                Novosib          1495.937
       216   03 Jun 2027 01:30:06.702   03 Jun 2027 01:31:18.089            71.387                  Delhi          2230.844
       217   03 Jun 2027 01:33:50.194   03 Jun 2027 01:33:58.136             7.942                Sumatra           248.188
       218   03 Jun 2027 01:36:51.194   03 Jun 2027 01:38:34.543           103.349                Sumatra          3229.656
       219   03 Jun 2027 02:10:05.828   03 Jun 2027 02:10:09.423             3.595            RioGallegos           112.344
       220   03 Jun 2027 02:13:44.840   03 Jun 2027 02:14:00.542            15.702            RioGallegos           490.688
       221   03 Jun 2027 02:44:20.236   03 Jun 2027 02:44:44.625            24.389                Anadyr2           762.156
       222   03 Jun 2027 02:46:48.425   03 Jun 2027 02:47:03.751            15.326                Anadyr2           478.938
       223   03 Jun 2027 02:47:23.298   03 Jun 2027 02:47:37.630            14.332                Anadyr1           447.875
       224   03 Jun 2027 02:49:09.873   03 Jun 2027 02:49:32.353            22.480                Anadyr2           702.500
       225   03 Jun 2027 02:50:14.249   03 Jun 2027 02:51:49.019            94.770                Norilsk          2961.562
       226   03 Jun 2027 02:52:34.161   03 Jun 2027 02:52:52.604            18.443              Murmansk2           576.344
       227   03 Jun 2027 02:53:31.992   03 Jun 2027 02:54:09.282            37.290              Murmansk1          1165.313
       228   03 Jun 2027 02:54:43.801   03 Jun 2027 02:55:44.429            60.628                Irkutsk          1894.625
       229   03 Jun 2027 02:58:19.278   03 Jun 2027 02:58:45.276            25.998                Irkutsk           812.438
       230   03 Jun 2027 03:00:14.780   03 Jun 2027 03:00:18.443             3.663              Murmansk1           114.469
       231   03 Jun 2027 03:00:18.443   03 Jun 2027 03:01:12.072            53.629              Murmansk2          1675.906
       232   03 Jun 2027 03:01:28.026   03 Jun 2027 03:01:44.615            16.589                Norilsk           518.406
       233   03 Jun 2027 03:02:08.294   03 Jun 2027 03:03:56.503           108.209                  Delhi          3381.531
       234   03 Jun 2027 04:34:54.442   03 Jun 2027 04:36:00.165            65.723              Murmansk2          2053.844
       235   03 Jun 2027 04:36:00.222   03 Jun 2027 04:36:06.565             6.343              Murmansk2           198.219
       236   03 Jun 2027 04:36:20.158   03 Jun 2027 04:37:36.997            76.839              Murmansk2          2401.219
       237   03 Jun 2027 04:37:37.435   03 Jun 2027 04:39:06.600            89.165                 Moscow          2786.406
       238   03 Jun 2027 04:39:27.042   03 Jun 2027 04:39:38.653            11.611                 Moscow           362.844
       239   03 Jun 2027 04:39:52.386   03 Jun 2027 04:40:28.005            35.619              Murmansk1          1113.094
       240   03 Jun 2027 04:40:59.222   03 Jun 2027 04:44:10.434           191.212                 Moscow          5975.375
       241   03 Jun 2027 04:56:02.221   03 Jun 2027 04:59:19.106           196.885               CapeTown          6152.656
       242   03 Jun 2027 05:53:28.865   03 Jun 2027 05:54:08.846            39.981                Anadyr2          1249.406
       243   03 Jun 2027 05:59:56.429   03 Jun 2027 06:01:50.375           113.946                Anadyr1          3560.812
       244   03 Jun 2027 06:02:32.789   03 Jun 2027 06:02:48.873            16.084                Anadyr2           502.625
       245   03 Jun 2027 06:10:54.536   03 Jun 2027 06:13:57.416           182.880              Murmansk2          5715.000
       246   03 Jun 2027 06:14:41.244   03 Jun 2027 06:15:25.979            44.735              Murmansk2          1397.969
       247   03 Jun 2027 06:32:16.956   03 Jun 2027 06:33:21.341            64.385               CapeTown          2012.031
       248   03 Jun 2027 06:36:34.800   03 Jun 2027 06:37:31.215            56.415               CapeTown          1762.969
       249   03 Jun 2027 07:35:11.589   03 Jun 2027 07:38:29.325           197.736                Anadyr2          6179.250
       250   03 Jun 2027 09:10:45.262   03 Jun 2027 09:11:29.412            44.150               Magadan2          1379.688
       251   03 Jun 2027 09:11:55.494   03 Jun 2027 09:12:57.382            61.888                Anadyr2          1934.000
       252   03 Jun 2027 09:13:08.696   03 Jun 2027 09:16:29.196           200.500                Anadyr2          6265.625
       253   03 Jun 2027 10:44:46.025   03 Jun 2027 10:47:57.685           191.660               Magadan1          5989.375
       254   03 Jun 2027 10:48:21.614   03 Jun 2027 10:49:07.270            45.656               Magadan2          1426.750
       255   03 Jun 2027 10:49:33.669   03 Jun 2027 10:51:41.628           127.959               Magadan2          3998.719
       256   03 Jun 2027 10:54:18.960   03 Jun 2027 10:54:19.421             0.461              Murmansk2            14.406
       257   03 Jun 2027 10:55:16.754   03 Jun 2027 10:55:21.119             4.365                Norilsk           136.406
       258   03 Jun 2027 10:56:16.929   03 Jun 2027 10:56:26.878             9.949              Murmansk2           310.906
       259   03 Jun 2027 10:58:09.826   03 Jun 2027 10:58:09.966             0.140              Murmansk2             4.375
       260   03 Jun 2027 10:58:20.223   03 Jun 2027 10:58:44.463            24.240              Murmansk1           757.500
       261   03 Jun 2027 11:00:32.588   03 Jun 2027 11:00:34.837             2.249              Murmansk2            70.281
       262   03 Jun 2027 11:27:07.258   03 Jun 2027 11:27:57.266            50.008            RioGallegos          1562.750
       263   03 Jun 2027 11:29:14.930   03 Jun 2027 11:30:22.205            67.275            RioGallegos          2102.344
       264   03 Jun 2027 12:02:08.243   03 Jun 2027 12:02:48.654            40.411                Sumatra          1262.844
       265   03 Jun 2027 12:07:56.157   03 Jun 2027 12:08:19.902            23.745                Sumatra           742.031
       266   03 Jun 2027 12:15:50.079   03 Jun 2027 12:17:28.469            98.390                Irkutsk          3074.688
       267   03 Jun 2027 12:17:57.031   03 Jun 2027 12:18:01.383             4.352                Novosib           136.000
       268   03 Jun 2027 12:18:44.323   03 Jun 2027 12:19:26.068            41.745                Irkutsk          1304.531
       269   03 Jun 2027 12:20:27.634   03 Jun 2027 12:21:34.938            67.304                Norilsk          2103.250
       270   03 Jun 2027 12:29:16.800   03 Jun 2027 12:29:34.070            17.270                Norilsk           539.687
       271   03 Jun 2027 12:32:52.970   03 Jun 2027 12:33:17.300            24.330              Murmansk2           760.313
       272   03 Jun 2027 13:05:52.899   03 Jun 2027 13:07:58.255           125.356            RioGallegos          3917.375
       273   03 Jun 2027 13:40:21.020   03 Jun 2027 13:42:46.102           145.082                Sumatra          4533.812
       274   03 Jun 2027 13:53:35.627   03 Jun 2027 13:54:56.249            80.622                Novosib          2519.437
       275   03 Jun 2027 13:56:13.928   03 Jun 2027 13:59:54.943           221.015                Irkutsk          6906.719
       276   03 Jun 2027 15:26:23.591   03 Jun 2027 15:29:41.126           197.535                  Delhi          6172.969
       277   03 Jun 2027 15:34:42.948   03 Jun 2027 15:36:50.321           127.373                Novosib          3980.406
       278   03 Jun 2027 15:36:58.617   03 Jun 2027 15:37:41.344            42.727                Norilsk          1335.219
       279   03 Jun 2027 16:48:40.618   03 Jun 2027 16:48:53.603            12.985               CapeTown           405.781
       280   03 Jun 2027 16:52:53.655   03 Jun 2027 16:52:58.254             4.599               CapeTown           143.719
       281   03 Jun 2027 17:07:21.098   03 Jun 2027 17:08:30.791            69.693                 Moscow          2177.906
       282   03 Jun 2027 17:10:01.501   03 Jun 2027 17:11:42.681           101.180                 Moscow          3161.875
       283   03 Jun 2027 17:16:24.324   03 Jun 2027 17:17:12.899            48.575                 Moscow          1517.969
       284   03 Jun 2027 17:25:18.510   03 Jun 2027 17:26:27.280            68.770                Anadyr1          2149.063
       285   03 Jun 2027 17:28:19.811   03 Jun 2027 17:28:45.134            25.323                Anadyr1           791.344
       286   03 Jun 2027 18:20:01.736   03 Jun 2027 18:22:21.537           139.801               CapeTown          4368.781
       287   03 Jun 2027 18:49:29.620   03 Jun 2027 18:49:54.717            25.097              Murmansk2           784.281
       288   03 Jun 2027 18:49:57.549   03 Jun 2027 18:53:56.357           238.808              Murmansk1          7462.750
       289   03 Jun 2027 19:04:45.604   03 Jun 2027 19:05:23.111            37.507               Magadan2          1172.094
       290   03 Jun 2027 19:06:11.013   03 Jun 2027 19:06:45.378            34.365               Magadan2          1073.906
       291   03 Jun 2027 19:57:58.317   03 Jun 2027 19:58:16.543            18.226               CapeTown           569.563
       292   03 Jun 2027 20:00:23.999   03 Jun 2027 20:01:41.222            77.223               CapeTown          2413.219
       293   03 Jun 2027 20:36:34.267   03 Jun 2027 20:38:12.977            98.710                Anadyr2          3084.688
       294   03 Jun 2027 20:38:17.551   03 Jun 2027 20:39:49.221            91.670                Anadyr1          2864.687
       295   03 Jun 2027 20:39:54.036   03 Jun 2027 20:41:56.446           122.410               Magadan1          3825.312
       296   03 Jun 2027 20:43:42.147   03 Jun 2027 20:43:48.788             6.641               Magadan2           207.531
       297   03 Jun 2027 22:12:28.435   03 Jun 2027 22:16:10.725           222.290                Anadyr2          6946.563
       298   03 Jun 2027 22:16:11.633   03 Jun 2027 22:18:19.182           127.549                Norilsk          3985.906
       299   03 Jun 2027 22:18:27.871   03 Jun 2027 22:19:17.325            49.454               Magadan1          1545.438
       300   03 Jun 2027 22:20:39.432   03 Jun 2027 22:21:02.712            23.280               Magadan1           727.500
       301   03 Jun 2027 22:21:14.519   03 Jun 2027 22:21:54.841            40.322                Irkutsk          1260.062
       302   03 Jun 2027 22:22:50.212   03 Jun 2027 22:23:22.515            32.303                Irkutsk          1009.469
       303   03 Jun 2027 23:06:43.406   03 Jun 2027 23:09:51.344           187.938            RioGallegos          5873.063
       304   03 Jun 2027 23:48:00.758   03 Jun 2027 23:48:42.400            41.642                Anadyr1          1301.313
       305   03 Jun 2027 23:49:53.087   03 Jun 2027 23:50:32.373            39.286                Anadyr1          1227.688
       306   03 Jun 2027 23:50:42.820   03 Jun 2027 23:51:59.414            76.594                Norilsk          2393.563
       307   03 Jun 2027 23:53:22.316   03 Jun 2027 23:53:59.948            37.632               Magadan1          1176.000
       308   03 Jun 2027 23:54:23.076   03 Jun 2027 23:55:16.593            53.517                Irkutsk          1672.406
       309   03 Jun 2027 23:55:45.965   03 Jun 2027 23:56:59.425            73.460                Novosib          2295.625
       310   03 Jun 2027 23:58:11.516   03 Jun 2027 23:58:40.919            29.403                Novosib           918.844
       311   03 Jun 2027 23:59:36.946   04 Jun 2027 00:00:32.640            55.694                Novosib          1740.437
       312   04 Jun 2027 00:08:04.781   04 Jun 2027 00:08:41.842            37.061                Sumatra          1158.156
       313   04 Jun 2027 00:14:51.143   04 Jun 2027 00:15:19.090            27.947                Sumatra           873.344
       314   04 Jun 2027 00:16:06.332   04 Jun 2027 00:16:36.720            30.388                Sumatra           949.625
       315   04 Jun 2027 00:42:12.515   04 Jun 2027 00:42:37.920            25.405            RioGallegos           793.906
       316   04 Jun 2027 00:43:23.053   04 Jun 2027 00:44:12.092            49.039            RioGallegos          1532.469
       317   04 Jun 2027 01:22:35.166   04 Jun 2027 01:23:19.573            44.407                Anadyr2          1387.719
       318   04 Jun 2027 01:23:49.602   04 Jun 2027 01:24:31.071            41.469                Anadyr2          1295.906
       319   04 Jun 2027 01:24:46.183   04 Jun 2027 01:25:10.690            24.507                Anadyr1           765.844
       320   04 Jun 2027 01:26:16.771   04 Jun 2027 01:28:22.335           125.564                Norilsk          3923.875
       321   04 Jun 2027 01:30:10.975   04 Jun 2027 01:32:03.689           112.714                Irkutsk          3522.312
       322   04 Jun 2027 01:32:12.619   04 Jun 2027 01:32:57.395            44.776                Novosib          1399.250
       323   04 Jun 2027 01:37:47.097   04 Jun 2027 01:38:32.678            45.581                  Delhi          1424.406
       324   04 Jun 2027 01:44:58.821   04 Jun 2027 01:45:13.308            14.487                  Delhi           452.719
       325   04 Jun 2027 01:47:01.276   04 Jun 2027 01:48:39.419            98.143                Sumatra          3066.969
       326   04 Jun 2027 02:18:46.904   04 Jun 2027 02:19:15.723            28.819            RioGallegos           900.594
       327   04 Jun 2027 02:21:28.558   04 Jun 2027 02:22:07.488            38.930            RioGallegos          1216.563
       328   04 Jun 2027 02:24:35.638   04 Jun 2027 02:25:04.257            28.619            RioGallegos           894.344
       329   04 Jun 2027 02:27:39.558   04 Jun 2027 02:27:39.978             0.420            RioGallegos            13.125
       330   04 Jun 2027 02:56:01.257   04 Jun 2027 02:56:07.974             6.717                Anadyr1           209.906
       331   04 Jun 2027 02:57:27.855   04 Jun 2027 02:58:38.916            71.061                Anadyr1          2220.656
       332   04 Jun 2027 03:07:51.113   04 Jun 2027 03:10:19.452           148.339              Murmansk1          4635.594
       333   04 Jun 2027 03:10:19.452   04 Jun 2027 03:10:25.322             5.870              Murmansk2           183.437
       334   04 Jun 2027 03:10:44.077   04 Jun 2027 03:11:41.289            57.212                Norilsk          1787.875
       335   04 Jun 2027 03:11:50.536   04 Jun 2027 03:12:14.908            24.372                Novosib           761.625
       336   04 Jun 2027 03:12:15.285   04 Jun 2027 03:13:18.665            63.380              Murmansk1          1980.625
       337   04 Jun 2027 03:13:57.649   04 Jun 2027 03:14:19.235            21.586                  Delhi           674.562
       338   04 Jun 2027 03:15:34.548   04 Jun 2027 03:17:54.786           140.238                  Delhi          4382.437
       339   04 Jun 2027 04:47:09.452   04 Jun 2027 04:49:12.329           122.877              Murmansk1          3839.906
       340   04 Jun 2027 04:49:27.890   04 Jun 2027 04:50:33.203            65.313              Murmansk1          2041.031
       341   04 Jun 2027 04:50:33.203   04 Jun 2027 04:52:03.527            90.324              Murmansk2          2822.625
       342   04 Jun 2027 04:53:02.026   04 Jun 2027 04:56:21.826           199.800                 Moscow          6243.750
       343   04 Jun 2027 05:07:48.002   04 Jun 2027 05:15:06.080           438.078               CapeTown         13689.938
       344   04 Jun 2027 05:16:07.218   04 Jun 2027 05:17:14.739            67.521               CapeTown          2110.031
       345   04 Jun 2027 05:18:07.880   04 Jun 2027 05:19:39.149            91.269               CapeTown          2852.156
       346   04 Jun 2027 06:11:16.041   04 Jun 2027 06:14:26.959           190.918                Anadyr2          5966.187
       347   04 Jun 2027 06:23:23.470   04 Jun 2027 06:24:17.835            54.365                Norilsk          1698.906
       348   04 Jun 2027 06:24:23.059   04 Jun 2027 06:24:44.627            21.568                 Moscow           674.000
       349   04 Jun 2027 06:25:23.541   04 Jun 2027 06:25:32.711             9.170                 Moscow           286.562
       350   04 Jun 2027 06:25:46.198   04 Jun 2027 06:27:24.845            98.647              Murmansk2          3082.719
       351   04 Jun 2027 06:28:12.547   04 Jun 2027 06:29:04.090            51.543              Murmansk2          1610.719
       352   04 Jun 2027 07:47:06.629   04 Jun 2027 07:50:27.808           201.179               Magadan1          6286.844
       353   04 Jun 2027 07:51:17.332   04 Jun 2027 07:51:54.258            36.926                Anadyr2          1153.937
       354   04 Jun 2027 09:20:10.044   04 Jun 2027 09:20:42.844            32.800               Magadan2          1025.000
       355   04 Jun 2027 09:21:05.069   04 Jun 2027 09:22:23.443            78.374               Magadan2          2449.187
       356   04 Jun 2027 09:22:25.917   04 Jun 2027 09:23:21.277            55.360                Irkutsk          1730.000
       357   04 Jun 2027 09:23:27.084   04 Jun 2027 09:24:54.859            87.775               Magadan1          2742.969
       358   04 Jun 2027 09:25:07.198   04 Jun 2027 09:28:20.362           193.164                Anadyr1          6036.375
       359   04 Jun 2027 10:57:44.354   04 Jun 2027 10:58:07.645            23.291                Irkutsk           727.844
       360   04 Jun 2027 10:58:08.846   04 Jun 2027 10:58:11.047             2.201                Norilsk            68.781
       361   04 Jun 2027 10:58:17.439   04 Jun 2027 10:58:21.022             3.583                Novosib           111.969
       362   04 Jun 2027 10:58:45.710   04 Jun 2027 10:59:16.699            30.989                Norilsk           968.406
       363   04 Jun 2027 10:59:31.061   04 Jun 2027 10:59:53.899            22.838                Norilsk           713.687
       364   04 Jun 2027 11:00:07.248   04 Jun 2027 11:00:18.253            11.005                Irkutsk           343.906
       365   04 Jun 2027 11:00:20.959   04 Jun 2027 11:00:43.473            22.514                Norilsk           703.562
       366   04 Jun 2027 11:01:12.034   04 Jun 2027 11:01:20.218             8.184                Novosib           255.750
       367   04 Jun 2027 11:01:25.405   04 Jun 2027 11:01:35.390             9.985                Irkutsk           312.031
       368   04 Jun 2027 11:01:42.529   04 Jun 2027 11:01:56.619            14.090                Norilsk           440.313
       369   04 Jun 2027 11:02:04.386   04 Jun 2027 11:02:22.561            18.175                Novosib           567.969
       370   04 Jun 2027 11:02:25.317   04 Jun 2027 11:04:11.912           106.595                Irkutsk          3331.094
       371   04 Jun 2027 11:04:23.311   04 Jun 2027 11:04:36.017            12.706                Norilsk           397.063
       372   04 Jun 2027 11:05:37.121   04 Jun 2027 11:05:42.943             5.822              Murmansk1           181.937
       373   04 Jun 2027 11:07:27.793   04 Jun 2027 11:07:31.363             3.570              Murmansk2           111.562
       374   04 Jun 2027 11:08:47.996   04 Jun 2027 11:09:04.824            16.828              Murmansk2           525.875
       375   04 Jun 2027 11:39:14.741   04 Jun 2027 11:39:57.251            42.510            RioGallegos          1328.438
       376   04 Jun 2027 11:40:16.543   04 Jun 2027 11:41:08.746            52.203            RioGallegos          1631.344
       377   04 Jun 2027 12:14:02.767   04 Jun 2027 12:15:29.337            86.570                Sumatra          2705.312
       378   04 Jun 2027 12:28:05.285   04 Jun 2027 12:29:29.323            84.038                Irkutsk          2626.188
       379   04 Jun 2027 12:30:03.864   04 Jun 2027 12:30:30.238            26.374                Novosib           824.188
       380   04 Jun 2027 12:32:32.968   04 Jun 2027 12:34:23.478           110.510                Norilsk          3453.438
       381   04 Jun 2027 13:18:46.594   04 Jun 2027 13:19:55.208            68.614            RioGallegos          2144.188
       382   04 Jun 2027 13:23:11.189   04 Jun 2027 13:23:15.880             4.691            RioGallegos           146.594
       383   04 Jun 2027 13:25:47.114   04 Jun 2027 13:26:10.815            23.701            RioGallegos           740.656
       384   04 Jun 2027 13:54:01.397   04 Jun 2027 13:57:34.940           213.543                Sumatra          6673.219
       385   04 Jun 2027 14:05:54.956   04 Jun 2027 14:06:20.517            25.561                Novosib           798.781
       386   04 Jun 2027 14:08:06.905   04 Jun 2027 14:10:15.273           128.368                Novosib          4011.500
       387   04 Jun 2027 14:11:07.615   04 Jun 2027 14:12:19.354            71.739                Irkutsk          2241.844
       388   04 Jun 2027 15:42:39.468   04 Jun 2027 15:43:39.292            59.824                 Moscow          1869.500
       389   04 Jun 2027 15:44:27.581   04 Jun 2027 15:44:53.520            25.939                 Moscow           810.594
       390   04 Jun 2027 15:45:14.262   04 Jun 2027 15:45:55.378            41.116                 Moscow          1284.875
       391   04 Jun 2027 15:46:03.260   04 Jun 2027 15:47:08.392            65.132              Murmansk2          2035.375
       392   04 Jun 2027 15:49:37.961   04 Jun 2027 15:50:48.234            70.273                Norilsk          2196.031
       393   04 Jun 2027 15:52:12.250   04 Jun 2027 15:52:26.655            14.405                Norilsk           450.156
       394   04 Jun 2027 15:53:22.237   04 Jun 2027 15:54:14.296            52.059                Norilsk          1626.844
       395   04 Jun 2027 15:56:59.970   04 Jun 2027 15:57:10.339            10.369                Norilsk           324.031
       396   04 Jun 2027 16:57:30.306   04 Jun 2027 17:00:24.451           174.145               CapeTown          5442.031
       397   04 Jun 2027 17:19:43.643   04 Jun 2027 17:19:49.362             5.719                 Moscow           178.719
       398   04 Jun 2027 17:20:38.679   04 Jun 2027 17:21:31.108            52.429                 Moscow          1638.406
       399   04 Jun 2027 17:22:58.040   04 Jun 2027 17:23:17.872            19.832              Murmansk1           619.750
       400   04 Jun 2027 17:25:23.889   04 Jun 2027 17:26:52.736            88.847              Murmansk1          2776.469
       401   04 Jun 2027 17:37:11.229   04 Jun 2027 17:37:50.516            39.287                Anadyr1          1227.719
       402   04 Jun 2027 17:40:10.663   04 Jun 2027 17:40:19.002             8.339                Anadyr1           260.594
       403   04 Jun 2027 17:41:18.008   04 Jun 2027 17:41:41.085            23.077                Anadyr2           721.156
       404   04 Jun 2027 18:32:05.046   04 Jun 2027 18:34:12.352           127.306               CapeTown          3978.312
       405   04 Jun 2027 19:02:04.486   04 Jun 2027 19:06:26.670           262.184              Murmansk2          8193.250
       406   04 Jun 2027 19:16:17.504   04 Jun 2027 19:17:06.709            49.205               Magadan1          1537.656
       407   04 Jun 2027 19:17:35.508   04 Jun 2027 19:18:36.812            61.304               Magadan1          1915.750
       408   04 Jun 2027 20:12:43.335   04 Jun 2027 20:13:34.737            51.402               CapeTown          1606.313
       409   04 Jun 2027 20:48:36.073   04 Jun 2027 20:51:47.040           190.967                Anadyr2          5967.719
       410   04 Jun 2027 20:51:52.979   04 Jun 2027 20:52:35.696            42.717                Anadyr2          1334.906
       411   04 Jun 2027 20:52:47.916   04 Jun 2027 20:53:47.076            59.160               Magadan2          1848.750
       412   04 Jun 2027 20:55:11.381   04 Jun 2027 20:55:48.812            37.431               Magadan2          1169.719
       413   04 Jun 2027 21:02:44.874   04 Jun 2027 21:02:50.942             6.068               Magadan2           189.625
       414   04 Jun 2027 21:02:52.288   04 Jun 2027 21:03:03.501            11.213               Magadan2           350.406
       415   04 Jun 2027 22:24:28.888   04 Jun 2027 22:28:10.146           221.258                Anadyr2          6914.313
       416   04 Jun 2027 22:28:13.542   04 Jun 2027 22:29:52.717            99.175                Norilsk          3099.219
       417   04 Jun 2027 22:30:01.582   04 Jun 2027 22:31:59.088           117.506               Magadan2          3672.062
       418   04 Jun 2027 22:32:20.204   04 Jun 2027 22:33:07.427            47.223                Irkutsk          1475.719
       419   04 Jun 2027 22:34:23.595   04 Jun 2027 22:35:03.085            39.490                Irkutsk          1234.062
       420   04 Jun 2027 22:37:43.272   04 Jun 2027 22:38:16.577            33.305                Irkutsk          1040.781
       421   04 Jun 2027 22:49:04.816   04 Jun 2027 22:49:43.302            38.486                Sumatra          1202.688
       422   04 Jun 2027 22:51:27.452   04 Jun 2027 22:52:13.031            45.579                Sumatra          1424.344
       423   04 Jun 2027 23:27:41.080   04 Jun 2027 23:28:01.031            19.951            RioGallegos           623.469
       424   04 Jun 2027 23:59:56.186   05 Jun 2027 00:00:30.236            34.050                Anadyr2          1064.063
       425   05 Jun 2027 00:00:37.526   05 Jun 2027 00:02:46.461           128.935                Anadyr1          4029.219
       426   05 Jun 2027 00:02:54.529   05 Jun 2027 00:03:16.075            21.546               Magadan2           673.312
       427   05 Jun 2027 00:03:25.562   05 Jun 2027 00:04:01.602            36.040                Norilsk          1126.250
       428   05 Jun 2027 00:04:29.000   05 Jun 2027 00:04:40.807            11.807               Magadan1           368.969
       429   05 Jun 2027 00:05:21.540   05 Jun 2027 00:05:28.368             6.828               Magadan2           213.375
       430   05 Jun 2027 00:06:20.028   05 Jun 2027 00:07:26.017            65.989                Irkutsk          2062.156
       431   05 Jun 2027 00:09:05.464   05 Jun 2027 00:09:31.897            26.433                Novosib           826.031
       432   05 Jun 2027 00:09:47.387   05 Jun 2027 00:10:27.545            40.158                Novosib          1254.937
       433   05 Jun 2027 00:11:42.563   05 Jun 2027 00:11:47.016             4.453                Novosib           139.156
       434   05 Jun 2027 00:12:19.984   05 Jun 2027 00:12:54.515            34.531                Novosib          1079.094
       435   05 Jun 2027 00:20:02.178   05 Jun 2027 00:20:52.276            50.098                Sumatra          1565.563
       436   05 Jun 2027 00:21:11.044   05 Jun 2027 00:22:18.418            67.374                Sumatra          2105.438
       437   05 Jun 2027 00:28:40.347   05 Jun 2027 00:28:51.400            11.053                Sumatra           345.406
       438   05 Jun 2027 00:29:36.832   05 Jun 2027 00:29:38.422             1.590                Sumatra            49.687
       439   05 Jun 2027 00:57:23.044   05 Jun 2027 00:58:08.424            45.380            RioGallegos          1418.125
       440   05 Jun 2027 01:04:18.159   05 Jun 2027 01:04:45.491            27.332            RioGallegos           854.125
       441   05 Jun 2027 01:34:20.853   05 Jun 2027 01:34:34.090            13.237                Anadyr2           413.656
       442   05 Jun 2027 01:35:14.480   05 Jun 2027 01:35:58.814            44.334                Anadyr2          1385.437
       443   05 Jun 2027 01:36:28.589   05 Jun 2027 01:36:58.212            29.623                Anadyr1           925.719
       444   05 Jun 2027 01:38:19.119   05 Jun 2027 01:40:00.915           101.796                Norilsk          3181.125
       445   05 Jun 2027 01:41:12.576   05 Jun 2027 01:41:21.011             8.435               Magadan2           263.594
       446   05 Jun 2027 01:41:21.011   05 Jun 2027 01:41:56.244            35.233               Magadan1          1101.031
       447   05 Jun 2027 01:41:58.326   05 Jun 2027 01:43:13.425            75.099              Murmansk2          2346.844
       448   05 Jun 2027 01:43:17.422   05 Jun 2027 01:44:05.018            47.596                Irkutsk          1487.375
       449   05 Jun 2027 01:46:33.947   05 Jun 2027 01:47:23.306            49.359                Irkutsk          1542.469
       450   05 Jun 2027 01:50:28.338   05 Jun 2027 01:51:30.779            62.441                  Delhi          1951.281
       451   05 Jun 2027 02:01:18.735   05 Jun 2027 02:01:51.264            32.529                  Delhi          1016.531
       452   05 Jun 2027 02:30:59.245   05 Jun 2027 02:32:02.905            63.660            RioGallegos          1989.375
       453   05 Jun 2027 02:32:45.947   05 Jun 2027 02:33:42.636            56.689            RioGallegos          1771.531
       454   05 Jun 2027 02:34:22.282   05 Jun 2027 02:35:21.396            59.114            RioGallegos          1847.313
       455   05 Jun 2027 03:20:50.765   05 Jun 2027 03:21:28.082            37.317                Novosib          1166.156
       456   05 Jun 2027 03:21:29.112   05 Jun 2027 03:22:38.788            69.676                 Moscow          2177.375
       457   05 Jun 2027 03:22:45.070   05 Jun 2027 03:23:53.714            68.644                Novosib          2145.125
       458   05 Jun 2027 03:23:56.648   05 Jun 2027 03:24:39.669            43.021              Murmansk2          1344.406
       459   05 Jun 2027 03:24:39.953   05 Jun 2027 03:25:17.645            37.692                Irkutsk          1177.875
       460   05 Jun 2027 03:25:21.388   05 Jun 2027 03:25:44.339            22.951                Norilsk           717.219
       461   05 Jun 2027 03:26:19.883   05 Jun 2027 03:26:34.561            14.678                  Delhi           458.688
       462   05 Jun 2027 03:27:05.529   05 Jun 2027 03:29:01.182           115.653                  Delhi          3614.156
       463   05 Jun 2027 04:59:19.318   05 Jun 2027 04:59:57.047            37.729              Murmansk2          1179.031
       464   05 Jun 2027 05:00:04.442   05 Jun 2027 05:00:55.082            50.640                Norilsk          1582.500
       465   05 Jun 2027 05:01:04.117   05 Jun 2027 05:02:01.104            56.987              Murmansk1          1780.844
       466   05 Jun 2027 05:02:22.306   05 Jun 2027 05:04:55.547           153.241              Murmansk2          4788.781
       467   05 Jun 2027 05:05:09.691   05 Jun 2027 05:05:15.711             6.020                 Moscow           188.125
       468   05 Jun 2027 05:06:24.877   05 Jun 2027 05:06:30.592             5.715                 Moscow           178.594
       469   05 Jun 2027 05:08:09.722   05 Jun 2027 05:08:29.941            20.219                 Moscow           631.844
       470   05 Jun 2027 05:19:39.005   05 Jun 2027 05:23:19.673           220.668               CapeTown          6895.875
       471   05 Jun 2027 06:23:23.016   05 Jun 2027 06:24:25.787            62.771                Anadyr2          1961.594
       472   05 Jun 2027 06:24:56.827   05 Jun 2027 06:25:52.154            55.327                Anadyr2          1728.969
       473   05 Jun 2027 06:26:18.936   05 Jun 2027 06:27:07.031            48.095                Anadyr2          1502.969
       474   05 Jun 2027 06:35:05.337   05 Jun 2027 06:36:06.677            61.340                Norilsk          1916.875
       475   05 Jun 2027 06:36:38.056   05 Jun 2027 06:36:38.574             0.518              Murmansk2            16.188
       476   05 Jun 2027 06:36:47.393   05 Jun 2027 06:37:33.408            46.015                 Moscow          1437.969
       477   05 Jun 2027 06:37:48.281   05 Jun 2027 06:37:55.411             7.130                 Moscow           222.813
       478   05 Jun 2027 06:38:50.392   05 Jun 2027 06:39:11.670            21.278                 Moscow           664.938
       479   05 Jun 2027 06:39:58.851   05 Jun 2027 06:40:19.941            21.090                 Moscow           659.063
       480   05 Jun 2027 06:57:31.312   05 Jun 2027 06:57:37.834             6.522               CapeTown           203.812
       481   05 Jun 2027 07:00:30.101   05 Jun 2027 07:02:18.751           108.650               CapeTown          3395.312
       482   05 Jun 2027 07:57:45.683   05 Jun 2027 07:57:51.151             5.468                Anadyr1           170.875
