uniorb/output/strategy_1/Drop/Drop_KinoSat_111110.txt

KinoSat_111110
-------------------------
    Access    *     Start Time (UTCG)     *     Stop Time (UTCG)  *   Duration (s)        *       Station  *  Data (Mbytes)
         1   01 Jun 2027 04:12:46.222   01 Jun 2027 04:13:05.682            19.460               Magadan2           608.125
         2   01 Jun 2027 04:13:07.901   01 Jun 2027 04:13:31.568            23.667               Magadan1           739.594
         3   01 Jun 2027 04:14:53.444   01 Jun 2027 04:15:45.680            52.236               Magadan2          1632.375
         4   01 Jun 2027 04:15:45.680   01 Jun 2027 04:16:12.013            26.333               Magadan1           822.906
         5   01 Jun 2027 04:16:53.893   01 Jun 2027 04:16:55.923             2.030                Anadyr1            63.437
         6   01 Jun 2027 05:49:56.971   01 Jun 2027 05:54:00.169           243.198                Anadyr1          7599.938
         7   01 Jun 2027 07:23:04.474   01 Jun 2027 07:23:17.047            12.573               Magadan2           392.906
         8   01 Jun 2027 07:23:17.047   01 Jun 2027 07:23:25.167             8.120               Magadan1           253.750
         9   01 Jun 2027 07:23:37.553   01 Jun 2027 07:24:06.043            28.490               Magadan2           890.313
        10   01 Jun 2027 07:24:06.969   01 Jun 2027 07:25:01.023            54.054                Norilsk          1689.187
        11   01 Jun 2027 07:25:14.175   01 Jun 2027 07:27:28.458           134.283                Anadyr2          4196.344
        12   01 Jun 2027 07:27:28.458   01 Jun 2027 07:28:29.929            61.471                Anadyr1          1920.969
        13   01 Jun 2027 07:28:34.620   01 Jun 2027 07:30:08.311            93.691                Novosib          2927.844
        14   01 Jun 2027 07:30:30.507   01 Jun 2027 07:30:46.145            15.638              Murmansk2           488.688
        15   01 Jun 2027 07:31:03.934   01 Jun 2027 07:32:00.126            56.192              Murmansk2          1756.000
        16   01 Jun 2027 08:04:30.706   01 Jun 2027 08:04:59.538            28.832            RioGallegos           901.000
        17   01 Jun 2027 08:41:18.041   01 Jun 2027 08:41:33.868            15.827                Sumatra           494.594
        18   01 Jun 2027 09:00:23.609   01 Jun 2027 09:00:44.773            21.164                Norilsk           661.375
        19   01 Jun 2027 09:00:52.042   01 Jun 2027 09:02:28.433            96.391               Magadan1          3012.219
        20   01 Jun 2027 09:02:40.196   01 Jun 2027 09:05:23.246           163.050                Novosib          5095.313
        21   01 Jun 2027 09:05:37.049   01 Jun 2027 09:05:56.136            19.087                Novosib           596.469
        22   01 Jun 2027 09:40:48.256   01 Jun 2027 09:41:19.577            31.321            RioGallegos           978.781
        23   01 Jun 2027 10:15:11.991   01 Jun 2027 10:15:44.683            32.692                Sumatra          1021.625
        24   01 Jun 2027 10:24:15.748   01 Jun 2027 10:25:59.961           104.213                  Delhi          3256.656
        25   01 Jun 2027 10:37:16.681   01 Jun 2027 10:37:59.439            42.758              Murmansk1          1336.188
        26   01 Jun 2027 10:38:05.004   01 Jun 2027 10:38:48.481            43.477                Norilsk          1358.656
        27   01 Jun 2027 10:38:50.564   01 Jun 2027 10:40:54.094           123.530                Irkutsk          3860.312
        28   01 Jun 2027 10:41:06.817   01 Jun 2027 10:41:30.812            23.995                Novosib           749.844
        29   01 Jun 2027 10:41:38.915   01 Jun 2027 10:42:41.609            62.694              Murmansk2          1959.188
        30   01 Jun 2027 10:43:25.464   01 Jun 2027 10:43:46.972            21.508              Murmansk2           672.125
        31   01 Jun 2027 11:59:49.358   01 Jun 2027 12:01:14.220            84.862                  Delhi          2651.938
        32   01 Jun 2027 12:08:00.426   01 Jun 2027 12:08:28.726            28.300                Novosib           884.375
        33   01 Jun 2027 12:08:47.413   01 Jun 2027 12:09:33.193            45.780                 Moscow          1430.625
        34   01 Jun 2027 12:09:52.273   01 Jun 2027 12:10:07.070            14.797                 Moscow           462.406
        35   01 Jun 2027 12:11:27.232   01 Jun 2027 12:11:50.337            23.105              Murmansk1           722.031
        36   01 Jun 2027 12:11:50.337   01 Jun 2027 12:12:49.512            59.175              Murmansk2          1849.219
        37   01 Jun 2027 12:12:51.754   01 Jun 2027 12:13:05.953            14.199                Norilsk           443.719
        38   01 Jun 2027 12:14:27.139   01 Jun 2027 12:14:33.005             5.866              Murmansk1           183.312
        39   01 Jun 2027 12:14:48.865   01 Jun 2027 12:15:09.813            20.948                Norilsk           654.625
        40   01 Jun 2027 12:16:54.881   01 Jun 2027 12:17:25.250            30.369              Murmansk2           949.031
        41   01 Jun 2027 13:43:41.402   01 Jun 2027 13:44:03.854            22.452                 Moscow           701.625
        42   01 Jun 2027 13:44:08.843   01 Jun 2027 13:45:03.069            54.226                 Moscow          1694.562
        43   01 Jun 2027 13:45:03.856   01 Jun 2027 13:45:27.429            23.573                 Moscow           736.656
        44   01 Jun 2027 13:46:54.627   01 Jun 2027 13:47:46.349            51.722                 Moscow          1616.312
        45   01 Jun 2027 13:48:39.660   01 Jun 2027 13:50:13.883            94.223              Murmansk1          2944.469
        46   01 Jun 2027 13:52:34.885   01 Jun 2027 13:53:46.700            71.815                Norilsk          2244.219
        47   01 Jun 2027 13:54:46.579   01 Jun 2027 13:54:55.785             9.206                Norilsk           287.688
        48   01 Jun 2027 13:56:34.328   01 Jun 2027 13:56:40.518             6.190                Norilsk           193.437
        49   01 Jun 2027 14:58:41.886   01 Jun 2027 14:59:35.118            53.232               CapeTown          1663.500
        50   01 Jun 2027 15:00:27.979   01 Jun 2027 15:01:09.421            41.442               CapeTown          1295.063
        51   01 Jun 2027 15:05:04.667   01 Jun 2027 15:05:24.174            19.507               CapeTown           609.594
        52   01 Jun 2027 15:08:14.915   01 Jun 2027 15:08:47.948            33.033               CapeTown          1032.281
        53   01 Jun 2027 15:24:53.364   01 Jun 2027 15:25:29.408            36.044              Murmansk2          1126.375
        54   01 Jun 2027 15:26:25.406   01 Jun 2027 15:26:41.397            15.991              Murmansk1           499.719
        55   01 Jun 2027 15:28:22.896   01 Jun 2027 15:28:31.380             8.484              Murmansk2           265.125
        56   01 Jun 2027 15:28:43.022   01 Jun 2027 15:29:10.052            27.030              Murmansk1           844.688
        57   01 Jun 2027 15:32:30.815   01 Jun 2027 15:34:11.178           100.363              Murmansk2          3136.344
        58   01 Jun 2027 15:38:00.953   01 Jun 2027 15:38:22.498            21.545                Anadyr1           673.281
        59   01 Jun 2027 15:38:33.010   01 Jun 2027 15:39:02.933            29.923                Anadyr2           935.094
        60   01 Jun 2027 15:43:12.140   01 Jun 2027 15:43:27.432            15.292                Anadyr1           477.875
        61   01 Jun 2027 16:38:16.906   01 Jun 2027 16:38:29.167            12.261               CapeTown           383.156
        62   01 Jun 2027 16:41:33.345   01 Jun 2027 16:41:53.930            20.585               CapeTown           643.281
        63   01 Jun 2027 16:43:39.467   01 Jun 2027 16:43:57.627            18.160               CapeTown           567.500
        64   01 Jun 2027 17:04:46.816   01 Jun 2027 17:07:55.249           188.433              Murmansk2          5888.531
        65   01 Jun 2027 17:08:29.646   01 Jun 2027 17:09:22.296            52.650              Murmansk2          1645.312
        66   01 Jun 2027 17:14:55.912   01 Jun 2027 17:15:20.686            24.774                Anadyr2           774.187
        67   01 Jun 2027 17:16:40.998   01 Jun 2027 17:18:24.846           103.848               Magadan2          3245.250
        68   01 Jun 2027 17:24:35.132   01 Jun 2027 17:25:32.284            57.152               Magadan1          1786.000
        69   01 Jun 2027 18:49:38.276   01 Jun 2027 18:52:38.092           179.816                Anadyr1          5619.250
        70   01 Jun 2027 18:52:46.322   01 Jun 2027 18:53:52.361            66.039               Magadan2          2063.719
        71   01 Jun 2027 18:53:52.361   01 Jun 2027 18:54:31.067            38.706               Magadan1          1209.562
        72   01 Jun 2027 18:57:47.588   01 Jun 2027 18:58:33.417            45.829               Magadan2          1432.156
        73   01 Jun 2027 19:02:55.288   01 Jun 2027 19:03:03.309             8.021               Magadan1           250.656
        74   01 Jun 2027 19:04:13.518   01 Jun 2027 19:04:41.349            27.831               Magadan1           869.719
        75   01 Jun 2027 19:45:20.119   01 Jun 2027 19:47:55.679           155.560            RioGallegos          4861.250
        76   01 Jun 2027 19:48:06.776   01 Jun 2027 19:48:11.904             5.128            RioGallegos           160.250
        77   01 Jun 2027 19:51:39.823   01 Jun 2027 19:52:17.937            38.114            RioGallegos          1191.063
        78   01 Jun 2027 20:25:25.482   01 Jun 2027 20:25:52.658            27.176                Anadyr1           849.250
        79   01 Jun 2027 20:27:34.886   01 Jun 2027 20:29:50.474           135.588                Norilsk          4237.125
        80   01 Jun 2027 20:30:52.737   01 Jun 2027 20:31:23.663            30.926                Norilsk           966.438
        81   01 Jun 2027 20:32:18.993   01 Jun 2027 20:33:44.950            85.957                Irkutsk          2686.156
        82   01 Jun 2027 20:37:15.657   01 Jun 2027 20:37:47.511            31.854                Irkutsk           995.438
        83   01 Jun 2027 20:46:54.963   01 Jun 2027 20:47:38.128            43.165                Sumatra          1348.906
        84   01 Jun 2027 20:49:32.407   01 Jun 2027 20:49:59.309            26.902                Sumatra           840.688
        85   01 Jun 2027 20:50:32.775   01 Jun 2027 20:51:46.911            74.136                Sumatra          2316.750
        86   01 Jun 2027 22:03:43.182   01 Jun 2027 22:03:48.648             5.466                Anadyr2           170.813
        87   01 Jun 2027 22:03:58.529   01 Jun 2027 22:03:58.743             0.214                Norilsk             6.688
        88   01 Jun 2027 22:03:59.158   01 Jun 2027 22:05:26.142            86.984               Magadan2          2718.250
        89   01 Jun 2027 22:06:22.451   01 Jun 2027 22:06:44.677            22.226               Magadan1           694.562
        90   01 Jun 2027 22:06:53.599   01 Jun 2027 22:07:17.447            23.848               Magadan2           745.250
        91   01 Jun 2027 22:07:50.076   01 Jun 2027 22:09:01.058            70.982                Novosib          2218.187
        92   01 Jun 2027 22:12:52.893   01 Jun 2027 22:13:01.886             8.993                Novosib           281.031
        93   01 Jun 2027 22:13:16.087   01 Jun 2027 22:13:26.857            10.770                Novosib           336.562
        94   01 Jun 2027 22:13:47.374   01 Jun 2027 22:15:04.981            77.607                Novosib          2425.219
        95   01 Jun 2027 22:17:07.267   01 Jun 2027 22:18:01.087            53.820                  Delhi          1681.875
        96   01 Jun 2027 23:34:37.514   01 Jun 2027 23:35:30.064            52.550                Anadyr2          1642.187
        97   01 Jun 2027 23:35:30.064   01 Jun 2027 23:36:50.452            80.388                Anadyr1          2512.125
        98   01 Jun 2027 23:39:23.217   01 Jun 2027 23:39:35.860            12.643                Norilsk           395.094
        99   01 Jun 2027 23:39:53.876   01 Jun 2027 23:41:00.629            66.753                Norilsk          2086.031
       100   01 Jun 2027 23:41:12.330   01 Jun 2027 23:41:19.137             6.807               Magadan1           212.719
       101   01 Jun 2027 23:41:20.696   01 Jun 2027 23:42:14.334            53.638               Magadan1          1676.187
       102   01 Jun 2027 23:42:15.304   01 Jun 2027 23:45:26.061           190.757              Murmansk1          5961.156
       103   01 Jun 2027 23:45:34.387   01 Jun 2027 23:46:47.865            73.478              Murmansk1          2296.187
       104   02 Jun 2027 01:07:54.737   02 Jun 2027 01:08:25.046            30.309                Anadyr1           947.156
       105   02 Jun 2027 01:08:58.371   02 Jun 2027 01:09:23.536            25.165                Anadyr2           786.406
       106   02 Jun 2027 01:09:23.536   02 Jun 2027 01:10:03.998            40.462                Anadyr1          1264.437
       107   02 Jun 2027 01:10:39.542   02 Jun 2027 01:11:02.907            23.365                Anadyr2           730.156
       108   02 Jun 2027 01:13:45.792   02 Jun 2027 01:14:12.739            26.947                Anadyr1           842.094
       109   02 Jun 2027 01:14:43.375   02 Jun 2027 01:16:22.152            98.777               Magadan2          3086.781
       110   02 Jun 2027 01:17:32.816   02 Jun 2027 01:19:37.421           124.605              Murmansk2          3893.906
       111   02 Jun 2027 01:21:14.136   02 Jun 2027 01:21:16.420             2.284                 Moscow            71.375
       112   02 Jun 2027 01:21:50.132   02 Jun 2027 01:22:04.505            14.373                 Moscow           449.156
       113   02 Jun 2027 01:22:19.906   02 Jun 2027 01:22:50.143            30.237                 Moscow           944.906
       114   02 Jun 2027 01:28:20.771   02 Jun 2027 01:28:42.384            21.613                 Moscow           675.406
       115   02 Jun 2027 01:30:51.150   02 Jun 2027 01:33:00.756           129.606                  Delhi          4050.188
       116   02 Jun 2027 02:41:51.372   02 Jun 2027 02:44:24.804           153.432                Anadyr1          4794.750
       117   02 Jun 2027 02:46:06.670   02 Jun 2027 02:46:27.445            20.775               Magadan2           649.219
       118   02 Jun 2027 02:50:51.713   02 Jun 2027 02:51:09.493            17.780                Norilsk           555.625
       119   02 Jun 2027 02:51:33.665   02 Jun 2027 02:51:45.481            11.816                Norilsk           369.250
       120   02 Jun 2027 02:52:57.493   02 Jun 2027 02:52:59.319             1.826                Norilsk            57.062
       121   02 Jun 2027 02:53:03.961   02 Jun 2027 02:53:35.273            31.312                Norilsk           978.500
       122   02 Jun 2027 02:53:41.164   02 Jun 2027 02:53:48.747             7.583              Murmansk1           236.969
       123   02 Jun 2027 02:53:55.275   02 Jun 2027 02:54:40.296            45.021              Murmansk2          1406.906
       124   02 Jun 2027 02:55:10.108   02 Jun 2027 02:55:25.053            14.945              Murmansk1           467.031
       125   02 Jun 2027 02:56:08.605   02 Jun 2027 02:56:45.388            36.783                Novosib          1149.469
       126   02 Jun 2027 02:59:06.926   02 Jun 2027 02:59:18.210            11.284                Novosib           352.625
       127   02 Jun 2027 03:00:21.663   02 Jun 2027 03:00:39.145            17.482                Novosib           546.313
       128   02 Jun 2027 03:00:43.765   02 Jun 2027 03:01:14.879            31.114              Murmansk2           972.313
       129   02 Jun 2027 03:01:14.879   02 Jun 2027 03:01:39.095            24.216              Murmansk1           756.750
       130   02 Jun 2027 03:01:46.473   02 Jun 2027 03:02:24.910            38.437                Norilsk          1201.156
       131   02 Jun 2027 03:03:02.802   02 Jun 2027 03:05:28.201           145.399              Murmansk1          4543.719
       132   02 Jun 2027 03:05:28.201   02 Jun 2027 03:06:16.259            48.058              Murmansk2          1501.813
       133   02 Jun 2027 03:20:36.688   02 Jun 2027 03:22:58.344           141.656               CapeTown          4426.750
       134   02 Jun 2027 04:18:09.570   02 Jun 2027 04:18:16.953             7.383               Magadan2           230.719
       135   02 Jun 2027 04:18:32.273   02 Jun 2027 04:18:51.169            18.896                Anadyr2           590.500
       136   02 Jun 2027 04:20:14.548   02 Jun 2027 04:21:26.751            72.203               Magadan1          2256.344
       137   02 Jun 2027 04:23:55.130   02 Jun 2027 04:24:06.044            10.914               Magadan2           341.063
       138   02 Jun 2027 04:24:13.502   02 Jun 2027 04:28:14.092           240.590               Magadan1          7518.437
       139   02 Jun 2027 04:28:24.477   02 Jun 2027 04:29:00.083            35.606               Magadan1          1112.688
       140   02 Jun 2027 06:01:18.932   02 Jun 2027 06:01:31.012            12.080               Magadan1           377.500
       141   02 Jun 2027 06:01:32.900   02 Jun 2027 06:01:41.602             8.702                Norilsk           271.937
       142   02 Jun 2027 06:01:47.930   02 Jun 2027 06:03:43.818           115.888                Anadyr1          3621.500
       143   02 Jun 2027 06:04:22.344   02 Jun 2027 06:04:38.895            16.551                Anadyr2           517.219
       144   02 Jun 2027 06:04:41.318   02 Jun 2027 06:05:26.619            45.301               Magadan1          1415.656
       145   02 Jun 2027 07:35:29.840   02 Jun 2027 07:36:09.456            39.616               Magadan1          1238.000
       146   02 Jun 2027 07:36:15.893   02 Jun 2027 07:37:47.973            92.080               Magadan1          2877.500
       147   02 Jun 2027 07:37:47.973   02 Jun 2027 07:38:48.299            60.326               Magadan2          1885.188
       148   02 Jun 2027 07:39:16.479   02 Jun 2027 07:42:20.222           183.743                Novosib          5741.969
       149   02 Jun 2027 07:42:34.276   02 Jun 2027 07:42:42.730             8.454              Murmansk1           264.188
       150   02 Jun 2027 07:42:43.898   02 Jun 2027 07:43:00.338            16.440                Norilsk           513.750
       151   02 Jun 2027 07:43:02.345   02 Jun 2027 07:43:36.288            33.943              Murmansk1          1060.719
       152   02 Jun 2027 07:43:45.221   02 Jun 2027 07:43:59.570            14.349                Norilsk           448.406
       153   02 Jun 2027 08:16:23.119   02 Jun 2027 08:17:48.040            84.921            RioGallegos          2653.781
       154   02 Jun 2027 08:19:17.724   02 Jun 2027 08:19:21.369             3.645            RioGallegos           113.906
       155   02 Jun 2027 08:52:35.442   02 Jun 2027 08:53:43.915            68.473                Sumatra          2139.781
       156   02 Jun 2027 09:12:56.223   02 Jun 2027 09:14:17.317            81.094                Norilsk          2534.187
       157   02 Jun 2027 09:14:17.367   02 Jun 2027 09:14:57.982            40.615                Irkutsk          1269.219
       158   02 Jun 2027 09:14:59.877   02 Jun 2027 09:16:35.309            95.432                Novosib          2982.250
       159   02 Jun 2027 09:16:38.354   02 Jun 2027 09:17:12.319            33.965              Murmansk1          1061.406
       160   02 Jun 2027 09:17:23.899   02 Jun 2027 09:17:43.251            19.352              Murmansk1           604.750
       161   02 Jun 2027 09:17:50.355   02 Jun 2027 09:18:12.320            21.965              Murmansk1           686.406
       162   02 Jun 2027 09:18:54.340   02 Jun 2027 09:19:21.335            26.995              Murmansk1           843.594
       163   02 Jun 2027 09:19:27.354   02 Jun 2027 09:19:34.359             7.005                Norilsk           218.906
       164   02 Jun 2027 09:21:25.143   02 Jun 2027 09:21:32.300             7.157              Murmansk1           223.656
       165   02 Jun 2027 09:24:53.505   02 Jun 2027 09:25:03.844            10.339              Murmansk1           323.094
       166   02 Jun 2027 09:53:09.532   02 Jun 2027 09:54:12.372            62.840            RioGallegos          1963.750
       167   02 Jun 2027 09:57:14.818   02 Jun 2027 09:57:24.612             9.794            RioGallegos           306.062
       168   02 Jun 2027 09:58:03.067   02 Jun 2027 09:58:19.939            16.872            RioGallegos           527.250
       169   02 Jun 2027 10:27:26.625   02 Jun 2027 10:29:07.945           101.320                Sumatra          3166.250
       170   02 Jun 2027 10:32:33.215   02 Jun 2027 10:32:34.359             1.144                Sumatra            35.750
       171   02 Jun 2027 10:35:54.686   02 Jun 2027 10:36:49.852            55.166                  Delhi          1723.938
       172   02 Jun 2027 10:49:56.944   02 Jun 2027 10:52:36.178           159.234                Irkutsk          4976.062
       173   02 Jun 2027 10:53:01.534   02 Jun 2027 10:53:07.942             6.408              Murmansk1           200.250
       174   02 Jun 2027 10:53:51.666   02 Jun 2027 10:53:57.416             5.750              Murmansk1           179.688
       175   02 Jun 2027 10:54:00.656   02 Jun 2027 10:54:28.744            28.088                Norilsk           877.750
       176   02 Jun 2027 12:12:15.557   02 Jun 2027 12:15:53.768           218.211                  Delhi          6819.094
       177   02 Jun 2027 12:16:26.809   02 Jun 2027 12:17:23.369            56.560                  Delhi          1767.500
       178   02 Jun 2027 12:20:36.353   02 Jun 2027 12:20:45.600             9.247                Novosib           288.969
       179   02 Jun 2027 12:21:41.978   02 Jun 2027 12:22:10.715            28.737                Novosib           898.031
       180   02 Jun 2027 12:23:10.785   02 Jun 2027 12:24:22.101            71.316                Novosib          2228.625
       181   02 Jun 2027 12:24:49.647   02 Jun 2027 12:25:08.156            18.509                Norilsk           578.406
       182   02 Jun 2027 12:25:46.105   02 Jun 2027 12:26:01.298            15.193                Norilsk           474.781
       183   02 Jun 2027 12:26:14.094   02 Jun 2027 12:26:33.641            19.547              Murmansk2           610.844
       184   02 Jun 2027 12:26:50.819   02 Jun 2027 12:27:07.922            17.103                Norilsk           534.469
       185   02 Jun 2027 13:55:47.814   02 Jun 2027 13:58:58.040           190.226                 Moscow          5944.562
       186   02 Jun 2027 13:59:19.367   02 Jun 2027 14:02:29.638           190.271              Murmansk2          5945.969
       187   02 Jun 2027 14:05:33.750   02 Jun 2027 14:06:15.063            41.313                Norilsk          1291.031
       188   02 Jun 2027 14:06:57.947   02 Jun 2027 14:07:44.277            46.330                Norilsk          1447.812
       189   02 Jun 2027 14:08:51.605   02 Jun 2027 14:09:13.269            21.664                Norilsk           677.000
       190   02 Jun 2027 14:15:45.065   02 Jun 2027 14:16:28.841            43.776                Anadyr1          1368.000
       191   02 Jun 2027 14:17:00.400   02 Jun 2027 14:17:49.831            49.431                Anadyr2          1544.719
       192   02 Jun 2027 14:17:52.435   02 Jun 2027 14:19:03.727            71.292                Anadyr2          2227.875
       193   02 Jun 2027 15:37:06.932   02 Jun 2027 15:37:51.283            44.351              Murmansk1          1385.969
       194   02 Jun 2027 15:49:58.553   02 Jun 2027 15:52:19.319           140.766                Anadyr1          4398.937
       195   02 Jun 2027 16:45:36.969   02 Jun 2027 16:46:18.986            42.017               CapeTown          1313.031
       196   02 Jun 2027 16:50:17.509   02 Jun 2027 16:50:25.959             8.450               CapeTown           264.063
       197   02 Jun 2027 16:50:51.838   02 Jun 2027 16:51:03.655            11.817               CapeTown           369.281
       198   02 Jun 2027 16:52:51.956   02 Jun 2027 16:52:56.580             4.624               CapeTown           144.500
       199   02 Jun 2027 17:17:36.446   02 Jun 2027 17:22:08.102           271.656              Murmansk1          8489.250
       200   02 Jun 2027 17:25:43.845   02 Jun 2027 17:26:22.065            38.220                Anadyr2          1194.375
       201   02 Jun 2027 17:26:29.428   02 Jun 2027 17:26:54.296            24.868                Anadyr1           777.125
       202   02 Jun 2027 17:28:32.123   02 Jun 2027 17:30:40.681           128.558               Magadan1          4017.438
       203   02 Jun 2027 19:01:39.485   02 Jun 2027 19:03:37.357           117.872                Anadyr2          3683.500
       204   02 Jun 2027 19:03:37.574   02 Jun 2027 19:05:32.497           114.923                Anadyr1          3591.344
       205   02 Jun 2027 19:05:59.183   02 Jun 2027 19:07:36.015            96.832               Magadan2          3026.000
       206   02 Jun 2027 19:56:50.706   02 Jun 2027 19:59:58.989           188.283            RioGallegos          5883.844
       207   02 Jun 2027 20:03:33.841   02 Jun 2027 20:03:35.855             2.014            RioGallegos            62.938
       208   02 Jun 2027 20:37:24.044   02 Jun 2027 20:37:54.365            30.321                Anadyr1           947.531
       209   02 Jun 2027 20:39:01.983   02 Jun 2027 20:39:30.504            28.521                Anadyr2           891.281
       210   02 Jun 2027 20:39:33.325   02 Jun 2027 20:43:23.920           230.595                Norilsk          7206.094
       211   02 Jun 2027 20:44:04.880   02 Jun 2027 20:45:44.673            99.793                Irkutsk          3118.531
       212   02 Jun 2027 20:58:18.840   02 Jun 2027 20:59:13.894            55.054                Sumatra          1720.438
       213   02 Jun 2027 21:01:18.021   02 Jun 2027 21:02:21.164            63.143                Sumatra          1973.219
       214   02 Jun 2027 21:04:03.190   02 Jun 2027 21:05:04.387            61.197                Sumatra          1912.406
       215   02 Jun 2027 22:15:49.802   02 Jun 2027 22:15:54.183             4.381                Norilsk           136.906
       216   02 Jun 2027 22:16:01.811   02 Jun 2027 22:16:15.347            13.536               Magadan2           423.000
       217   02 Jun 2027 22:16:57.358   02 Jun 2027 22:17:23.378            26.020               Magadan1           813.125
       218   02 Jun 2027 22:19:11.796   02 Jun 2027 22:19:12.342             0.546               Magadan2            17.063
       219   02 Jun 2027 22:19:16.839   02 Jun 2027 22:19:56.769            39.930                Irkutsk          1247.812
       220   02 Jun 2027 22:19:59.990   02 Jun 2027 22:20:50.624            50.634                Novosib          1582.312
       221   02 Jun 2027 22:23:10.178   02 Jun 2027 22:23:18.549             8.371                Novosib           261.594
       222   02 Jun 2027 22:25:12.128   02 Jun 2027 22:25:26.775            14.647                Novosib           457.719
       223   02 Jun 2027 22:25:45.428   02 Jun 2027 22:26:45.813            60.385                Novosib          1887.031
       224   02 Jun 2027 22:28:20.475   02 Jun 2027 22:28:58.733            38.258                  Delhi          1195.563
       225   02 Jun 2027 22:30:54.342   02 Jun 2027 22:31:05.843            11.501                  Delhi           359.406
       226   02 Jun 2027 22:32:50.561   02 Jun 2027 22:34:34.567           104.006                  Delhi          3250.187
       227   02 Jun 2027 23:51:25.023   02 Jun 2027 23:52:48.656            83.633                Norilsk          2613.531
       228   02 Jun 2027 23:52:59.148   02 Jun 2027 23:53:50.907            51.759               Magadan2          1617.469
       229   02 Jun 2027 23:54:01.886   02 Jun 2027 23:56:01.650           119.764              Murmansk1          3742.625
       230   02 Jun 2027 23:56:32.066   02 Jun 2027 23:58:46.898           134.832              Murmansk2          4213.500
       231   03 Jun 2027 00:48:15.602   03 Jun 2027 00:48:50.803            35.201            RioGallegos          1100.031
       232   03 Jun 2027 01:19:37.502   03 Jun 2027 01:20:12.269            34.767                Anadyr2          1086.469
       233   03 Jun 2027 01:21:24.066   03 Jun 2027 01:22:05.340            41.274                Anadyr1          1289.812
       234   03 Jun 2027 01:22:27.660   03 Jun 2027 01:22:59.440            31.780                Anadyr1           993.125
       235   03 Jun 2027 01:25:20.820   03 Jun 2027 01:25:52.468            31.648               Magadan1           989.000
       236   03 Jun 2027 01:26:06.647   03 Jun 2027 01:27:24.151            77.504               Magadan2          2422.000
       237   03 Jun 2027 01:27:37.112   03 Jun 2027 01:27:50.117            13.005               Magadan2           406.406
       238   03 Jun 2027 01:29:33.620   03 Jun 2027 01:30:43.327            69.707              Murmansk2          2178.344
       239   03 Jun 2027 01:31:23.924   03 Jun 2027 01:32:33.737            69.813                Novosib          2181.656
       240   03 Jun 2027 01:35:30.400   03 Jun 2027 01:36:09.239            38.839                 Moscow          1213.719
       241   03 Jun 2027 01:43:55.688   03 Jun 2027 01:44:32.022            36.334                 Moscow          1135.438
       242   03 Jun 2027 01:58:17.382   03 Jun 2027 01:58:52.159            34.777               CapeTown          1086.781
       243   03 Jun 2027 02:03:59.062   03 Jun 2027 02:04:01.010             1.948               CapeTown            60.875
       244   03 Jun 2027 02:53:43.779   03 Jun 2027 02:56:15.020           151.241                Anadyr1          4726.281
       245   03 Jun 2027 02:56:59.135   03 Jun 2027 02:57:42.326            43.191               Magadan1          1349.719
       246   03 Jun 2027 02:57:42.326   03 Jun 2027 02:58:06.799            24.473               Magadan2           764.781
       247   03 Jun 2027 03:12:52.261   03 Jun 2027 03:13:15.371            23.110                Novosib           722.188
       248   03 Jun 2027 03:13:25.384   03 Jun 2027 03:15:06.712           101.328              Murmansk1          3166.500
       249   03 Jun 2027 03:15:08.147   03 Jun 2027 03:15:23.595            15.448              Murmansk1           482.750
       250   03 Jun 2027 03:15:38.390   03 Jun 2027 03:15:43.851             5.461                 Moscow           170.656
       251   03 Jun 2027 03:16:21.179   03 Jun 2027 03:16:44.478            23.299              Murmansk1           728.094
       252   03 Jun 2027 04:29:30.921   03 Jun 2027 04:30:14.498            43.577                Anadyr1          1361.781
       253   03 Jun 2027 04:30:39.992   03 Jun 2027 04:31:26.067            46.075               Magadan2          1439.844
       254   03 Jun 2027 04:31:59.584   03 Jun 2027 04:32:10.348            10.764               Magadan2           336.375
       255   03 Jun 2027 04:35:38.348   03 Jun 2027 04:38:25.939           167.591                Anadyr2          5237.219
       256   03 Jun 2027 04:38:42.398   03 Jun 2027 04:38:53.987            11.589               Magadan2           362.156
       257   03 Jun 2027 06:12:58.830   03 Jun 2027 06:15:13.002           134.172                Anadyr1          4192.875
       258   03 Jun 2027 06:15:24.915   03 Jun 2027 06:15:33.234             8.319                Irkutsk           259.969
       259   03 Jun 2027 06:16:23.240   03 Jun 2027 06:17:16.197            52.957                Anadyr2          1654.906
       260   03 Jun 2027 07:49:20.030   03 Jun 2027 07:50:37.347            77.317                Irkutsk          2416.156
       261   03 Jun 2027 07:50:48.633   03 Jun 2027 07:53:19.771           151.138               Magadan2          4723.063
       262   03 Jun 2027 07:53:22.345   03 Jun 2027 07:53:57.697            35.352                Novosib          1104.750
       263   03 Jun 2027 07:54:13.935   03 Jun 2027 07:54:59.404            45.469              Murmansk2          1420.906
       264   03 Jun 2027 08:28:18.719   03 Jun 2027 08:29:46.372            87.653            RioGallegos          2739.156
       265   03 Jun 2027 08:30:50.954   03 Jun 2027 08:31:00.268             9.314            RioGallegos           291.062
       266   03 Jun 2027 09:04:04.725   03 Jun 2027 09:04:38.013            33.288                Sumatra          1040.250
       267   03 Jun 2027 09:05:29.905   03 Jun 2027 09:06:00.485            30.580                Sumatra           955.625
       268   03 Jun 2027 09:25:06.000   03 Jun 2027 09:25:17.054            11.054                Irkutsk           345.437
       269   03 Jun 2027 09:25:25.716   03 Jun 2027 09:25:41.398            15.682                Novosib           490.062
       270   03 Jun 2027 09:25:43.104   03 Jun 2027 09:28:25.017           161.913                Irkutsk          5059.781
       271   03 Jun 2027 09:28:33.403   03 Jun 2027 09:29:25.156            51.753                Irkutsk          1617.281
       272   03 Jun 2027 10:05:35.773   03 Jun 2027 10:06:21.165            45.392            RioGallegos          1418.500
       273   03 Jun 2027 10:07:01.705   03 Jun 2027 10:07:23.309            21.604            RioGallegos           675.125
       274   03 Jun 2027 10:39:48.629   03 Jun 2027 10:41:04.553            75.924                Sumatra          2372.625
       275   03 Jun 2027 10:43:46.779   03 Jun 2027 10:44:03.569            16.790                Sumatra           524.688
       276   03 Jun 2027 10:44:13.850   03 Jun 2027 10:45:03.501            49.651                Sumatra          1551.594
       277   03 Jun 2027 11:01:35.184   03 Jun 2027 11:01:56.591            21.407                Norilsk           668.969
       278   03 Jun 2027 11:01:58.843   03 Jun 2027 11:02:46.883            48.040                Norilsk          1501.250
       279   03 Jun 2027 11:02:51.580   03 Jun 2027 11:03:02.418            10.838              Murmansk2           338.688
       280   03 Jun 2027 11:03:02.418   03 Jun 2027 11:03:17.172            14.754              Murmansk1           461.062
       281   03 Jun 2027 11:03:20.569   03 Jun 2027 11:04:52.688            92.119                Norilsk          2878.719
       282   03 Jun 2027 11:05:01.925   03 Jun 2027 11:06:42.824           100.899                 Moscow          3153.094
       283   03 Jun 2027 12:24:51.076   03 Jun 2027 12:27:38.045           166.969                  Delhi          5217.781
       284   03 Jun 2027 12:33:19.320   03 Jun 2027 12:34:17.899            58.579                Novosib          1830.594
       285   03 Jun 2027 12:35:16.110   03 Jun 2027 12:35:41.032            24.922                Novosib           778.813
       286   03 Jun 2027 12:36:14.379   03 Jun 2027 12:37:50.054            95.675              Murmansk1          2989.844
       287   03 Jun 2027 12:38:06.418   03 Jun 2027 12:38:34.528            28.110              Murmansk2           878.437
       288   03 Jun 2027 12:38:52.636   03 Jun 2027 12:39:45.386            52.750                Norilsk          1648.437
       289   03 Jun 2027 14:07:57.381   03 Jun 2027 14:09:41.115           103.734                 Moscow          3241.687
       290   03 Jun 2027 14:11:28.071   03 Jun 2027 14:15:18.311           230.240              Murmansk1          7195.000
       291   03 Jun 2027 14:15:34.877   03 Jun 2027 14:16:27.788            52.911              Murmansk2          1653.469
       292   03 Jun 2027 14:18:52.084   03 Jun 2027 14:20:04.477            72.393                Norilsk          2262.281
       293   03 Jun 2027 14:27:12.545   03 Jun 2027 14:28:26.583            74.038                Anadyr2          2313.687
       294   03 Jun 2027 14:29:41.661   03 Jun 2027 14:31:03.200            81.539                Anadyr1          2548.094
       295   03 Jun 2027 15:47:30.553   03 Jun 2027 15:47:56.444            25.891                 Moscow           809.094
       296   03 Jun 2027 15:49:32.021   03 Jun 2027 15:50:09.510            37.489              Murmansk1          1171.531
       297   03 Jun 2027 15:50:26.940   03 Jun 2027 15:51:35.580            68.640              Murmansk2          2145.000
       298   03 Jun 2027 15:54:16.789   03 Jun 2027 15:54:30.913            14.124              Murmansk1           441.375
       299   03 Jun 2027 16:01:56.998   03 Jun 2027 16:04:12.473           135.475                Anadyr2          4233.594
       300   03 Jun 2027 16:57:54.887   03 Jun 2027 16:58:56.941            62.054               CapeTown          1939.187
       301   03 Jun 2027 16:59:44.085   03 Jun 2027 17:01:02.086            78.001               CapeTown          2437.531
       302   03 Jun 2027 17:30:34.117   03 Jun 2027 17:32:33.551           119.434              Murmansk1          3732.313
       303   03 Jun 2027 17:34:07.710   03 Jun 2027 17:34:28.277            20.567              Murmansk1           642.719
       304   03 Jun 2027 17:37:45.157   03 Jun 2027 17:39:16.409            91.252                Anadyr2          2851.625
       305   03 Jun 2027 17:39:45.175   03 Jun 2027 17:40:07.809            22.634                Anadyr2           707.313
       306   03 Jun 2027 17:40:25.481   03 Jun 2027 17:42:09.164           103.683               Magadan2          3240.094
       307   03 Jun 2027 19:13:40.539   03 Jun 2027 19:17:32.890           232.351                Anadyr1          7260.969
       308   03 Jun 2027 19:18:01.885   03 Jun 2027 19:18:34.612            32.727                Norilsk          1022.719
       309   03 Jun 2027 19:19:14.530   03 Jun 2027 19:19:52.140            37.610               Magadan1          1175.313
       310   03 Jun 2027 19:19:52.140   03 Jun 2027 19:20:23.776            31.636               Magadan2           988.625
       311   03 Jun 2027 19:25:39.226   03 Jun 2027 19:25:58.964            19.738               Magadan2           616.812
       312   03 Jun 2027 19:26:36.395   03 Jun 2027 19:26:52.321            15.926               Magadan2           497.687
       313   03 Jun 2027 20:08:30.049   03 Jun 2027 20:11:23.199           173.150            RioGallegos          5410.938
       314   03 Jun 2027 20:11:43.216   03 Jun 2027 20:11:49.292             6.076            RioGallegos           189.875
       315   03 Jun 2027 20:13:01.638   03 Jun 2027 20:14:10.391            68.753            RioGallegos          2148.531
       316   03 Jun 2027 20:49:21.997   03 Jun 2027 20:51:31.750           129.753                Anadyr2          4054.781
       317   03 Jun 2027 20:51:32.647   03 Jun 2027 20:53:53.834           141.187                Norilsk          4412.094
       318   03 Jun 2027 20:54:51.709   03 Jun 2027 20:55:24.629            32.920                Norilsk          1028.750
       319   03 Jun 2027 20:55:54.303   03 Jun 2027 20:56:03.594             9.291                Irkutsk           290.344
       320   03 Jun 2027 20:56:44.770   03 Jun 2027 20:57:45.326            60.556                Irkutsk          1892.375
       321   03 Jun 2027 21:09:52.774   03 Jun 2027 21:12:11.585           138.811                Sumatra          4337.844
       322   03 Jun 2027 22:27:26.770   03 Jun 2027 22:27:51.422            24.652                Norilsk           770.375
       323   03 Jun 2027 22:28:04.293   03 Jun 2027 22:28:31.204            26.911               Magadan2           840.969
       324   03 Jun 2027 22:29:54.381   03 Jun 2027 22:30:17.575            23.194               Magadan1           724.813
       325   03 Jun 2027 22:30:29.136   03 Jun 2027 22:30:37.365             8.229               Magadan1           257.156
       326   03 Jun 2027 22:31:01.798   03 Jun 2027 22:31:48.171            46.373               Magadan1          1449.156
       327   03 Jun 2027 22:31:49.416   03 Jun 2027 22:32:40.913            51.497                Irkutsk          1609.281
       328   03 Jun 2027 22:32:41.135   03 Jun 2027 22:33:22.633            41.498                Novosib          1296.813
       329   03 Jun 2027 22:34:18.294   03 Jun 2027 22:35:05.380            47.086                Novosib          1471.437
       330   03 Jun 2027 22:39:48.264   03 Jun 2027 22:42:52.141           183.877                  Delhi          5746.156
       331   04 Jun 2027 00:00:24.405   04 Jun 2027 00:00:30.581             6.176                Anadyr1           193.000
       332   04 Jun 2027 00:03:26.701   04 Jun 2027 00:03:39.493            12.792                Norilsk           399.750
       333   04 Jun 2027 00:03:41.795   04 Jun 2027 00:03:52.520            10.725                Anadyr2           335.156
       334   04 Jun 2027 00:04:23.046   04 Jun 2027 00:05:22.558            59.512                Norilsk          1859.750
       335   04 Jun 2027 00:05:29.210   04 Jun 2027 00:05:59.828            30.618               Magadan2           956.812
       336   04 Jun 2027 00:06:02.525   04 Jun 2027 00:08:02.427           119.902              Murmansk1          3746.938
       337   04 Jun 2027 00:08:04.693   04 Jun 2027 00:08:57.786            53.093              Murmansk2          1659.156
       338   04 Jun 2027 00:10:45.487   04 Jun 2027 00:10:55.867            10.380              Murmansk1           324.375
       339   04 Jun 2027 00:11:53.048   04 Jun 2027 00:13:23.547            90.499                 Moscow          2828.094
       340   04 Jun 2027 00:24:22.969   04 Jun 2027 00:24:59.507            36.538                  Delhi          1141.813
       341   04 Jun 2027 00:57:50.556   04 Jun 2027 00:58:19.617            29.061            RioGallegos           908.156
       342   04 Jun 2027 01:31:21.088   04 Jun 2027 01:32:50.157            89.069                Anadyr2          2783.406
       343   04 Jun 2027 01:33:24.285   04 Jun 2027 01:34:06.426            42.141                Anadyr1          1316.906
       344   04 Jun 2027 01:36:49.848   04 Jun 2027 01:37:47.415            57.567               Magadan2          1798.969
       345   04 Jun 2027 01:37:47.415   04 Jun 2027 01:38:11.150            23.735               Magadan1           741.719
       346   04 Jun 2027 01:38:19.751   04 Jun 2027 01:38:53.203            33.452               Magadan1          1045.375
       347   04 Jun 2027 01:40:09.517   04 Jun 2027 01:40:37.742            28.225               Magadan2           882.031
       348   04 Jun 2027 01:41:34.723   04 Jun 2027 01:42:28.756            54.033              Murmansk2          1688.531
       349   04 Jun 2027 01:42:48.581   04 Jun 2027 01:44:52.417           123.836              Murmansk1          3869.875
       350   04 Jun 2027 01:50:28.128   04 Jun 2027 01:50:53.315            25.187                 Moscow           787.094
       351   04 Jun 2027 01:56:00.602   04 Jun 2027 01:56:21.378            20.776                 Moscow           649.250
       352   04 Jun 2027 02:10:58.708   04 Jun 2027 02:11:16.895            18.187               CapeTown           568.344
       353   04 Jun 2027 02:13:03.013   04 Jun 2027 02:14:10.357            67.344               CapeTown          2104.500
       354   04 Jun 2027 03:09:44.037   04 Jun 2027 03:10:07.772            23.735               Magadan1           741.719
       355   04 Jun 2027 03:12:40.722   04 Jun 2027 03:12:44.788             4.066                Anadyr2           127.063
       356   04 Jun 2027 03:13:56.484   04 Jun 2027 03:14:07.814            11.330               Magadan1           354.062
       357   04 Jun 2027 03:25:18.166   04 Jun 2027 03:26:26.710            68.544              Murmansk1          2142.000
       358   04 Jun 2027 03:26:48.054   04 Jun 2027 03:27:08.435            20.381              Murmansk2           636.906
       359   04 Jun 2027 03:27:11.280   04 Jun 2027 03:27:22.464            11.184                 Moscow           349.500
       360   04 Jun 2027 03:44:59.189   04 Jun 2027 03:45:47.834            48.645               CapeTown          1520.156
       361   04 Jun 2027 03:46:39.078   04 Jun 2027 03:47:26.378            47.300               CapeTown          1478.125
       362   04 Jun 2027 03:50:26.348   04 Jun 2027 03:50:54.081            27.733               CapeTown           866.656
       363   04 Jun 2027 04:48:11.502   04 Jun 2027 04:48:20.151             8.649                Anadyr2           270.281
       364   04 Jun 2027 04:48:20.151   04 Jun 2027 04:48:33.790            13.639                Anadyr1           426.219
       365   04 Jun 2027 04:48:45.251   04 Jun 2027 04:48:54.637             9.386                Anadyr1           293.312
       366   04 Jun 2027 04:49:10.941   04 Jun 2027 04:50:27.289            76.348                Anadyr2          2385.875
       367   04 Jun 2027 04:50:53.475   04 Jun 2027 04:51:08.104            14.629               Magadan2           457.156
       368   04 Jun 2027 04:51:15.760   04 Jun 2027 04:51:59.416            43.656               Magadan2          1364.250
       369   04 Jun 2027 04:52:36.608   04 Jun 2027 04:53:09.606            32.998               Magadan2          1031.187
       370   04 Jun 2027 06:25:34.592   04 Jun 2027 06:26:46.659            72.067                Anadyr1          2252.094
       371   04 Jun 2027 06:26:46.659   04 Jun 2027 06:29:14.647           147.988                Anadyr2          4624.625
       372   04 Jun 2027 07:06:11.705   04 Jun 2027 07:06:46.128            34.423            RioGallegos          1075.719
       373   04 Jun 2027 08:00:07.734   04 Jun 2027 08:00:39.648            31.914                Irkutsk           997.312
       374   04 Jun 2027 08:00:42.889   04 Jun 2027 08:01:28.383            45.494                Irkutsk          1421.687
       375   04 Jun 2027 08:01:38.948   04 Jun 2027 08:02:23.589            44.641               Magadan1          1395.031
       376   04 Jun 2027 08:02:23.589   04 Jun 2027 08:04:15.592           112.003               Magadan2          3500.094
       377   04 Jun 2027 08:04:23.294   04 Jun 2027 08:05:01.671            38.377              Murmansk1          1199.281
       378   04 Jun 2027 08:05:04.620   04 Jun 2027 08:05:11.604             6.984               Magadan2           218.250
       379   04 Jun 2027 08:05:16.280   04 Jun 2027 08:05:31.604            15.324                Irkutsk           478.875
       380   04 Jun 2027 08:05:38.304   04 Jun 2027 08:05:40.702             2.398                Norilsk            74.938
       381   04 Jun 2027 08:05:44.687   04 Jun 2027 08:06:38.954            54.267                Novosib          1695.844
       382   04 Jun 2027 08:06:55.184   04 Jun 2027 08:07:37.242            42.058              Murmansk2          1314.313
       383   04 Jun 2027 08:08:24.473   04 Jun 2027 08:08:39.731            15.258              Murmansk2           476.812
       384   04 Jun 2027 08:40:17.562   04 Jun 2027 08:41:28.539            70.977            RioGallegos          2218.031
       385   04 Jun 2027 09:15:42.772   04 Jun 2027 09:16:30.138            47.366                Sumatra          1480.187
       386   04 Jun 2027 09:17:54.604   04 Jun 2027 09:18:24.868            30.264                Sumatra           945.750
       387   04 Jun 2027 09:28:53.440   04 Jun 2027 09:29:42.818            49.378                  Delhi          1543.062
       388   04 Jun 2027 09:36:55.583   04 Jun 2027 09:37:28.376            32.793                Novosib          1024.781
       389   04 Jun 2027 09:37:40.104   04 Jun 2027 09:37:55.449            15.345                Novosib           479.531
       390   04 Jun 2027 09:38:00.773   04 Jun 2027 09:38:10.297             9.524                Novosib           297.625
       391   04 Jun 2027 09:38:11.492   04 Jun 2027 09:39:10.094            58.602                Novosib          1831.312
       392   04 Jun 2027 09:39:20.602   04 Jun 2027 09:39:33.758            13.156              Murmansk2           411.125
       393   04 Jun 2027 09:39:38.084   04 Jun 2027 09:39:44.283             6.199                Norilsk           193.719
       394   04 Jun 2027 09:39:44.763   04 Jun 2027 09:40:09.357            24.594                Irkutsk           768.563
       395   04 Jun 2027 09:40:11.753   04 Jun 2027 09:40:27.289            15.536                Novosib           485.500
       396   04 Jun 2027 09:40:50.931   04 Jun 2027 09:41:06.235            15.304              Murmansk2           478.250
       397   04 Jun 2027 09:41:07.596   04 Jun 2027 09:41:38.247            30.651                Norilsk           957.844
       398   04 Jun 2027 09:43:06.367   04 Jun 2027 09:43:11.168             4.801              Murmansk1           150.031
       399   04 Jun 2027 09:44:24.742   04 Jun 2027 09:44:44.918            20.176              Murmansk2           630.500
       400   04 Jun 2027 10:18:07.757   04 Jun 2027 10:19:44.143            96.386            RioGallegos          3012.062
       401   04 Jun 2027 10:52:57.883   04 Jun 2027 10:53:06.786             8.903                Sumatra           278.219
       402   04 Jun 2027 10:54:38.069   04 Jun 2027 10:55:41.765            63.696                Sumatra          1990.500
       403   04 Jun 2027 11:13:00.112   04 Jun 2027 11:13:30.595            30.483              Murmansk1           952.594
       404   04 Jun 2027 11:13:42.201   04 Jun 2027 11:13:57.811            15.610                 Moscow           487.813
       405   04 Jun 2027 11:13:59.728   04 Jun 2027 11:14:07.031             7.303                Novosib           228.219
       406   04 Jun 2027 11:14:29.310   04 Jun 2027 11:14:44.254            14.944                 Moscow           467.000
       407   04 Jun 2027 11:14:50.045   04 Jun 2027 11:15:01.842            11.797              Murmansk1           368.656
       408   04 Jun 2027 11:15:01.842   04 Jun 2027 11:15:01.956             0.114              Murmansk2             3.562
       409   04 Jun 2027 11:15:06.236   04 Jun 2027 11:15:17.796            11.560                Norilsk           361.250
       410   04 Jun 2027 11:15:18.650   04 Jun 2027 11:15:49.380            30.730              Murmansk1           960.313
       411   04 Jun 2027 11:15:53.892   04 Jun 2027 11:16:54.401            60.509                Norilsk          1890.906
       412   04 Jun 2027 11:16:58.433   04 Jun 2027 11:17:03.092             4.659                Norilsk           145.594
       413   04 Jun 2027 11:17:04.098   04 Jun 2027 11:17:44.255            40.157                 Moscow          1254.906
       414   04 Jun 2027 11:18:47.328   04 Jun 2027 11:18:54.147             6.819                 Moscow           213.094
       415   04 Jun 2027 12:37:39.472   04 Jun 2027 12:39:29.488           110.016                  Delhi          3438.000
       416   04 Jun 2027 12:40:19.030   04 Jun 2027 12:40:48.121            29.091                  Delhi           909.094
       417   04 Jun 2027 12:44:51.927   04 Jun 2027 12:45:24.633            32.706                 Moscow          1022.062
       418   04 Jun 2027 12:45:44.918   04 Jun 2027 12:46:29.056            44.138                 Moscow          1379.312
       419   04 Jun 2027 12:47:16.897   04 Jun 2027 12:49:59.220           162.323              Murmansk1          5072.594
       420   04 Jun 2027 14:00:57.018   04 Jun 2027 14:02:34.758            97.740               CapeTown          3054.375
       421   04 Jun 2027 14:03:53.207   04 Jun 2027 14:04:03.709            10.502               CapeTown           328.187
       422   04 Jun 2027 14:04:17.162   04 Jun 2027 14:05:15.612            58.450               CapeTown          1826.562
       423   04 Jun 2027 14:20:10.283   04 Jun 2027 14:21:41.406            91.123                 Moscow          2847.594
       424   04 Jun 2027 14:23:38.569   04 Jun 2027 14:26:16.492           157.923              Murmansk2          4935.094
       425   04 Jun 2027 14:38:53.314   04 Jun 2027 14:40:38.193           104.879                Anadyr1          3277.469
       426   04 Jun 2027 14:41:18.742   04 Jun 2027 14:41:48.913            30.171                Anadyr1           942.844
       427   04 Jun 2027 14:42:06.039   04 Jun 2027 14:43:02.210            56.171                Anadyr1          1755.344
       428   04 Jun 2027 15:33:17.110   04 Jun 2027 15:33:24.943             7.833               CapeTown           244.781
       429   04 Jun 2027 16:00:33.916   04 Jun 2027 16:01:17.625            43.709                 Moscow          1365.906
       430   04 Jun 2027 16:01:59.623   04 Jun 2027 16:03:30.349            90.726              Murmansk2          2835.188
       431   04 Jun 2027 16:06:15.164   04 Jun 2027 16:06:32.926            17.762              Murmansk1           555.063
       432   04 Jun 2027 16:13:56.120   04 Jun 2027 16:16:13.706           137.586                Anadyr2          4299.562
       433   04 Jun 2027 17:10:18.455   04 Jun 2027 17:11:16.215            57.760               CapeTown          1805.000
       434   04 Jun 2027 17:43:48.149   04 Jun 2027 17:46:33.161           165.012              Murmansk2          5156.625
       435   04 Jun 2027 17:49:46.572   04 Jun 2027 17:52:40.996           174.424                Anadyr2          5450.750
       436   04 Jun 2027 17:52:43.538   04 Jun 2027 17:54:25.657           102.119               Magadan1          3191.219
       437   04 Jun 2027 17:58:33.032   04 Jun 2027 17:58:36.895             3.863               Magadan1           120.719
       438   04 Jun 2027 18:00:04.245   04 Jun 2027 18:01:51.869           107.624               Magadan2          3363.250
       439   04 Jun 2027 19:25:41.382   04 Jun 2027 19:27:40.457           119.075                Anadyr1          3721.094
       440   04 Jun 2027 19:27:46.838   04 Jun 2027 19:29:14.091            87.253                Anadyr2          2726.656
       441   04 Jun 2027 19:29:16.209   04 Jun 2027 19:31:18.023           121.814               Magadan1          3806.687
       442   04 Jun 2027 19:31:19.774   04 Jun 2027 19:32:08.331            48.557                Norilsk          1517.406
       443   04 Jun 2027 20:20:14.863   04 Jun 2027 20:22:32.433           137.570            RioGallegos          4299.062
       444   04 Jun 2027 20:23:32.237   04 Jun 2027 20:24:14.368            42.131            RioGallegos          1316.594
       445   04 Jun 2027 21:03:24.852   04 Jun 2027 21:03:30.295             5.443                Anadyr1           170.094
       446   04 Jun 2027 21:03:32.650   04 Jun 2027 21:03:37.294             4.644                Norilsk           145.125
       447   04 Jun 2027 21:03:51.103   04 Jun 2027 21:04:12.633            21.530                Norilsk           672.813
       448   04 Jun 2027 21:04:22.460   04 Jun 2027 21:06:31.031           128.571               Magadan2          4017.844
       449   04 Jun 2027 21:07:46.376   04 Jun 2027 21:08:51.956            65.580                Irkutsk          2049.375
       450   04 Jun 2027 21:09:30.025   04 Jun 2027 21:10:42.749            72.724                Irkutsk          2272.625
       451   04 Jun 2027 21:10:46.767   04 Jun 2027 21:11:55.374            68.607                Novosib          2143.969
       452   04 Jun 2027 21:21:34.544   04 Jun 2027 21:22:30.057            55.513                Sumatra          1734.781
       453   04 Jun 2027 21:24:03.895   04 Jun 2027 21:24:40.685            36.790                Sumatra          1149.687
       454   04 Jun 2027 21:32:47.099   04 Jun 2027 21:33:49.571            62.472                Sumatra          1952.250
       455   04 Jun 2027 22:39:28.769   04 Jun 2027 22:39:49.943            21.174                Norilsk           661.688
       456   04 Jun 2027 22:40:06.543   04 Jun 2027 22:41:23.301            76.758               Magadan1          2398.687
       457   04 Jun 2027 22:43:20.402   04 Jun 2027 22:44:10.573            50.171                Irkutsk          1567.844
       458   04 Jun 2027 22:44:45.507   04 Jun 2027 22:44:52.815             7.308                Novosib           228.375
       459   04 Jun 2027 22:45:45.122   04 Jun 2027 22:46:49.579            64.457                Novosib          2014.281
       460   04 Jun 2027 22:49:23.858   04 Jun 2027 22:49:56.356            32.498                Novosib          1015.563
       461   04 Jun 2027 22:51:25.106   04 Jun 2027 22:52:42.086            76.980                  Delhi          2405.625
       462   04 Jun 2027 22:54:00.632   04 Jun 2027 22:54:42.967            42.335                  Delhi          1322.969
       463   05 Jun 2027 00:09:42.622   05 Jun 2027 00:10:12.702            30.080                Anadyr2           940.000
       464   05 Jun 2027 00:11:02.466   05 Jun 2027 00:11:45.484            43.018                Anadyr1          1344.313
       465   05 Jun 2027 00:12:11.711   05 Jun 2027 00:12:12.490             0.779                Anadyr2            24.344
       466   05 Jun 2027 00:12:32.355   05 Jun 2027 00:12:49.046            16.691                Anadyr2           521.594
       467   05 Jun 2027 00:15:14.703   05 Jun 2027 00:15:24.654             9.951                Anadyr1           310.969
       468   05 Jun 2027 00:15:28.236   05 Jun 2027 00:16:21.754            53.518                Norilsk          1672.438
       469   05 Jun 2027 00:16:34.909   05 Jun 2027 00:17:24.632            49.723                Norilsk          1553.844
       470   05 Jun 2027 00:17:39.680   05 Jun 2027 00:18:37.145            57.465               Magadan1          1795.781
       471   05 Jun 2027 00:18:57.676   05 Jun 2027 00:20:03.485            65.809              Murmansk2          2056.531
       472   05 Jun 2027 00:21:30.954   05 Jun 2027 00:21:59.225            28.271                Novosib           883.469
       473   05 Jun 2027 00:22:43.593   05 Jun 2027 00:22:56.462            12.869              Murmansk2           402.156
       474   05 Jun 2027 00:22:57.255   05 Jun 2027 00:23:30.075            32.820                 Moscow          1025.625
       475   05 Jun 2027 00:24:07.445   05 Jun 2027 00:24:54.314            46.869                 Moscow          1464.656
       476   05 Jun 2027 00:25:21.794   05 Jun 2027 00:26:04.186            42.392              Murmansk2          1324.750
       477   05 Jun 2027 00:26:29.851   05 Jun 2027 00:26:36.821             6.970                 Moscow           217.813
       478   05 Jun 2027 00:27:28.386   05 Jun 2027 00:28:55.817            87.431                 Moscow          2732.219
       479   05 Jun 2027 01:43:05.634   05 Jun 2027 01:43:12.996             7.362                Anadyr2           230.062
       480   05 Jun 2027 01:43:13.077   05 Jun 2027 01:43:20.162             7.085                Anadyr1           221.406
       481   05 Jun 2027 01:43:31.321   05 Jun 2027 01:43:42.972            11.651                Anadyr2           364.094
       482   05 Jun 2027 01:44:04.321   05 Jun 2027 01:44:12.068             7.747                Anadyr1           242.094
