uniorb/output/strategy_1/Drop/Drop_KinoSat_110610.txt

KinoSat_110610
-------------------------
    Access    *     Start Time (UTCG)     *     Stop Time (UTCG)  *   Duration (s)        *       Station  *  Data (Mbytes)
         1   01 Jun 2027 04:31:16.190   01 Jun 2027 04:31:38.672            22.482               Magadan2           702.562
         2   01 Jun 2027 04:31:38.672   01 Jun 2027 04:32:50.922            72.250               Magadan1          2257.813
         3   01 Jun 2027 04:32:50.922   01 Jun 2027 04:33:07.653            16.731               Magadan2           522.844
         4   01 Jun 2027 04:33:19.062   01 Jun 2027 04:36:10.886           171.824               Magadan1          5369.500
         5   01 Jun 2027 04:36:29.467   01 Jun 2027 04:38:02.266            92.799               Magadan2          2899.969
         6   01 Jun 2027 04:38:02.266   01 Jun 2027 04:38:13.295            11.029               Magadan1           344.656
         7   01 Jun 2027 04:38:33.429   01 Jun 2027 04:38:40.415             6.986              Murmansk1           218.312
         8   01 Jun 2027 04:39:45.345   01 Jun 2027 04:40:37.606            52.261              Murmansk2          1633.156
         9   01 Jun 2027 05:13:30.619   01 Jun 2027 05:14:39.694            69.075            RioGallegos          2158.594
        10   01 Jun 2027 05:14:44.410   01 Jun 2027 05:15:27.207            42.797            RioGallegos          1337.406
        11   01 Jun 2027 05:15:38.411   01 Jun 2027 05:15:56.964            18.553            RioGallegos           579.781
        12   01 Jun 2027 05:16:25.014   01 Jun 2027 05:16:50.681            25.667            RioGallegos           802.094
        13   01 Jun 2027 05:17:19.004   01 Jun 2027 05:17:23.185             4.181            RioGallegos           130.656
        14   01 Jun 2027 05:18:07.711   01 Jun 2027 05:19:34.986            87.275            RioGallegos          2727.344
        15   01 Jun 2027 05:52:16.150   01 Jun 2027 05:53:18.144            61.994                Sumatra          1937.312
        16   01 Jun 2027 05:54:44.528   01 Jun 2027 05:56:45.102           120.574                Sumatra          3767.938
        17   01 Jun 2027 06:08:50.458   01 Jun 2027 06:09:20.041            29.583               Magadan1           924.469
        18   01 Jun 2027 06:09:31.489   01 Jun 2027 06:13:22.027           230.538                Norilsk          7204.312
        19   01 Jun 2027 06:13:22.381   01 Jun 2027 06:13:43.715            21.334                Irkutsk           666.688
        20   01 Jun 2027 06:13:50.802   01 Jun 2027 06:14:10.815            20.013                Norilsk           625.406
        21   01 Jun 2027 06:48:59.467   01 Jun 2027 06:50:00.947            61.480            RioGallegos          1921.250
        22   01 Jun 2027 07:23:39.603   01 Jun 2027 07:25:31.118           111.515                Sumatra          3484.844
        23   01 Jun 2027 07:33:00.758   01 Jun 2027 07:33:16.538            15.780                Sumatra           493.125
        24   01 Jun 2027 07:33:49.752   01 Jun 2027 07:36:23.429           153.677                  Delhi          4802.406
        25   01 Jun 2027 07:46:20.216   01 Jun 2027 07:48:36.556           136.340              Murmansk1          4260.625
        26   01 Jun 2027 07:48:48.662   01 Jun 2027 07:52:04.309           195.647                 Moscow          6113.969
        27   01 Jun 2027 07:52:04.868   01 Jun 2027 07:53:25.535            80.667                Norilsk          2520.844
        28   01 Jun 2027 07:53:29.021   01 Jun 2027 07:55:47.934           138.913              Murmansk1          4341.031
        29   01 Jun 2027 07:56:13.750   01 Jun 2027 07:56:47.576            33.826              Murmansk1          1057.062
        30   01 Jun 2027 08:29:12.417   01 Jun 2027 08:29:27.880            15.463            RioGallegos           483.219
        31   01 Jun 2027 08:29:59.946   01 Jun 2027 08:30:36.347            36.401            RioGallegos          1137.531
        32   01 Jun 2027 09:07:58.816   01 Jun 2027 09:10:50.963           172.147                  Delhi          5379.594
        33   01 Jun 2027 09:23:37.121   01 Jun 2027 09:25:07.459            90.338                 Moscow          2823.063
        34   01 Jun 2027 09:25:13.446   01 Jun 2027 09:26:19.836            66.390              Murmansk1          2074.688
        35   01 Jun 2027 09:26:26.974   01 Jun 2027 09:27:06.826            39.852              Murmansk1          1245.375
        36   01 Jun 2027 09:28:01.358   01 Jun 2027 09:28:28.710            27.352                Norilsk           854.750
        37   01 Jun 2027 10:57:26.849   01 Jun 2027 10:58:29.433            62.584                 Moscow          1955.750
        38   01 Jun 2027 10:58:55.135   01 Jun 2027 11:03:13.363           258.228                 Moscow          8069.625
        39   01 Jun 2027 11:03:28.736   01 Jun 2027 11:05:02.799            94.063              Murmansk1          2939.469
        40   01 Jun 2027 11:05:02.799   01 Jun 2027 11:05:11.760             8.961              Murmansk2           280.031
        41   01 Jun 2027 11:05:20.057   01 Jun 2027 11:05:29.215             9.158              Murmansk2           286.188
        42   01 Jun 2027 11:07:52.339   01 Jun 2027 11:08:01.379             9.040              Murmansk2           282.500
        43   01 Jun 2027 12:06:51.419   01 Jun 2027 12:13:37.941           406.522               CapeTown         12703.813
        44   01 Jun 2027 12:32:47.742   01 Jun 2027 12:34:15.911            88.169              Murmansk2          2755.281
        45   01 Jun 2027 12:46:47.409   01 Jun 2027 12:49:29.428           162.019                Anadyr2          5063.094
        46   01 Jun 2027 12:49:53.226   01 Jun 2027 12:52:27.148           153.922                Anadyr1          4810.063
        47   01 Jun 2027 12:52:57.538   01 Jun 2027 12:56:17.274           199.736                Anadyr2          6241.750
        48   01 Jun 2027 14:22:19.716   01 Jun 2027 14:22:32.283            12.567                Anadyr1           392.719
        49   01 Jun 2027 14:23:25.039   01 Jun 2027 14:24:39.978            74.939                Anadyr1          2341.844
        50   01 Jun 2027 14:25:45.068   01 Jun 2027 14:32:19.738           394.670               Magadan1         12333.437
        51   01 Jun 2027 14:33:18.348   01 Jun 2027 14:33:31.657            13.309               Magadan2           415.906
        52   01 Jun 2027 16:00:35.873   01 Jun 2027 16:01:56.789            80.916               Magadan1          2528.625
        53   01 Jun 2027 16:01:56.789   01 Jun 2027 16:03:09.677            72.888               Magadan2          2277.750
        54   01 Jun 2027 16:03:15.032   01 Jun 2027 16:04:31.303            76.271               Magadan2          2383.469
        55   01 Jun 2027 16:56:17.629   01 Jun 2027 16:57:40.578            82.949            RioGallegos          2592.156
        56   01 Jun 2027 17:34:04.753   01 Jun 2027 17:34:52.685            47.932                Anadyr1          1497.875
        57   01 Jun 2027 17:34:58.723   01 Jun 2027 17:35:16.437            17.714                Anadyr2           553.563
        58   01 Jun 2027 17:36:20.790   01 Jun 2027 17:39:40.673           199.883                Norilsk          6246.344
        59   01 Jun 2027 17:41:38.262   01 Jun 2027 17:49:04.622           446.360                Irkutsk         13948.750
        60   01 Jun 2027 17:57:22.595   01 Jun 2027 18:03:40.843           378.248                Sumatra         11820.250
        61   01 Jun 2027 19:17:56.262   01 Jun 2027 19:24:35.835           399.573                Novosib         12486.656
        62   01 Jun 2027 20:51:22.227   01 Jun 2027 20:55:06.022           223.795              Murmansk1          6993.594
        63   01 Jun 2027 22:26:11.472   01 Jun 2027 22:27:40.875            89.403              Murmansk2          2793.844
        64   01 Jun 2027 22:27:56.213   01 Jun 2027 22:32:13.990           257.777              Murmansk1          8055.531
        65   01 Jun 2027 22:33:08.673   01 Jun 2027 22:38:08.888           300.215                 Moscow          9381.719
        66   01 Jun 2027 22:57:04.928   01 Jun 2027 23:04:12.543           427.615               CapeTown         13362.969
        67   02 Jun 2027 03:01:35.754   02 Jun 2027 03:01:45.651             9.897               Magadan2           309.281
        68   02 Jun 2027 03:02:32.596   02 Jun 2027 03:03:22.369            49.773               Magadan2          1555.406
        69   02 Jun 2027 03:05:53.667   02 Jun 2027 03:08:52.326           178.659                Anadyr1          5583.094
        70   02 Jun 2027 03:08:52.326   02 Jun 2027 03:09:18.201            25.875                Anadyr2           808.594
        71   02 Jun 2027 03:09:19.485   02 Jun 2027 03:09:41.793            22.308                Anadyr1           697.125
        72   02 Jun 2027 03:09:56.325   02 Jun 2027 03:11:45.296           108.971                Anadyr1          3405.344
        73   02 Jun 2027 03:13:16.318   02 Jun 2027 03:13:36.728            20.410                Anadyr2           637.812
        74   02 Jun 2027 03:14:09.449   02 Jun 2027 03:14:28.251            18.802               Magadan1           587.563
        75   02 Jun 2027 04:43:38.410   02 Jun 2027 04:44:15.390            36.980                Irkutsk          1155.625
        76   02 Jun 2027 04:44:20.242   02 Jun 2027 04:45:35.612            75.370                Anadyr1          2355.312
        77   02 Jun 2027 04:45:35.612   02 Jun 2027 04:45:53.586            17.974                Anadyr2           561.688
        78   02 Jun 2027 04:45:54.722   02 Jun 2027 04:45:59.349             4.627                Anadyr1           144.594
        79   02 Jun 2027 04:46:01.397   02 Jun 2027 04:49:32.077           210.680                Irkutsk          6583.750
        80   02 Jun 2027 04:49:51.558   02 Jun 2027 04:50:11.043            19.485               Magadan1           608.906
        81   02 Jun 2027 05:25:17.278   02 Jun 2027 05:26:19.041            61.763            RioGallegos          1930.094
        82   02 Jun 2027 05:28:02.031   02 Jun 2027 05:28:19.046            17.015            RioGallegos           531.719
        83   02 Jun 2027 05:28:43.127   02 Jun 2027 05:29:16.073            32.946            RioGallegos          1029.562
        84   02 Jun 2027 06:02:43.515   02 Jun 2027 06:04:51.805           128.290                Sumatra          4009.062
        85   02 Jun 2027 06:06:33.277   02 Jun 2027 06:08:41.616           128.339                Sumatra          4010.594
        86   02 Jun 2027 06:19:50.196   02 Jun 2027 06:20:10.195            19.999                Novosib           624.969
        87   02 Jun 2027 06:20:58.654   02 Jun 2027 06:21:46.724            48.070                Irkutsk          1502.187
        88   02 Jun 2027 06:21:52.646   02 Jun 2027 06:23:43.962           111.316               Magadan1          3478.625
        89   02 Jun 2027 06:23:50.295   02 Jun 2027 06:24:04.726            14.431               Magadan1           450.969
        90   02 Jun 2027 06:24:15.338   02 Jun 2027 06:24:41.574            26.236              Murmansk1           819.875
        91   02 Jun 2027 06:24:41.574   02 Jun 2027 06:24:51.404             9.830              Murmansk2           307.187
        92   02 Jun 2027 06:25:02.988   02 Jun 2027 06:26:10.411            67.423                Irkutsk          2106.969
        93   02 Jun 2027 06:26:10.989   02 Jun 2027 06:28:34.670           143.681              Murmansk1          4490.031
        94   02 Jun 2027 07:01:12.961   02 Jun 2027 07:01:56.173            43.212            RioGallegos          1350.375
        95   02 Jun 2027 07:03:31.975   02 Jun 2027 07:03:55.385            23.410            RioGallegos           731.562
        96   02 Jun 2027 07:05:10.490   02 Jun 2027 07:06:01.101            50.611            RioGallegos          1581.594
        97   02 Jun 2027 07:35:43.179   02 Jun 2027 07:37:44.757           121.578                Sumatra          3799.312
        98   02 Jun 2027 07:45:15.629   02 Jun 2027 07:46:09.677            54.048                  Delhi          1689.000
        99   02 Jun 2027 07:48:32.810   02 Jun 2027 07:48:47.425            14.615                  Delhi           456.719
       100   02 Jun 2027 07:50:26.986   02 Jun 2027 07:50:33.393             6.407                  Delhi           200.219
       101   02 Jun 2027 07:51:28.936   02 Jun 2027 07:52:11.278            42.342                  Delhi          1323.188
       102   02 Jun 2027 07:56:01.473   02 Jun 2027 07:56:13.088            11.615                  Delhi           362.969
       103   02 Jun 2027 07:57:41.464   02 Jun 2027 07:58:26.290            44.826                Irkutsk          1400.813
       104   02 Jun 2027 07:58:39.096   02 Jun 2027 07:59:35.587            56.491              Murmansk1          1765.344
       105   02 Jun 2027 07:59:37.411   02 Jun 2027 07:59:56.306            18.895              Murmansk1           590.469
       106   02 Jun 2027 08:00:02.978   02 Jun 2027 08:00:35.337            32.359              Murmansk1          1011.219
       107   02 Jun 2027 08:00:38.826   02 Jun 2027 08:00:58.892            20.066                 Moscow           627.063
       108   02 Jun 2027 08:01:16.694   02 Jun 2027 08:04:18.649           181.955                 Moscow          5686.094
       109   02 Jun 2027 09:20:12.236   02 Jun 2027 09:21:18.105            65.869                  Delhi          2058.406
       110   02 Jun 2027 09:22:51.224   02 Jun 2027 09:25:10.557           139.333                  Delhi          4354.156
       111   02 Jun 2027 09:34:31.490   02 Jun 2027 09:34:48.941            17.451                 Moscow           545.344
       112   02 Jun 2027 09:34:54.144   02 Jun 2027 09:36:02.589            68.445                Norilsk          2138.906
       113   02 Jun 2027 09:36:16.112   02 Jun 2027 09:39:08.480           172.368              Murmansk2          5386.500
       114   02 Jun 2027 09:39:45.069   02 Jun 2027 09:40:35.799            50.730                 Moscow          1585.313
       115   02 Jun 2027 11:10:43.651   02 Jun 2027 11:11:08.818            25.167                 Moscow           786.469
       116   02 Jun 2027 11:11:19.027   02 Jun 2027 11:12:31.274            72.247              Murmansk2          2257.719
       117   02 Jun 2027 11:13:00.660   02 Jun 2027 11:14:38.523            97.863              Murmansk2          3058.219
       118   02 Jun 2027 12:18:30.847   02 Jun 2027 12:24:51.927           381.080               CapeTown         11908.750
       119   02 Jun 2027 12:45:06.354   02 Jun 2027 12:45:44.067            37.713              Murmansk1          1178.531
       120   02 Jun 2027 12:45:44.067   02 Jun 2027 12:46:58.289            74.222              Murmansk2          2319.438
       121   02 Jun 2027 12:58:42.669   02 Jun 2027 13:04:40.153           357.484                Anadyr2         11171.375
       122   02 Jun 2027 13:06:13.682   02 Jun 2027 13:08:14.383           120.701                Anadyr2          3771.906
       123   02 Jun 2027 14:34:20.377   02 Jun 2027 14:35:34.655            74.278                Anadyr1          2321.187
       124   02 Jun 2027 14:36:10.840   02 Jun 2027 14:36:58.759            47.919                Anadyr2          1497.469
       125   02 Jun 2027 14:37:29.475   02 Jun 2027 14:46:17.312           527.837               Magadan1         16494.906
       126   02 Jun 2027 16:12:34.954   02 Jun 2027 16:14:51.085           136.131               Magadan1          4254.094
       127   02 Jun 2027 16:14:51.085   02 Jun 2027 16:15:07.933            16.848               Magadan2           526.500
       128   02 Jun 2027 16:15:28.869   02 Jun 2027 16:16:33.659            64.790               Magadan2          2024.688
       129   02 Jun 2027 17:06:35.270   02 Jun 2027 17:11:55.741           320.471            RioGallegos         10014.719
       130   02 Jun 2027 17:48:16.467   02 Jun 2027 17:50:00.753           104.286                Norilsk          3258.938
       131   02 Jun 2027 17:52:04.108   02 Jun 2027 17:52:31.659            27.551                Norilsk           860.969
       132   02 Jun 2027 17:53:29.579   02 Jun 2027 17:59:54.626           385.047                Irkutsk         12032.719
       133   02 Jun 2027 18:08:12.438   02 Jun 2027 18:16:44.744           512.306                Sumatra         16009.563
       134   02 Jun 2027 19:31:52.169   02 Jun 2027 19:35:09.238           197.069                Novosib          6158.406
       135   02 Jun 2027 19:38:45.127   02 Jun 2027 19:43:57.799           312.672                  Delhi          9771.000
       136   02 Jun 2027 21:03:00.913   02 Jun 2027 21:08:09.647           308.734              Murmansk2          9647.938
       137   02 Jun 2027 22:41:01.458   02 Jun 2027 22:44:07.464           186.006              Murmansk1          5812.687
       138   02 Jun 2027 22:45:22.181   02 Jun 2027 22:45:42.004            19.823                 Moscow           619.469
       139   02 Jun 2027 22:48:47.053   02 Jun 2027 22:50:12.203            85.150                 Moscow          2660.937
       140   02 Jun 2027 23:08:08.126   02 Jun 2027 23:16:21.809           493.683               CapeTown         15427.594
       141   03 Jun 2027 02:22:55.845   03 Jun 2027 02:23:16.615            20.770               CapeTown           649.063
       142   03 Jun 2027 03:13:34.552   03 Jun 2027 03:13:48.418            13.866               Magadan2           433.312
       143   03 Jun 2027 03:18:08.284   03 Jun 2027 03:18:16.351             8.067               Magadan1           252.094
       144   03 Jun 2027 03:19:01.845   03 Jun 2027 03:19:05.605             3.760               Magadan1           117.500
       145   03 Jun 2027 03:19:21.908   03 Jun 2027 03:19:25.148             3.240               Magadan1           101.250
       146   03 Jun 2027 03:20:30.609   03 Jun 2027 03:23:41.419           190.810               Magadan1          5962.813
       147   03 Jun 2027 03:24:38.342   03 Jun 2027 03:24:57.738            19.396                Anadyr1           606.125
       148   03 Jun 2027 03:25:13.710   03 Jun 2027 03:25:31.550            17.840                Anadyr1           557.500
       149   03 Jun 2027 03:25:41.255   03 Jun 2027 03:26:29.581            48.326               Magadan1          1510.187
       150   03 Jun 2027 04:55:56.862   03 Jun 2027 04:57:57.689           120.827                Irkutsk          3775.844
       151   03 Jun 2027 04:58:00.390   03 Jun 2027 04:59:35.945            95.555                Anadyr1          2986.094
       152   03 Jun 2027 04:59:35.945   03 Jun 2027 05:00:58.762            82.817                Anadyr2          2588.031
       153   03 Jun 2027 05:01:06.842   03 Jun 2027 05:01:59.873            53.031               Magadan1          1657.219
       154   03 Jun 2027 05:02:06.929   03 Jun 2027 05:02:31.202            24.273                Norilsk           758.531
       155   03 Jun 2027 05:04:35.791   03 Jun 2027 05:04:41.548             5.757              Murmansk2           179.906
       156   03 Jun 2027 05:37:07.108   03 Jun 2027 05:39:03.845           116.737            RioGallegos          3648.031
       157   03 Jun 2027 05:39:25.646   03 Jun 2027 05:40:06.233            40.587            RioGallegos          1268.344
       158   03 Jun 2027 05:40:46.863   03 Jun 2027 05:41:14.236            27.373            RioGallegos           855.406
       159   03 Jun 2027 06:13:46.796   03 Jun 2027 06:16:21.279           154.483                Sumatra          4827.594
       160   03 Jun 2027 06:20:13.208   03 Jun 2027 06:20:43.711            30.503                Sumatra           953.219
       161   03 Jun 2027 06:32:46.664   03 Jun 2027 06:34:45.971           119.307                Norilsk          3728.344
       162   03 Jun 2027 06:34:48.383   03 Jun 2027 06:35:13.532            25.149                Irkutsk           785.906
       163   03 Jun 2027 06:35:26.575   03 Jun 2027 06:36:10.132            43.557              Murmansk1          1361.156
       164   03 Jun 2027 06:36:10.132   03 Jun 2027 06:36:52.579            42.447              Murmansk2          1326.469
       165   03 Jun 2027 06:36:57.602   03 Jun 2027 06:37:27.923            30.321                Norilsk           947.531
       166   03 Jun 2027 06:37:28.529   03 Jun 2027 06:39:19.463           110.934              Murmansk1          3466.687
       167   03 Jun 2027 07:13:30.552   03 Jun 2027 07:13:54.624            24.072            RioGallegos           752.250
       168   03 Jun 2027 07:47:52.559   03 Jun 2027 07:49:21.924            89.365                Sumatra          2792.656
       169   03 Jun 2027 07:56:49.218   03 Jun 2027 07:59:52.964           183.746                  Delhi          5742.062
       170   03 Jun 2027 08:10:19.720   03 Jun 2027 08:11:26.355            66.635              Murmansk1          2082.344
       171   03 Jun 2027 08:11:26.355   03 Jun 2027 08:11:44.746            18.391              Murmansk2           574.719
       172   03 Jun 2027 08:11:59.117   03 Jun 2027 08:14:56.727           177.610              Murmansk2          5550.312
       173   03 Jun 2027 08:15:17.762   03 Jun 2027 08:16:26.379            68.617                 Moscow          2144.281
       174   03 Jun 2027 09:32:32.225   03 Jun 2027 09:33:08.050            35.825                  Delhi          1119.531
       175   03 Jun 2027 09:46:51.063   03 Jun 2027 09:49:04.155           133.092                Norilsk          4159.125
       176   03 Jun 2027 09:49:11.883   03 Jun 2027 09:52:23.449           191.566                Norilsk          5986.437
       177   03 Jun 2027 11:23:06.314   03 Jun 2027 11:24:09.722            63.408              Murmansk1          1981.500
       178   03 Jun 2027 11:24:30.831   03 Jun 2027 11:24:32.496             1.665                 Moscow            52.031
       179   03 Jun 2027 11:24:42.534   03 Jun 2027 11:25:30.008            47.474              Murmansk2          1483.563
       180   03 Jun 2027 11:37:52.741   03 Jun 2027 11:38:06.388            13.647                Anadyr2           426.469
       181   03 Jun 2027 12:30:15.890   03 Jun 2027 12:34:14.451           238.561               CapeTown          7455.031
       182   03 Jun 2027 12:57:27.145   03 Jun 2027 12:59:03.363            96.218              Murmansk1          3006.812
       183   03 Jun 2027 13:00:09.976   03 Jun 2027 13:00:38.876            28.900              Murmansk2           903.125
       184   03 Jun 2027 13:01:54.122   03 Jun 2027 13:02:03.130             9.008              Murmansk2           281.500
       185   03 Jun 2027 13:02:59.329   03 Jun 2027 13:03:12.325            12.996              Murmansk1           406.125
       186   03 Jun 2027 13:06:33.984   03 Jun 2027 13:06:58.980            24.996              Murmansk2           781.125
       187   03 Jun 2027 13:10:39.254   03 Jun 2027 13:17:01.061           381.807                Anadyr2         11931.469
       188   03 Jun 2027 14:46:21.264   03 Jun 2027 14:47:33.589            72.325                Anadyr2          2260.156
       189   03 Jun 2027 14:47:39.580   03 Jun 2027 14:49:23.622           104.042                Anadyr1          3251.313
       190   03 Jun 2027 14:50:41.553   03 Jun 2027 14:57:21.589           400.036               Magadan2         12501.125
       191   03 Jun 2027 14:57:21.589   03 Jun 2027 14:58:56.133            94.544               Magadan1          2954.500
       192   03 Jun 2027 16:24:34.645   03 Jun 2027 16:27:03.866           149.221               Magadan1          4663.156
       193   03 Jun 2027 17:17:52.693   03 Jun 2027 17:25:07.909           435.216            RioGallegos         13600.500
       194   03 Jun 2027 18:02:13.774   03 Jun 2027 18:04:05.875           112.101                Norilsk          3503.156
       195   03 Jun 2027 18:06:07.632   03 Jun 2027 18:11:09.471           301.839                Irkutsk          9432.469
       196   03 Jun 2027 18:19:25.224   03 Jun 2027 18:27:15.401           470.177                Sumatra         14693.031
       197   03 Jun 2027 19:49:35.283   03 Jun 2027 19:57:20.530           465.247                  Delhi         14538.969
       198   03 Jun 2027 21:14:48.256   03 Jun 2027 21:15:03.275            15.019              Murmansk2           469.344
       199   03 Jun 2027 21:15:58.460   03 Jun 2027 21:21:02.565           304.105              Murmansk1          9503.281
       200   03 Jun 2027 22:53:55.248   03 Jun 2027 22:54:11.541            16.293              Murmansk2           509.156
       201   03 Jun 2027 23:19:24.056   03 Jun 2027 23:21:34.239           130.183               CapeTown          4068.219
       202   03 Jun 2027 23:22:15.096   03 Jun 2027 23:26:48.074           272.978               CapeTown          8530.563
       203   04 Jun 2027 01:50:44.423   04 Jun 2027 01:51:00.999            16.576               Magadan2           518.000
       204   04 Jun 2027 01:51:29.041   04 Jun 2027 01:52:16.256            47.215               Magadan2          1475.469
       205   04 Jun 2027 01:52:53.646   04 Jun 2027 01:53:19.226            25.580               Magadan2           799.375
       206   04 Jun 2027 01:58:26.804   04 Jun 2027 01:58:34.786             7.982                Norilsk           249.438
       207   04 Jun 2027 01:58:57.383   04 Jun 2027 01:59:21.674            24.291               Magadan1           759.094
       208   04 Jun 2027 01:59:38.342   04 Jun 2027 01:59:50.395            12.053                Norilsk           376.656
       209   04 Jun 2027 02:00:03.493   04 Jun 2027 02:00:16.664            13.171                Norilsk           411.594
       210   04 Jun 2027 02:02:03.696   04 Jun 2027 02:03:42.102            98.406              Murmansk2          3075.187
       211   04 Jun 2027 02:05:32.280   04 Jun 2027 02:06:16.511            44.231                 Moscow          1382.219
       212   04 Jun 2027 02:09:43.128   04 Jun 2027 02:09:59.525            16.397                 Moscow           512.406
       213   04 Jun 2027 02:12:38.818   04 Jun 2027 02:13:05.131            26.313                 Moscow           822.281
       214   04 Jun 2027 03:30:19.180   04 Jun 2027 03:30:34.693            15.513                Anadyr1           484.781
       215   04 Jun 2027 03:32:22.150   04 Jun 2027 03:34:02.697           100.547                Anadyr2          3142.094
       216   04 Jun 2027 03:34:12.826   04 Jun 2027 03:34:35.899            23.073               Magadan1           721.031
       217   04 Jun 2027 03:34:35.899   04 Jun 2027 03:35:08.609            32.710               Magadan2          1022.188
       218   04 Jun 2027 03:35:27.771   04 Jun 2027 03:35:41.657            13.886               Magadan2           433.938
       219   04 Jun 2027 03:36:15.752   04 Jun 2027 03:37:03.187            47.435               Magadan2          1482.344
       220   04 Jun 2027 03:37:12.708   04 Jun 2027 03:37:33.025            20.317                Anadyr2           634.906
       221   04 Jun 2027 03:37:38.723   04 Jun 2027 03:38:30.571            51.848               Magadan1          1620.250
       222   04 Jun 2027 05:08:27.070   04 Jun 2027 05:09:16.092            49.022               Magadan2          1531.938
       223   04 Jun 2027 05:09:16.092   04 Jun 2027 05:09:24.428             8.336               Magadan1           260.500
       224   04 Jun 2027 05:09:50.900   04 Jun 2027 05:13:45.925           235.025               Magadan1          7344.531
       225   04 Jun 2027 05:14:02.079   04 Jun 2027 05:14:57.589            55.510              Murmansk2          1734.687
       226   04 Jun 2027 05:15:00.807   04 Jun 2027 05:16:58.323           117.516                Norilsk          3672.375
       227   04 Jun 2027 05:18:40.448   04 Jun 2027 05:19:15.862            35.414                Norilsk          1106.687
       228   04 Jun 2027 05:49:00.099   04 Jun 2027 05:52:00.255           180.156            RioGallegos          5629.875
       229   04 Jun 2027 05:52:09.575   04 Jun 2027 05:52:55.431            45.856            RioGallegos          1433.000
       230   04 Jun 2027 06:25:06.901   04 Jun 2027 06:27:37.541           150.640                Sumatra          4707.500
       231   04 Jun 2027 06:28:21.196   04 Jun 2027 06:28:21.378             0.182                Sumatra             5.688
       232   04 Jun 2027 06:29:50.086   04 Jun 2027 06:31:15.193            85.107                Sumatra          2659.594
       233   04 Jun 2027 06:44:56.401   04 Jun 2027 06:45:18.103            21.702                Irkutsk           678.187
       234   04 Jun 2027 06:45:53.209   04 Jun 2027 06:47:09.888            76.679                Novosib          2396.219
       235   04 Jun 2027 06:47:14.301   04 Jun 2027 06:48:04.645            50.344              Murmansk1          1573.250
       236   04 Jun 2027 06:48:24.804   04 Jun 2027 06:52:24.056           239.252              Murmansk2          7476.625
       237   04 Jun 2027 06:52:24.056   04 Jun 2027 06:52:35.374            11.318              Murmansk1           353.687
       238   04 Jun 2027 06:55:54.470   04 Jun 2027 06:55:58.130             3.660              Murmansk1           114.375
       239   04 Jun 2027 06:55:58.130   04 Jun 2027 06:56:07.289             9.159              Murmansk2           286.219
       240   04 Jun 2027 07:25:52.661   04 Jun 2027 07:27:45.474           112.813            RioGallegos          3525.406
       241   04 Jun 2027 08:00:08.359   04 Jun 2027 08:01:06.332            57.973                Sumatra          1811.656
       242   04 Jun 2027 08:02:14.560   04 Jun 2027 08:03:47.045            92.485                Sumatra          2890.156
       243   04 Jun 2027 08:08:29.376   04 Jun 2027 08:12:24.167           234.791                  Delhi          7337.219
       244   04 Jun 2027 08:22:16.771   04 Jun 2027 08:22:38.693            21.922              Murmansk1           685.063
       245   04 Jun 2027 08:22:58.410   04 Jun 2027 08:23:31.679            33.269              Murmansk1          1039.656
       246   04 Jun 2027 08:23:31.679   04 Jun 2027 08:23:56.547            24.868              Murmansk2           777.125
       247   04 Jun 2027 08:24:02.573   04 Jun 2027 08:26:28.560           145.987                 Moscow          4562.094
       248   04 Jun 2027 09:44:59.940   04 Jun 2027 09:46:24.093            84.153                  Delhi          2629.781
       249   04 Jun 2027 09:47:52.727   04 Jun 2027 09:48:14.767            22.040                  Delhi           688.750
       250   04 Jun 2027 09:48:51.054   04 Jun 2027 09:49:28.200            37.146                  Delhi          1160.813
       251   04 Jun 2027 09:57:22.891   04 Jun 2027 09:57:42.232            19.341              Murmansk1           604.406
       252   04 Jun 2027 09:57:50.105   04 Jun 2027 09:58:22.184            32.079              Murmansk2          1002.469
       253   04 Jun 2027 09:58:32.086   04 Jun 2027 09:59:12.065            39.979              Murmansk1          1249.344
       254   04 Jun 2027 10:00:14.779   04 Jun 2027 10:00:37.835            23.056                Novosib           720.500
       255   04 Jun 2027 10:00:40.484   04 Jun 2027 10:01:55.193            74.709                Novosib          2334.656
       256   04 Jun 2027 11:48:17.475   04 Jun 2027 11:52:23.786           246.311                Anadyr2          7697.219
       257   04 Jun 2027 12:44:39.544   04 Jun 2027 12:45:28.644            49.100               CapeTown          1534.375
       258   04 Jun 2027 13:09:50.219   04 Jun 2027 13:10:51.691            61.472              Murmansk2          1921.000
       259   04 Jun 2027 13:13:41.537   04 Jun 2027 13:13:56.333            14.796              Murmansk1           462.375
       260   04 Jun 2027 13:22:36.860   04 Jun 2027 13:26:54.229           257.369                Anadyr1          8042.781
       261   04 Jun 2027 13:27:59.627   04 Jun 2027 13:28:04.912             5.285                Anadyr1           165.156
       262   04 Jun 2027 13:29:14.896   04 Jun 2027 13:31:10.719           115.823                Anadyr2          3619.469
       263   04 Jun 2027 14:50:26.778   04 Jun 2027 14:51:29.625            62.847              Murmansk2          1963.969
       264   04 Jun 2027 14:58:22.329   04 Jun 2027 14:59:33.084            70.755                Anadyr1          2211.094
       265   04 Jun 2027 15:00:14.302   04 Jun 2027 15:00:52.112            37.810                Anadyr2          1181.562
       266   04 Jun 2027 15:01:09.448   04 Jun 2027 15:04:10.156           180.708               Magadan2          5647.125
       267   04 Jun 2027 15:04:37.291   04 Jun 2027 15:06:54.808           137.517               Magadan1          4297.406
       268   04 Jun 2027 15:08:14.813   04 Jun 2027 15:10:38.681           143.868               Magadan2          4495.875
       269   04 Jun 2027 16:36:34.852   04 Jun 2027 16:38:43.902           129.050               Magadan1          4032.813
       270   04 Jun 2027 17:29:25.128   04 Jun 2027 17:36:16.134           411.006            RioGallegos         12843.937
       271   04 Jun 2027 18:14:24.594   04 Jun 2027 18:15:00.005            35.411                Norilsk          1106.594
       272   04 Jun 2027 18:16:41.274   04 Jun 2027 18:19:58.911           197.637                Irkutsk          6176.156
       273   04 Jun 2027 18:20:44.000   04 Jun 2027 18:22:40.992           116.992                Irkutsk          3656.000
       274   04 Jun 2027 18:31:58.817   04 Jun 2027 18:34:17.667           138.850                Sumatra          4339.062
       275   04 Jun 2027 18:35:16.985   04 Jun 2027 18:37:52.543           155.558                Sumatra          4861.188
       276   04 Jun 2027 19:53:38.982   04 Jun 2027 19:55:00.844            81.862                Novosib          2558.188
       277   04 Jun 2027 20:00:51.931   04 Jun 2027 20:08:42.096           470.165                  Delhi         14692.656
       278   04 Jun 2027 21:26:39.995   04 Jun 2027 21:28:09.832            89.837              Murmansk1          2807.406
       279   04 Jun 2027 21:28:12.113   04 Jun 2027 21:32:27.209           255.096              Murmansk2          7971.750
       280   04 Jun 2027 21:33:34.010   04 Jun 2027 21:33:49.016            15.006              Murmansk1           468.938
       281   04 Jun 2027 23:05:45.117   04 Jun 2027 23:07:08.142            83.025                 Moscow          2594.531
       282   04 Jun 2027 23:11:40.872   04 Jun 2027 23:12:33.026            52.154                 Moscow          1629.813
       283   04 Jun 2027 23:30:49.060   04 Jun 2027 23:31:53.095            64.035               CapeTown          2001.094
       284   04 Jun 2027 23:33:52.671   04 Jun 2027 23:37:45.658           232.987               CapeTown          7280.844
       285   05 Jun 2027 00:45:49.190   05 Jun 2027 00:45:50.883             1.693                 Moscow            52.906
       286   05 Jun 2027 00:46:02.844   05 Jun 2027 00:46:39.890            37.046                 Moscow          1157.688
       287   05 Jun 2027 01:05:25.543   05 Jun 2027 01:06:47.230            81.687               CapeTown          2552.719
       288   05 Jun 2027 02:02:10.737   05 Jun 2027 02:02:34.192            23.455                Anadyr2           732.969
       289   05 Jun 2027 02:02:55.895   05 Jun 2027 02:03:08.048            12.153                Anadyr1           379.781
       290   05 Jun 2027 02:03:28.673   05 Jun 2027 02:05:09.551           100.878               Magadan1          3152.437
       291   05 Jun 2027 02:05:17.245   05 Jun 2027 02:05:42.380            25.135               Magadan2           785.469
       292   05 Jun 2027 02:07:55.325   05 Jun 2027 02:08:01.169             5.844               Magadan2           182.625
       293   05 Jun 2027 02:08:32.123   05 Jun 2027 02:08:50.231            18.108               Magadan2           565.875
       294   05 Jun 2027 02:10:23.579   05 Jun 2027 02:10:23.828             0.249                Norilsk             7.781
       295   05 Jun 2027 02:10:37.226   05 Jun 2027 02:11:24.018            46.792               Magadan2          1462.250
       296   05 Jun 2027 02:14:04.265   05 Jun 2027 02:14:20.803            16.538              Murmansk2           516.812
       297   05 Jun 2027 02:14:20.803   05 Jun 2027 02:14:45.298            24.495              Murmansk1           765.469
       298   05 Jun 2027 02:15:59.365   05 Jun 2027 02:16:05.742             6.377              Murmansk1           199.281
       299   05 Jun 2027 02:16:27.770   05 Jun 2027 02:16:47.903            20.133              Murmansk2           629.156
       300   05 Jun 2027 02:17:37.913   05 Jun 2027 02:18:22.680            44.767                 Moscow          1398.969
       301   05 Jun 2027 02:19:22.837   05 Jun 2027 02:19:47.754            24.917                 Moscow           778.656
       302   05 Jun 2027 02:23:44.971   05 Jun 2027 02:24:26.091            41.120                 Moscow          1285.000
       303   05 Jun 2027 03:44:46.276   05 Jun 2027 03:45:17.107            30.831                Irkutsk           963.469
       304   05 Jun 2027 03:45:43.860   05 Jun 2027 03:47:18.807            94.947               Magadan1          2967.094
       305   05 Jun 2027 03:47:30.366   05 Jun 2027 03:49:04.324            93.958               Magadan2          2936.187
       306   05 Jun 2027 03:49:28.228   05 Jun 2027 03:50:31.851            63.623                Anadyr1          1988.219
       307   05 Jun 2027 05:21:18.699   05 Jun 2027 05:21:32.173            13.474               Magadan2           421.062
       308   05 Jun 2027 05:21:36.491   05 Jun 2027 05:22:21.233            44.742                Irkutsk          1398.187
       309   05 Jun 2027 05:22:27.801   05 Jun 2027 05:24:09.215           101.414               Magadan1          3169.188
       310   05 Jun 2027 05:24:09.215   05 Jun 2027 05:24:37.758            28.543               Magadan2           891.969
       311   05 Jun 2027 05:24:47.176   05 Jun 2027 05:25:07.185            20.009               Magadan2           625.281
       312   05 Jun 2027 05:25:11.313   05 Jun 2027 05:25:16.275             4.962               Magadan2           155.062
       313   05 Jun 2027 05:25:31.575   05 Jun 2027 05:26:05.394            33.819                Irkutsk          1056.844
       314   05 Jun 2027 05:26:52.570   05 Jun 2027 05:27:11.031            18.461                Novosib           576.906
       315   05 Jun 2027 05:27:16.118   05 Jun 2027 05:27:41.442            25.324                Norilsk           791.375
       316   05 Jun 2027 05:32:29.420   05 Jun 2027 05:32:43.228            13.808              Murmansk2           431.500
       317   05 Jun 2027 05:33:19.565   05 Jun 2027 05:33:28.859             9.294              Murmansk2           290.438
       318   05 Jun 2027 05:34:35.805   05 Jun 2027 05:34:38.131             2.326              Murmansk1            72.687
       319   05 Jun 2027 06:00:56.271   05 Jun 2027 06:04:12.074           195.803            RioGallegos          6118.844
       320   05 Jun 2027 06:04:56.536   05 Jun 2027 06:05:17.003            20.467            RioGallegos           639.594
       321   05 Jun 2027 06:10:13.115   05 Jun 2027 06:10:20.017             6.902            RioGallegos           215.688
       322   05 Jun 2027 06:36:38.023   05 Jun 2027 06:40:15.383           217.360                Sumatra          6792.500
       323   05 Jun 2027 06:41:55.364   05 Jun 2027 06:43:22.469            87.105                Sumatra          2722.031
       324   05 Jun 2027 06:57:56.578   05 Jun 2027 07:00:10.183           133.605                Irkutsk          4175.156
       325   05 Jun 2027 07:00:23.292   05 Jun 2027 07:00:53.749            30.457              Murmansk1           951.781
       326   05 Jun 2027 07:00:53.749   05 Jun 2027 07:01:33.339            39.590              Murmansk2          1237.188
       327   05 Jun 2027 07:01:56.511   05 Jun 2027 07:03:04.757            68.246                Norilsk          2132.687
       328   05 Jun 2027 07:03:07.292   05 Jun 2027 07:03:42.326            35.034                Novosib          1094.812
       329   05 Jun 2027 07:03:54.173   05 Jun 2027 07:04:19.170            24.997              Murmansk2           781.156
       330   05 Jun 2027 07:04:19.170   05 Jun 2027 07:04:46.284            27.114              Murmansk1           847.312
       331   05 Jun 2027 07:07:42.101   05 Jun 2027 07:08:04.420            22.319              Murmansk1           697.469
       332   05 Jun 2027 07:38:19.847   05 Jun 2027 07:39:44.069            84.222            RioGallegos          2631.937
       333   05 Jun 2027 07:41:03.906   05 Jun 2027 07:41:13.458             9.552            RioGallegos           298.500
       334   05 Jun 2027 07:42:42.938   05 Jun 2027 07:42:45.384             2.446            RioGallegos            76.437
       335   05 Jun 2027 08:12:31.792   05 Jun 2027 08:14:03.636            91.844                Sumatra          2870.125
       336   05 Jun 2027 08:15:30.444   05 Jun 2027 08:16:23.819            53.375                Sumatra          1667.969
       337   05 Jun 2027 08:20:15.427   05 Jun 2027 08:22:08.425           112.998                  Delhi          3531.188
       338   05 Jun 2027 08:22:21.531   05 Jun 2027 08:23:06.441            44.910                  Delhi          1403.438
       339   05 Jun 2027 08:33:45.819   05 Jun 2027 08:34:41.860            56.041                 Moscow          1751.281
       340   05 Jun 2027 08:34:51.556   05 Jun 2027 08:35:40.357            48.801                 Moscow          1525.031
       341   05 Jun 2027 08:35:42.184   05 Jun 2027 08:36:20.303            38.119              Murmansk1          1191.219
       342   05 Jun 2027 08:36:28.530   05 Jun 2027 08:36:57.285            28.755              Murmansk2           898.594
       343   05 Jun 2027 08:37:00.662   05 Jun 2027 08:37:47.299            46.637              Murmansk2          1457.406
       344   05 Jun 2027 08:40:31.901   05 Jun 2027 08:40:43.292            11.391                 Moscow           355.969
       345   05 Jun 2027 09:57:37.467   05 Jun 2027 10:00:36.611           179.144                  Delhi          5598.250
       346   05 Jun 2027 10:01:18.518   05 Jun 2027 10:01:45.994            27.476                  Delhi           858.625
       347   05 Jun 2027 10:09:41.034   05 Jun 2027 10:10:23.535            42.501              Murmansk2          1328.156
       348   05 Jun 2027 10:10:29.053   05 Jun 2027 10:11:12.858            43.805              Murmansk2          1368.906
       349   05 Jun 2027 10:11:33.273   05 Jun 2027 10:11:53.788            20.515                 Moscow           641.094
       350   05 Jun 2027 10:12:04.709   05 Jun 2027 10:12:08.263             3.554              Murmansk1           111.062
       351   05 Jun 2027 10:12:24.554   05 Jun 2027 10:12:26.759             2.205              Murmansk1            68.906
       352   05 Jun 2027 10:12:26.759   05 Jun 2027 10:12:55.891            29.132              Murmansk2           910.375
       353   05 Jun 2027 10:13:26.997   05 Jun 2027 10:14:10.871            43.874              Murmansk2          1371.063
       354   05 Jun 2027 11:50:13.355   05 Jun 2027 11:50:16.495             3.140                 Moscow            98.125
       355   05 Jun 2027 11:50:22.776   05 Jun 2027 11:51:04.740            41.964                 Moscow          1311.375
       356   05 Jun 2027 11:59:47.857   05 Jun 2027 12:05:32.976           345.119                Anadyr2         10784.969
       357   05 Jun 2027 13:22:15.685   05 Jun 2027 13:22:39.339            23.654              Murmansk1           739.188
       358   05 Jun 2027 13:22:50.290   05 Jun 2027 13:23:04.432            14.142              Murmansk1           441.937
       359   05 Jun 2027 13:25:37.338   05 Jun 2027 13:25:43.250             5.912              Murmansk1           184.750
       360   05 Jun 2027 13:25:55.430   05 Jun 2027 13:26:46.067            50.637              Murmansk1          1582.406
       361   05 Jun 2027 13:34:35.281   05 Jun 2027 13:38:24.477           229.196                Anadyr1          7162.375
       362   05 Jun 2027 13:40:55.664   05 Jun 2027 13:43:11.989           136.325                Anadyr2          4260.156
       363   05 Jun 2027 15:07:22.202   05 Jun 2027 15:07:34.674            12.472              Murmansk2           389.750
       364   05 Jun 2027 15:10:23.515   05 Jun 2027 15:11:10.846            47.331                Anadyr2          1479.094
       365   05 Jun 2027 15:11:10.846   05 Jun 2027 15:12:36.734            85.888                Anadyr1          2684.000
       366   05 Jun 2027 15:13:02.991   05 Jun 2027 15:18:58.920           355.929               Magadan1         11122.781
       367   05 Jun 2027 15:21:25.752   05 Jun 2027 15:22:33.557            67.805               Magadan1          2118.906
       368   05 Jun 2027 16:48:35.506   05 Jun 2027 16:49:51.870            76.364               Magadan2          2386.375
       369   05 Jun 2027 16:51:28.114   05 Jun 2027 16:51:47.507            19.393               Magadan2           606.031
       370   05 Jun 2027 16:51:53.393   05 Jun 2027 16:51:54.426             1.033               Magadan1            32.281
       371   05 Jun 2027 16:52:41.382   05 Jun 2027 16:52:51.086             9.704               Magadan2           303.250
       372   05 Jun 2027 16:54:34.558   05 Jun 2027 16:55:25.571            51.013               Magadan1          1594.156
       373   05 Jun 2027 17:41:05.495   05 Jun 2027 17:47:24.953           379.458            RioGallegos         11858.063
       374   05 Jun 2027 18:24:11.421   05 Jun 2027 18:28:33.178           261.757                Norilsk          8179.906
       375   05 Jun 2027 18:29:45.069   05 Jun 2027 18:31:45.092           120.023                Irkutsk          3750.719
       376   05 Jun 2027 18:42:26.818   05 Jun 2027 18:44:26.117           119.299                Sumatra          3728.094
       377   05 Jun 2027 18:46:14.497   05 Jun 2027 18:47:57.333           102.836                Sumatra          3213.625
       378   05 Jun 2027 18:48:24.995   05 Jun 2027 18:48:59.565            34.570                Sumatra          1080.313
       379   05 Jun 2027 20:04:13.256   05 Jun 2027 20:06:05.114           111.858                Novosib          3495.563
       380   05 Jun 2027 20:06:34.067   05 Jun 2027 20:07:56.308            82.241                Novosib          2570.031
       381   05 Jun 2027 20:12:21.627   05 Jun 2027 20:13:48.352            86.725                  Delhi          2710.156
       382   05 Jun 2027 20:15:30.582   05 Jun 2027 20:19:14.423           223.841                  Delhi          6995.031
       383   05 Jun 2027 21:38:34.431   05 Jun 2027 21:46:30.690           476.259              Murmansk2         14883.094
       384   05 Jun 2027 21:48:21.840   05 Jun 2027 21:48:22.958             1.118                 Moscow            34.938
       385   05 Jun 2027 23:21:29.450   05 Jun 2027 23:21:53.916            24.466                 Moscow           764.563
       386   05 Jun 2027 23:23:40.108   05 Jun 2027 23:23:48.869             8.761              Murmansk1           273.781
       387   05 Jun 2027 23:25:01.203   05 Jun 2027 23:26:13.792            72.589                 Moscow          2268.406
       388   05 Jun 2027 23:42:21.328   05 Jun 2027 23:45:51.342           210.014               CapeTown          6562.937
       389   05 Jun 2027 23:47:56.784   05 Jun 2027 23:48:10.279            13.495               CapeTown           421.719
       390   06 Jun 2027 00:52:43.911   06 Jun 2027 00:53:03.619            19.708              Murmansk1           615.875
       391   06 Jun 2027 00:53:23.855   06 Jun 2027 00:54:31.854            67.999                 Moscow          2124.969
       392   06 Jun 2027 00:56:34.805   06 Jun 2027 00:57:33.821            59.016                 Moscow          1844.250
       393   06 Jun 2027 01:17:40.618   06 Jun 2027 01:18:34.999            54.381               CapeTown          1699.406
       394   06 Jun 2027 01:23:52.162   06 Jun 2027 01:24:38.639            46.477               CapeTown          1452.406
       395   06 Jun 2027 02:14:17.823   06 Jun 2027 02:15:36.648            78.825               Magadan1          2463.281
       396   06 Jun 2027 02:15:59.092   06 Jun 2027 02:16:49.765            50.673               Magadan2          1583.531
       397   06 Jun 2027 02:19:24.404   06 Jun 2027 02:19:45.849            21.445               Magadan1           670.156
       398   06 Jun 2027 02:21:15.854   06 Jun 2027 02:21:26.129            10.275               Magadan1           321.094
       399   06 Jun 2027 02:21:52.993   06 Jun 2027 02:22:13.732            20.739               Magadan1           648.094
       400   06 Jun 2027 02:23:57.389   06 Jun 2027 02:24:03.297             5.908                Norilsk           184.625
       401   06 Jun 2027 02:24:48.563   06 Jun 2027 02:24:56.192             7.629                Norilsk           238.406
       402   06 Jun 2027 02:26:04.566   06 Jun 2027 02:26:46.377            41.811              Murmansk2          1306.594
       403   06 Jun 2027 02:28:29.678   06 Jun 2027 02:28:44.520            14.842              Murmansk2           463.812
       404   06 Jun 2027 02:29:33.856   06 Jun 2027 02:29:40.724             6.868              Murmansk2           214.625
       405   06 Jun 2027 02:29:44.156   06 Jun 2027 02:30:31.363            47.207                 Moscow          1475.219
       406   06 Jun 2027 02:31:13.364   06 Jun 2027 02:31:57.018            43.654                 Moscow          1364.188
       407   06 Jun 2027 02:36:30.535   06 Jun 2027 02:36:42.062            11.527                 Moscow           360.219
       408   06 Jun 2027 02:39:03.397   06 Jun 2027 02:39:23.588            20.191                 Moscow           630.969
       409   06 Jun 2027 03:10:01.038   06 Jun 2027 03:10:15.273            14.235            RioGallegos           444.844
       410   06 Jun 2027 03:51:59.735   06 Jun 2027 03:52:56.713            56.978               Magadan1          1780.563
       411   06 Jun 2027 03:57:07.562   06 Jun 2027 03:59:21.714           134.152                Anadyr2          4192.250
       412   06 Jun 2027 03:59:32.837   06 Jun 2027 03:59:35.611             2.774               Magadan2            86.687
       413   06 Jun 2027 03:59:48.431   06 Jun 2027 04:02:27.183           158.752                Anadyr2          4961.000
       414   06 Jun 2027 05:33:29.938   06 Jun 2027 05:37:13.222           223.284               Magadan1          6977.625
       415   06 Jun 2027 05:37:19.388   06 Jun 2027 05:37:46.913            27.525               Magadan1           860.156
       416   06 Jun 2027 05:38:07.239   06 Jun 2027 05:38:31.735            24.496                Norilsk           765.500
       417   06 Jun 2027 05:39:01.284   06 Jun 2027 05:39:19.256            17.972                Novosib           561.625
       418   06 Jun 2027 05:39:31.606   06 Jun 2027 05:41:29.943           118.337                Norilsk          3698.031
       419   06 Jun 2027 05:41:58.376   06 Jun 2027 05:42:18.704            20.328                Norilsk           635.250
       420   06 Jun 2027 05:42:37.586   06 Jun 2027 05:43:00.942            23.356                Norilsk           729.875
       421   06 Jun 2027 06:12:55.674   06 Jun 2027 06:14:44.402           108.728            RioGallegos          3397.750
       422   06 Jun 2027 06:17:09.117   06 Jun 2027 06:17:37.944            28.827            RioGallegos           900.844
       423   06 Jun 2027 06:18:06.230   06 Jun 2027 06:18:18.995            12.765            RioGallegos           398.906
       424   06 Jun 2027 06:20:32.318   06 Jun 2027 06:21:01.041            28.723            RioGallegos           897.594
       425   06 Jun 2027 06:48:17.474   06 Jun 2027 06:50:36.482           139.008                Sumatra          4344.000
       426   06 Jun 2027 07:01:08.177   06 Jun 2027 07:03:04.875           116.698                  Delhi          3646.812
       427   06 Jun 2027 07:05:20.578   06 Jun 2027 07:05:36.254            15.676                  Delhi           489.875
       428   06 Jun 2027 07:09:34.626   06 Jun 2027 07:10:52.078            77.452                Norilsk          2420.375
       429   06 Jun 2027 07:10:59.304   06 Jun 2027 07:12:02.083            62.779              Murmansk1          1961.844
       430   06 Jun 2027 07:12:02.083   06 Jun 2027 07:12:44.529            42.446              Murmansk2          1326.438
       431   06 Jun 2027 07:12:44.529   06 Jun 2027 07:12:54.516             9.987              Murmansk1           312.094
       432   06 Jun 2027 07:13:00.099   06 Jun 2027 07:14:59.682           119.583              Murmansk1          3736.969
       433   06 Jun 2027 07:50:52.965   06 Jun 2027 07:51:37.083            44.118            RioGallegos          1378.687
       434   06 Jun 2027 08:25:05.162   06 Jun 2027 08:25:34.066            28.904                Sumatra           903.250
       435   06 Jun 2027 08:25:47.040   06 Jun 2027 08:26:15.476            28.436                Sumatra           888.625
       436   06 Jun 2027 08:31:50.931   06 Jun 2027 08:32:19.800            28.869                Sumatra           902.156
       437   06 Jun 2027 08:32:25.432   06 Jun 2027 08:34:19.574           114.142                  Delhi          3566.937
       438   06 Jun 2027 08:39:31.491   06 Jun 2027 08:40:13.113            41.622                  Delhi          1300.688
       439   06 Jun 2027 08:46:27.214   06 Jun 2027 08:46:39.505            12.291              Murmansk2           384.094
       440   06 Jun 2027 08:46:39.505   06 Jun 2027 08:46:58.681            19.176              Murmansk1           599.250
       441   06 Jun 2027 08:47:06.401   06 Jun 2027 08:48:25.070            78.669              Murmansk1          2458.406
       442   06 Jun 2027 08:48:31.877   06 Jun 2027 08:48:49.699            17.822              Murmansk1           556.938
       443   06 Jun 2027 08:48:55.070   06 Jun 2027 08:49:33.664            38.594                Novosib          1206.063
       444   06 Jun 2027 08:49:39.086   06 Jun 2027 08:49:51.612            12.526              Murmansk1           391.437
       445   06 Jun 2027 08:50:19.551   06 Jun 2027 08:50:43.650            24.099              Murmansk1           753.094
       446   06 Jun 2027 08:54:24.531   06 Jun 2027 08:54:39.402            14.871              Murmansk1           464.719
       447   06 Jun 2027 10:10:28.930   06 Jun 2027 10:13:32.971           184.041                  Delhi          5751.281
       448   06 Jun 2027 10:21:20.433   06 Jun 2027 10:21:33.903            13.470                 Moscow           420.937
       449   06 Jun 2027 10:21:47.644   06 Jun 2027 10:22:32.383            44.739                 Moscow          1398.094
       450   06 Jun 2027 10:22:35.356   06 Jun 2027 10:23:13.860            38.504              Murmansk1          1203.250
       451   06 Jun 2027 10:23:15.983   06 Jun 2027 10:24:09.563            53.580                 Moscow          1674.375
       452   06 Jun 2027 10:24:13.404   06 Jun 2027 10:24:18.436             5.032              Murmansk2           157.250
       453   06 Jun 2027 10:24:25.074   06 Jun 2027 10:24:40.424            15.350              Murmansk2           479.688
       454   06 Jun 2027 10:24:49.035   06 Jun 2027 10:25:22.076            33.041              Murmansk1          1032.531
       455   06 Jun 2027 10:25:22.076   06 Jun 2027 10:26:08.370            46.294              Murmansk2          1446.687
       456   06 Jun 2027 10:26:17.996   06 Jun 2027 10:26:27.529             9.533                Norilsk           297.906
       457   06 Jun 2027 10:26:45.060   06 Jun 2027 10:26:51.140             6.080                Norilsk           190.000
       458   06 Jun 2027 10:27:04.057   06 Jun 2027 10:27:07.908             3.851              Murmansk1           120.344
       459   06 Jun 2027 10:27:07.908   06 Jun 2027 10:27:12.411             4.503              Murmansk2           140.719
       460   06 Jun 2027 10:27:41.588   06 Jun 2027 10:27:54.155            12.567                 Moscow           392.719
       461   06 Jun 2027 10:28:19.579   06 Jun 2027 10:28:32.806            13.227              Murmansk1           413.344
       462   06 Jun 2027 10:29:57.540   06 Jun 2027 10:29:59.727             2.187              Murmansk2            68.344
       463   06 Jun 2027 11:33:18.218   06 Jun 2027 11:35:19.657           121.439               CapeTown          3794.969
       464   06 Jun 2027 11:35:58.921   06 Jun 2027 11:37:08.877            69.956               CapeTown          2186.125
       465   06 Jun 2027 12:11:29.723   06 Jun 2027 12:18:28.162           418.439                Anadyr2         13076.219
       466   06 Jun 2027 13:43:25.635   06 Jun 2027 13:43:45.366            19.731              Murmansk1           616.594
       467   06 Jun 2027 13:46:34.354   06 Jun 2027 13:49:04.544           150.190                Anadyr1          4693.438
       468   06 Jun 2027 13:50:27.448   06 Jun 2027 13:50:54.820            27.372                Anadyr1           855.375
       469   06 Jun 2027 13:52:22.127   06 Jun 2027 13:53:37.208            75.081               Magadan1          2346.281
       470   06 Jun 2027 15:16:49.482   06 Jun 2027 15:17:53.453            63.971              Murmansk2          1999.094
       471   06 Jun 2027 15:18:31.485   06 Jun 2027 15:18:56.066            24.581              Murmansk2           768.156
       472   06 Jun 2027 15:22:24.799   06 Jun 2027 15:24:13.020           108.221                Anadyr1          3381.906
       473   06 Jun 2027 15:24:38.760   06 Jun 2027 15:25:13.437            34.677                Anadyr1          1083.656
       474   06 Jun 2027 15:26:28.905   06 Jun 2027 15:27:04.116            35.211               Magadan1          1100.344
       475   06 Jun 2027 15:27:14.967   06 Jun 2027 15:30:32.841           197.874               Magadan2          6183.563
       476   06 Jun 2027 15:31:54.319   06 Jun 2027 15:33:28.097            93.778               Magadan1          2930.562
       477   06 Jun 2027 16:58:43.342   06 Jun 2027 16:59:27.616            44.274                Anadyr1          1383.563
       478   06 Jun 2027 17:00:36.536   06 Jun 2027 17:01:50.039            73.503               Magadan1          2296.969
       479   06 Jun 2027 17:02:22.498   06 Jun 2027 17:02:38.320            15.822               Magadan2           494.437
       480   06 Jun 2027 17:03:56.317   06 Jun 2027 17:04:05.826             9.509               Magadan2           297.156
       481   06 Jun 2027 17:04:13.395   06 Jun 2027 17:04:56.723            43.328                Norilsk          1354.000
       482   06 Jun 2027 17:09:32.880   06 Jun 2027 17:09:37.358             4.478               Magadan2           139.938
