uniorb/output/strategy_1/Drop/Drop_KinoSat_111508.txt

KinoSat_111508
-------------------------
    Access    *     Start Time (UTCG)     *     Stop Time (UTCG)  *   Duration (s)        *       Station  *  Data (Mbytes)
         1   01 Jun 2027 04:29:57.399   01 Jun 2027 04:30:34.400            37.001                Norilsk          1156.281
         2   01 Jun 2027 04:30:59.863   01 Jun 2027 04:34:08.098           188.235              Murmansk2          5882.344
         3   01 Jun 2027 04:34:08.218   01 Jun 2027 04:36:06.208           117.990                 Moscow          3687.187
         4   01 Jun 2027 04:48:38.566   01 Jun 2027 04:49:00.294            21.728               CapeTown           679.000
         5   01 Jun 2027 05:52:04.999   01 Jun 2027 05:52:48.142            43.143               Magadan1          1348.219
         6   01 Jun 2027 05:53:51.061   01 Jun 2027 05:55:46.350           115.289               Magadan1          3602.781
         7   01 Jun 2027 05:55:46.350   01 Jun 2027 05:56:19.525            33.175               Magadan2          1036.719
         8   01 Jun 2027 05:56:28.503   01 Jun 2027 05:57:48.379            79.876                Anadyr1          2496.125
         9   01 Jun 2027 07:29:49.996   01 Jun 2027 07:32:52.832           182.836               Magadan1          5713.625
        10   01 Jun 2027 09:03:19.728   01 Jun 2027 09:08:48.887           329.159                Norilsk         10286.219
        11   01 Jun 2027 09:08:52.420   01 Jun 2027 09:09:29.985            37.565               Magadan2          1173.906
        12   01 Jun 2027 09:44:29.749   01 Jun 2027 09:45:31.769            62.020            RioGallegos          1938.125
        13   01 Jun 2027 10:23:36.676   01 Jun 2027 10:23:58.254            21.578                Sumatra           674.313
        14   01 Jun 2027 10:29:41.361   01 Jun 2027 10:29:59.904            18.543                Sumatra           579.469
        15   01 Jun 2027 10:40:12.614   01 Jun 2027 10:41:06.817            54.203                Novosib          1693.844
        16   01 Jun 2027 10:41:20.486   01 Jun 2027 10:45:05.554           225.068                Norilsk          7033.375
        17   01 Jun 2027 10:45:06.520   01 Jun 2027 10:46:03.869            57.349                Norilsk          1792.156
        18   01 Jun 2027 11:55:27.782   01 Jun 2027 11:57:20.820           113.038                Sumatra          3532.438
        19   01 Jun 2027 12:09:58.721   01 Jun 2027 12:10:53.480            54.759                Irkutsk          1711.219
        20   01 Jun 2027 12:11:13.227   01 Jun 2027 12:12:59.861           106.634                Novosib          3332.313
        21   01 Jun 2027 12:13:50.335   01 Jun 2027 12:14:48.865            58.530                Norilsk          1829.063
        22   01 Jun 2027 13:39:48.093   01 Jun 2027 13:40:27.387            39.294                  Delhi          1227.938
        23   01 Jun 2027 13:41:51.090   01 Jun 2027 13:44:31.974           160.884                  Delhi          5027.625
        24   01 Jun 2027 13:47:58.622   01 Jun 2027 13:48:57.113            58.491                Novosib          1827.844
        25   01 Jun 2027 13:51:19.250   01 Jun 2027 13:53:07.402           108.152                Novosib          3379.750
        26   01 Jun 2027 14:00:42.262   01 Jun 2027 14:01:44.282            62.020                Norilsk          1938.125
        27   01 Jun 2027 15:23:40.213   01 Jun 2027 15:24:42.061            61.848                 Moscow          1932.750
        28   01 Jun 2027 15:25:06.568   01 Jun 2027 15:25:23.387            16.819                 Moscow           525.594
        29   01 Jun 2027 15:25:46.272   01 Jun 2027 15:25:51.041             4.769                 Moscow           149.031
        30   01 Jun 2027 15:26:28.526   01 Jun 2027 15:26:51.406            22.880                 Moscow           715.000
        31   01 Jun 2027 15:27:11.147   01 Jun 2027 15:28:22.896            71.749              Murmansk2          2242.156
        32   01 Jun 2027 15:32:30.942   01 Jun 2027 15:37:09.010           278.068                Norilsk          8689.625
        33   01 Jun 2027 17:01:57.161   01 Jun 2027 17:02:13.476            16.315                 Moscow           509.844
        34   01 Jun 2027 17:02:21.520   01 Jun 2027 17:02:57.876            36.356                 Moscow          1136.125
        35   01 Jun 2027 17:06:24.997   01 Jun 2027 17:07:07.729            42.732              Murmansk1          1335.375
        36   01 Jun 2027 17:08:29.646   01 Jun 2027 17:10:05.042            95.396              Murmansk1          2981.125
        37   01 Jun 2027 17:18:17.156   01 Jun 2027 17:18:19.801             2.645                Anadyr1            82.656
        38   01 Jun 2027 17:18:36.679   01 Jun 2027 17:19:13.749            37.070                Anadyr1          1158.438
        39   01 Jun 2027 17:23:38.993   01 Jun 2027 17:24:07.730            28.737                Anadyr1           898.031
        40   01 Jun 2027 18:20:26.798   01 Jun 2027 18:21:02.204            35.406               CapeTown          1106.437
        41   01 Jun 2027 18:24:02.994   01 Jun 2027 18:24:45.511            42.517               CapeTown          1328.656
        42   01 Jun 2027 18:44:43.747   01 Jun 2027 18:49:30.926           287.179              Murmansk1          8974.344
        43   01 Jun 2027 18:49:37.361   01 Jun 2027 18:49:46.273             8.912              Murmansk2           278.500
        44   01 Jun 2027 18:58:03.869   01 Jun 2027 18:58:33.417            29.548               Magadan1           923.375
        45   01 Jun 2027 19:02:22.392   01 Jun 2027 19:02:50.992            28.600               Magadan2           893.750
        46   01 Jun 2027 19:05:48.145   01 Jun 2027 19:06:06.044            17.899               Magadan1           559.344
        47   01 Jun 2027 20:29:37.436   01 Jun 2027 20:31:42.086           124.650                Anadyr2          3895.312
        48   01 Jun 2027 20:31:49.206   01 Jun 2027 20:31:52.178             2.972                Anadyr1            92.875
        49   01 Jun 2027 20:31:54.881   01 Jun 2027 20:35:53.056           238.175               Magadan2          7442.969
        50   01 Jun 2027 20:36:34.637   01 Jun 2027 20:36:44.327             9.690               Magadan1           302.812
        51   01 Jun 2027 20:37:51.103   01 Jun 2027 20:38:56.173            65.070               Magadan2          2033.438
        52   01 Jun 2027 21:25:17.289   01 Jun 2027 21:27:46.176           148.887            RioGallegos          4652.719
        53   01 Jun 2027 21:27:53.565   01 Jun 2027 21:28:03.963            10.398            RioGallegos           324.937
        54   01 Jun 2027 22:05:25.157   01 Jun 2027 22:07:36.715           131.558                Anadyr2          4111.188
        55   01 Jun 2027 22:07:49.545   01 Jun 2027 22:09:04.918            75.373                Norilsk          2355.406
        56   01 Jun 2027 22:10:19.140   01 Jun 2027 22:10:27.802             8.662               Magadan1           270.688
        57   01 Jun 2027 22:10:32.653   01 Jun 2027 22:10:49.797            17.144                Norilsk           535.750
        58   01 Jun 2027 22:11:20.297   01 Jun 2027 22:11:39.262            18.965               Magadan1           592.656
        59   01 Jun 2027 22:12:16.819   01 Jun 2027 22:13:05.084            48.265                Irkutsk          1508.281
        60   01 Jun 2027 22:26:53.718   01 Jun 2027 22:28:16.527            82.809                Sumatra          2587.781
        61   01 Jun 2027 22:33:19.385   01 Jun 2027 22:33:58.350            38.965                Sumatra          1217.656
        62   01 Jun 2027 22:35:55.505   01 Jun 2027 22:35:58.480             2.975                Sumatra            92.969
        63   01 Jun 2027 23:40:37.049   01 Jun 2027 23:40:53.244            16.195                Anadyr2           506.094
        64   01 Jun 2027 23:41:09.754   01 Jun 2027 23:42:51.727           101.973                Anadyr1          3186.656
        65   01 Jun 2027 23:43:04.334   01 Jun 2027 23:43:06.845             2.511                Anadyr1            78.469
        66   01 Jun 2027 23:43:21.297   01 Jun 2027 23:45:07.377           106.080                Norilsk          3315.000
        67   01 Jun 2027 23:45:08.999   01 Jun 2027 23:46:48.761            99.762               Magadan2          3117.562
        68   01 Jun 2027 23:47:15.124   01 Jun 2027 23:48:12.926            57.802                Irkutsk          1806.312
        69   01 Jun 2027 23:51:00.807   01 Jun 2027 23:51:07.037             6.230                Novosib           194.687
        70   01 Jun 2027 23:55:21.591   01 Jun 2027 23:56:00.131            38.540                Novosib          1204.375
        71   01 Jun 2027 23:57:05.159   01 Jun 2027 23:59:13.415           128.256                  Delhi          4008.000
        72   02 Jun 2027 00:45:03.391   02 Jun 2027 00:45:09.840             6.449            RioGallegos           201.531
        73   02 Jun 2027 00:46:29.873   02 Jun 2027 00:46:56.464            26.591            RioGallegos           830.969
        74   02 Jun 2027 01:14:37.677   02 Jun 2027 01:14:51.202            13.525                Anadyr1           422.656
        75   02 Jun 2027 01:15:21.861   02 Jun 2027 01:16:12.216            50.355                Anadyr2          1573.594
        76   02 Jun 2027 01:16:12.216   02 Jun 2027 01:16:43.513            31.297                Anadyr1           978.031
        77   02 Jun 2027 01:19:22.009   02 Jun 2027 01:19:40.695            18.686                Norilsk           583.937
        78   02 Jun 2027 01:19:56.151   02 Jun 2027 01:20:21.646            25.495               Magadan1           796.719
        79   02 Jun 2027 01:20:37.970   02 Jun 2027 01:21:24.353            46.383                Norilsk          1449.469
        80   02 Jun 2027 01:21:46.178   02 Jun 2027 01:22:38.975            52.797               Magadan2          1649.906
        81   02 Jun 2027 01:22:40.091   02 Jun 2027 01:23:19.588            39.497              Murmansk1          1234.281
        82   02 Jun 2027 01:23:23.896   02 Jun 2027 01:24:08.434            44.538                Novosib          1391.813
        83   02 Jun 2027 01:25:11.187   02 Jun 2027 01:25:26.169            14.982              Murmansk2           468.187
        84   02 Jun 2027 01:28:19.217   02 Jun 2027 01:29:01.319            42.102                Novosib          1315.687
        85   02 Jun 2027 01:33:40.256   02 Jun 2027 01:34:22.368            42.112                  Delhi          1316.000
        86   02 Jun 2027 01:40:06.519   02 Jun 2027 01:42:22.142           135.623                  Delhi          4238.219
        87   02 Jun 2027 02:14:26.651   02 Jun 2027 02:15:01.603            34.952            RioGallegos          1092.250
        88   02 Jun 2027 02:47:54.403   02 Jun 2027 02:47:55.049             0.646                Anadyr1            20.187
        89   02 Jun 2027 02:48:18.799   02 Jun 2027 02:48:57.955            39.156                Anadyr2          1223.625
        90   02 Jun 2027 02:53:52.528   02 Jun 2027 02:54:35.048            42.520               Magadan2          1328.750
        91   02 Jun 2027 02:55:16.574   02 Jun 2027 02:55:21.557             4.983                Norilsk           155.719
        92   02 Jun 2027 02:55:41.090   02 Jun 2027 02:55:52.087            10.997               Magadan2           343.656
        93   02 Jun 2027 02:56:05.115   02 Jun 2027 02:56:21.155            16.040                Norilsk           501.250
        94   02 Jun 2027 02:56:26.776   02 Jun 2027 02:56:43.871            17.095                Norilsk           534.219
        95   02 Jun 2027 02:57:30.927   02 Jun 2027 02:58:55.622            84.695              Murmansk2          2646.719
        96   02 Jun 2027 02:59:18.210   02 Jun 2027 02:59:56.734            38.524                Novosib          1203.875
        97   02 Jun 2027 03:01:06.103   02 Jun 2027 03:01:19.333            13.230                Irkutsk           413.437
        98   02 Jun 2027 03:01:59.376   02 Jun 2027 03:02:54.910            55.534                Irkutsk          1735.437
        99   02 Jun 2027 03:02:55.644   02 Jun 2027 03:03:12.671            17.027                Novosib           532.094
       100   02 Jun 2027 03:03:23.089   02 Jun 2027 03:04:57.271            94.182              Murmansk2          2943.188
       101   02 Jun 2027 03:05:10.586   02 Jun 2027 03:05:46.391            35.805                Norilsk          1118.906
       102   02 Jun 2027 03:06:16.259   02 Jun 2027 03:08:11.003           114.744              Murmansk1          3585.750
       103   02 Jun 2027 03:09:26.938   02 Jun 2027 03:10:53.023            86.085                  Delhi          2690.156
       104   02 Jun 2027 04:40:26.676   02 Jun 2027 04:40:46.302            19.626                 Moscow           613.312
       105   02 Jun 2027 04:40:55.275   02 Jun 2027 04:42:23.380            88.105                Norilsk          2753.281
       106   02 Jun 2027 04:42:32.179   02 Jun 2027 04:44:16.439           104.260                 Moscow          3258.125
       107   02 Jun 2027 04:44:20.822   02 Jun 2027 04:44:41.888            21.066              Murmansk2           658.312
       108   02 Jun 2027 04:45:45.269   02 Jun 2027 04:46:16.309            31.040              Murmansk1           970.000
       109   02 Jun 2027 05:00:35.622   02 Jun 2027 05:01:22.661            47.039               CapeTown          1469.969
       110   02 Jun 2027 05:02:11.017   02 Jun 2027 05:03:01.820            50.803               CapeTown          1587.594
       111   02 Jun 2027 06:04:22.344   02 Jun 2027 06:07:02.586           160.242                Anadyr1          5007.563
       112   02 Jun 2027 06:07:02.586   02 Jun 2027 06:07:48.202            45.616                Anadyr2          1425.500
       113   02 Jun 2027 07:41:28.593   02 Jun 2027 07:42:20.066            51.473                Anadyr1          1608.531
       114   02 Jun 2027 07:42:32.928   02 Jun 2027 07:44:46.500           133.572               Magadan2          4174.125
       115   02 Jun 2027 07:44:46.500   02 Jun 2027 07:45:27.004            40.504               Magadan1          1265.750
       116   02 Jun 2027 09:15:19.898   02 Jun 2027 09:17:52.822           152.924               Magadan2          4778.875
       117   02 Jun 2027 09:17:52.822   02 Jun 2027 09:20:21.986           149.164               Magadan1          4661.375
       118   02 Jun 2027 09:20:35.673   02 Jun 2027 09:21:17.303            41.630                Irkutsk          1300.938
       119   02 Jun 2027 10:52:36.178   02 Jun 2027 10:56:56.215           260.037                Irkutsk          8126.156
       120   02 Jun 2027 10:57:01.434   02 Jun 2027 10:58:01.785            60.351              Murmansk1          1885.969
       121   02 Jun 2027 10:58:31.444   02 Jun 2027 10:59:11.461            40.017              Murmansk1          1250.531
       122   02 Jun 2027 11:33:08.216   02 Jun 2027 11:33:16.159             7.943            RioGallegos           248.219
       123   02 Jun 2027 11:33:44.164   02 Jun 2027 11:34:19.762            35.598            RioGallegos          1112.437
       124   02 Jun 2027 11:35:08.576   02 Jun 2027 11:36:19.398            70.822            RioGallegos          2213.188
       125   02 Jun 2027 12:07:25.791   02 Jun 2027 12:07:53.864            28.073                Sumatra           877.281
       126   02 Jun 2027 12:09:12.903   02 Jun 2027 12:11:18.071           125.168                Sumatra          3911.500
       127   02 Jun 2027 12:22:30.390   02 Jun 2027 12:23:52.763            82.373                Irkutsk          2574.156
       128   02 Jun 2027 12:25:09.496   02 Jun 2027 12:25:26.721            17.225                Novosib           538.281
       129   02 Jun 2027 12:26:01.298   02 Jun 2027 12:26:46.528            45.230                Norilsk          1413.438
       130   02 Jun 2027 12:28:43.594   02 Jun 2027 12:28:54.340            10.746                Norilsk           335.813
       131   02 Jun 2027 13:52:14.480   02 Jun 2027 13:54:30.288           135.808                  Delhi          4244.000
       132   02 Jun 2027 13:56:29.550   02 Jun 2027 13:57:30.526            60.976                  Delhi          1905.500
       133   02 Jun 2027 14:00:34.662   02 Jun 2027 14:02:07.502            92.840                Novosib          2901.250
       134   02 Jun 2027 14:03:16.837   02 Jun 2027 14:05:35.090           138.253                Novosib          4320.406
       135   02 Jun 2027 14:07:44.277   02 Jun 2027 14:08:34.363            50.086                Norilsk          1565.187
       136   02 Jun 2027 15:35:46.740   02 Jun 2027 15:37:49.178           122.438                 Moscow          3826.188
       137   02 Jun 2027 15:38:45.134   02 Jun 2027 15:39:22.248            37.114                 Moscow          1159.812
       138   02 Jun 2027 15:39:41.965   02 Jun 2027 15:40:08.324            26.359              Murmansk1           823.719
       139   02 Jun 2027 15:40:24.689   02 Jun 2027 15:41:10.993            46.304              Murmansk2          1447.000
       140   02 Jun 2027 15:45:29.114   02 Jun 2027 15:47:37.563           128.449                Norilsk          4014.031
       141   02 Jun 2027 15:48:21.217   02 Jun 2027 15:49:12.415            51.198                Norilsk          1599.938
       142   02 Jun 2027 16:50:25.959   02 Jun 2027 16:50:51.838            25.879               CapeTown           808.719
       143   02 Jun 2027 17:14:38.595   02 Jun 2027 17:15:00.252            21.657                 Moscow           676.781
       144   02 Jun 2027 17:15:43.463   02 Jun 2027 17:16:44.617            61.154                 Moscow          1911.063
       145   02 Jun 2027 17:17:05.365   02 Jun 2027 17:18:26.173            80.808              Murmansk2          2525.250
       146   02 Jun 2027 17:18:54.435   02 Jun 2027 17:19:31.175            36.740                 Moscow          1148.125
       147   02 Jun 2027 17:22:08.102   02 Jun 2027 17:22:24.510            16.408              Murmansk1           512.750
       148   02 Jun 2027 17:24:17.723   02 Jun 2027 17:24:46.533            28.810              Murmansk1           900.312
       149   02 Jun 2027 17:29:56.754   02 Jun 2027 17:31:13.069            76.315                Anadyr2          2384.844
       150   02 Jun 2027 18:25:36.555   02 Jun 2027 18:26:30.883            54.328               CapeTown          1697.750
       151   02 Jun 2027 18:57:33.211   02 Jun 2027 19:02:12.713           279.502              Murmansk1          8734.437
       152   02 Jun 2027 19:02:12.724   02 Jun 2027 19:03:21.089            68.365              Murmansk2          2136.406
       153   02 Jun 2027 19:08:30.141   02 Jun 2027 19:09:38.624            68.483               Magadan1          2140.094
       154   02 Jun 2027 20:41:38.855   02 Jun 2027 20:45:22.239           223.384                Anadyr1          6980.750
       155   02 Jun 2027 20:45:39.513   02 Jun 2027 20:47:00.296            80.783                Anadyr2          2524.469
       156   02 Jun 2027 20:47:07.611   02 Jun 2027 20:47:56.306            48.695               Magadan2          1521.719
       157   02 Jun 2027 20:48:26.290   02 Jun 2027 20:48:37.667            11.377               Magadan2           355.531
       158   02 Jun 2027 20:48:52.821   02 Jun 2027 20:49:13.717            20.896               Magadan2           653.000
       159   02 Jun 2027 21:36:48.331   02 Jun 2027 21:39:18.670           150.339            RioGallegos          4698.094
       160   02 Jun 2027 21:39:30.651   02 Jun 2027 21:39:50.380            19.729            RioGallegos           616.531
       161   02 Jun 2027 22:17:23.923   02 Jun 2027 22:18:57.855            93.932                Anadyr1          2935.375
       162   02 Jun 2027 22:19:26.904   02 Jun 2027 22:19:37.313            10.409                Anadyr1           325.281
       163   02 Jun 2027 22:19:42.797   02 Jun 2027 22:20:24.410            41.613                Norilsk          1300.406
       164   02 Jun 2027 22:20:57.494   02 Jun 2027 22:22:10.779            73.285               Magadan1          2290.156
       165   02 Jun 2027 22:22:39.331   02 Jun 2027 22:22:54.502            15.171                Norilsk           474.094
       166   02 Jun 2027 22:23:14.314   02 Jun 2027 22:23:50.685            36.371               Magadan1          1136.594
       167   02 Jun 2027 22:24:02.994   02 Jun 2027 22:25:03.964            60.970                Irkutsk          1905.313
       168   02 Jun 2027 22:26:37.640   02 Jun 2027 22:27:24.088            46.448                Irkutsk          1451.500
       169   02 Jun 2027 22:38:17.633   02 Jun 2027 22:41:10.212           172.579                Sumatra          5393.094
       170   02 Jun 2027 23:52:28.474   02 Jun 2027 23:52:36.879             8.405                Anadyr1           262.656
       171   02 Jun 2027 23:55:05.663   02 Jun 2027 23:55:10.499             4.836                Anadyr1           151.125
       172   02 Jun 2027 23:55:23.351   02 Jun 2027 23:57:09.376           106.025                Norilsk          3313.281
       173   02 Jun 2027 23:57:15.181   02 Jun 2027 23:58:01.755            46.574               Magadan2          1455.437
       174   02 Jun 2027 23:59:15.863   03 Jun 2027 00:00:08.932            53.069                Irkutsk          1658.406
       175   03 Jun 2027 00:00:19.777   03 Jun 2027 00:00:35.161            15.384                Novosib           480.750
       176   03 Jun 2027 00:00:55.042   03 Jun 2027 00:02:10.294            75.252                Novosib          2351.625
       177   03 Jun 2027 00:08:18.619   03 Jun 2027 00:09:00.545            41.926                  Delhi          1310.187
       178   03 Jun 2027 00:12:33.070   03 Jun 2027 00:14:13.673           100.603                  Delhi          3143.844
       179   03 Jun 2027 01:26:19.939   03 Jun 2027 01:27:23.160            63.221                Anadyr1          1975.656
       180   03 Jun 2027 01:28:20.603   03 Jun 2027 01:29:11.702            51.099                Anadyr2          1596.844
       181   03 Jun 2027 01:31:24.018   03 Jun 2027 01:33:04.654           100.636                Norilsk          3144.875
       182   03 Jun 2027 01:33:58.930   03 Jun 2027 01:36:09.882           130.952              Murmansk1          4092.250
       183   03 Jun 2027 01:38:21.190   03 Jun 2027 01:38:50.259            29.069                Irkutsk           908.406
       184   03 Jun 2027 01:42:32.095   03 Jun 2027 01:44:27.922           115.827                  Delhi          3619.594
       185   03 Jun 2027 02:25:06.893   03 Jun 2027 02:27:09.194           122.301            RioGallegos          3821.906
       186   03 Jun 2027 02:59:37.186   03 Jun 2027 03:00:00.180            22.994                Anadyr1           718.562
       187   03 Jun 2027 03:00:39.283   03 Jun 2027 03:00:42.089             2.806                Anadyr1            87.687
       188   03 Jun 2027 03:00:56.612   03 Jun 2027 03:01:18.210            21.598                Anadyr1           674.938
       189   03 Jun 2027 03:14:17.771   03 Jun 2027 03:14:55.627            37.856              Murmansk2          1183.000
       190   03 Jun 2027 03:15:06.712   03 Jun 2027 03:15:08.147             1.435              Murmansk1            44.844
       191   03 Jun 2027 03:15:16.543   03 Jun 2027 03:15:42.189            25.646                Irkutsk           801.437
       192   03 Jun 2027 03:15:57.263   03 Jun 2027 03:16:38.670            41.407                 Moscow          1293.969
       193   03 Jun 2027 03:16:44.478   03 Jun 2027 03:17:28.827            44.349              Murmansk1          1385.906
       194   03 Jun 2027 03:17:32.517   03 Jun 2027 03:18:23.599            51.082              Murmansk2          1596.312
       195   03 Jun 2027 03:18:26.213   03 Jun 2027 03:19:00.843            34.630                Novosib          1082.187
       196   03 Jun 2027 03:19:07.351   03 Jun 2027 03:20:56.846           109.495              Murmansk2          3421.719
       197   03 Jun 2027 03:21:02.901   03 Jun 2027 03:21:24.452            21.551                Novosib           673.469
       198   03 Jun 2027 03:22:55.838   03 Jun 2027 03:24:20.980            85.142                  Delhi          2660.688
       199   03 Jun 2027 04:34:38.374   03 Jun 2027 04:35:38.348            59.974                Anadyr1          1874.188
       200   03 Jun 2027 04:53:42.563   03 Jun 2027 04:54:12.092            29.529                Norilsk           922.781
       201   03 Jun 2027 04:54:24.086   03 Jun 2027 04:56:01.362            97.276              Murmansk1          3039.875
       202   03 Jun 2027 04:59:23.096   03 Jun 2027 05:00:16.245            53.149                 Moscow          1660.906
       203   03 Jun 2027 06:15:30.476   03 Jun 2027 06:17:38.180           127.704                Anadyr1          3990.750
       204   03 Jun 2027 06:17:38.180   03 Jun 2027 06:17:55.199            17.019                Anadyr2           531.844
       205   03 Jun 2027 06:18:08.504   03 Jun 2027 06:18:27.338            18.834                Norilsk           588.563
       206   03 Jun 2027 06:18:30.986   03 Jun 2027 06:19:11.549            40.563                Anadyr2          1267.594
       207   03 Jun 2027 07:53:41.462   03 Jun 2027 07:54:58.384            76.922                Anadyr1          2403.813
       208   03 Jun 2027 07:55:03.032   03 Jun 2027 07:56:02.640            59.608               Magadan2          1862.750
       209   03 Jun 2027 07:56:27.386   03 Jun 2027 07:57:36.590            69.204                Anadyr2          2162.625
       210   03 Jun 2027 09:28:00.366   03 Jun 2027 09:29:50.222           109.856               Magadan2          3433.000
       211   03 Jun 2027 09:30:16.363   03 Jun 2027 09:33:19.869           183.506               Magadan1          5734.563
       212   03 Jun 2027 11:04:40.701   03 Jun 2027 11:05:44.843            64.142                Novosib          2004.438
       213   03 Jun 2027 11:05:50.680   03 Jun 2027 11:06:21.702            31.022                Irkutsk           969.437
       214   03 Jun 2027 11:06:39.428   03 Jun 2027 11:07:02.123            22.695              Murmansk1           709.219
       215   03 Jun 2027 11:07:02.927   03 Jun 2027 11:07:26.540            23.613                Norilsk           737.906
       216   03 Jun 2027 11:07:28.714   03 Jun 2027 11:08:00.933            32.219                Norilsk          1006.844
       217   03 Jun 2027 11:08:20.334   03 Jun 2027 11:09:12.343            52.009              Murmansk1          1625.281
       218   03 Jun 2027 11:09:18.144   03 Jun 2027 11:09:50.581            32.437                Norilsk          1013.656
       219   03 Jun 2027 11:09:58.583   03 Jun 2027 11:10:12.882            14.299              Murmansk2           446.844
       220   03 Jun 2027 11:10:12.882   03 Jun 2027 11:10:21.446             8.564              Murmansk1           267.625
       221   03 Jun 2027 11:10:46.116   03 Jun 2027 11:11:02.063            15.947                Novosib           498.344
       222   03 Jun 2027 11:45:34.618   03 Jun 2027 11:46:15.524            40.906            RioGallegos          1278.313
       223   03 Jun 2027 11:49:30.060   03 Jun 2027 11:50:14.776            44.716            RioGallegos          1397.375
       224   03 Jun 2027 12:19:48.103   03 Jun 2027 12:21:10.782            82.679                Sumatra          2583.719
       225   03 Jun 2027 12:23:49.129   03 Jun 2027 12:25:05.389            76.260                Sumatra          2383.125
       226   03 Jun 2027 12:34:17.899   03 Jun 2027 12:35:07.108            49.209                Novosib          1537.781
       227   03 Jun 2027 12:35:08.690   03 Jun 2027 12:35:24.643            15.953                Irkutsk           498.531
       228   03 Jun 2027 12:36:39.802   03 Jun 2027 12:39:56.699           196.897                Irkutsk          6153.031
       229   03 Jun 2027 14:04:50.229   03 Jun 2027 14:07:36.174           165.945                  Delhi          5185.781
       230   03 Jun 2027 14:13:17.719   03 Jun 2027 14:15:13.146           115.427                Novosib          3607.094
       231   03 Jun 2027 14:15:18.311   03 Jun 2027 14:15:34.877            16.566              Murmansk1           517.687
       232   03 Jun 2027 14:16:49.323   03 Jun 2027 14:16:58.485             9.162                Norilsk           286.313
       233   03 Jun 2027 14:17:23.955   03 Jun 2027 14:18:08.020            44.065                Novosib          1377.031
       234   03 Jun 2027 14:20:04.477   03 Jun 2027 14:20:33.693            29.216                Norilsk           913.000
       235   03 Jun 2027 14:20:54.060   03 Jun 2027 14:22:08.979            74.919                Norilsk          2341.219
       236   03 Jun 2027 15:47:56.444   03 Jun 2027 15:49:47.259           110.815                 Moscow          3462.969
       237   03 Jun 2027 15:51:27.078   03 Jun 2027 15:53:49.749           142.671              Murmansk1          4458.469
       238   03 Jun 2027 15:58:44.521   03 Jun 2027 16:00:38.723           114.202                Norilsk          3568.813
       239   03 Jun 2027 16:07:08.939   03 Jun 2027 16:07:28.126            19.187                Anadyr2           599.594
       240   03 Jun 2027 17:01:20.172   03 Jun 2027 17:03:04.954           104.782               CapeTown          3274.437
       241   03 Jun 2027 17:27:53.229   03 Jun 2027 17:28:13.269            20.040                 Moscow           626.250
       242   03 Jun 2027 17:28:39.740   03 Jun 2027 17:30:54.357           134.617                 Moscow          4206.781
       243   03 Jun 2027 17:34:07.710   03 Jun 2027 17:34:20.270            12.560              Murmansk2           392.500
       244   03 Jun 2027 17:41:55.448   03 Jun 2027 17:43:30.478            95.030                Anadyr2          2969.687
       245   03 Jun 2027 17:44:07.181   03 Jun 2027 17:44:16.535             9.354                Anadyr1           292.313
       246   03 Jun 2027 17:47:25.090   03 Jun 2027 17:47:29.921             4.831                Anadyr2           150.969
       247   03 Jun 2027 17:49:11.343   03 Jun 2027 17:49:19.198             7.855                Anadyr2           245.469
       248   03 Jun 2027 18:37:54.851   03 Jun 2027 18:39:16.845            81.994               CapeTown          2562.313
       249   03 Jun 2027 18:41:03.810   03 Jun 2027 18:41:17.144            13.334               CapeTown           416.688
       250   03 Jun 2027 18:42:17.958   03 Jun 2027 18:42:45.159            27.201               CapeTown           850.031
       251   03 Jun 2027 19:10:30.416   03 Jun 2027 19:14:59.145           268.729              Murmansk2          8397.781
       252   03 Jun 2027 19:20:23.776   03 Jun 2027 19:21:11.878            48.102               Magadan2          1503.187
       253   03 Jun 2027 19:24:33.107   03 Jun 2027 19:24:50.354            17.247               Magadan2           538.969
       254   03 Jun 2027 19:25:58.964   03 Jun 2027 19:26:17.589            18.625               Magadan2           582.031
       255   03 Jun 2027 19:28:51.973   03 Jun 2027 19:29:05.471            13.498               Magadan2           421.812
       256   03 Jun 2027 19:29:30.223   03 Jun 2027 19:29:44.288            14.065               Magadan1           439.531
       257   03 Jun 2027 20:53:40.119   03 Jun 2027 20:57:41.248           241.129                Anadyr2          7535.281
       258   03 Jun 2027 20:57:58.531   03 Jun 2027 21:00:20.155           141.624               Magadan1          4425.750
       259   03 Jun 2027 21:00:28.793   03 Jun 2027 21:00:43.891            15.098               Magadan1           471.813
       260   03 Jun 2027 21:02:57.425   03 Jun 2027 21:02:59.187             1.762               Magadan1            55.063
       261   03 Jun 2027 21:04:05.534   03 Jun 2027 21:04:06.448             0.914               Magadan2            28.563
       262   03 Jun 2027 21:04:25.745   03 Jun 2027 21:04:56.630            30.885               Magadan2           965.156
       263   03 Jun 2027 21:48:28.035   03 Jun 2027 21:51:22.884           174.849            RioGallegos          5464.031
       264   03 Jun 2027 21:51:29.043   03 Jun 2027 21:51:40.243            11.200            RioGallegos           350.000
       265   03 Jun 2027 21:53:29.545   03 Jun 2027 21:53:53.932            24.387            RioGallegos           762.094
       266   03 Jun 2027 22:29:22.076   03 Jun 2027 22:29:42.580            20.504                Anadyr1           640.750
       267   03 Jun 2027 22:31:30.611   03 Jun 2027 22:33:10.960           100.349                Norilsk          3135.906
       268   03 Jun 2027 22:33:50.249   03 Jun 2027 22:34:58.172            67.923               Magadan2          2122.594
       269   03 Jun 2027 22:35:16.338   03 Jun 2027 22:35:25.790             9.452               Magadan2           295.375
       270   03 Jun 2027 22:35:52.692   03 Jun 2027 22:37:03.881            71.189                Irkutsk          2224.656
       271   03 Jun 2027 22:38:40.015   03 Jun 2027 22:39:08.610            28.595                Irkutsk           893.594
       272   03 Jun 2027 22:44:37.472   03 Jun 2027 22:45:20.763            43.291                Irkutsk          1352.844
       273   03 Jun 2027 22:50:14.284   03 Jun 2027 22:51:11.077            56.793                Sumatra          1774.781
       274   03 Jun 2027 22:52:13.174   03 Jun 2027 22:53:00.734            47.560                Sumatra          1486.250
       275   04 Jun 2027 00:04:18.618   04 Jun 2027 00:05:32.262            73.644                Anadyr1          2301.375
       276   04 Jun 2027 00:06:36.111   04 Jun 2027 00:07:01.611            25.500                Anadyr2           796.875
       277   04 Jun 2027 00:07:25.504   04 Jun 2027 00:07:37.283            11.779                Norilsk           368.094
       278   04 Jun 2027 00:08:04.856   04 Jun 2027 00:09:42.062            97.206               Magadan2          3037.687
       279   04 Jun 2027 00:10:53.785   04 Jun 2027 00:11:22.269            28.484               Magadan1           890.125
       280   04 Jun 2027 00:11:34.364   04 Jun 2027 00:14:05.822           151.458                Novosib          4733.063
       281   04 Jun 2027 00:14:19.698   04 Jun 2027 00:14:31.654            11.956                Novosib           373.625
       282   04 Jun 2027 00:19:32.512   04 Jun 2027 00:20:01.358            28.846                Novosib           901.437
       283   04 Jun 2027 00:20:02.285   04 Jun 2027 00:22:44.180           161.895                  Delhi          5059.219
       284   04 Jun 2027 01:04:27.664   04 Jun 2027 01:05:20.499            52.835            RioGallegos          1651.094
       285   04 Jun 2027 01:38:01.593   04 Jun 2027 01:38:10.558             8.965                Anadyr2           280.156
       286   04 Jun 2027 01:38:46.627   04 Jun 2027 01:40:21.289            94.662                Anadyr2          2958.188
       287   04 Jun 2027 01:43:25.897   04 Jun 2027 01:44:34.870            68.973                Norilsk          2155.406
       288   04 Jun 2027 01:45:45.761   04 Jun 2027 01:47:07.112            81.351               Magadan2          2542.219
       289   04 Jun 2027 01:47:12.315   04 Jun 2027 01:47:58.568            46.253                Novosib          1445.406
       290   04 Jun 2027 01:48:02.844   04 Jun 2027 01:48:19.808            16.964              Murmansk2           530.125
       291   04 Jun 2027 01:48:35.650   04 Jun 2027 01:50:18.967           103.317                Irkutsk          3228.656
       292   04 Jun 2027 01:57:31.958   04 Jun 2027 01:57:48.945            16.987                  Delhi           530.844
       293   04 Jun 2027 02:00:33.434   04 Jun 2027 02:02:45.902           132.468                  Delhi          4139.625
       294   04 Jun 2027 02:37:55.306   04 Jun 2027 02:38:16.129            20.823            RioGallegos           650.719
       295   04 Jun 2027 03:27:24.520   04 Jun 2027 03:28:31.569            67.049              Murmansk1          2095.281
       296   04 Jun 2027 03:28:42.603   04 Jun 2027 03:33:16.657           274.054              Murmansk2          8564.187
       297   04 Jun 2027 03:33:35.371   04 Jun 2027 03:33:44.857             9.486                Novosib           296.438
       298   04 Jun 2027 03:49:47.591   04 Jun 2027 03:50:26.348            38.757               CapeTown          1211.156
       299   04 Jun 2027 03:51:17.554   04 Jun 2027 03:52:44.753            87.199               CapeTown          2724.969
       300   04 Jun 2027 05:05:33.483   04 Jun 2027 05:05:41.071             7.588                Norilsk           237.125
       301   04 Jun 2027 05:05:41.250   04 Jun 2027 05:06:55.922            74.672                 Moscow          2333.500
       302   04 Jun 2027 05:06:58.801   04 Jun 2027 05:07:07.597             8.796              Murmansk1           274.875
       303   04 Jun 2027 05:07:08.429   04 Jun 2027 05:07:20.493            12.064                 Moscow           377.000
       304   04 Jun 2027 05:07:55.449   04 Jun 2027 05:08:27.346            31.897              Murmansk2           996.781
       305   04 Jun 2027 05:08:27.346   04 Jun 2027 05:09:10.912            43.566              Murmansk1          1361.438
       306   04 Jun 2027 05:11:37.311   04 Jun 2027 05:12:06.292            28.981                 Moscow           905.656
       307   04 Jun 2027 06:29:14.647   04 Jun 2027 06:32:33.892           199.245                Anadyr2          6226.406
       308   04 Jun 2027 06:33:42.687   04 Jun 2027 06:33:55.391            12.704               Magadan2           397.000
       309   04 Jun 2027 08:04:59.534   04 Jun 2027 08:05:38.304            38.770                Norilsk          1211.562
       310   04 Jun 2027 08:05:40.702   04 Jun 2027 08:05:56.606            15.904                Norilsk           497.000
       311   04 Jun 2027 08:05:56.761   04 Jun 2027 08:08:28.164           151.403                Anadyr1          4731.344
       312   04 Jun 2027 08:47:08.791   04 Jun 2027 08:47:26.837            18.046            RioGallegos           563.938
       313   04 Jun 2027 09:40:09.357   04 Jun 2027 09:40:20.439            11.082                Irkutsk           346.313
       314   04 Jun 2027 09:40:31.514   04 Jun 2027 09:40:48.078            16.564               Magadan2           517.625
       315   04 Jun 2027 09:40:54.376   04 Jun 2027 09:41:07.596            13.220                Norilsk           413.125
       316   04 Jun 2027 09:41:16.394   04 Jun 2027 09:45:11.973           235.579               Magadan1          7361.844
       317   04 Jun 2027 09:45:28.841   04 Jun 2027 09:46:18.367            49.526                Novosib          1547.687
       318   04 Jun 2027 09:48:56.313   04 Jun 2027 09:48:59.335             3.022              Murmansk2            94.438
       319   04 Jun 2027 09:50:32.398   04 Jun 2027 09:50:32.886             0.488              Murmansk2            15.250
       320   04 Jun 2027 10:20:16.858   04 Jun 2027 10:21:21.804            64.946            RioGallegos          2029.563
       321   04 Jun 2027 10:31:12.753   04 Jun 2027 10:32:16.116            63.363            RioGallegos          1980.094
       322   04 Jun 2027 10:56:59.926   04 Jun 2027 10:57:20.427            20.501                Sumatra           640.656
       323   04 Jun 2027 11:12:11.902   04 Jun 2027 11:12:59.275            47.373                  Delhi          1480.406
       324   04 Jun 2027 11:15:17.796   04 Jun 2027 11:15:20.837             3.041                Norilsk            95.031
       325   04 Jun 2027 11:15:21.265   04 Jun 2027 11:15:28.784             7.519                Norilsk           234.969
       326   04 Jun 2027 11:16:06.114   04 Jun 2027 11:17:30.342            84.228                Irkutsk          2632.125
       327   04 Jun 2027 11:17:39.065   04 Jun 2027 11:17:52.383            13.318                Irkutsk           416.188
       328   04 Jun 2027 11:17:54.168   04 Jun 2027 11:18:59.791            65.623                Novosib          2050.719
       329   04 Jun 2027 11:19:03.926   04 Jun 2027 11:19:24.570            20.644                Norilsk           645.125
       330   04 Jun 2027 11:19:27.402   04 Jun 2027 11:19:32.255             4.853              Murmansk2           151.656
       331   04 Jun 2027 11:19:36.605   04 Jun 2027 11:19:56.308            19.703              Murmansk1           615.719
       332   04 Jun 2027 11:20:02.672   04 Jun 2027 11:21:17.701            75.029                Irkutsk          2344.656
       333   04 Jun 2027 11:58:06.768   04 Jun 2027 11:58:42.842            36.074            RioGallegos          1127.313
       334   04 Jun 2027 12:32:19.904   04 Jun 2027 12:33:02.928            43.024                Sumatra          1344.500
       335   04 Jun 2027 12:36:19.024   04 Jun 2027 12:37:28.731            69.707                Sumatra          2178.344
       336   04 Jun 2027 12:46:28.290   04 Jun 2027 12:49:21.811           173.521                Novosib          5422.531
       337   04 Jun 2027 12:50:54.271   04 Jun 2027 12:51:53.258            58.987                Norilsk          1843.344
       338   04 Jun 2027 14:17:38.911   04 Jun 2027 14:20:24.196           165.285                  Delhi          5165.156
       339   04 Jun 2027 14:24:51.284   04 Jun 2027 14:25:00.357             9.073                 Moscow           283.531
       340   04 Jun 2027 14:25:08.849   04 Jun 2027 14:25:38.061            29.212                 Moscow           912.875
       341   04 Jun 2027 14:26:25.211   04 Jun 2027 14:26:30.236             5.025                Novosib           157.031
       342   04 Jun 2027 14:27:07.914   04 Jun 2027 14:29:23.704           135.790                Novosib          4243.437
       343   04 Jun 2027 14:29:43.241   04 Jun 2027 14:31:01.817            78.576                Norilsk          2455.500
       344   04 Jun 2027 14:32:56.489   04 Jun 2027 14:33:18.663            22.174                Norilsk           692.938
       345   04 Jun 2027 15:40:53.546   04 Jun 2027 15:42:27.634            94.088               CapeTown          2940.250
       346   04 Jun 2027 15:42:50.363   04 Jun 2027 15:43:40.736            50.373               CapeTown          1574.156
       347   04 Jun 2027 16:00:09.502   04 Jun 2027 16:00:33.916            24.414                 Moscow           762.937
       348   04 Jun 2027 16:01:17.625   04 Jun 2027 16:01:48.217            30.592                 Moscow           956.000
       349   04 Jun 2027 16:03:37.726   04 Jun 2027 16:04:47.724            69.998              Murmansk2          2187.437
       350   04 Jun 2027 16:06:15.164   04 Jun 2027 16:06:32.926            17.762              Murmansk2           555.063
       351   04 Jun 2027 16:18:50.436   04 Jun 2027 16:19:45.323            54.887                Anadyr1          1715.219
       352   04 Jun 2027 16:20:01.230   04 Jun 2027 16:20:59.918            58.688                Anadyr2          1834.000
       353   04 Jun 2027 16:22:05.827   04 Jun 2027 16:22:08.191             2.364                Anadyr1            73.875
       354   04 Jun 2027 16:23:21.533   04 Jun 2027 16:23:31.915            10.382                Anadyr2           324.437
       355   04 Jun 2027 16:24:54.508   04 Jun 2027 16:25:15.463            20.955                Anadyr2           654.844
       356   04 Jun 2027 17:13:16.259   04 Jun 2027 17:15:29.905           133.646               CapeTown          4176.438
       357   04 Jun 2027 17:40:32.044   04 Jun 2027 17:42:53.397           141.353                 Moscow          4417.281
       358   04 Jun 2027 17:43:48.300   04 Jun 2027 17:44:41.850            53.550                 Moscow          1673.437
       359   04 Jun 2027 17:53:54.812   04 Jun 2027 17:55:08.170            73.358                Anadyr1          2292.437
       360   04 Jun 2027 18:05:40.920   04 Jun 2027 18:05:43.662             2.742                Anadyr2            85.688
       361   04 Jun 2027 18:50:18.899   04 Jun 2027 18:51:24.672            65.773               CapeTown          2055.406
       362   04 Jun 2027 18:56:20.877   04 Jun 2027 18:57:03.711            42.834               CapeTown          1338.562
       363   04 Jun 2027 19:23:42.739   04 Jun 2027 19:26:37.914           175.175              Murmansk1          5474.219
       364   04 Jun 2027 19:30:35.349   04 Jun 2027 19:30:50.725            15.376                Anadyr1           480.500
       365   04 Jun 2027 19:31:16.488   04 Jun 2027 19:31:27.455            10.967                Anadyr1           342.719
       366   04 Jun 2027 19:32:19.104   04 Jun 2027 19:33:37.105            78.001               Magadan1          2437.531
       367   04 Jun 2027 19:33:37.105   04 Jun 2027 19:34:59.186            82.081               Magadan2          2565.031
       368   04 Jun 2027 19:36:02.290   04 Jun 2027 19:36:58.262            55.972               Magadan1          1749.125
       369   04 Jun 2027 21:05:41.169   04 Jun 2027 21:09:23.245           222.076                Anadyr1          6939.875
       370   04 Jun 2027 21:09:26.619   04 Jun 2027 21:11:17.396           110.777               Magadan1          3461.781
       371   04 Jun 2027 21:11:17.396   04 Jun 2027 21:12:01.165            43.769               Magadan2          1367.781
       372   04 Jun 2027 21:12:15.236   04 Jun 2027 21:12:15.712             0.476               Magadan2            14.875
       373   04 Jun 2027 21:12:59.949   04 Jun 2027 21:13:34.994            35.045               Magadan2          1095.156
       374   04 Jun 2027 21:15:28.521   04 Jun 2027 21:15:55.038            26.517               Magadan1           828.656
       375   04 Jun 2027 21:18:54.573   04 Jun 2027 21:20:01.795            67.222               Magadan2          2100.688
       376   04 Jun 2027 22:00:13.170   04 Jun 2027 22:02:27.847           134.677            RioGallegos          4208.656
       377   04 Jun 2027 22:41:19.525   04 Jun 2027 22:41:44.328            24.803                Anadyr1           775.094
       378   04 Jun 2027 22:43:13.766   04 Jun 2027 22:43:37.379            23.613                Anadyr1           737.906
       379   04 Jun 2027 22:43:54.302   04 Jun 2027 22:45:05.690            71.388                Norilsk          2230.875
       380   04 Jun 2027 22:45:08.702   04 Jun 2027 22:45:24.273            15.571               Magadan1           486.594
       381   04 Jun 2027 22:45:42.603   04 Jun 2027 22:45:50.450             7.847               Magadan1           245.219
       382   04 Jun 2027 22:46:05.930   04 Jun 2027 22:46:29.062            23.132               Magadan1           722.875
       383   04 Jun 2027 22:47:18.619   04 Jun 2027 22:47:28.467             9.848               Magadan1           307.750
       384   04 Jun 2027 22:47:28.467   04 Jun 2027 22:47:37.891             9.424               Magadan2           294.500
       385   04 Jun 2027 22:47:45.032   04 Jun 2027 22:48:24.611            39.579                Irkutsk          1236.844
       386   04 Jun 2027 22:49:01.534   04 Jun 2027 22:49:05.530             3.996               Magadan2           124.875
       387   04 Jun 2027 22:49:05.530   04 Jun 2027 22:49:27.937            22.407               Magadan1           700.219
       388   04 Jun 2027 22:50:02.147   04 Jun 2027 22:50:52.424            50.277                Novosib          1571.156
       389   04 Jun 2027 22:52:40.937   04 Jun 2027 22:54:18.699            97.762                Novosib          3055.062
       390   04 Jun 2027 23:01:33.628   04 Jun 2027 23:02:10.934            37.306                Sumatra          1165.812
       391   04 Jun 2027 23:07:44.768   04 Jun 2027 23:07:57.584            12.816                Sumatra           400.500
       392   04 Jun 2027 23:09:21.344   04 Jun 2027 23:10:58.410            97.066                Sumatra          3033.312
       393   05 Jun 2027 00:16:07.447   05 Jun 2027 00:16:30.439            22.992                Anadyr2           718.500
       394   05 Jun 2027 00:17:01.327   05 Jun 2027 00:17:31.599            30.272                Anadyr1           946.000
       395   05 Jun 2027 00:18:46.619   05 Jun 2027 00:18:53.035             6.416                Anadyr2           200.500
       396   05 Jun 2027 00:19:27.723   05 Jun 2027 00:19:35.816             8.093                Norilsk           252.906
       397   05 Jun 2027 00:20:07.413   05 Jun 2027 00:21:18.827            71.414               Magadan2          2231.687
       398   05 Jun 2027 00:21:18.827   05 Jun 2027 00:21:42.565            23.738               Magadan1           741.813
       399   05 Jun 2027 00:22:41.000   05 Jun 2027 00:22:44.830             3.830               Magadan1           119.688
       400   05 Jun 2027 00:23:13.250   05 Jun 2027 00:23:24.798            11.548               Magadan1           360.875
       401   05 Jun 2027 00:23:30.167   05 Jun 2027 00:25:35.905           125.738                Novosib          3929.313
       402   05 Jun 2027 00:27:52.170   05 Jun 2027 00:28:17.758            25.588                Novosib           799.625
       403   05 Jun 2027 00:29:03.308   05 Jun 2027 00:30:03.616            60.308                Novosib          1884.625
       404   05 Jun 2027 00:31:23.756   05 Jun 2027 00:31:42.677            18.921                  Delhi           591.281
       405   05 Jun 2027 00:33:53.923   05 Jun 2027 00:34:34.223            40.300                  Delhi          1259.375
       406   05 Jun 2027 00:37:18.426   05 Jun 2027 00:38:07.763            49.337                  Delhi          1541.781
       407   05 Jun 2027 01:15:20.937   05 Jun 2027 01:15:36.040            15.103            RioGallegos           471.969
       408   05 Jun 2027 01:16:38.076   05 Jun 2027 01:17:27.161            49.085            RioGallegos          1533.906
       409   05 Jun 2027 01:49:42.844   05 Jun 2027 01:50:31.194            48.350                Anadyr1          1510.938
       410   05 Jun 2027 01:50:45.281   05 Jun 2027 01:51:25.856            40.575                Anadyr1          1267.969
       411   05 Jun 2027 01:52:03.067   05 Jun 2027 01:52:14.714            11.647                Anadyr1           363.969
       412   05 Jun 2027 01:55:27.634   05 Jun 2027 01:57:00.871            93.237                Norilsk          2913.656
       413   05 Jun 2027 01:57:50.218   05 Jun 2027 02:00:12.681           142.463              Murmansk2          4451.969
       414   05 Jun 2027 02:00:54.749   05 Jun 2027 02:01:13.458            18.709                Novosib           584.656
       415   05 Jun 2027 02:02:37.742   05 Jun 2027 02:03:17.262            39.520                Irkutsk          1235.000
       416   05 Jun 2027 02:06:48.790   05 Jun 2027 02:07:36.410            47.620                  Delhi          1488.125
       417   05 Jun 2027 02:17:24.482   05 Jun 2027 02:18:14.392            49.910                  Delhi          1559.687
       418   05 Jun 2027 03:40:18.655   05 Jun 2027 03:40:39.301            20.646              Murmansk1           645.187
       419   05 Jun 2027 03:40:40.191   05 Jun 2027 03:41:12.042            31.851                Norilsk           995.344
       420   05 Jun 2027 03:41:30.624   05 Jun 2027 03:44:24.537           173.913              Murmansk1          5434.781
       421   05 Jun 2027 03:45:01.157   05 Jun 2027 03:45:15.209            14.052                 Moscow           439.125
       422   05 Jun 2027 03:45:16.884   05 Jun 2027 03:45:17.731             0.847                Novosib            26.469
       423   05 Jun 2027 03:45:39.029   05 Jun 2027 03:49:17.948           218.919                 Moscow          6841.219
       424   05 Jun 2027 04:01:24.989   05 Jun 2027 04:05:19.416           234.427               CapeTown          7325.844
       425   05 Jun 2027 04:07:37.521   05 Jun 2027 04:07:55.488            17.967               CapeTown           561.469
       426   05 Jun 2027 04:08:07.617   05 Jun 2027 04:08:13.288             5.671               CapeTown           177.219
       427   05 Jun 2027 04:08:51.450   05 Jun 2027 04:09:02.669            11.219               CapeTown           350.594
       428   05 Jun 2027 05:16:25.042   05 Jun 2027 05:17:18.993            53.951              Murmansk2          1685.969
       429   05 Jun 2027 05:17:23.770   05 Jun 2027 05:18:03.544            39.774              Murmansk2          1242.937
       430   05 Jun 2027 05:18:03.544   05 Jun 2027 05:19:09.437            65.893              Murmansk1          2059.156
       431   05 Jun 2027 05:19:09.437   05 Jun 2027 05:20:07.023            57.586              Murmansk2          1799.563
       432   05 Jun 2027 05:21:40.910   05 Jun 2027 05:22:12.050            31.140                 Moscow           973.125
       433   05 Jun 2027 05:22:15.415   05 Jun 2027 05:22:30.859            15.444              Murmansk1           482.625
       434   05 Jun 2027 05:22:44.566   05 Jun 2027 05:23:08.903            24.337                 Moscow           760.531
       435   05 Jun 2027 05:38:43.458   05 Jun 2027 05:38:43.659             0.201               CapeTown             6.281
       436   05 Jun 2027 06:40:08.267   05 Jun 2027 06:40:37.382            29.115               Magadan2           909.844
       437   05 Jun 2027 06:40:44.042   05 Jun 2027 06:42:33.956           109.914                Anadyr2          3434.812
       438   05 Jun 2027 06:42:55.657   05 Jun 2027 06:43:36.106            40.449               Magadan1          1264.031
       439   05 Jun 2027 06:45:40.753   05 Jun 2027 06:45:47.968             7.215               Magadan2           225.469
       440   05 Jun 2027 06:45:56.015   05 Jun 2027 06:45:58.054             2.039               Magadan2            63.719
       441   05 Jun 2027 08:16:18.596   05 Jun 2027 08:16:59.687            41.091               Magadan2          1284.094
       442   05 Jun 2027 08:17:02.687   05 Jun 2027 08:17:36.626            33.939                Irkutsk          1060.594
       443   05 Jun 2027 08:17:45.199   05 Jun 2027 08:19:11.922            86.723                Anadyr1          2710.094
       444   05 Jun 2027 08:19:13.830   05 Jun 2027 08:20:01.540            47.710                Irkutsk          1490.938
       445   05 Jun 2027 08:57:47.500   05 Jun 2027 08:58:05.554            18.054            RioGallegos           564.187
       446   05 Jun 2027 09:00:23.095   05 Jun 2027 09:00:44.129            21.034            RioGallegos           657.313
       447   05 Jun 2027 09:50:09.360   05 Jun 2027 09:50:42.780            33.420               Magadan2          1044.375
       448   05 Jun 2027 09:50:58.519   05 Jun 2027 09:51:23.908            25.389                Norilsk           793.406
       449   05 Jun 2027 09:51:48.783   05 Jun 2027 09:53:32.213           103.430                Irkutsk          3232.187
       450   05 Jun 2027 09:53:32.409   05 Jun 2027 09:54:40.851            68.442               Magadan1          2138.812
       451   05 Jun 2027 09:54:53.562   05 Jun 2027 09:55:12.047            18.485                Irkutsk           577.656
       452   05 Jun 2027 09:55:20.984   05 Jun 2027 09:55:39.302            18.318                Norilsk           572.437
       453   05 Jun 2027 09:55:49.832   05 Jun 2027 09:56:25.867            36.035              Murmansk2          1126.094
       454   05 Jun 2027 09:56:32.225   05 Jun 2027 09:56:42.052             9.827              Murmansk1           307.094
       455   05 Jun 2027 09:56:42.052   05 Jun 2027 09:56:48.785             6.733              Murmansk2           210.406
       456   05 Jun 2027 09:56:57.037   05 Jun 2027 09:57:14.184            17.147                Norilsk           535.844
       457   05 Jun 2027 09:57:23.081   05 Jun 2027 09:57:25.501             2.420              Murmansk1            75.625
       458   05 Jun 2027 09:57:27.003   05 Jun 2027 09:58:06.127            39.124                Novosib          1222.625
       459   05 Jun 2027 10:01:37.671   05 Jun 2027 10:01:57.062            19.391              Murmansk2           605.969
       460   05 Jun 2027 10:32:19.140   05 Jun 2027 10:33:18.399            59.259            RioGallegos          1851.844
       461   05 Jun 2027 11:07:27.146   05 Jun 2027 11:09:45.249           138.103                Sumatra          4315.719
       462   05 Jun 2027 11:27:20.539   05 Jun 2027 11:27:27.650             7.111                Norilsk           222.219
       463   05 Jun 2027 11:27:33.232   05 Jun 2027 11:27:54.125            20.893                Irkutsk           652.906
       464   05 Jun 2027 11:28:07.104   05 Jun 2027 11:28:55.942            48.838                Norilsk          1526.188
       465   05 Jun 2027 11:29:00.303   05 Jun 2027 11:29:14.029            13.726                Norilsk           428.938
       466   05 Jun 2027 11:29:19.804   05 Jun 2027 11:29:48.372            28.568                Novosib           892.750
       467   05 Jun 2027 11:29:53.202   05 Jun 2027 11:30:00.313             7.111                Irkutsk           222.219
       468   05 Jun 2027 11:30:00.951   05 Jun 2027 11:30:38.836            37.885              Murmansk1          1183.906
       469   05 Jun 2027 11:30:43.039   05 Jun 2027 11:30:58.812            15.773                Irkutsk           492.906
       470   05 Jun 2027 11:31:06.375   05 Jun 2027 11:31:22.992            16.617              Murmansk2           519.281
       471   05 Jun 2027 11:31:22.992   05 Jun 2027 11:31:26.596             3.604              Murmansk1           112.625
       472   05 Jun 2027 11:31:29.163   05 Jun 2027 11:32:31.689            62.526                Norilsk          1953.937
       473   05 Jun 2027 11:32:38.480   05 Jun 2027 11:33:01.053            22.573              Murmansk2           705.406
       474   05 Jun 2027 11:33:04.623   05 Jun 2027 11:33:37.284            32.661                Norilsk          1020.656
       475   05 Jun 2027 11:34:36.866   05 Jun 2027 11:34:50.898            14.032                Norilsk           438.500
       476   05 Jun 2027 12:10:45.885   05 Jun 2027 12:11:36.756            50.871            RioGallegos          1589.719
       477   05 Jun 2027 12:13:24.591   05 Jun 2027 12:15:33.463           128.872            RioGallegos          4027.250
       478   05 Jun 2027 12:58:42.081   05 Jun 2027 12:59:47.687            65.606                Novosib          2050.188
       479   05 Jun 2027 13:01:36.991   05 Jun 2027 13:03:56.695           139.704                Irkutsk          4365.750
       480   05 Jun 2027 13:06:47.977   05 Jun 2027 13:07:05.010            17.033              Murmansk1           532.281
       481   05 Jun 2027 14:30:49.320   05 Jun 2027 14:34:34.763           225.443                  Delhi          7045.094
       482   05 Jun 2027 14:39:15.616   05 Jun 2027 14:40:22.469            66.853              Murmansk1          2089.156
