uniorb/output/strategy_1/Drop/Drop_KinoSat_111106.txt

KinoSat_111106
-------------------------
    Access    *     Start Time (UTCG)     *     Stop Time (UTCG)  *   Duration (s)        *       Station  *  Data (Mbytes)
         1   01 Jun 2027 03:28:45.893   01 Jun 2027 03:29:04.518            18.625              Murmansk2           582.031
         2   01 Jun 2027 03:29:04.518   01 Jun 2027 03:29:41.953            37.435              Murmansk1          1169.844
         3   01 Jun 2027 03:30:09.461   01 Jun 2027 03:30:47.189            37.728              Murmansk2          1179.000
         4   01 Jun 2027 04:50:35.429   01 Jun 2027 04:51:02.895            27.466                Anadyr1           858.313
         5   01 Jun 2027 04:51:20.420   01 Jun 2027 04:53:08.487           108.067                Anadyr2          3377.094
         6   01 Jun 2027 04:56:21.434   01 Jun 2027 04:56:34.675            13.241                Anadyr2           413.781
         7   01 Jun 2027 06:27:44.772   01 Jun 2027 06:30:08.554           143.782               Magadan2          4493.187
         8   01 Jun 2027 06:30:34.197   01 Jun 2027 06:30:51.988            17.791               Magadan1           555.969
         9   01 Jun 2027 06:31:31.589   01 Jun 2027 06:32:07.888            36.299                Anadyr1          1134.344
        10   01 Jun 2027 08:02:35.732   01 Jun 2027 08:07:20.660           284.928               Magadan1          8904.000
        11   01 Jun 2027 08:42:35.534   01 Jun 2027 08:42:35.904             0.370            RioGallegos            11.562
        12   01 Jun 2027 08:44:05.590   01 Jun 2027 08:45:01.435            55.845            RioGallegos          1745.156
        13   01 Jun 2027 09:17:57.314   01 Jun 2027 09:19:10.375            73.061                Sumatra          2283.156
        14   01 Jun 2027 09:39:08.323   01 Jun 2027 09:42:00.782           172.459                Norilsk          5389.344
        15   01 Jun 2027 09:42:03.022   01 Jun 2027 09:43:51.649           108.627                Irkutsk          3394.594
        16   01 Jun 2027 09:47:41.411   01 Jun 2027 09:47:48.894             7.483              Murmansk1           233.844
        17   01 Jun 2027 09:49:14.786   01 Jun 2027 09:49:46.139            31.353              Murmansk1           979.781
        18   01 Jun 2027 10:20:32.290   01 Jun 2027 10:20:54.024            21.734            RioGallegos           679.187
        19   01 Jun 2027 10:21:57.898   01 Jun 2027 10:22:34.380            36.482            RioGallegos          1140.063
        20   01 Jun 2027 10:24:12.097   01 Jun 2027 10:25:01.575            49.478            RioGallegos          1546.187
        21   01 Jun 2027 10:54:45.068   01 Jun 2027 10:55:14.296            29.228                Sumatra           913.375
        22   01 Jun 2027 10:59:34.814   01 Jun 2027 10:59:42.082             7.268                Sumatra           227.125
        23   01 Jun 2027 11:17:38.363   01 Jun 2027 11:18:34.726            56.363                Novosib          1761.344
        24   01 Jun 2027 11:18:59.165   01 Jun 2027 11:20:02.926            63.761                 Moscow          1992.531
        25   01 Jun 2027 11:20:03.120   01 Jun 2027 11:20:05.659             2.539                Novosib            79.344
        26   01 Jun 2027 11:20:10.648   01 Jun 2027 11:21:44.460            93.812              Murmansk1          2931.625
        27   01 Jun 2027 11:22:41.587   01 Jun 2027 11:22:57.640            16.053              Murmansk1           501.656
        28   01 Jun 2027 11:23:51.290   01 Jun 2027 11:24:04.680            13.390              Murmansk2           418.437
        29   01 Jun 2027 11:24:27.771   01 Jun 2027 11:24:52.740            24.969              Murmansk1           780.281
        30   01 Jun 2027 12:40:08.320   01 Jun 2027 12:42:35.200           146.880                  Delhi          4590.000
        31   01 Jun 2027 12:46:24.222   01 Jun 2027 12:48:49.523           145.301                 Moscow          4540.656
        32   01 Jun 2027 12:49:18.430   01 Jun 2027 12:49:42.955            24.525                Novosib           766.406
        33   01 Jun 2027 12:49:52.839   01 Jun 2027 12:51:53.710           120.871              Murmansk2          3777.219
        34   01 Jun 2027 12:51:58.094   01 Jun 2027 12:53:12.160            74.066                Norilsk          2314.563
        35   01 Jun 2027 12:56:58.534   01 Jun 2027 12:57:11.850            13.316                Norilsk           416.125
        36   01 Jun 2027 14:02:57.263   01 Jun 2027 14:04:47.337           110.074               CapeTown          3439.812
        37   01 Jun 2027 14:06:12.046   01 Jun 2027 14:06:27.047            15.001               CapeTown           468.781
        38   01 Jun 2027 14:06:27.982   01 Jun 2027 14:07:09.970            41.988               CapeTown          1312.125
        39   01 Jun 2027 14:22:30.907   01 Jun 2027 14:23:59.375            88.468                 Moscow          2764.625
        40   01 Jun 2027 14:25:58.555   01 Jun 2027 14:28:51.414           172.859              Murmansk1          5401.844
        41   01 Jun 2027 14:41:08.313   01 Jun 2027 14:42:53.838           105.525                Anadyr1          3297.656
        42   01 Jun 2027 14:46:41.680   01 Jun 2027 14:46:49.375             7.695                Anadyr1           240.469
        43   01 Jun 2027 15:35:34.486   01 Jun 2027 15:36:08.076            33.590               CapeTown          1049.687
        44   01 Jun 2027 15:36:34.932   01 Jun 2027 15:38:14.692            99.760               CapeTown          3117.500
        45   01 Jun 2027 16:04:22.898   01 Jun 2027 16:04:46.731            23.833              Murmansk1           744.781
        46   01 Jun 2027 16:05:04.925   01 Jun 2027 16:05:17.862            12.937              Murmansk2           404.281
        47   01 Jun 2027 16:05:46.455   01 Jun 2027 16:06:19.291            32.836              Murmansk1          1026.125
        48   01 Jun 2027 16:06:45.784   01 Jun 2027 16:07:05.054            19.270              Murmansk2           602.188
        49   01 Jun 2027 16:07:35.485   01 Jun 2027 16:08:32.681            57.196              Murmansk2          1787.375
        50   01 Jun 2027 16:16:13.837   01 Jun 2027 16:18:32.018           138.181                Anadyr2          4318.156
        51   01 Jun 2027 16:21:55.551   01 Jun 2027 16:23:22.993            87.442               Magadan1          2732.563
        52   01 Jun 2027 17:12:41.506   01 Jun 2027 17:13:35.409            53.903               CapeTown          1684.469
        53   01 Jun 2027 17:46:24.126   01 Jun 2027 17:48:41.255           137.129              Murmansk1          4285.281
        54   01 Jun 2027 17:52:04.663   01 Jun 2027 17:54:41.094           156.431                Anadyr2          4888.469
        55   01 Jun 2027 17:54:56.704   01 Jun 2027 17:55:25.400            28.696                Anadyr2           896.750
        56   01 Jun 2027 17:55:39.231   01 Jun 2027 17:58:33.736           174.505               Magadan2          5453.281
        57   01 Jun 2027 19:27:59.343   01 Jun 2027 19:32:03.530           244.187                Anadyr2          7630.844
        58   01 Jun 2027 19:32:03.781   01 Jun 2027 19:34:56.254           172.473               Magadan1          5389.781
        59   01 Jun 2027 20:22:30.294   01 Jun 2027 20:25:47.869           197.575            RioGallegos          6174.219
        60   01 Jun 2027 20:25:58.854   01 Jun 2027 20:26:20.659            21.805            RioGallegos           681.406
        61   01 Jun 2027 21:04:11.237   01 Jun 2027 21:04:15.022             3.785                Anadyr2           118.281
        62   01 Jun 2027 21:05:41.786   01 Jun 2027 21:05:47.924             6.138                Anadyr1           191.812
        63   01 Jun 2027 21:05:50.523   01 Jun 2027 21:05:56.388             5.865                Norilsk           183.281
        64   01 Jun 2027 21:05:59.162   01 Jun 2027 21:09:43.844           224.682                Norilsk          7021.312
        65   01 Jun 2027 21:10:02.956   01 Jun 2027 21:10:38.774            35.818                Irkutsk          1119.312
        66   01 Jun 2027 21:11:24.852   01 Jun 2027 21:11:52.624            27.772                Irkutsk           867.875
        67   01 Jun 2027 21:12:12.859   01 Jun 2027 21:14:14.396           121.537                Novosib          3798.031
        68   01 Jun 2027 21:23:49.714   01 Jun 2027 21:25:56.886           127.172                Sumatra          3974.125
        69   01 Jun 2027 22:41:00.333   01 Jun 2027 22:41:05.384             5.051                Anadyr1           157.844
        70   01 Jun 2027 22:41:46.966   01 Jun 2027 22:42:07.018            20.052                Norilsk           626.625
        71   01 Jun 2027 22:42:24.775   01 Jun 2027 22:43:46.311            81.536               Magadan2          2548.000
        72   01 Jun 2027 22:44:21.537   01 Jun 2027 22:44:28.782             7.245               Magadan2           226.406
        73   01 Jun 2027 22:44:56.571   01 Jun 2027 22:45:10.753            14.182               Magadan2           443.187
        74   01 Jun 2027 22:45:38.724   01 Jun 2027 22:46:40.818            62.094                Irkutsk          1940.437
        75   01 Jun 2027 22:46:56.482   01 Jun 2027 22:47:53.954            57.472                Novosib          1796.000
        76   01 Jun 2027 22:48:10.546   01 Jun 2027 22:49:04.336            53.790                Novosib          1680.937
        77   01 Jun 2027 22:53:39.360   01 Jun 2027 22:55:06.054            86.694                  Delhi          2709.187
        78   01 Jun 2027 22:56:29.436   01 Jun 2027 22:56:59.597            30.161                  Delhi           942.531
        79   02 Jun 2027 00:11:56.917   02 Jun 2027 00:12:09.040            12.123                Anadyr1           378.844
        80   02 Jun 2027 00:12:31.017   02 Jun 2027 00:13:22.260            51.243                Anadyr1          1601.344
        81   02 Jun 2027 00:14:46.272   02 Jun 2027 00:14:58.973            12.701                Anadyr1           396.906
        82   02 Jun 2027 00:17:29.304   02 Jun 2027 00:17:47.482            18.178                Anadyr2           568.062
        83   02 Jun 2027 00:17:56.397   02 Jun 2027 00:19:51.690           115.293               Magadan1          3602.906
        84   02 Jun 2027 00:19:51.690   02 Jun 2027 00:20:55.607            63.917               Magadan2          1997.406
        85   02 Jun 2027 00:21:16.138   02 Jun 2027 00:22:21.772            65.634              Murmansk2          2051.063
        86   02 Jun 2027 00:22:35.535   02 Jun 2027 00:23:27.011            51.476                Novosib          1608.625
        87   02 Jun 2027 00:25:08.057   02 Jun 2027 00:25:47.437            39.380                 Moscow          1230.625
        88   02 Jun 2027 00:27:21.004   02 Jun 2027 00:28:49.125            88.121                 Moscow          2753.781
        89   02 Jun 2027 01:45:20.686   02 Jun 2027 01:47:00.136            99.450                Anadyr1          3107.812
        90   02 Jun 2027 01:47:42.173   02 Jun 2027 01:48:23.631            41.458                Anadyr1          1295.563
        91   02 Jun 2027 01:50:29.837   02 Jun 2027 01:52:03.440            93.603               Magadan1          2925.094
        92   02 Jun 2027 01:53:34.371   02 Jun 2027 01:53:39.260             4.889                Norilsk           152.781
        93   02 Jun 2027 01:53:46.181   02 Jun 2027 01:54:10.109            23.928               Magadan2           747.750
        94   02 Jun 2027 01:55:54.141   02 Jun 2027 01:56:35.653            41.512              Murmansk2          1297.250
        95   02 Jun 2027 01:57:47.905   02 Jun 2027 01:58:07.364            19.459              Murmansk2           608.094
        96   02 Jun 2027 01:58:11.243   02 Jun 2027 01:59:52.912           101.669                Novosib          3177.156
        97   02 Jun 2027 02:00:35.030   02 Jun 2027 02:00:39.248             4.218                 Moscow           131.812
        98   02 Jun 2027 02:03:04.448   02 Jun 2027 02:04:41.365            96.917                 Moscow          3028.656
        99   02 Jun 2027 02:24:32.512   02 Jun 2027 02:24:37.994             5.482               CapeTown           171.313
       100   02 Jun 2027 02:26:23.792   02 Jun 2027 02:27:00.330            36.538               CapeTown          1141.813
       101   02 Jun 2027 03:25:27.947   02 Jun 2027 03:25:36.178             8.231                Anadyr2           257.219
       102   02 Jun 2027 03:25:45.845   02 Jun 2027 03:25:48.320             2.475                Anadyr1            77.344
       103   02 Jun 2027 03:25:49.875   02 Jun 2027 03:27:00.357            70.482                Anadyr1          2202.562
       104   02 Jun 2027 03:27:12.815   02 Jun 2027 03:28:35.712            82.897                Anadyr2          2590.531
       105   02 Jun 2027 03:28:35.712   02 Jun 2027 03:29:23.227            47.515                Anadyr1          1484.844
       106   02 Jun 2027 03:40:19.445   02 Jun 2027 03:42:53.670           154.225                 Moscow          4819.531
       107   02 Jun 2027 03:42:56.521   02 Jun 2027 03:43:09.938            13.417              Murmansk2           419.281
       108   02 Jun 2027 03:43:24.374   02 Jun 2027 03:44:35.976            71.602              Murmansk1          2237.562
       109   02 Jun 2027 03:46:01.895   02 Jun 2027 03:46:37.166            35.271                 Moscow          1102.219
       110   02 Jun 2027 03:59:41.851   02 Jun 2027 04:00:16.481            34.630               CapeTown          1082.188
       111   02 Jun 2027 04:01:31.912   02 Jun 2027 04:01:43.369            11.457               CapeTown           358.031
       112   02 Jun 2027 05:01:22.920   02 Jun 2027 05:01:40.600            17.680                Anadyr1           552.500
       113   02 Jun 2027 05:01:53.516   02 Jun 2027 05:02:19.455            25.939               Magadan2           810.594
       114   02 Jun 2027 05:02:19.455   02 Jun 2027 05:02:41.010            21.555               Magadan1           673.594
       115   02 Jun 2027 05:02:45.216   02 Jun 2027 05:03:18.017            32.801               Magadan2          1025.031
       116   02 Jun 2027 05:03:19.034   02 Jun 2027 05:04:46.432            87.398                Anadyr1          2731.188
       117   02 Jun 2027 05:05:07.881   02 Jun 2027 05:06:17.787            69.906               Magadan1          2184.563
       118   02 Jun 2027 06:38:49.129   02 Jun 2027 06:39:13.002            23.873               Magadan2           746.031
       119   02 Jun 2027 06:39:22.977   02 Jun 2027 06:40:05.199            42.222                Norilsk          1319.437
       120   02 Jun 2027 06:40:23.772   02 Jun 2027 06:42:12.384           108.612               Magadan1          3394.125
       121   02 Jun 2027 06:42:12.384   02 Jun 2027 06:42:26.145            13.761               Magadan2           430.031
       122   02 Jun 2027 06:43:15.213   02 Jun 2027 06:45:00.185           104.972              Murmansk1          3280.375
       123   02 Jun 2027 06:45:31.411   02 Jun 2027 06:45:42.494            11.083              Murmansk2           346.344
       124   02 Jun 2027 07:20:01.629   02 Jun 2027 07:20:52.256            50.627            RioGallegos          1582.094
       125   02 Jun 2027 08:14:18.470   02 Jun 2027 08:14:30.730            12.260                Irkutsk           383.125
       126   02 Jun 2027 08:14:36.171   02 Jun 2027 08:15:16.545            40.374               Magadan2          1261.687
       127   02 Jun 2027 08:15:16.545   02 Jun 2027 08:18:15.725           179.180               Magadan1          5599.375
       128   02 Jun 2027 08:18:35.997   02 Jun 2027 08:19:16.046            40.049               Magadan2          1251.531
       129   02 Jun 2027 08:19:23.037   02 Jun 2027 08:19:55.299            32.262                Irkutsk          1008.187
       130   02 Jun 2027 08:20:17.271   02 Jun 2027 08:21:05.657            48.386              Murmansk2          1512.062
       131   02 Jun 2027 08:22:56.422   02 Jun 2027 08:23:47.420            50.998              Murmansk1          1593.688
       132   02 Jun 2027 08:54:38.313   02 Jun 2027 08:55:31.780            53.467            RioGallegos          1670.844
       133   02 Jun 2027 09:29:43.723   02 Jun 2027 09:31:02.190            78.467                Sumatra          2452.094
       134   02 Jun 2027 09:32:31.061   02 Jun 2027 09:33:25.872            54.811                Sumatra          1712.844
       135   02 Jun 2027 09:51:18.920   02 Jun 2027 09:52:03.883            44.963                Norilsk          1405.094
       136   02 Jun 2027 09:52:05.741   02 Jun 2027 09:53:04.193            58.452                Irkutsk          1826.625
       137   02 Jun 2027 09:53:16.332   02 Jun 2027 09:56:09.533           173.201                Norilsk          5412.531
       138   02 Jun 2027 09:56:27.420   02 Jun 2027 09:56:28.007             0.587                Norilsk            18.344
       139   02 Jun 2027 09:56:44.897   02 Jun 2027 09:57:07.306            22.409              Murmansk1           700.281
       140   02 Jun 2027 10:33:40.322   02 Jun 2027 10:34:08.441            28.119            RioGallegos           878.719
       141   02 Jun 2027 10:34:37.266   02 Jun 2027 10:35:35.228            57.962            RioGallegos          1811.313
       142   02 Jun 2027 11:07:33.620   02 Jun 2027 11:08:00.590            26.970                Sumatra           842.812
       143   02 Jun 2027 11:14:40.242   02 Jun 2027 11:16:34.471           114.229                  Delhi          3569.656
       144   02 Jun 2027 11:28:56.988   02 Jun 2027 11:29:46.411            49.423                Irkutsk          1544.469
       145   02 Jun 2027 11:30:15.776   02 Jun 2027 11:32:13.438           117.662              Murmansk1          3676.938
       146   02 Jun 2027 11:32:13.438   02 Jun 2027 11:32:56.374            42.936              Murmansk2          1341.750
       147   02 Jun 2027 11:33:17.229   02 Jun 2027 11:33:58.005            40.776                 Moscow          1274.250
       148   02 Jun 2027 12:56:36.363   02 Jun 2027 12:57:18.985            42.622                  Delhi          1331.937
       149   02 Jun 2027 12:58:16.959   02 Jun 2027 13:01:04.063           167.104                 Moscow          5222.000
       150   02 Jun 2027 13:01:33.966   02 Jun 2027 13:04:49.721           195.755              Murmansk1          6117.344
       151   02 Jun 2027 13:05:13.504   02 Jun 2027 13:05:59.796            46.292                Norilsk          1446.625
       152   02 Jun 2027 14:13:53.404   02 Jun 2027 14:16:24.006           150.602               CapeTown          4706.313
       153   02 Jun 2027 14:21:13.453   02 Jun 2027 14:21:38.220            24.767               CapeTown           773.969
       154   02 Jun 2027 14:34:48.064   02 Jun 2027 14:35:15.108            27.044                 Moscow           845.125
       155   02 Jun 2027 14:35:30.815   02 Jun 2027 14:36:03.130            32.315                 Moscow          1009.844
       156   02 Jun 2027 14:38:11.268   02 Jun 2027 14:40:24.079           132.811              Murmansk2          4150.344
       157   02 Jun 2027 14:41:09.652   02 Jun 2027 14:41:33.017            23.365              Murmansk2           730.156
       158   02 Jun 2027 14:52:56.215   02 Jun 2027 14:54:42.257           106.042                Anadyr1          3313.813
       159   02 Jun 2027 14:54:56.977   02 Jun 2027 14:56:21.531            84.554                Anadyr2          2642.312
       160   02 Jun 2027 15:47:43.824   02 Jun 2027 15:48:16.187            32.363               CapeTown          1011.344
       161   02 Jun 2027 16:16:48.866   02 Jun 2027 16:17:10.372            21.506                 Moscow           672.063
       162   02 Jun 2027 16:17:19.025   02 Jun 2027 16:17:39.928            20.903                 Moscow           653.219
       163   02 Jun 2027 16:17:42.655   02 Jun 2027 16:18:05.572            22.917              Murmansk2           716.156
       164   02 Jun 2027 16:18:10.001   02 Jun 2027 16:18:47.075            37.074              Murmansk1          1158.562
       165   02 Jun 2027 16:19:41.448   02 Jun 2027 16:20:29.750            48.302              Murmansk1          1509.437
       166   02 Jun 2027 16:21:30.022   02 Jun 2027 16:22:18.304            48.282              Murmansk2          1508.812
       167   02 Jun 2027 16:28:13.602   02 Jun 2027 16:30:21.428           127.826                Anadyr1          3994.563
       168   02 Jun 2027 16:30:25.565   02 Jun 2027 16:30:33.356             7.791                Anadyr2           243.469
       169   02 Jun 2027 16:32:34.317   02 Jun 2027 16:33:32.659            58.342               Magadan2          1823.187
       170   02 Jun 2027 16:33:32.659   02 Jun 2027 16:35:20.362           107.703               Magadan1          3365.719
       171   02 Jun 2027 18:04:06.142   02 Jun 2027 18:08:00.699           234.557                Anadyr1          7329.906
       172   02 Jun 2027 18:08:31.292   02 Jun 2027 18:10:20.818           109.526               Magadan2          3422.687
       173   02 Jun 2027 18:10:23.779   02 Jun 2027 18:10:58.214            34.435               Magadan1          1076.094
       174   02 Jun 2027 18:11:45.165   02 Jun 2027 18:12:04.879            19.714               Magadan1           616.062
       175   02 Jun 2027 19:39:59.890   02 Jun 2027 19:43:59.765           239.875                Anadyr2          7496.094
       176   02 Jun 2027 19:44:19.422   02 Jun 2027 19:46:02.900           103.478                Norilsk          3233.688
       177   02 Jun 2027 19:46:26.681   02 Jun 2027 19:47:31.804            65.123               Magadan1          2035.094
       178   02 Jun 2027 19:49:02.751   02 Jun 2027 19:49:18.199            15.448               Magadan2           482.750
       179   02 Jun 2027 19:49:22.869   02 Jun 2027 19:51:07.411           104.542                Irkutsk          3266.937
       180   02 Jun 2027 20:34:19.527   02 Jun 2027 20:35:32.648            73.121            RioGallegos          2285.031
       181   02 Jun 2027 20:35:34.085   02 Jun 2027 20:36:11.019            36.934            RioGallegos          1154.187
       182   02 Jun 2027 20:37:33.092   02 Jun 2027 20:37:36.791             3.699            RioGallegos           115.594
       183   02 Jun 2027 20:43:47.386   02 Jun 2027 20:44:46.492            59.106            RioGallegos          1847.062
       184   02 Jun 2027 21:15:32.818   02 Jun 2027 21:17:46.948           134.130                Anadyr2          4191.563
       185   02 Jun 2027 21:18:21.725   02 Jun 2027 21:19:22.532            60.807               Magadan1          1900.219
       186   02 Jun 2027 21:19:38.059   02 Jun 2027 21:20:05.050            26.991               Magadan1           843.469
       187   02 Jun 2027 21:23:01.942   02 Jun 2027 21:23:19.520            17.578                Norilsk           549.313
       188   02 Jun 2027 21:23:30.278   02 Jun 2027 21:24:49.063            78.785                Novosib          2462.031
       189   02 Jun 2027 21:25:59.524   02 Jun 2027 21:26:40.772            41.248                Novosib          1289.000
       190   02 Jun 2027 21:28:12.213   02 Jun 2027 21:30:09.897           117.684                Novosib          3677.625
       191   02 Jun 2027 21:44:00.039   02 Jun 2027 21:45:09.561            69.522                Sumatra          2172.562
       192   02 Jun 2027 22:50:57.224   02 Jun 2027 22:51:58.951            61.727                Anadyr1          1928.969
       193   02 Jun 2027 22:54:09.864   02 Jun 2027 22:54:52.852            42.988                Norilsk          1343.375
       194   02 Jun 2027 22:55:03.418   02 Jun 2027 22:55:49.556            46.138               Magadan1          1441.812
       195   02 Jun 2027 22:56:29.189   02 Jun 2027 22:56:53.142            23.953               Magadan1           748.531
       196   02 Jun 2027 22:57:41.841   02 Jun 2027 22:58:30.128            48.287                Irkutsk          1508.969
       197   02 Jun 2027 22:59:01.868   02 Jun 2027 22:59:38.461            36.593                Novosib          1143.531
       198   02 Jun 2027 23:00:24.768   02 Jun 2027 23:00:45.391            20.623                Novosib           644.469
       199   02 Jun 2027 23:03:09.367   02 Jun 2027 23:03:27.292            17.925                Novosib           560.156
       200   02 Jun 2027 23:05:23.729   02 Jun 2027 23:07:33.546           129.817                  Delhi          4056.781
       201   02 Jun 2027 23:09:54.658   02 Jun 2027 23:11:40.696           106.038                  Delhi          3313.687
       202   03 Jun 2027 00:23:37.942   03 Jun 2027 00:23:44.269             6.327                Anadyr2           197.719
       203   03 Jun 2027 00:23:45.492   03 Jun 2027 00:23:52.440             6.948                Anadyr1           217.125
       204   03 Jun 2027 00:23:54.400   03 Jun 2027 00:24:32.024            37.624                Anadyr1          1175.750
       205   03 Jun 2027 00:25:37.936   03 Jun 2027 00:25:42.961             5.025                Anadyr2           157.031
       206   03 Jun 2027 00:26:09.396   03 Jun 2027 00:26:27.806            18.410                Anadyr2           575.312
       207   03 Jun 2027 00:27:40.628   03 Jun 2027 00:28:17.193            36.565                Anadyr1          1142.656
       208   03 Jun 2027 00:28:56.393   03 Jun 2027 00:29:14.339            17.946                Anadyr2           560.813
       209   03 Jun 2027 00:29:28.520   03 Jun 2027 00:29:42.324            13.804                Anadyr2           431.375
       210   03 Jun 2027 00:29:44.869   03 Jun 2027 00:30:39.812            54.943               Magadan1          1716.969
       211   03 Jun 2027 00:30:39.812   03 Jun 2027 00:31:20.648            40.836               Magadan2          1276.125
       212   03 Jun 2027 00:32:07.422   03 Jun 2027 00:34:23.081           135.659              Murmansk2          4239.344
       213   03 Jun 2027 00:36:36.099   03 Jun 2027 00:36:39.921             3.822                Novosib           119.437
       214   03 Jun 2027 00:36:56.567   03 Jun 2027 00:38:07.245            70.678                 Moscow          2208.688
       215   03 Jun 2027 00:40:02.481   03 Jun 2027 00:40:25.060            22.579                 Moscow           705.594
       216   03 Jun 2027 00:41:48.804   03 Jun 2027 00:42:12.847            24.043                 Moscow           751.344
       217   03 Jun 2027 00:46:43.319   03 Jun 2027 00:46:49.062             5.743                  Delhi           179.469
       218   03 Jun 2027 00:47:32.698   03 Jun 2027 00:48:45.104            72.406                  Delhi          2262.687
       219   03 Jun 2027 01:57:06.524   03 Jun 2027 01:59:14.447           127.923                Anadyr2          3997.594
       220   03 Jun 2027 01:59:47.873   03 Jun 2027 02:00:14.427            26.554                Anadyr2           829.813
       221   03 Jun 2027 02:01:34.412   03 Jun 2027 02:02:14.004            39.592                Anadyr2          1237.250
       222   03 Jun 2027 02:02:30.784   03 Jun 2027 02:03:43.713            72.929               Magadan2          2279.031
       223   03 Jun 2027 02:06:27.731   03 Jun 2027 02:07:03.954            36.223               Magadan1          1131.969
       224   03 Jun 2027 02:07:55.686   03 Jun 2027 02:09:09.509            73.823              Murmansk1          2306.969
       225   03 Jun 2027 02:09:09.509   03 Jun 2027 02:09:13.137             3.628              Murmansk2           113.375
       226   03 Jun 2027 02:10:26.208   03 Jun 2027 02:11:40.738            74.530                Novosib          2329.063
       227   03 Jun 2027 02:15:35.075   03 Jun 2027 02:15:38.473             3.398                Novosib           106.188
       228   03 Jun 2027 02:16:35.014   03 Jun 2027 02:17:25.859            50.845                Novosib          1588.906
       229   03 Jun 2027 02:22:31.938   03 Jun 2027 02:23:03.575            31.637                 Moscow           988.656
       230   03 Jun 2027 02:38:06.513   03 Jun 2027 02:38:18.018            11.505               CapeTown           359.531
       231   03 Jun 2027 02:38:58.804   03 Jun 2027 02:39:11.154            12.350               CapeTown           385.938
       232   03 Jun 2027 02:42:10.989   03 Jun 2027 02:43:04.475            53.486               CapeTown          1671.438
       233   03 Jun 2027 03:38:49.125   03 Jun 2027 03:43:00.544           251.419                Anadyr2          7856.844
       234   03 Jun 2027 03:43:12.819   03 Jun 2027 03:43:32.563            19.744               Magadan1           617.000
       235   03 Jun 2027 03:43:50.753   03 Jun 2027 03:44:30.692            39.939                Anadyr2          1248.094
       236   03 Jun 2027 03:51:06.933   03 Jun 2027 03:51:54.578            47.645                Norilsk          1488.906
       237   03 Jun 2027 05:14:16.769   03 Jun 2027 05:16:33.327           136.558                Anadyr1          4267.437
       238   03 Jun 2027 05:16:47.413   03 Jun 2027 05:20:21.428           214.015                Anadyr2          6687.969
       239   03 Jun 2027 05:20:21.428   03 Jun 2027 05:20:25.404             3.976                Anadyr1           124.250
       240   03 Jun 2027 06:48:46.914   03 Jun 2027 06:49:22.707            35.793                Irkutsk          1118.531
       241   03 Jun 2027 06:49:53.035   03 Jun 2027 06:53:57.260           244.225                Anadyr1          7632.031
       242   03 Jun 2027 06:54:06.734   03 Jun 2027 06:54:55.687            48.953               Magadan2          1529.781
       243   03 Jun 2027 06:55:03.162   03 Jun 2027 06:55:53.189            50.027                Anadyr1          1563.344
       244   03 Jun 2027 07:31:41.851   03 Jun 2027 07:32:17.851            36.000            RioGallegos          1125.000
       245   03 Jun 2027 08:26:36.069   03 Jun 2027 08:26:40.173             4.104               Magadan2           128.250
       246   03 Jun 2027 08:26:54.699   03 Jun 2027 08:30:19.945           205.246                Irkutsk          6413.937
       247   03 Jun 2027 08:30:32.788   03 Jun 2027 08:30:52.057            19.269                Irkutsk           602.156
       248   03 Jun 2027 08:30:55.270   03 Jun 2027 08:31:25.153            29.883              Murmansk1           933.844
       249   03 Jun 2027 08:31:25.153   03 Jun 2027 08:32:09.692            44.539              Murmansk2          1391.844
       250   03 Jun 2027 08:32:22.126   03 Jun 2027 08:32:47.159            25.033                Novosib           782.281
       251   03 Jun 2027 08:34:00.037   03 Jun 2027 08:34:17.056            17.019                Norilsk           531.844
       252   03 Jun 2027 09:06:44.532   03 Jun 2027 09:07:49.191            64.659            RioGallegos          2020.594
       253   03 Jun 2027 09:41:36.224   03 Jun 2027 09:43:18.493           102.269                Sumatra          3195.906
       254   03 Jun 2027 10:02:48.556   03 Jun 2027 10:02:56.661             8.105                Irkutsk           253.281
       255   03 Jun 2027 10:03:07.820   03 Jun 2027 10:04:42.866            95.046                Novosib          2970.187
       256   03 Jun 2027 10:04:45.378   03 Jun 2027 10:05:32.045            46.667              Murmansk1          1458.344
       257   03 Jun 2027 10:05:35.066   03 Jun 2027 10:06:04.784            29.718                 Moscow           928.687
       258   03 Jun 2027 10:06:10.016   03 Jun 2027 10:06:39.027            29.011                Irkutsk           906.594
       259   03 Jun 2027 10:06:43.386   03 Jun 2027 10:07:03.753            20.367                 Moscow           636.469
       260   03 Jun 2027 10:07:16.519   03 Jun 2027 10:07:25.284             8.765                Norilsk           273.906
       261   03 Jun 2027 10:07:26.949   03 Jun 2027 10:07:46.511            19.562                Novosib           611.312
       262   03 Jun 2027 10:07:51.745   03 Jun 2027 10:08:04.841            13.096                Norilsk           409.250
       263   03 Jun 2027 10:08:38.369   03 Jun 2027 10:09:21.002            42.633              Murmansk2          1332.281
       264   03 Jun 2027 10:11:35.847   03 Jun 2027 10:11:41.259             5.412              Murmansk1           169.125
       265   03 Jun 2027 10:46:02.717   03 Jun 2027 10:46:43.611            40.894            RioGallegos          1277.937
       266   03 Jun 2027 10:47:29.865   03 Jun 2027 10:48:04.037            34.172            RioGallegos          1067.875
       267   03 Jun 2027 11:20:52.692   03 Jun 2027 11:21:35.290            42.598                Sumatra          1331.187
       268   03 Jun 2027 11:22:09.580   03 Jun 2027 11:23:10.507            60.927                Sumatra          1903.969
       269   03 Jun 2027 11:28:38.008   03 Jun 2027 11:28:56.349            18.341                  Delhi           573.156
       270   03 Jun 2027 11:39:42.982   03 Jun 2027 11:40:02.708            19.726                Norilsk           616.438
       271   03 Jun 2027 11:40:20.553   03 Jun 2027 11:40:48.904            28.351                Novosib           885.969
       272   03 Jun 2027 11:40:55.852   03 Jun 2027 11:40:59.245             3.393                 Moscow           106.031
       273   03 Jun 2027 11:41:06.045   03 Jun 2027 11:41:24.123            18.078              Murmansk1           564.938
       274   03 Jun 2027 11:41:31.243   03 Jun 2027 11:41:49.312            18.069                Novosib           564.656
       275   03 Jun 2027 11:41:52.418   03 Jun 2027 11:42:09.287            16.869              Murmansk2           527.156
       276   03 Jun 2027 11:42:09.287   03 Jun 2027 11:42:18.043             8.756              Murmansk1           273.625
       277   03 Jun 2027 11:42:32.745   03 Jun 2027 11:42:56.374            23.629                 Moscow           738.406
       278   03 Jun 2027 11:43:06.085   03 Jun 2027 11:43:12.985             6.900                Novosib           215.625
       279   03 Jun 2027 11:43:14.385   03 Jun 2027 11:44:13.544            59.159              Murmansk2          1848.719
       280   03 Jun 2027 13:10:12.424   03 Jun 2027 13:14:04.517           232.093                 Moscow          7252.906
       281   03 Jun 2027 13:14:37.052   03 Jun 2027 13:17:14.207           157.155              Murmansk2          4911.094
       282   03 Jun 2027 13:17:14.536   03 Jun 2027 13:18:33.281            78.745                Norilsk          2460.781
       283   03 Jun 2027 13:21:23.707   03 Jun 2027 13:21:57.165            33.458                Norilsk          1045.563
       284   03 Jun 2027 14:25:13.410   03 Jun 2027 14:26:02.303            48.893               CapeTown          1527.906
       285   03 Jun 2027 14:26:50.310   03 Jun 2027 14:28:07.024            76.714               CapeTown          2397.313
       286   03 Jun 2027 14:29:53.413   03 Jun 2027 14:30:25.747            32.334               CapeTown          1010.437
       287   03 Jun 2027 14:31:38.565   03 Jun 2027 14:32:19.604            41.039               CapeTown          1282.469
       288   03 Jun 2027 14:47:35.782   03 Jun 2027 14:47:58.545            22.763                 Moscow           711.344
       289   03 Jun 2027 14:50:25.916   03 Jun 2027 14:51:27.484            61.568              Murmansk2          1924.000
       290   03 Jun 2027 14:53:30.357   03 Jun 2027 14:53:34.077             3.720              Murmansk1           116.250
       291   03 Jun 2027 14:54:51.227   03 Jun 2027 14:55:11.699            20.472              Murmansk1           639.750
       292   03 Jun 2027 14:56:55.652   03 Jun 2027 14:57:11.890            16.238              Murmansk1           507.437
       293   03 Jun 2027 14:58:10.356   03 Jun 2027 14:58:39.567            29.211              Murmansk1           912.844
       294   03 Jun 2027 15:04:47.594   03 Jun 2027 15:07:57.397           189.803                Anadyr2          5931.344
       295   03 Jun 2027 16:08:32.829   03 Jun 2027 16:09:01.638            28.809               CapeTown           900.281
       296   03 Jun 2027 16:10:47.940   03 Jun 2027 16:11:17.453            29.513               CapeTown           922.281
       297   03 Jun 2027 16:29:27.463   03 Jun 2027 16:32:25.279           177.816              Murmansk1          5556.750
       298   03 Jun 2027 16:40:13.786   03 Jun 2027 16:41:28.455            74.669                Anadyr1          2333.406
       299   03 Jun 2027 16:41:42.426   03 Jun 2027 16:42:09.605            27.179                Anadyr2           849.344
       300   03 Jun 2027 16:44:00.232   03 Jun 2027 16:46:20.036           139.804               Magadan1          4368.875
       301   03 Jun 2027 16:47:00.565   03 Jun 2027 16:47:49.358            48.793               Magadan2          1524.781
       302   03 Jun 2027 18:16:07.627   03 Jun 2027 18:20:02.013           234.386                Anadyr1          7324.563
       303   03 Jun 2027 18:20:06.482   03 Jun 2027 18:22:11.707           125.225               Magadan2          3913.281
       304   03 Jun 2027 18:28:47.462   03 Jun 2027 18:29:20.642            33.180               Magadan1          1036.875
       305   03 Jun 2027 19:52:00.136   03 Jun 2027 19:55:49.627           229.491                Anadyr2          7171.594
       306   03 Jun 2027 19:55:50.055   03 Jun 2027 19:57:56.099           126.044               Magadan2          3938.875
       307   03 Jun 2027 19:59:30.581   03 Jun 2027 20:00:04.478            33.897               Magadan1          1059.281
       308   03 Jun 2027 20:00:08.991   03 Jun 2027 20:00:41.589            32.598                Irkutsk          1018.688
       309   03 Jun 2027 20:01:58.356   03 Jun 2027 20:02:46.870            48.514                Irkutsk          1516.063
       310   03 Jun 2027 20:03:34.241   03 Jun 2027 20:04:24.849            50.608                Irkutsk          1581.500
       311   03 Jun 2027 20:17:57.793   03 Jun 2027 20:19:01.754            63.961                Sumatra          1998.781
       312   03 Jun 2027 20:54:23.430   03 Jun 2027 20:55:12.861            49.431            RioGallegos          1544.719
       313   03 Jun 2027 21:27:41.070   03 Jun 2027 21:27:48.855             7.785                Anadyr1           243.281
       314   03 Jun 2027 21:28:33.073   03 Jun 2027 21:29:45.544            72.471                Anadyr1          2264.719
       315   03 Jun 2027 21:29:52.123   03 Jun 2027 21:31:13.506            81.383                Norilsk          2543.219
       316   03 Jun 2027 21:31:46.207   03 Jun 2027 21:31:54.336             8.129               Magadan2           254.031
       317   03 Jun 2027 21:32:17.937   03 Jun 2027 21:33:39.278            81.341                Norilsk          2541.906
       318   03 Jun 2027 21:33:53.627   03 Jun 2027 21:35:03.925            70.298                Irkutsk          2196.812
       319   03 Jun 2027 21:35:14.505   03 Jun 2027 21:36:16.387            61.882                Novosib          1933.813
       320   03 Jun 2027 21:40:48.502   03 Jun 2027 21:41:43.245            54.743                Novosib          1710.719
       321   03 Jun 2027 21:47:34.624   03 Jun 2027 21:48:11.258            36.634                Sumatra          1144.813
       322   03 Jun 2027 21:56:20.156   03 Jun 2027 21:57:09.422            49.266                Sumatra          1539.562
       323   03 Jun 2027 23:01:55.603   03 Jun 2027 23:02:12.746            17.143                Anadyr1           535.719
       324   03 Jun 2027 23:05:51.041   03 Jun 2027 23:07:46.095           115.054                Norilsk          3595.438
       325   03 Jun 2027 23:09:03.621   03 Jun 2027 23:09:45.166            41.545               Magadan1          1298.281
       326   03 Jun 2027 23:09:45.709   03 Jun 2027 23:10:22.193            36.484                Irkutsk          1140.125
       327   03 Jun 2027 23:11:09.434   03 Jun 2027 23:11:31.629            22.195              Murmansk1           693.594
       328   03 Jun 2027 23:13:20.168   03 Jun 2027 23:15:01.308           101.140                Novosib          3160.625
       329   03 Jun 2027 23:17:12.966   03 Jun 2027 23:18:20.964            67.998                  Delhi          2124.937
       330   03 Jun 2027 23:22:59.400   03 Jun 2027 23:23:21.123            21.723                  Delhi           678.844
       331   03 Jun 2027 23:25:02.762   03 Jun 2027 23:25:33.425            30.663                  Delhi           958.219
       332   04 Jun 2027 00:35:18.989   04 Jun 2027 00:35:27.703             8.714                Anadyr1           272.312
       333   04 Jun 2027 00:35:30.437   04 Jun 2027 00:35:41.090            10.653                Anadyr2           332.906
       334   04 Jun 2027 00:36:33.163   04 Jun 2027 00:37:37.226            64.063                Anadyr2          2001.969
       335   04 Jun 2027 00:37:37.226   04 Jun 2027 00:37:53.036            15.810                Anadyr1           494.063
       336   04 Jun 2027 00:40:57.734   04 Jun 2027 00:41:09.701            11.967                Anadyr2           373.969
       337   04 Jun 2027 00:41:29.072   04 Jun 2027 00:43:59.448           150.376               Magadan1          4699.250
       338   04 Jun 2027 00:44:06.177   04 Jun 2027 00:46:21.523           135.346              Murmansk1          4229.563
       339   04 Jun 2027 00:48:19.283   04 Jun 2027 00:49:42.719            83.436                 Moscow          2607.375
       340   04 Jun 2027 00:53:02.138   04 Jun 2027 00:54:44.456           102.318                 Moscow          3197.438
       341   04 Jun 2027 01:17:42.625   04 Jun 2027 01:18:33.516            50.891               CapeTown          1590.344
       342   04 Jun 2027 02:08:53.558   04 Jun 2027 02:09:11.093            17.535                Anadyr2           547.969
       343   04 Jun 2027 02:09:23.589   04 Jun 2027 02:09:30.926             7.337                Anadyr1           229.281
       344   04 Jun 2027 02:09:41.282   04 Jun 2027 02:10:16.258            34.976                Anadyr1          1093.000
       345   04 Jun 2027 02:11:40.067   04 Jun 2027 02:12:09.292            29.225                Anadyr1           913.281
       346   04 Jun 2027 02:13:25.770   04 Jun 2027 02:14:32.538            66.768               Magadan1          2086.500
       347   04 Jun 2027 02:17:21.713   04 Jun 2027 02:17:40.217            18.504               Magadan2           578.250
       348   04 Jun 2027 02:18:51.234   04 Jun 2027 02:19:42.153            50.919               Magadan2          1591.219
       349   04 Jun 2027 02:19:57.344   04 Jun 2027 02:20:26.577            29.233              Murmansk2           913.531
       350   04 Jun 2027 02:20:56.604   04 Jun 2027 02:21:13.551            16.947              Murmansk1           529.594
       351   04 Jun 2027 02:21:33.486   04 Jun 2027 02:22:38.730            65.244              Murmansk2          2038.875
       352   04 Jun 2027 02:26:52.680   04 Jun 2027 02:27:05.132            12.452                Novosib           389.125
       353   04 Jun 2027 02:30:24.323   04 Jun 2027 02:30:26.215             1.892                 Moscow            59.125
       354   04 Jun 2027 02:31:23.609   04 Jun 2027 02:31:44.847            21.238                 Moscow           663.688
       355   04 Jun 2027 02:32:47.996   04 Jun 2027 02:34:14.888            86.892                 Moscow          2715.375
       356   04 Jun 2027 02:56:33.144   04 Jun 2027 02:56:42.870             9.726               CapeTown           303.938
       357   04 Jun 2027 03:50:34.991   04 Jun 2027 03:51:01.135            26.144               Magadan1           817.000
       358   04 Jun 2027 03:51:03.071   04 Jun 2027 03:53:23.542           140.471                Anadyr1          4389.719
       359   04 Jun 2027 03:53:23.542   04 Jun 2027 03:53:24.466             0.924                Anadyr2            28.875
       360   04 Jun 2027 03:53:26.590   04 Jun 2027 03:54:20.246            53.656               Magadan1          1676.750
       361   04 Jun 2027 03:55:06.799   04 Jun 2027 03:55:34.142            27.343                Anadyr2           854.469
       362   04 Jun 2027 05:25:24.933   04 Jun 2027 05:25:29.897             4.964                Anadyr1           155.125
       363   04 Jun 2027 05:26:03.816   04 Jun 2027 05:26:09.764             5.948                Anadyr1           185.875
       364   04 Jun 2027 05:26:33.575   04 Jun 2027 05:31:10.170           276.595                Anadyr1          8643.594
       365   04 Jun 2027 05:31:10.170   04 Jun 2027 05:32:11.949            61.779                Anadyr2          1930.594
       366   04 Jun 2027 07:00:38.203   04 Jun 2027 07:02:00.982            82.779                Anadyr2          2586.844
       367   04 Jun 2027 07:02:03.226   04 Jun 2027 07:02:18.989            15.763               Magadan1           492.594
       368   04 Jun 2027 07:02:31.068   04 Jun 2027 07:05:31.914           180.846               Magadan1          5651.437
       369   04 Jun 2027 07:05:36.361   04 Jun 2027 07:05:49.842            13.481               Magadan2           421.281
       370   04 Jun 2027 07:05:49.842   04 Jun 2027 07:05:59.194             9.352               Magadan1           292.250
       371   04 Jun 2027 07:06:10.522   04 Jun 2027 07:06:40.333            29.811                Anadyr2           931.594
       372   04 Jun 2027 07:06:44.578   04 Jun 2027 07:07:34.685            50.107                Norilsk          1565.844
       373   04 Jun 2027 07:07:38.223   04 Jun 2027 07:08:31.915            53.692                Norilsk          1677.875
       374   04 Jun 2027 07:08:34.609   04 Jun 2027 07:10:07.605            92.996              Murmansk1          2906.125
       375   04 Jun 2027 07:43:25.366   04 Jun 2027 07:44:35.279            69.913            RioGallegos          2184.781
       376   04 Jun 2027 08:36:58.196   04 Jun 2027 08:37:29.538            31.342               Magadan2           979.437
       377   04 Jun 2027 08:37:42.034   04 Jun 2027 08:38:27.637            45.603                Irkutsk          1425.094
       378   04 Jun 2027 08:38:33.508   04 Jun 2027 08:38:44.048            10.540                Norilsk           329.375
       379   04 Jun 2027 08:39:10.979   04 Jun 2027 08:39:29.656            18.677                Norilsk           583.656
       380   04 Jun 2027 08:39:29.811   04 Jun 2027 08:39:44.352            14.541                Novosib           454.406
       381   04 Jun 2027 08:40:00.093   04 Jun 2027 08:40:06.593             6.500                Norilsk           203.125
       382   04 Jun 2027 08:40:13.492   04 Jun 2027 08:40:45.335            31.843                Norilsk           995.094
       383   04 Jun 2027 08:40:52.430   04 Jun 2027 08:40:53.077             0.647                Irkutsk            20.219
       384   04 Jun 2027 08:41:15.161   04 Jun 2027 08:42:35.070            79.909                Novosib          2497.156
       385   04 Jun 2027 08:42:37.700   04 Jun 2027 08:43:35.979            58.279              Murmansk1          1821.219
       386   04 Jun 2027 08:43:43.621   04 Jun 2027 08:43:55.305            11.684                Irkutsk           365.125
       387   04 Jun 2027 08:43:57.232   04 Jun 2027 08:44:02.738             5.506                Irkutsk           172.063
       388   04 Jun 2027 08:44:06.887   04 Jun 2027 08:44:51.090            44.203              Murmansk1          1381.344
       389   04 Jun 2027 08:50:47.395   04 Jun 2027 08:51:11.421            24.026              Murmansk1           750.812
       390   04 Jun 2027 09:18:54.360   04 Jun 2027 09:19:40.187            45.827            RioGallegos          1432.094
       391   04 Jun 2027 09:20:27.244   04 Jun 2027 09:20:39.797            12.553            RioGallegos           392.281
       392   04 Jun 2027 09:21:52.659   04 Jun 2027 09:22:42.897            50.238            RioGallegos          1569.938
       393   04 Jun 2027 09:53:34.424   04 Jun 2027 09:53:57.773            23.349                Sumatra           729.656
       394   04 Jun 2027 10:03:44.155   04 Jun 2027 10:04:53.800            69.645                  Delhi          2176.406
       395   04 Jun 2027 10:13:47.599   04 Jun 2027 10:14:06.144            18.545                Novosib           579.531
       396   04 Jun 2027 10:14:27.245   04 Jun 2027 10:14:54.713            27.468                Irkutsk           858.375
       397   04 Jun 2027 10:15:25.882   04 Jun 2027 10:15:27.922             2.040                Norilsk            63.750
       398   04 Jun 2027 10:16:06.595   04 Jun 2027 10:16:14.882             8.287                Irkutsk           258.969
       399   04 Jun 2027 10:16:14.972   04 Jun 2027 10:16:24.202             9.230                Norilsk           288.438
       400   04 Jun 2027 10:16:36.465   04 Jun 2027 10:17:33.281            56.816              Murmansk2          1775.500
       401   04 Jun 2027 10:17:35.497   04 Jun 2027 10:17:43.756             8.259              Murmansk2           258.094
       402   04 Jun 2027 10:17:47.618   04 Jun 2027 10:18:39.854            52.236                 Moscow          1632.375
       403   04 Jun 2027 10:18:42.442   04 Jun 2027 10:18:44.640             2.198                Irkutsk            68.688
       404   04 Jun 2027 10:19:05.784   04 Jun 2027 10:19:26.566            20.782              Murmansk1           649.437
       405   04 Jun 2027 10:19:32.336   04 Jun 2027 10:19:45.292            12.956                Novosib           404.875
       406   04 Jun 2027 10:19:50.056   04 Jun 2027 10:20:00.802            10.746                Norilsk           335.812
       407   04 Jun 2027 10:20:32.971   04 Jun 2027 10:21:18.271            45.300              Murmansk1          1415.625
       408   04 Jun 2027 10:21:39.990   04 Jun 2027 10:21:57.715            17.725                 Moscow           553.906
       409   04 Jun 2027 10:59:22.453   04 Jun 2027 11:00:09.135            46.682            RioGallegos          1458.813
       410   04 Jun 2027 11:01:52.566   04 Jun 2027 11:02:36.170            43.604            RioGallegos          1362.625
       411   04 Jun 2027 11:37:53.781   04 Jun 2027 11:38:07.004            13.223                  Delhi           413.219
       412   04 Jun 2027 11:40:53.094   04 Jun 2027 11:42:07.803            74.709                  Delhi          2334.656
       413   04 Jun 2027 11:51:51.187   04 Jun 2027 11:51:55.857             4.670                 Moscow           145.938
       414   04 Jun 2027 11:51:56.015   04 Jun 2027 11:53:29.153            93.138                Novosib          2910.563
       415   04 Jun 2027 11:53:35.092   04 Jun 2027 11:53:37.841             2.749                Norilsk            85.906
       416   04 Jun 2027 11:53:40.348   04 Jun 2027 11:54:03.558            23.210              Murmansk1           725.312
       417   04 Jun 2027 11:54:04.093   04 Jun 2027 11:54:40.096            36.003                Norilsk          1125.094
       418   04 Jun 2027 11:54:50.979   04 Jun 2027 11:56:06.139            75.160                 Moscow          2348.750
       419   04 Jun 2027 12:02:09.530   04 Jun 2027 12:02:40.175            30.645              Murmansk1           957.656
       420   04 Jun 2027 13:22:10.672   04 Jun 2027 13:26:10.249           239.577                 Moscow          7486.781
       421   04 Jun 2027 13:26:24.329   04 Jun 2027 13:28:58.052           153.723              Murmansk2          4803.844
       422   04 Jun 2027 13:29:41.997   04 Jun 2027 13:30:37.904            55.907                Norilsk          1747.094
       423   04 Jun 2027 13:33:26.055   04 Jun 2027 13:34:22.732            56.677                Norilsk          1771.156
       424   04 Jun 2027 14:36:45.391   04 Jun 2027 14:37:59.398            74.007               CapeTown          2312.719
       425   04 Jun 2027 14:38:18.110   04 Jun 2027 14:39:32.326            74.216               CapeTown          2319.250
       426   04 Jun 2027 14:41:17.937   04 Jun 2027 14:42:17.576            59.639               CapeTown          1863.719
       427   04 Jun 2027 15:02:42.579   04 Jun 2027 15:03:27.348            44.769              Murmansk2          1399.031
       428   04 Jun 2027 15:04:56.365   04 Jun 2027 15:05:12.488            16.123              Murmansk2           503.844
       429   04 Jun 2027 15:06:53.143   04 Jun 2027 15:07:15.644            22.501              Murmansk2           703.156
       430   04 Jun 2027 15:07:46.185   04 Jun 2027 15:08:03.250            17.065              Murmansk2           533.281
       431   04 Jun 2027 15:08:50.050   04 Jun 2027 15:08:57.449             7.399              Murmansk1           231.219
       432   04 Jun 2027 15:09:11.035   04 Jun 2027 15:10:08.871            57.836              Murmansk1          1807.375
       433   04 Jun 2027 15:16:41.349   04 Jun 2027 15:17:33.342            51.993                Anadyr1          1624.781
       434   04 Jun 2027 15:18:10.488   04 Jun 2027 15:19:30.119            79.631                Anadyr2          2488.469
       435   04 Jun 2027 15:21:23.124   04 Jun 2027 15:21:29.961             6.837                Anadyr2           213.656
       436   04 Jun 2027 15:21:48.121   04 Jun 2027 15:21:57.991             9.870                Anadyr2           308.437
       437   04 Jun 2027 15:25:12.984   04 Jun 2027 15:26:02.534            49.550                Anadyr2          1548.437
       438   04 Jun 2027 16:22:02.363   04 Jun 2027 16:23:13.106            70.743               CapeTown          2210.719
       439   04 Jun 2027 16:42:04.481   04 Jun 2027 16:43:11.084            66.603              Murmansk1          2081.344
       440   04 Jun 2027 16:46:31.915   04 Jun 2027 16:47:00.261            28.346              Murmansk2           885.813
       441   04 Jun 2027 16:49:34.411   04 Jun 2027 16:50:12.833            38.422              Murmansk1          1200.687
       442   04 Jun 2027 16:52:14.324   04 Jun 2027 16:53:15.459            61.135                Anadyr1          1910.469
       443   04 Jun 2027 16:53:27.973   04 Jun 2027 16:53:51.251            23.278                Anadyr2           727.437
       444   04 Jun 2027 16:55:38.519   04 Jun 2027 16:57:51.948           133.429               Magadan2          4169.656
       445   04 Jun 2027 16:59:04.510   04 Jun 2027 16:59:26.637            22.127               Magadan1           691.469
       446   04 Jun 2027 17:01:33.110   04 Jun 2027 17:03:20.634           107.524               Magadan2          3360.125
       447   04 Jun 2027 18:28:09.092   04 Jun 2027 18:30:27.919           138.827                Anadyr2          4338.344
       448   04 Jun 2027 18:30:30.424   04 Jun 2027 18:31:46.626            76.202               Magadan1          2381.313
       449   04 Jun 2027 18:33:42.497   04 Jun 2027 18:33:57.571            15.074               Magadan2           471.063
       450   04 Jun 2027 18:35:31.869   04 Jun 2027 18:35:56.146            24.277               Magadan2           758.656
       451   04 Jun 2027 18:38:41.853   04 Jun 2027 18:39:30.869            49.016               Magadan1          1531.750
       452   04 Jun 2027 19:26:02.756   04 Jun 2027 19:27:20.413            77.657            RioGallegos          2426.781
       453   04 Jun 2027 20:04:00.016   04 Jun 2027 20:06:02.191           122.175                Anadyr1          3817.969
       454   04 Jun 2027 20:06:14.212   04 Jun 2027 20:09:57.905           223.693                Norilsk          6990.406
       455   04 Jun 2027 20:11:31.524   04 Jun 2027 20:12:21.017            49.493                Irkutsk          1546.656
       456   04 Jun 2027 20:14:21.359   04 Jun 2027 20:15:06.114            44.755                Irkutsk          1398.594
       457   04 Jun 2027 20:15:38.604   04 Jun 2027 20:15:54.015            15.411                Irkutsk           481.594
       458   04 Jun 2027 20:16:24.715   04 Jun 2027 20:17:12.871            48.156                Irkutsk          1504.875
       459   04 Jun 2027 20:18:14.842   04 Jun 2027 20:18:37.147            22.305                Irkutsk           697.031
       460   04 Jun 2027 20:27:15.862   04 Jun 2027 20:28:49.672            93.810                Sumatra          2931.562
       461   04 Jun 2027 20:30:34.255   04 Jun 2027 20:31:47.857            73.602                Sumatra          2300.063
       462   04 Jun 2027 21:41:53.420   04 Jun 2027 21:42:32.023            38.603                Norilsk          1206.344
       463   04 Jun 2027 21:43:06.735   04 Jun 2027 21:43:14.940             8.205                Norilsk           256.406
       464   04 Jun 2027 21:43:26.422   04 Jun 2027 21:43:53.416            26.994                Norilsk           843.563
       465   04 Jun 2027 21:45:51.154   04 Jun 2027 21:47:19.697            88.543                Irkutsk          2766.969
       466   04 Jun 2027 21:51:00.770   04 Jun 2027 21:51:28.956            28.186                Irkutsk           880.812
       467   04 Jun 2027 21:55:37.512   04 Jun 2027 21:55:53.043            15.531                Novosib           485.344
       468   04 Jun 2027 22:02:43.613   04 Jun 2027 22:03:56.113            72.500                Sumatra          2265.625
       469   04 Jun 2027 22:08:45.145   04 Jun 2027 22:08:47.069             1.924                Sumatra            60.125
       470   04 Jun 2027 22:45:39.646   04 Jun 2027 22:45:44.144             4.498            RioGallegos           140.562
       471   04 Jun 2027 23:13:40.383   04 Jun 2027 23:15:51.973           131.590                Anadyr2          4112.187
       472   04 Jun 2027 23:17:53.055   04 Jun 2027 23:18:30.100            37.045                Norilsk          1157.656
       473   04 Jun 2027 23:18:46.434   04 Jun 2027 23:19:56.281            69.847               Magadan1          2182.719
       474   04 Jun 2027 23:21:13.862   04 Jun 2027 23:22:34.589            80.727              Murmansk2          2522.719
       475   04 Jun 2027 23:23:12.475   04 Jun 2027 23:23:33.131            20.656                Novosib           645.500
       476   04 Jun 2027 23:23:49.790   04 Jun 2027 23:25:04.587            74.797              Murmansk1          2337.406
       477   04 Jun 2027 23:29:06.298   04 Jun 2027 23:30:00.506            54.208                  Delhi          1694.000
       478   04 Jun 2027 23:36:05.352   04 Jun 2027 23:36:50.835            45.483                  Delhi          1421.344
       479   04 Jun 2027 23:39:31.118   04 Jun 2027 23:41:22.530           111.412                  Delhi          3481.625
       480   05 Jun 2027 00:47:00.261   05 Jun 2027 00:47:17.824            17.563                Anadyr1           548.844
       481   05 Jun 2027 00:49:43.199   05 Jun 2027 00:49:50.046             6.847                Anadyr1           213.969
       482   05 Jun 2027 00:50:00.852   05 Jun 2027 00:50:05.005             4.153                Anadyr2           129.781
