uniorb/output/strategy_1/Drop/Drop_KinoSat_111310.txt

KinoSat_111310
-------------------------
    Access    *     Start Time (UTCG)     *     Stop Time (UTCG)  *   Duration (s)        *       Station  *  Data (Mbytes)
         1   01 Jun 2027 04:18:46.545   01 Jun 2027 04:19:21.934            35.389              Murmansk1          1105.906
         2   01 Jun 2027 04:19:40.921   01 Jun 2027 04:20:15.365            34.444              Murmansk2          1076.375
         3   01 Jun 2027 04:20:15.365   01 Jun 2027 04:22:07.361           111.996              Murmansk1          3499.875
         4   01 Jun 2027 04:23:56.834   01 Jun 2027 04:24:38.411            41.577                 Moscow          1299.281
         5   01 Jun 2027 05:42:08.944   01 Jun 2027 05:45:30.936           201.992                Norilsk          6312.250
         6   01 Jun 2027 05:45:40.273   01 Jun 2027 05:46:02.863            22.590              Murmansk2           705.937
         7   01 Jun 2027 05:46:29.027   01 Jun 2027 05:46:39.872            10.845                Norilsk           338.906
         8   01 Jun 2027 05:47:03.203   01 Jun 2027 05:47:19.520            16.317                Norilsk           509.906
         9   01 Jun 2027 05:47:48.434   01 Jun 2027 05:48:24.567            36.133                Norilsk          1129.156
        10   01 Jun 2027 05:48:52.112   01 Jun 2027 05:49:13.451            21.339                Norilsk           666.844
        11   01 Jun 2027 05:49:18.758   01 Jun 2027 05:49:30.982            12.224                Norilsk           382.000
        12   01 Jun 2027 05:49:58.312   01 Jun 2027 05:50:22.707            24.395                Norilsk           762.344
        13   01 Jun 2027 05:51:06.835   01 Jun 2027 05:51:26.787            19.952                Norilsk           623.500
        14   01 Jun 2027 05:54:39.370   01 Jun 2027 05:55:31.632            52.262              Murmansk1          1633.188
        15   01 Jun 2027 07:17:54.797   01 Jun 2027 07:17:58.497             3.700                Norilsk           115.625
        16   01 Jun 2027 07:18:02.507   01 Jun 2027 07:20:09.308           126.801               Magadan2          3962.531
        17   01 Jun 2027 07:20:09.308   01 Jun 2027 07:20:28.016            18.708               Magadan1           584.625
        18   01 Jun 2027 07:20:45.691   01 Jun 2027 07:22:04.552            78.861                Anadyr2          2464.406
        19   01 Jun 2027 08:52:12.515   01 Jun 2027 08:53:26.546            74.031                Irkutsk          2313.469
        20   01 Jun 2027 08:53:54.050   01 Jun 2027 08:53:59.050             5.000               Magadan1           156.250
        21   01 Jun 2027 08:54:10.367   01 Jun 2027 08:54:23.479            13.112                Irkutsk           409.750
        22   01 Jun 2027 08:54:28.016   01 Jun 2027 08:55:27.174            59.158                Novosib          1848.687
        23   01 Jun 2027 08:55:31.069   01 Jun 2027 08:56:06.465            35.396                Novosib          1106.125
        24   01 Jun 2027 08:56:10.248   01 Jun 2027 08:57:45.267            95.019                Irkutsk          2969.344
        25   01 Jun 2027 08:57:56.473   01 Jun 2027 08:58:29.286            32.813                Norilsk          1025.406
        26   01 Jun 2027 08:58:37.308   01 Jun 2027 08:58:52.488            15.180                Novosib           474.375
        27   01 Jun 2027 08:58:56.451   01 Jun 2027 08:59:13.495            17.044                Norilsk           532.625
        28   01 Jun 2027 08:59:41.532   01 Jun 2027 08:59:53.702            12.170              Murmansk2           380.312
        29   01 Jun 2027 09:01:20.854   01 Jun 2027 09:01:37.733            16.879              Murmansk2           527.469
        30   01 Jun 2027 09:02:31.792   01 Jun 2027 09:03:05.679            33.887              Murmansk1          1058.969
        31   01 Jun 2027 09:32:31.035   01 Jun 2027 09:33:42.828            71.793            RioGallegos          2243.531
        32   01 Jun 2027 09:34:19.356   01 Jun 2027 09:35:03.667            44.311            RioGallegos          1384.719
        33   01 Jun 2027 10:07:54.531   01 Jun 2027 10:08:34.127            39.596                Sumatra          1237.375
        34   01 Jun 2027 10:20:56.952   01 Jun 2027 10:21:31.636            34.684                  Delhi          1083.875
        35   01 Jun 2027 10:29:02.162   01 Jun 2027 10:29:10.714             8.552                Novosib           267.250
        36   01 Jun 2027 10:29:12.674   01 Jun 2027 10:31:41.511           148.837                Norilsk          4651.156
        37   01 Jun 2027 10:31:46.272   01 Jun 2027 10:33:08.506            82.234              Murmansk2          2569.812
        38   01 Jun 2027 10:33:08.506   01 Jun 2027 10:34:00.918            52.412              Murmansk1          1637.875
        39   01 Jun 2027 11:10:24.051   01 Jun 2027 11:10:58.652            34.601            RioGallegos          1081.281
        40   01 Jun 2027 11:14:08.260   01 Jun 2027 11:15:00.963            52.703            RioGallegos          1646.969
        41   01 Jun 2027 11:44:36.952   01 Jun 2027 11:45:14.655            37.703                Sumatra          1178.219
        42   01 Jun 2027 11:48:33.075   01 Jun 2027 11:49:17.009            43.934                Sumatra          1372.938
        43   01 Jun 2027 12:07:31.460   01 Jun 2027 12:08:00.426            28.966                Novosib           905.188
        44   01 Jun 2027 13:34:54.615   01 Jun 2027 13:36:03.227            68.612                  Delhi          2144.125
        45   01 Jun 2027 13:37:53.302   01 Jun 2027 13:38:13.535            20.233                  Delhi           632.281
        46   01 Jun 2027 13:42:40.732   01 Jun 2027 13:44:24.998           104.266                Novosib          3258.312
        47   01 Jun 2027 13:45:22.630   01 Jun 2027 13:45:37.407            14.777                Novosib           461.781
        48   01 Jun 2027 13:49:34.976   01 Jun 2027 13:50:39.076            64.100                Norilsk          2003.125
        49   01 Jun 2027 14:56:12.908   01 Jun 2027 14:57:39.909            87.001               CapeTown          2718.781
        50   01 Jun 2027 15:20:37.089   01 Jun 2027 15:20:50.991            13.902              Murmansk2           434.437
        51   01 Jun 2027 15:21:01.665   01 Jun 2027 15:21:29.340            27.675              Murmansk1           864.844
        52   01 Jun 2027 15:21:53.691   01 Jun 2027 15:22:35.140            41.449              Murmansk1          1295.281
        53   01 Jun 2027 15:23:12.101   01 Jun 2027 15:23:40.213            28.112                 Moscow           878.500
        54   01 Jun 2027 15:24:44.219   01 Jun 2027 15:24:53.364             9.145              Murmansk1           285.781
        55   01 Jun 2027 15:25:29.408   01 Jun 2027 15:26:25.406            55.998              Murmansk1          1749.937
        56   01 Jun 2027 15:31:35.368   01 Jun 2027 15:32:13.841            38.473                Anadyr2          1202.281
        57   01 Jun 2027 15:32:48.114   01 Jun 2027 15:33:01.871            13.757                Anadyr1           429.906
        58   01 Jun 2027 15:33:22.042   01 Jun 2027 15:33:42.038            19.996                Anadyr1           624.875
        59   01 Jun 2027 15:33:51.943   01 Jun 2027 15:34:45.295            53.352                Anadyr2          1667.250
        60   01 Jun 2027 15:37:59.412   01 Jun 2027 15:38:00.228             0.816                Anadyr1            25.500
        61   01 Jun 2027 16:34:12.861   01 Jun 2027 16:34:42.903            30.042               CapeTown           938.812
        62   01 Jun 2027 16:35:03.746   01 Jun 2027 16:35:44.239            40.493               CapeTown          1265.406
        63   01 Jun 2027 16:56:49.527   01 Jun 2027 16:57:29.023            39.496              Murmansk2          1234.250
        64   01 Jun 2027 16:58:02.657   01 Jun 2027 16:58:41.166            38.509                 Moscow          1203.406
        65   01 Jun 2027 16:59:25.169   01 Jun 2027 17:00:33.044            67.875              Murmansk1          2121.094
        66   01 Jun 2027 17:03:05.853   01 Jun 2027 17:04:15.238            69.385              Murmansk2          2168.281
        67   01 Jun 2027 17:11:05.692   01 Jun 2027 17:11:18.980            13.288                Anadyr1           415.250
        68   01 Jun 2027 17:12:12.750   01 Jun 2027 17:12:52.719            39.969               Magadan2          1249.031
        69   01 Jun 2027 17:13:34.195   01 Jun 2027 17:13:42.667             8.472                Anadyr1           264.750
        70   01 Jun 2027 17:14:47.992   01 Jun 2027 17:15:20.686            32.694                Anadyr1          1021.687
        71   01 Jun 2027 17:17:10.462   01 Jun 2027 17:17:25.260            14.798                Anadyr2           462.438
        72   01 Jun 2027 18:36:06.988   01 Jun 2027 18:38:45.345           158.357              Murmansk2          4948.656
        73   01 Jun 2027 18:42:20.168   01 Jun 2027 18:42:55.411            35.243                Anadyr2          1101.344
        74   01 Jun 2027 18:43:15.780   01 Jun 2027 18:43:37.878            22.098                Anadyr1           690.563
        75   01 Jun 2027 18:44:33.259   01 Jun 2027 18:45:16.247            42.988               Magadan1          1343.375
        76   01 Jun 2027 18:46:53.307   01 Jun 2027 18:47:07.463            14.156                Anadyr1           442.375
        77   01 Jun 2027 18:47:12.767   01 Jun 2027 18:47:49.767            37.000               Magadan2          1156.250
        78   01 Jun 2027 18:49:29.771   01 Jun 2027 18:50:22.972            53.201               Magadan1          1662.531
        79   01 Jun 2027 18:53:18.608   01 Jun 2027 18:53:52.361            33.753               Magadan1          1054.781
        80   01 Jun 2027 18:54:54.474   01 Jun 2027 18:55:48.695            54.221               Magadan1          1694.406
        81   01 Jun 2027 20:17:55.108   01 Jun 2027 20:21:32.113           217.005                Anadyr2          6781.406
        82   01 Jun 2027 20:21:40.109   01 Jun 2027 20:22:47.243            67.134               Magadan1          2097.937
        83   01 Jun 2027 20:23:11.709   01 Jun 2027 20:24:26.791            75.082                Norilsk          2346.313
        84   01 Jun 2027 20:28:23.672   01 Jun 2027 20:28:35.130            11.458               Magadan2           358.063
        85   01 Jun 2027 20:29:17.794   01 Jun 2027 20:29:52.656            34.862               Magadan1          1089.437
        86   01 Jun 2027 20:30:45.835   01 Jun 2027 20:30:56.419            10.584               Magadan1           330.750
        87   01 Jun 2027 21:12:26.713   01 Jun 2027 21:13:40.276            73.563            RioGallegos          2298.844
        88   01 Jun 2027 21:15:49.064   01 Jun 2027 21:16:17.290            28.226            RioGallegos           882.062
        89   01 Jun 2027 21:18:34.921   01 Jun 2027 21:18:43.715             8.794            RioGallegos           274.812
        90   01 Jun 2027 21:20:53.878   01 Jun 2027 21:21:34.052            40.174            RioGallegos          1255.438
        91   01 Jun 2027 21:21:44.827   01 Jun 2027 21:21:52.154             7.327            RioGallegos           228.969
        92   01 Jun 2027 21:53:32.883   01 Jun 2027 21:54:18.946            46.063                Anadyr2          1439.469
        93   01 Jun 2027 21:55:45.591   01 Jun 2027 21:55:57.692            12.101                Norilsk           378.156
        94   01 Jun 2027 21:56:14.307   01 Jun 2027 21:58:19.944           125.637                Norilsk          3926.156
        95   01 Jun 2027 21:59:58.854   01 Jun 2027 22:00:08.086             9.232                Norilsk           288.500
        96   01 Jun 2027 22:00:19.164   01 Jun 2027 22:00:38.014            18.850               Magadan1           589.062
        97   01 Jun 2027 22:01:15.452   01 Jun 2027 22:01:19.675             4.223               Magadan1           131.969
        98   01 Jun 2027 22:01:23.250   01 Jun 2027 22:01:37.632            14.382                Norilsk           449.437
        99   01 Jun 2027 22:01:45.921   01 Jun 2027 22:02:40.549            54.628                Irkutsk          1707.125
       100   01 Jun 2027 22:08:33.933   01 Jun 2027 22:08:36.832             2.899                Irkutsk            90.594
       101   01 Jun 2027 22:09:28.759   01 Jun 2027 22:09:31.773             3.014                Irkutsk            94.187
       102   01 Jun 2027 22:10:30.509   01 Jun 2027 22:11:39.154            68.645                Irkutsk          2145.156
       103   01 Jun 2027 22:19:44.721   01 Jun 2027 22:20:09.491            24.770                Sumatra           774.063
       104   01 Jun 2027 22:21:18.474   01 Jun 2027 22:21:36.341            17.867                Sumatra           558.344
       105   01 Jun 2027 22:22:23.620   01 Jun 2027 22:23:11.795            48.175                Sumatra          1505.469
       106   01 Jun 2027 23:28:19.909   01 Jun 2027 23:30:07.754           107.845                Anadyr2          3370.156
       107   01 Jun 2027 23:30:38.154   01 Jun 2027 23:30:46.255             8.101                Anadyr2           253.156
       108   01 Jun 2027 23:31:26.587   01 Jun 2027 23:31:31.100             4.513                Anadyr2           141.031
       109   01 Jun 2027 23:31:42.196   01 Jun 2027 23:33:36.281           114.085                Norilsk          3565.156
       110   01 Jun 2027 23:34:38.886   01 Jun 2027 23:34:53.911            15.025               Magadan2           469.531
       111   01 Jun 2027 23:35:09.884   01 Jun 2027 23:35:13.294             3.410               Magadan2           106.562
       112   01 Jun 2027 23:35:34.150   01 Jun 2027 23:35:56.430            22.280                Irkutsk           696.250
       113   01 Jun 2027 23:36:57.236   01 Jun 2027 23:37:40.882            43.646                Irkutsk          1363.938
       114   01 Jun 2027 23:40:26.825   01 Jun 2027 23:40:46.260            19.435                Novosib           607.344
       115   01 Jun 2027 23:41:44.729   01 Jun 2027 23:42:05.276            20.547                Novosib           642.094
       116   01 Jun 2027 23:42:59.640   01 Jun 2027 23:43:16.544            16.904                Novosib           528.250
       117   01 Jun 2027 23:44:22.127   01 Jun 2027 23:44:39.581            17.454                  Delhi           545.438
       118   01 Jun 2027 23:45:00.670   01 Jun 2027 23:46:50.184           109.514                  Delhi          3422.313
       119   01 Jun 2027 23:53:45.197   01 Jun 2027 23:54:35.105            49.908                  Delhi          1559.625
       120   02 Jun 2027 01:01:54.886   02 Jun 2027 01:02:41.415            46.529                Anadyr1          1454.031
       121   02 Jun 2027 01:03:13.989   02 Jun 2027 01:03:54.568            40.579                Anadyr2          1268.094
       122   02 Jun 2027 01:04:53.011   02 Jun 2027 01:05:06.365            13.354                Anadyr1           417.312
       123   02 Jun 2027 01:06:44.263   02 Jun 2027 01:07:08.795            24.532                Anadyr2           766.625
       124   02 Jun 2027 01:07:41.832   02 Jun 2027 01:09:21.269            99.437                Norilsk          3107.406
       125   02 Jun 2027 01:10:04.839   02 Jun 2027 01:10:20.340            15.501              Murmansk1           484.406
       126   02 Jun 2027 01:10:59.740   02 Jun 2027 01:11:49.608            49.868               Magadan1          1558.375
       127   02 Jun 2027 01:11:52.318   02 Jun 2027 01:12:43.171            50.853                Novosib          1589.156
       128   02 Jun 2027 01:13:38.577   02 Jun 2027 01:13:45.380             6.803              Murmansk2           212.594
       129   02 Jun 2027 01:15:25.361   02 Jun 2027 01:15:43.439            18.078                 Moscow           564.938
       130   02 Jun 2027 01:17:12.280   02 Jun 2027 01:17:22.996            10.716                 Moscow           334.875
       131   02 Jun 2027 01:17:53.822   02 Jun 2027 01:19:01.323            67.501                 Moscow          2109.406
       132   02 Jun 2027 01:27:42.768   02 Jun 2027 01:28:25.997            43.229                  Delhi          1350.906
       133   02 Jun 2027 02:35:18.012   02 Jun 2027 02:38:22.314           184.302                Anadyr1          5759.437
       134   02 Jun 2027 02:40:29.705   02 Jun 2027 02:41:52.152            82.447               Magadan2          2576.469
       135   02 Jun 2027 02:43:30.268   02 Jun 2027 02:43:33.505             3.237                Norilsk           101.156
       136   02 Jun 2027 02:44:25.241   02 Jun 2027 02:44:39.970            14.729               Magadan2           460.281
       137   02 Jun 2027 02:45:49.369   02 Jun 2027 02:46:54.609            65.240              Murmansk2          2038.750
       138   02 Jun 2027 02:47:24.701   02 Jun 2027 02:47:36.255            11.554              Murmansk1           361.062
       139   02 Jun 2027 02:47:50.765   02 Jun 2027 02:48:17.454            26.689                Novosib           834.031
       140   02 Jun 2027 02:48:39.843   02 Jun 2027 02:49:39.332            59.489                Novosib          1859.031
       141   02 Jun 2027 02:56:45.388   02 Jun 2027 02:57:29.895            44.507                Novosib          1390.844
       142   02 Jun 2027 03:15:11.890   02 Jun 2027 03:15:50.059            38.169               CapeTown          1192.781
       143   02 Jun 2027 04:29:25.467   02 Jun 2027 04:33:17.648           232.181              Murmansk2          7255.656
       144   02 Jun 2027 04:33:17.648   02 Jun 2027 04:34:45.106            87.458              Murmansk1          2733.062
       145   02 Jun 2027 05:51:44.286   02 Jun 2027 05:51:53.865             9.579               Magadan1           299.344
       146   02 Jun 2027 05:52:20.397   02 Jun 2027 05:56:16.010           235.613               Magadan1          7362.906
       147   02 Jun 2027 05:56:16.010   02 Jun 2027 05:56:24.475             8.465               Magadan2           264.531
       148   02 Jun 2027 05:56:25.371   02 Jun 2027 05:56:53.644            28.273                Anadyr1           883.531
       149   02 Jun 2027 05:57:01.671   02 Jun 2027 05:57:02.638             0.967               Magadan2            30.219
       150   02 Jun 2027 07:30:00.490   02 Jun 2027 07:32:45.917           165.427                Anadyr2          5169.594
       151   02 Jun 2027 07:32:47.623   02 Jun 2027 07:32:55.003             7.380                Irkutsk           230.625
       152   02 Jun 2027 08:09:59.587   02 Jun 2027 08:10:33.919            34.332            RioGallegos          1072.875
       153   02 Jun 2027 09:04:31.692   02 Jun 2027 09:07:06.571           154.879                Irkutsk          4839.969
       154   02 Jun 2027 09:07:13.150   02 Jun 2027 09:09:13.653           120.503               Magadan1          3765.719
       155   02 Jun 2027 09:09:21.194   02 Jun 2027 09:11:00.253            99.059                Novosib          3095.594
       156   02 Jun 2027 09:14:59.924   02 Jun 2027 09:15:07.386             7.462              Murmansk1           233.187
       157   02 Jun 2027 09:15:17.998   02 Jun 2027 09:15:47.630            29.632              Murmansk1           926.000
       158   02 Jun 2027 09:44:33.535   02 Jun 2027 09:45:58.760            85.225            RioGallegos          2663.281
       159   02 Jun 2027 10:19:40.368   02 Jun 2027 10:22:26.023           165.655                Sumatra          5176.719
       160   02 Jun 2027 10:41:10.659   02 Jun 2027 10:42:06.320            55.661                Irkutsk          1739.406
       161   02 Jun 2027 10:42:11.773   02 Jun 2027 10:42:41.971            30.198                Novosib           943.688
       162   02 Jun 2027 10:42:57.476   02 Jun 2027 10:43:26.720            29.244              Murmansk2           913.875
       163   02 Jun 2027 10:43:26.720   02 Jun 2027 10:44:07.945            41.225              Murmansk1          1288.281
       164   02 Jun 2027 10:44:11.290   02 Jun 2027 10:45:45.647            94.357                Irkutsk          2948.656
       165   02 Jun 2027 11:23:03.736   02 Jun 2027 11:23:16.493            12.757            RioGallegos           398.656
       166   02 Jun 2027 11:23:32.277   02 Jun 2027 11:24:07.855            35.578            RioGallegos          1111.813
       167   02 Jun 2027 11:24:40.433   02 Jun 2027 11:25:38.377            57.944            RioGallegos          1810.750
       168   02 Jun 2027 11:26:50.864   02 Jun 2027 11:27:56.377            65.513            RioGallegos          2047.281
       169   02 Jun 2027 11:57:23.846   02 Jun 2027 11:57:39.086            15.240                Sumatra           476.250
       170   02 Jun 2027 12:00:25.334   02 Jun 2027 12:02:10.005           104.671                Sumatra          3270.969
       171   02 Jun 2027 12:13:14.555   02 Jun 2027 12:13:21.697             7.142                Irkutsk           223.188
       172   02 Jun 2027 12:13:59.114   02 Jun 2027 12:14:30.666            31.552                Novosib           986.000
       173   02 Jun 2027 12:14:55.968   02 Jun 2027 12:15:29.713            33.745                Novosib          1054.531
       174   02 Jun 2027 12:15:32.090   02 Jun 2027 12:16:18.111            46.021                Norilsk          1438.156
       175   02 Jun 2027 12:16:25.059   02 Jun 2027 12:17:33.633            68.574              Murmansk2          2142.938
       176   02 Jun 2027 13:43:10.790   02 Jun 2027 13:44:27.067            76.277                  Delhi          2383.656
       177   02 Jun 2027 13:46:58.153   02 Jun 2027 13:47:20.568            22.415                  Delhi           700.469
       178   02 Jun 2027 13:48:28.153   02 Jun 2027 13:49:21.639            53.486                 Moscow          1671.438
       179   02 Jun 2027 13:50:02.881   02 Jun 2027 13:50:23.469            20.588                 Moscow           643.375
       180   02 Jun 2027 13:51:29.640   02 Jun 2027 13:52:35.438            65.798              Murmansk2          2056.187
       181   02 Jun 2027 13:52:35.438   02 Jun 2027 13:52:53.749            18.311              Murmansk1           572.219
       182   02 Jun 2027 13:53:09.663   02 Jun 2027 13:53:15.339             5.676              Murmansk1           177.375
       183   02 Jun 2027 13:53:44.558   02 Jun 2027 13:55:38.423           113.865                Novosib          3558.281
       184   02 Jun 2027 13:57:21.959   02 Jun 2027 13:59:00.009            98.050                Norilsk          3064.063
       185   02 Jun 2027 15:03:53.298   02 Jun 2027 15:04:46.173            52.875               CapeTown          1652.344
       186   02 Jun 2027 15:09:20.573   02 Jun 2027 15:10:39.543            78.970               CapeTown          2467.813
       187   02 Jun 2027 15:31:35.842   02 Jun 2027 15:32:09.650            33.808              Murmansk1          1056.500
       188   02 Jun 2027 15:34:56.884   02 Jun 2027 15:36:36.283            99.399              Murmansk2          3106.219
       189   02 Jun 2027 15:43:25.483   02 Jun 2027 15:44:12.774            47.291                Anadyr2          1477.844
       190   02 Jun 2027 15:46:01.421   02 Jun 2027 15:46:05.034             3.613                Anadyr1           112.906
       191   02 Jun 2027 15:48:55.806   02 Jun 2027 15:49:57.199            61.393                Anadyr2          1918.531
       192   02 Jun 2027 16:49:50.969   02 Jun 2027 16:50:17.509            26.540               CapeTown           829.375
       193   02 Jun 2027 17:06:28.741   02 Jun 2027 17:09:19.710           170.969                 Moscow          5342.781
       194   02 Jun 2027 17:12:33.614   02 Jun 2027 17:12:34.580             0.966              Murmansk1            30.188
       195   02 Jun 2027 17:13:43.841   02 Jun 2027 17:13:46.033             2.192              Murmansk1            68.500
       196   02 Jun 2027 17:14:42.145   02 Jun 2027 17:16:14.387            92.242              Murmansk2          2882.562
       197   02 Jun 2027 17:22:32.979   02 Jun 2027 17:22:38.066             5.087               Magadan1           158.969
       198   02 Jun 2027 17:23:08.125   02 Jun 2027 17:23:48.015            39.890               Magadan2          1246.563
       199   02 Jun 2027 17:24:45.841   02 Jun 2027 17:25:12.699            26.858               Magadan2           839.313
       200   02 Jun 2027 18:54:01.691   02 Jun 2027 18:57:49.322           227.631                Anadyr1          7113.469
       201   02 Jun 2027 18:58:14.646   02 Jun 2027 18:59:51.140            96.494                Anadyr2          3015.438
       202   02 Jun 2027 19:00:13.559   02 Jun 2027 19:00:59.411            45.852               Magadan1          1432.875
       203   02 Jun 2027 19:02:27.727   02 Jun 2027 19:02:40.339            12.612               Magadan1           394.125
       204   02 Jun 2027 19:03:39.591   02 Jun 2027 19:04:21.210            41.619               Magadan1          1300.594
       205   02 Jun 2027 19:05:28.116   02 Jun 2027 19:05:59.183            31.067               Magadan1           970.844
       206   02 Jun 2027 20:29:55.782   02 Jun 2027 20:33:39.806           224.024                Anadyr1          7000.750
       207   02 Jun 2027 20:33:42.025   02 Jun 2027 20:33:56.713            14.688                Norilsk           459.000
       208   02 Jun 2027 20:34:04.191   02 Jun 2027 20:34:10.578             6.387                Norilsk           199.594
       209   02 Jun 2027 20:34:26.511   02 Jun 2027 20:34:57.039            30.528               Magadan1           954.000
       210   02 Jun 2027 20:34:57.039   02 Jun 2027 20:35:32.494            35.455               Magadan2          1107.969
       211   02 Jun 2027 20:35:38.368   02 Jun 2027 20:35:52.085            13.717                Norilsk           428.656
       212   02 Jun 2027 20:38:36.095   02 Jun 2027 20:38:58.454            22.359               Magadan1           698.719
       213   02 Jun 2027 20:39:08.724   02 Jun 2027 20:39:35.084            26.360               Magadan2           823.750
       214   02 Jun 2027 20:39:40.281   02 Jun 2027 20:40:19.736            39.455                Irkutsk          1232.969
       215   02 Jun 2027 20:41:35.178   02 Jun 2027 20:41:47.139            11.961                Irkutsk           373.781
       216   02 Jun 2027 21:24:15.767   02 Jun 2027 21:24:27.375            11.608            RioGallegos           362.750
       217   02 Jun 2027 21:24:47.972   02 Jun 2027 21:25:25.524            37.552            RioGallegos          1173.500
       218   02 Jun 2027 21:26:10.623   02 Jun 2027 21:26:57.980            47.357            RioGallegos          1479.906
       219   02 Jun 2027 21:30:09.385   02 Jun 2027 21:30:20.805            11.420            RioGallegos           356.875
       220   02 Jun 2027 21:33:02.610   02 Jun 2027 21:33:25.905            23.295            RioGallegos           727.969
       221   02 Jun 2027 22:05:29.381   02 Jun 2027 22:06:16.029            46.648                Anadyr1          1457.750
       222   02 Jun 2027 22:07:39.379   02 Jun 2027 22:07:50.610            11.231                Anadyr2           350.969
       223   02 Jun 2027 22:08:16.138   02 Jun 2027 22:10:13.735           117.597                Norilsk          3674.906
       224   02 Jun 2027 22:10:26.778   02 Jun 2027 22:10:41.401            14.623               Magadan1           456.969
       225   02 Jun 2027 22:11:31.638   02 Jun 2027 22:11:33.443             1.805                Norilsk            56.406
       226   02 Jun 2027 22:11:53.371   02 Jun 2027 22:12:46.342            52.971                Irkutsk          1655.344
       227   02 Jun 2027 22:14:05.325   02 Jun 2027 22:15:19.469            74.144                Novosib          2317.000
       228   02 Jun 2027 22:19:28.878   02 Jun 2027 22:19:59.990            31.112                Novosib           972.250
       229   02 Jun 2027 22:33:13.611   02 Jun 2027 22:34:00.984            47.373                Sumatra          1480.406
       230   02 Jun 2027 22:35:05.541   02 Jun 2027 22:35:41.120            35.579                Sumatra          1111.844
       231   02 Jun 2027 23:40:07.268   02 Jun 2027 23:41:58.008           110.740                Anadyr1          3460.625
       232   02 Jun 2027 23:43:44.334   02 Jun 2027 23:44:05.450            21.116                Norilsk           659.875
       233   02 Jun 2027 23:44:22.959   02 Jun 2027 23:46:29.690           126.731               Magadan2          3960.344
       234   02 Jun 2027 23:47:37.308   02 Jun 2027 23:48:29.071            51.763                Irkutsk          1617.594
       235   02 Jun 2027 23:49:49.784   02 Jun 2027 23:50:15.751            25.967                Novosib           811.469
       236   02 Jun 2027 23:52:23.155   02 Jun 2027 23:52:43.392            20.237                Novosib           632.406
       237   02 Jun 2027 23:55:20.512   02 Jun 2027 23:56:08.172            47.660                  Delhi          1489.375
       238   02 Jun 2027 23:57:02.732   02 Jun 2027 23:57:20.437            17.705                  Delhi           553.281
       239   03 Jun 2027 00:02:32.906   03 Jun 2027 00:04:19.180           106.274                  Delhi          3321.062
       240   03 Jun 2027 01:13:35.919   03 Jun 2027 01:13:57.362            21.443                Anadyr1           670.094
       241   03 Jun 2027 01:14:28.408   03 Jun 2027 01:15:45.295            76.887                Anadyr1          2402.719
       242   03 Jun 2027 01:16:19.041   03 Jun 2027 01:16:22.919             3.878                Anadyr1           121.188
       243   03 Jun 2027 01:16:44.209   03 Jun 2027 01:16:54.193             9.984                Anadyr1           312.000
       244   03 Jun 2027 01:19:09.101   03 Jun 2027 01:19:20.692            11.591                Anadyr1           362.219
       245   03 Jun 2027 01:19:43.274   03 Jun 2027 01:20:00.632            17.358                Norilsk           542.438
       246   03 Jun 2027 01:20:21.766   03 Jun 2027 01:21:10.722            48.956               Magadan2          1529.875
       247   03 Jun 2027 01:21:18.348   03 Jun 2027 01:21:48.092            29.744                Norilsk           929.500
       248   03 Jun 2027 01:22:02.668   03 Jun 2027 01:23:31.819            89.151              Murmansk1          2785.969
       249   03 Jun 2027 01:23:32.046   03 Jun 2027 01:24:06.737            34.691                Novosib          1084.094
       250   03 Jun 2027 01:26:15.457   03 Jun 2027 01:26:34.116            18.659              Murmansk2           583.094
       251   03 Jun 2027 01:29:08.343   03 Jun 2027 01:29:22.958            14.615                 Moscow           456.719
       252   03 Jun 2027 01:30:42.167   03 Jun 2027 01:31:07.770            25.603                 Moscow           800.094
       253   03 Jun 2027 01:35:40.332   03 Jun 2027 01:36:00.093            19.761                  Delhi           617.531
       254   03 Jun 2027 01:39:32.353   03 Jun 2027 01:41:07.463            95.110                  Delhi          2972.187
       255   03 Jun 2027 02:47:03.751   03 Jun 2027 02:49:09.873           126.122                Anadyr2          3941.312
       256   03 Jun 2027 02:50:14.650   03 Jun 2027 02:50:16.448             1.798                Anadyr2            56.187
       257   03 Jun 2027 02:51:28.652   03 Jun 2027 02:52:39.537            70.885                Anadyr1          2215.156
       258   03 Jun 2027 02:53:22.016   03 Jun 2027 02:53:22.296             0.280               Magadan1             8.750
       259   03 Jun 2027 02:54:07.426   03 Jun 2027 02:54:25.723            18.297               Magadan2           571.781
       260   03 Jun 2027 02:55:29.326   03 Jun 2027 02:56:01.430            32.104                Norilsk          1003.250
       261   03 Jun 2027 02:57:50.999   03 Jun 2027 02:58:18.682            27.683              Murmansk2           865.094
       262   03 Jun 2027 02:59:13.947   03 Jun 2027 03:00:14.780            60.833              Murmansk1          1901.031
       263   03 Jun 2027 03:03:40.814   03 Jun 2027 03:03:49.916             9.102              Murmansk1           284.438
       264   03 Jun 2027 03:04:01.533   03 Jun 2027 03:04:51.182            49.649                 Moscow          1551.531
       265   03 Jun 2027 03:04:53.373   03 Jun 2027 03:06:06.443            73.070                 Moscow          2283.438
       266   03 Jun 2027 03:06:18.171   03 Jun 2027 03:06:39.441            21.270              Murmansk1           664.688
       267   03 Jun 2027 03:06:42.221   03 Jun 2027 03:07:16.880            34.659                Norilsk          1083.094
       268   03 Jun 2027 03:07:20.175   03 Jun 2027 03:08:39.447            79.272              Murmansk1          2477.250
       269   03 Jun 2027 03:08:50.256   03 Jun 2027 03:08:59.746             9.490                Novosib           296.563
       270   03 Jun 2027 03:09:15.257   03 Jun 2027 03:10:04.922            49.665              Murmansk1          1552.031
       271   03 Jun 2027 03:10:44.032   03 Jun 2027 03:12:00.539            76.507                 Moscow          2390.844
       272   03 Jun 2027 03:12:40.738   03 Jun 2027 03:13:45.670            64.932                 Moscow          2029.125
       273   03 Jun 2027 03:25:21.030   03 Jun 2027 03:28:01.191           160.161               CapeTown          5005.031
       274   03 Jun 2027 04:21:44.345   03 Jun 2027 04:25:02.708           198.363                Anadyr1          6198.844
       275   03 Jun 2027 04:25:09.933   03 Jun 2027 04:25:17.212             7.279               Magadan1           227.469
       276   03 Jun 2027 04:28:35.984   03 Jun 2027 04:30:19.746           103.762               Magadan2          3242.562
       277   03 Jun 2027 04:40:55.457   03 Jun 2027 04:42:44.380           108.923              Murmansk1          3403.844
       278   03 Jun 2027 04:44:10.434   03 Jun 2027 04:44:15.793             5.359                 Moscow           167.469
       279   03 Jun 2027 05:02:03.392   03 Jun 2027 05:02:27.019            23.627               CapeTown           738.344
       280   03 Jun 2027 06:02:48.873   03 Jun 2027 06:03:04.412            15.539                Anadyr2           485.594
       281   03 Jun 2027 06:03:10.570   03 Jun 2027 06:03:51.804            41.234                Anadyr2          1288.562
       282   03 Jun 2027 06:03:56.816   03 Jun 2027 06:03:59.932             3.116               Magadan2            97.375
       283   03 Jun 2027 06:04:12.004   03 Jun 2027 06:06:06.988           114.984                Anadyr2          3593.250
       284   03 Jun 2027 06:06:06.988   03 Jun 2027 06:07:44.448            97.460                Anadyr1          3045.625
       285   03 Jun 2027 07:40:13.076   03 Jun 2027 07:42:35.674           142.598               Magadan1          4456.188
       286   03 Jun 2027 07:42:55.255   03 Jun 2027 07:46:06.350           191.095               Magadan1          5971.719
       287   03 Jun 2027 09:16:39.046   03 Jun 2027 09:20:58.469           259.423               Magadan1          8106.969
       288   03 Jun 2027 09:21:11.110   03 Jun 2027 09:21:54.640            43.530                Irkutsk          1360.312
       289   03 Jun 2027 09:22:28.817   03 Jun 2027 09:23:07.204            38.387                Novosib          1199.594
       290   03 Jun 2027 09:58:04.653   03 Jun 2027 09:58:46.723            42.070            RioGallegos          1314.688
       291   03 Jun 2027 10:31:32.388   03 Jun 2027 10:32:22.882            50.494                Sumatra          1577.938
       292   03 Jun 2027 10:34:35.845   03 Jun 2027 10:34:52.711            16.866                Sumatra           527.062
       293   03 Jun 2027 10:45:00.608   03 Jun 2027 10:45:43.524            42.916                  Delhi          1341.125
       294   03 Jun 2027 10:52:23.637   03 Jun 2027 10:52:45.604            21.967                Irkutsk           686.469
       295   03 Jun 2027 10:52:58.403   03 Jun 2027 10:53:02.304             3.901                Norilsk           121.906
       296   03 Jun 2027 10:53:08.541   03 Jun 2027 10:53:38.891            30.350                Novosib           948.438
       297   03 Jun 2027 10:53:43.214   03 Jun 2027 10:53:45.517             2.303                Norilsk            71.969
       298   03 Jun 2027 10:54:00.179   03 Jun 2027 10:55:16.754            76.575                Norilsk          2392.969
       299   03 Jun 2027 10:55:27.127   03 Jun 2027 10:55:34.952             7.825              Murmansk1           244.531
       300   03 Jun 2027 10:55:34.952   03 Jun 2027 10:56:16.929            41.977              Murmansk2          1311.781
       301   03 Jun 2027 10:56:23.344   03 Jun 2027 10:57:05.070            41.726                Norilsk          1303.938
       302   03 Jun 2027 10:57:06.811   03 Jun 2027 10:57:54.098            47.287                 Moscow          1477.719
       303   03 Jun 2027 10:58:20.223   03 Jun 2027 10:58:44.463            24.240              Murmansk2           757.500
       304   03 Jun 2027 11:00:39.824   03 Jun 2027 11:00:55.034            15.210              Murmansk2           475.312
       305   03 Jun 2027 11:35:52.694   03 Jun 2027 11:36:47.172            54.478            RioGallegos          1702.437
       306   03 Jun 2027 11:39:56.489   03 Jun 2027 11:40:33.097            36.608            RioGallegos          1144.000
       307   03 Jun 2027 12:10:38.647   03 Jun 2027 12:11:37.712            59.065                Sumatra          1845.781
       308   03 Jun 2027 12:18:15.865   03 Jun 2027 12:18:46.497            30.632                  Delhi           957.250
       309   03 Jun 2027 12:23:15.123   03 Jun 2027 12:24:37.598            82.475                Novosib          2577.344
       310   03 Jun 2027 12:26:03.588   03 Jun 2027 12:26:31.587            27.999                Novosib           874.969
       311   03 Jun 2027 12:27:19.192   03 Jun 2027 12:28:29.438            70.246                Norilsk          2195.188
       312   03 Jun 2027 12:28:37.766   03 Jun 2027 12:28:59.349            21.583              Murmansk2           674.469
       313   03 Jun 2027 12:31:08.944   03 Jun 2027 12:31:20.461            11.517                Norilsk           359.906
       314   03 Jun 2027 12:32:08.324   03 Jun 2027 12:32:44.780            36.456              Murmansk1          1139.250
       315   03 Jun 2027 14:00:08.516   03 Jun 2027 14:03:41.495           212.979                 Moscow          6655.594
       316   03 Jun 2027 14:03:41.994   03 Jun 2027 14:05:49.370           127.376              Murmansk2          3980.500
       317   03 Jun 2027 14:06:02.709   03 Jun 2027 14:06:04.345             1.636              Murmansk1            51.125
       318   03 Jun 2027 14:06:05.115   03 Jun 2027 14:07:45.723           100.608                Novosib          3144.000
       319   03 Jun 2027 14:10:20.364   03 Jun 2027 14:10:59.913            39.549                Norilsk          1235.906
       320   03 Jun 2027 15:15:11.896   03 Jun 2027 15:16:18.200            66.304               CapeTown          2072.000
       321   03 Jun 2027 15:16:28.381   03 Jun 2027 15:17:35.209            66.828               CapeTown          2088.375
       322   03 Jun 2027 15:37:02.521   03 Jun 2027 15:37:15.341            12.820                 Moscow           400.625
       323   03 Jun 2027 15:37:40.144   03 Jun 2027 15:38:14.135            33.991                 Moscow          1062.219
       324   03 Jun 2027 15:40:20.015   03 Jun 2027 15:40:52.039            32.024              Murmansk2          1000.750
       325   03 Jun 2027 15:41:09.388   03 Jun 2027 15:41:45.575            36.187              Murmansk2          1130.844
       326   03 Jun 2027 15:48:55.242   03 Jun 2027 15:49:32.021            36.779              Murmansk1          1149.344
       327   03 Jun 2027 15:54:43.362   03 Jun 2027 15:56:44.097           120.735                Anadyr2          3772.969
       328   03 Jun 2027 15:58:25.185   03 Jun 2027 15:58:56.997            31.812                Anadyr1           994.125
       329   03 Jun 2027 16:49:31.346   03 Jun 2027 16:51:51.249           139.903               CapeTown          4371.969
       330   03 Jun 2027 17:19:19.337   03 Jun 2027 17:20:28.951            69.614              Murmansk2          2175.438
       331   03 Jun 2027 17:22:16.353   03 Jun 2027 17:22:57.773            41.420              Murmansk2          1294.375
       332   03 Jun 2027 17:30:09.285   03 Jun 2027 17:30:32.458            23.173                Anadyr1           724.156
       333   03 Jun 2027 17:31:09.156   03 Jun 2027 17:31:26.679            17.523                Anadyr2           547.594
       334   03 Jun 2027 17:32:16.735   03 Jun 2027 17:32:22.084             5.349                Anadyr1           167.156
       335   03 Jun 2027 17:32:45.181   03 Jun 2027 17:33:31.674            46.493                Anadyr1          1452.906
       336   03 Jun 2027 17:33:57.501   03 Jun 2027 17:35:52.721           115.220               Magadan1          3600.625
       337   03 Jun 2027 19:06:03.280   03 Jun 2027 19:09:50.747           227.467                Anadyr1          7108.344
       338   03 Jun 2027 19:10:17.365   03 Jun 2027 19:11:58.822           101.457               Magadan2          3170.531
       339   03 Jun 2027 19:11:58.822   03 Jun 2027 19:12:16.006            17.184               Magadan1           537.000
       340   03 Jun 2027 19:13:35.361   03 Jun 2027 19:13:56.617            21.256               Magadan1           664.250
       341   03 Jun 2027 19:17:27.193   03 Jun 2027 19:18:13.489            46.296               Magadan2          1446.750
       342   03 Jun 2027 20:41:56.155   03 Jun 2027 20:45:32.792           216.637                Anadyr1          6769.906
       343   03 Jun 2027 20:45:42.589   03 Jun 2027 20:45:49.555             6.966                Norilsk           217.688
       344   03 Jun 2027 20:46:01.929   03 Jun 2027 20:46:21.189            19.260               Magadan2           601.875
       345   03 Jun 2027 20:46:31.713   03 Jun 2027 20:47:25.471            53.758               Magadan1          1679.938
       346   03 Jun 2027 20:47:40.020   03 Jun 2027 20:47:48.695             8.675                Norilsk           271.094
       347   03 Jun 2027 20:48:04.600   03 Jun 2027 20:48:10.920             6.320               Magadan1           197.500
       348   03 Jun 2027 20:48:30.509   03 Jun 2027 20:49:20.925            50.416                Norilsk          1575.500
       349   03 Jun 2027 20:50:08.266   03 Jun 2027 20:51:34.582            86.316                Irkutsk          2697.375
       350   03 Jun 2027 20:52:22.141   03 Jun 2027 20:52:40.079            17.938                Irkutsk           560.562
       351   03 Jun 2027 20:55:32.146   03 Jun 2027 20:55:42.459            10.313                Irkutsk           322.281
       352   03 Jun 2027 21:36:07.608   03 Jun 2027 21:36:54.946            47.338            RioGallegos          1479.313
       353   03 Jun 2027 21:41:34.525   03 Jun 2027 21:41:44.954            10.429            RioGallegos           325.906
       354   03 Jun 2027 21:41:51.086   03 Jun 2027 21:42:13.682            22.596            RioGallegos           706.125
       355   03 Jun 2027 22:17:24.995   03 Jun 2027 22:19:49.250           144.255                Anadyr2          4507.969
       356   03 Jun 2027 22:20:07.929   03 Jun 2027 22:21:46.752            98.823                Norilsk          3088.219
       357   03 Jun 2027 22:22:24.264   03 Jun 2027 22:22:26.104             1.840               Magadan2            57.500
       358   03 Jun 2027 22:22:49.300   03 Jun 2027 22:23:32.095            42.795                Norilsk          1337.344
       359   03 Jun 2027 22:25:00.779   03 Jun 2027 22:25:38.929            38.150                Irkutsk          1192.187
       360   03 Jun 2027 22:25:41.573   03 Jun 2027 22:27:01.318            79.745                Novosib          2492.031
       361   03 Jun 2027 22:31:24.066   03 Jun 2027 22:31:41.368            17.302                Novosib           540.688
       362   03 Jun 2027 22:37:30.565   03 Jun 2027 22:38:02.546            31.981                Sumatra           999.406
       363   03 Jun 2027 22:41:45.328   03 Jun 2027 22:43:33.398           108.070                Sumatra          3377.188
       364   03 Jun 2027 23:51:53.365   03 Jun 2027 23:51:59.142             5.777                Anadyr1           180.531
       365   03 Jun 2027 23:52:29.743   03 Jun 2027 23:52:59.960            30.217                Anadyr1           944.281
       366   03 Jun 2027 23:52:59.960   03 Jun 2027 23:53:57.540            57.580                Anadyr2          1799.375
       367   03 Jun 2027 23:54:33.018   03 Jun 2027 23:54:49.026            16.008                Anadyr2           500.250
       368   03 Jun 2027 23:55:46.477   03 Jun 2027 23:56:05.872            19.395                Norilsk           606.094
       369   03 Jun 2027 23:56:24.568   03 Jun 2027 23:56:58.691            34.123               Magadan1          1066.344
       370   03 Jun 2027 23:56:58.691   03 Jun 2027 23:57:36.500            37.809               Magadan2          1181.531
       371   03 Jun 2027 23:59:37.501   04 Jun 2027 00:00:08.787            31.286               Magadan2           977.687
       372   04 Jun 2027 00:00:32.640   04 Jun 2027 00:01:57.581            84.941                Novosib          2654.406
       373   04 Jun 2027 00:04:55.275   04 Jun 2027 00:06:38.906           103.631                Novosib          3238.469
       374   04 Jun 2027 00:09:15.550   04 Jun 2027 00:09:22.677             7.127                  Delhi           222.719
       375   04 Jun 2027 00:48:20.856   04 Jun 2027 00:49:21.718            60.862            RioGallegos          1901.938
       376   04 Jun 2027 00:53:56.929   04 Jun 2027 00:54:53.875            56.946            RioGallegos          1779.562
       377   04 Jun 2027 01:25:16.965   04 Jun 2027 01:25:23.506             6.541                Anadyr2           204.406
       378   04 Jun 2027 01:26:32.573   04 Jun 2027 01:26:50.986            18.413                Anadyr2           575.406
       379   04 Jun 2027 01:26:50.986   04 Jun 2027 01:27:13.056            22.070                Anadyr1           689.688
       380   04 Jun 2027 01:28:10.435   04 Jun 2027 01:28:16.365             5.930                Anadyr1           185.313
       381   04 Jun 2027 01:28:21.829   04 Jun 2027 01:28:32.893            11.064                Anadyr2           345.750
       382   04 Jun 2027 01:30:46.657   04 Jun 2027 01:31:36.206            49.549                Anadyr1          1548.406
       383   04 Jun 2027 01:31:44.513   04 Jun 2027 01:32:03.009            18.496                Norilsk           578.000
       384   04 Jun 2027 01:32:16.078   04 Jun 2027 01:33:40.325            84.247               Magadan1          2632.719
       385   04 Jun 2027 01:33:58.529   04 Jun 2027 01:34:27.830            29.301               Magadan1           915.656
       386   04 Jun 2027 01:35:24.470   04 Jun 2027 01:36:29.362            64.892              Murmansk1          2027.875
       387   04 Jun 2027 01:37:05.431   04 Jun 2027 01:37:57.816            52.385                Novosib          1637.031
       388   04 Jun 2027 01:39:01.701   04 Jun 2027 01:39:14.128            12.427                 Moscow           388.344
       389   04 Jun 2027 01:41:35.888   04 Jun 2027 01:41:50.006            14.118                 Moscow           441.187
       390   04 Jun 2027 01:44:46.196   04 Jun 2027 01:44:58.821            12.625                  Delhi           394.531
       391   04 Jun 2027 01:47:13.819   04 Jun 2027 01:48:04.013            50.194                  Delhi          1568.562
       392   04 Jun 2027 02:06:25.458   04 Jun 2027 02:06:31.773             6.315               CapeTown           197.344
       393   04 Jun 2027 02:07:00.985   04 Jun 2027 02:07:27.805            26.820               CapeTown           838.125
       394   04 Jun 2027 02:58:50.690   04 Jun 2027 03:00:21.616            90.926                Anadyr2          2841.437
       395   04 Jun 2027 03:01:10.239   04 Jun 2027 03:01:59.394            49.155                Anadyr1          1536.094
       396   04 Jun 2027 03:01:59.394   04 Jun 2027 03:02:22.002            22.608                Anadyr2           706.500
       397   04 Jun 2027 03:16:45.309   04 Jun 2027 03:17:19.908            34.599              Murmansk2          1081.219
       398   04 Jun 2027 03:17:28.995   04 Jun 2027 03:18:32.188            63.193                Norilsk          1974.781
       399   04 Jun 2027 03:18:42.333   04 Jun 2027 03:19:24.567            42.234                Norilsk          1319.813
       400   04 Jun 2027 03:19:28.620   04 Jun 2027 03:22:18.338           169.718              Murmansk2          5303.688
       401   04 Jun 2027 03:22:28.218   04 Jun 2027 03:22:43.685            15.467                 Moscow           483.344
       402   04 Jun 2027 03:37:09.902   04 Jun 2027 03:40:35.773           205.871               CapeTown          6433.469
       403   04 Jun 2027 04:33:43.807   04 Jun 2027 04:35:06.312            82.505                Anadyr2          2578.281
       404   04 Jun 2027 04:40:04.044   04 Jun 2027 04:41:01.365            57.321               Magadan2          1791.281
       405   04 Jun 2027 04:41:02.511   04 Jun 2027 04:41:57.446            54.935                Anadyr2          1716.719
       406   04 Jun 2027 04:41:57.446   04 Jun 2027 04:42:54.195            56.749                Anadyr1          1773.406
       407   04 Jun 2027 04:44:19.975   04 Jun 2027 04:44:50.224            30.249               Magadan1           945.281
       408   04 Jun 2027 06:15:05.814   04 Jun 2027 06:15:32.603            26.789                Anadyr2           837.156
       409   04 Jun 2027 06:15:32.603   04 Jun 2027 06:16:39.343            66.740                Anadyr1          2085.625
       410   04 Jun 2027 06:16:41.092   04 Jun 2027 06:17:27.539            46.447               Magadan1          1451.469
       411   04 Jun 2027 06:17:27.539   04 Jun 2027 06:18:27.033            59.494               Magadan2          1859.187
       412   04 Jun 2027 06:18:30.659   04 Jun 2027 06:18:33.219             2.560               Magadan2            80.000
       413   04 Jun 2027 06:18:49.013   04 Jun 2027 06:20:57.006           127.993                Anadyr2          3999.781
       414   04 Jun 2027 06:20:57.006   04 Jun 2027 06:21:39.334            42.328                Anadyr1          1322.750
       415   04 Jun 2027 07:50:27.808   04 Jun 2027 07:51:26.401            58.593               Magadan2          1831.031
       416   04 Jun 2027 07:51:54.258   04 Jun 2027 07:54:19.382           145.124                Anadyr1          4535.125
       417   04 Jun 2027 07:54:19.382   04 Jun 2027 07:55:03.233            43.851                Anadyr2          1370.344
       418   04 Jun 2027 07:55:11.713   04 Jun 2027 07:55:20.154             8.441                Anadyr1           263.781
       419   04 Jun 2027 07:55:24.834   04 Jun 2027 07:56:05.413            40.579                Norilsk          1268.094
       420   04 Jun 2027 07:56:09.961   04 Jun 2027 07:56:29.453            19.492                Norilsk           609.125
       421   04 Jun 2027 07:56:34.392   04 Jun 2027 07:58:04.970            90.578               Magadan1          2830.563
       422   04 Jun 2027 07:58:15.892   04 Jun 2027 07:58:55.215            39.323              Murmansk1          1228.844
       423   04 Jun 2027 08:33:22.695   04 Jun 2027 08:34:35.267            72.572            RioGallegos          2267.875
       424   04 Jun 2027 08:35:58.931   04 Jun 2027 08:36:39.409            40.478            RioGallegos          1264.937
       425   04 Jun 2027 09:12:17.548   04 Jun 2027 09:12:46.103            28.555                Sumatra           892.344
       426   04 Jun 2027 09:13:02.270   04 Jun 2027 09:13:06.864             4.594                Sumatra           143.562
       427   04 Jun 2027 09:26:44.899   04 Jun 2027 09:27:23.246            38.347               Magadan1          1198.344
       428   04 Jun 2027 09:27:23.246   04 Jun 2027 09:28:38.357            75.111               Magadan2          2347.219
       429   04 Jun 2027 09:28:48.370   04 Jun 2027 09:29:31.850            43.480                Novosib          1358.750
       430   04 Jun 2027 09:29:36.316   04 Jun 2027 09:30:35.134            58.818               Magadan2          1838.062
       431   04 Jun 2027 09:30:40.467   04 Jun 2027 09:31:31.642            51.175               Magadan2          1599.219
       432   04 Jun 2027 09:31:31.642   04 Jun 2027 09:32:15.236            43.594               Magadan1          1362.312
       433   04 Jun 2027 09:32:22.636   04 Jun 2027 09:32:30.979             8.343              Murmansk1           260.719
       434   04 Jun 2027 09:32:30.979   04 Jun 2027 09:32:41.523            10.544              Murmansk2           329.500
       435   04 Jun 2027 09:32:47.566   04 Jun 2027 09:33:29.606            42.040                Novosib          1313.750
       436   04 Jun 2027 09:33:40.410   04 Jun 2027 09:34:24.235            43.825              Murmansk2          1369.531
       437   04 Jun 2027 09:34:26.839   04 Jun 2027 09:34:49.440            22.601              Murmansk1           706.281
       438   04 Jun 2027 10:08:49.014   04 Jun 2027 10:09:25.480            36.466            RioGallegos          1139.562
       439   04 Jun 2027 10:11:52.006   04 Jun 2027 10:12:41.876            49.870            RioGallegos          1558.438
       440   04 Jun 2027 10:43:30.148   04 Jun 2027 10:43:51.063            20.915                Sumatra           653.594
       441   04 Jun 2027 10:46:00.674   04 Jun 2027 10:46:24.079            23.405                Sumatra           731.406
       442   04 Jun 2027 10:56:54.145   04 Jun 2027 10:58:06.124            71.979                  Delhi          2249.344
       443   04 Jun 2027 11:03:32.136   04 Jun 2027 11:03:40.570             8.434                  Delhi           263.562
       444   04 Jun 2027 11:04:01.059   04 Jun 2027 11:04:23.311            22.252                Norilsk           695.375
       445   04 Jun 2027 11:04:29.090   04 Jun 2027 11:04:37.397             8.307                Novosib           259.594
       446   04 Jun 2027 11:04:43.402   04 Jun 2027 11:05:40.875            57.473                Novosib          1796.031
       447   04 Jun 2027 11:05:48.087   04 Jun 2027 11:06:07.066            18.979              Murmansk1           593.094
       448   04 Jun 2027 11:06:08.122   04 Jun 2027 11:07:31.236            83.114                Irkutsk          2597.312
       449   04 Jun 2027 11:07:37.110   04 Jun 2027 11:07:40.599             3.489                Novosib           109.031
       450   04 Jun 2027 11:07:41.721   04 Jun 2027 11:07:48.556             6.835                Norilsk           213.594
       451   04 Jun 2027 11:07:56.758   04 Jun 2027 11:08:16.788            20.030                Irkutsk           625.937
       452   04 Jun 2027 11:08:44.523   04 Jun 2027 11:09:07.151            22.628                Norilsk           707.125
       453   04 Jun 2027 11:09:08.955   04 Jun 2027 11:09:15.851             6.896                 Moscow           215.500
       454   04 Jun 2027 11:09:16.228   04 Jun 2027 11:09:37.778            21.550                Irkutsk           673.438
       455   04 Jun 2027 11:09:40.805   04 Jun 2027 11:10:35.171            54.366                 Moscow          1698.937
       456   04 Jun 2027 11:48:55.512   04 Jun 2027 11:49:25.446            29.934            RioGallegos           935.438
       457   04 Jun 2027 11:49:54.992   04 Jun 2027 11:50:40.388            45.396            RioGallegos          1418.625
       458   04 Jun 2027 12:29:49.620   04 Jun 2027 12:30:49.445            59.825                  Delhi          1869.531
       459   04 Jun 2027 12:32:06.506   04 Jun 2027 12:32:15.187             8.681                  Delhi           271.281
       460   04 Jun 2027 12:35:36.718   04 Jun 2027 12:36:45.428            68.710                Novosib          2147.187
       461   04 Jun 2027 12:38:07.565   04 Jun 2027 12:39:43.018            95.453                Novosib          2982.906
       462   04 Jun 2027 12:40:08.376   04 Jun 2027 12:41:00.279            51.903              Murmansk2          1621.969
       463   04 Jun 2027 12:44:42.640   04 Jun 2027 12:45:01.105            18.465                Norilsk           577.031
       464   04 Jun 2027 14:12:06.540   04 Jun 2027 14:15:15.458           188.918                 Moscow          5903.688
       465   04 Jun 2027 14:15:24.663   04 Jun 2027 14:15:57.453            32.790                 Moscow          1024.688
       466   04 Jun 2027 14:16:33.679   04 Jun 2027 14:18:18.150           104.471              Murmansk1          3264.719
       467   04 Jun 2027 14:19:19.894   04 Jun 2027 14:19:28.900             9.006              Murmansk2           281.437
       468   04 Jun 2027 14:19:32.886   04 Jun 2027 14:20:31.088            58.202                Norilsk          1818.813
       469   04 Jun 2027 14:21:26.091   04 Jun 2027 14:21:41.353            15.262                Norilsk           476.937
       470   04 Jun 2027 14:22:59.070   04 Jun 2027 14:23:08.977             9.907                Norilsk           309.594
       471   04 Jun 2027 14:23:20.339   04 Jun 2027 14:24:22.190            61.851                Norilsk          1932.844
       472   04 Jun 2027 15:26:43.100   04 Jun 2027 15:29:46.478           183.378               CapeTown          5730.562
       473   04 Jun 2027 15:52:36.551   04 Jun 2027 15:54:00.178            83.627              Murmansk2          2613.344
       474   04 Jun 2027 15:54:40.706   04 Jun 2027 15:54:52.303            11.597              Murmansk2           362.406
       475   04 Jun 2027 15:55:12.076   04 Jun 2027 15:55:39.884            27.808              Murmansk1           869.000
       476   04 Jun 2027 16:06:37.081   04 Jun 2027 16:06:38.197             1.116                Anadyr1            34.875
       477   04 Jun 2027 16:07:01.587   04 Jun 2027 16:08:25.324            83.737                Anadyr2          2616.781
       478   04 Jun 2027 16:09:20.461   04 Jun 2027 16:09:30.094             9.633                Anadyr2           301.031
       479   04 Jun 2027 16:15:24.252   04 Jun 2027 16:16:06.189            41.937                Anadyr1          1310.531
       480   04 Jun 2027 17:01:36.044   04 Jun 2027 17:02:15.625            39.581               CapeTown          1236.906
       481   04 Jun 2027 17:03:16.064   04 Jun 2027 17:03:44.770            28.706               CapeTown           897.063
       482   04 Jun 2027 17:31:56.075   04 Jun 2027 17:34:10.527           134.452              Murmansk1          4201.625
