uniorb/output/strategy_1/Drop/Drop_KinoSat_110802.txt

KinoSat_110802
-------------------------
    Access    *     Start Time (UTCG)     *     Stop Time (UTCG)  *   Duration (s)        *       Station  *  Data (Mbytes)
         1   01 Jun 2027 04:04:47.319   01 Jun 2027 04:05:15.332            28.013                Anadyr1           875.406
         2   01 Jun 2027 04:05:15.332   01 Jun 2027 04:06:45.248            89.916                Anadyr2          2809.875
         3   01 Jun 2027 04:06:50.606   01 Jun 2027 04:07:21.802            31.196                Anadyr2           974.875
         4   01 Jun 2027 04:07:25.521   01 Jun 2027 04:07:54.083            28.562               Magadan1           892.563
         5   01 Jun 2027 04:08:37.981   01 Jun 2027 04:10:23.040           105.059                Anadyr2          3283.094
         6   01 Jun 2027 04:10:33.298   01 Jun 2027 04:10:42.595             9.297               Magadan2           290.531
         7   01 Jun 2027 04:51:16.956   01 Jun 2027 04:51:19.614             2.658            RioGallegos            83.063
         8   01 Jun 2027 04:51:38.197   01 Jun 2027 04:51:55.693            17.496            RioGallegos           546.750
         9   01 Jun 2027 04:55:44.037   01 Jun 2027 04:56:37.842            53.805            RioGallegos          1681.406
        10   01 Jun 2027 05:38:41.224   01 Jun 2027 05:39:31.668            50.444               Magadan2          1576.375
        11   01 Jun 2027 05:40:07.460   01 Jun 2027 05:40:23.503            16.043               Magadan1           501.344
        12   01 Jun 2027 05:40:30.946   01 Jun 2027 05:45:56.453           325.507                Anadyr2         10172.094
        13   01 Jun 2027 05:46:03.162   01 Jun 2027 05:46:39.963            36.801                Novosib          1150.031
        14   01 Jun 2027 06:29:34.625   01 Jun 2027 06:29:36.647             2.022            RioGallegos            63.187
        15   01 Jun 2027 06:59:56.637   01 Jun 2027 07:01:20.819            84.182                Sumatra          2630.687
        16   01 Jun 2027 07:02:13.707   01 Jun 2027 07:02:24.146            10.439                Sumatra           326.219
        17   01 Jun 2027 07:17:03.774   01 Jun 2027 07:18:02.507            58.733               Magadan1          1835.406
        18   01 Jun 2027 07:18:12.662   01 Jun 2027 07:18:36.706            24.044                Irkutsk           751.375
        19   01 Jun 2027 07:18:51.370   01 Jun 2027 07:21:50.716           179.346                Norilsk          5604.563
        20   01 Jun 2027 07:21:57.645   01 Jun 2027 07:22:31.324            33.679                Norilsk          1052.469
        21   01 Jun 2027 07:22:43.464   01 Jun 2027 07:23:49.007            65.543              Murmansk2          2048.219
        22   01 Jun 2027 07:23:49.007   01 Jun 2027 07:24:45.387            56.380              Murmansk1          1761.875
        23   01 Jun 2027 07:57:18.586   01 Jun 2027 07:58:17.577            58.991            RioGallegos          1843.469
        24   01 Jun 2027 08:31:55.555   01 Jun 2027 08:32:33.123            37.568                Sumatra          1174.000
        25   01 Jun 2027 08:35:04.577   01 Jun 2027 08:35:39.477            34.900                Sumatra          1090.625
        26   01 Jun 2027 08:41:09.384   01 Jun 2027 08:41:18.041             8.657                Sumatra           270.531
        27   01 Jun 2027 08:41:53.963   01 Jun 2027 08:43:47.061           113.098                  Delhi          3534.312
        28   01 Jun 2027 08:46:32.802   01 Jun 2027 08:47:22.030            49.228                  Delhi          1538.375
        29   01 Jun 2027 08:53:47.742   01 Jun 2027 08:54:10.367            22.625                Irkutsk           707.031
        30   01 Jun 2027 08:54:26.429   01 Jun 2027 08:55:37.142            70.713                Norilsk          2209.781
        31   01 Jun 2027 08:55:41.038   01 Jun 2027 08:58:22.516           161.478              Murmansk2          5046.187
        32   01 Jun 2027 08:58:22.516   01 Jun 2027 08:58:47.899            25.383              Murmansk1           793.219
        33   01 Jun 2027 08:59:15.657   01 Jun 2027 08:59:53.868            38.211                Novosib          1194.094
        34   01 Jun 2027 09:03:05.679   01 Jun 2027 09:03:24.451            18.772              Murmansk1           586.625
        35   01 Jun 2027 09:38:24.985   01 Jun 2027 09:38:26.125             1.140            RioGallegos            35.625
        36   01 Jun 2027 09:40:37.719   01 Jun 2027 09:40:48.256            10.537            RioGallegos           329.281
        37   01 Jun 2027 10:16:17.709   01 Jun 2027 10:19:11.990           174.281                  Delhi          5446.281
        38   01 Jun 2027 10:31:41.511   01 Jun 2027 10:32:42.055            60.544                Norilsk          1892.000
        39   01 Jun 2027 10:32:58.402   01 Jun 2027 10:34:35.291            96.889                 Moscow          3027.781
        40   01 Jun 2027 10:34:41.210   01 Jun 2027 10:35:11.280            30.070              Murmansk1           939.687
        41   01 Jun 2027 10:35:11.280   01 Jun 2027 10:36:15.230            63.950              Murmansk2          1998.438
        42   01 Jun 2027 12:05:15.147   01 Jun 2027 12:05:51.002            35.855                 Moscow          1120.469
        43   01 Jun 2027 12:06:36.481   01 Jun 2027 12:06:50.168            13.687                 Moscow           427.719
        44   01 Jun 2027 12:07:46.596   01 Jun 2027 12:08:26.483            39.887                 Moscow          1246.469
        45   01 Jun 2027 12:09:18.998   01 Jun 2027 12:11:02.038           103.040                Norilsk          3220.000
        46   01 Jun 2027 12:11:03.501   01 Jun 2027 12:12:31.561            88.060                Norilsk          2751.875
        47   01 Jun 2027 13:18:25.765   01 Jun 2027 13:19:19.988            54.223               CapeTown          1694.469
        48   01 Jun 2027 13:20:13.271   01 Jun 2027 13:21:35.543            82.272               CapeTown          2571.000
        49   01 Jun 2027 13:47:26.932   01 Jun 2027 13:48:22.358            55.426              Murmansk1          1732.063
        50   01 Jun 2027 13:50:13.883   01 Jun 2027 13:50:58.313            44.430              Murmansk1          1388.438
        51   01 Jun 2027 13:52:24.618   01 Jun 2027 13:52:52.576            27.958              Murmansk1           873.688
        52   01 Jun 2027 13:55:40.878   01 Jun 2027 13:56:09.596            28.718                Anadyr2           897.438
        53   01 Jun 2027 13:57:29.194   01 Jun 2027 13:57:35.278             6.084                Anadyr2           190.125
        54   01 Jun 2027 13:57:56.989   01 Jun 2027 13:59:48.434           111.445                Anadyr1          3482.656
        55   01 Jun 2027 14:02:45.615   01 Jun 2027 14:04:32.094           106.479                Anadyr2          3327.469
        56   01 Jun 2027 15:27:04.407   01 Jun 2027 15:28:22.896            78.489              Murmansk1          2452.781
        57   01 Jun 2027 15:33:28.772   01 Jun 2027 15:33:42.038            13.266                Anadyr2           414.563
        58   01 Jun 2027 15:33:42.038   01 Jun 2027 15:33:51.943             9.905                Anadyr1           309.531
        59   01 Jun 2027 15:33:54.995   01 Jun 2027 15:37:34.493           219.498               Magadan1          6859.312
        60   01 Jun 2027 15:38:57.429   01 Jun 2027 15:40:31.162            93.733               Magadan1          2929.156
        61   01 Jun 2027 17:10:02.387   01 Jun 2027 17:10:43.405            41.018               Magadan2          1281.813
        62   01 Jun 2027 17:11:26.644   01 Jun 2027 17:11:35.061             8.417               Magadan2           263.031
        63   01 Jun 2027 17:11:55.497   01 Jun 2027 17:12:05.273             9.776               Magadan2           305.500
        64   01 Jun 2027 17:12:52.719   01 Jun 2027 17:13:06.787            14.068               Magadan2           439.625
        65   01 Jun 2027 17:13:31.943   01 Jun 2027 17:15:07.139            95.196               Magadan2          2974.875
        66   01 Jun 2027 18:03:42.889   01 Jun 2027 18:05:41.786           118.897            RioGallegos          3715.531
        67   01 Jun 2027 18:42:20.168   01 Jun 2027 18:42:32.006            11.838                Anadyr1           369.937
        68   01 Jun 2027 18:42:55.411   01 Jun 2027 18:43:37.878            42.467                Anadyr2          1327.094
        69   01 Jun 2027 18:44:05.994   01 Jun 2027 18:44:07.947             1.953                Anadyr2            61.031
        70   01 Jun 2027 18:44:34.433   01 Jun 2027 18:47:14.345           159.912                Norilsk          4997.250
        71   01 Jun 2027 18:47:36.963   01 Jun 2027 18:47:42.759             5.796                Norilsk           181.125
        72   01 Jun 2027 18:48:34.467   01 Jun 2027 18:50:17.209           102.742                Norilsk          3210.687
        73   01 Jun 2027 18:51:08.943   01 Jun 2027 18:53:00.853           111.910                Irkutsk          3497.188
        74   01 Jun 2027 18:53:44.067   01 Jun 2027 18:54:38.591            54.524                Irkutsk          1703.875
        75   01 Jun 2027 18:56:00.942   01 Jun 2027 18:56:50.265            49.323                Irkutsk          1541.344
        76   01 Jun 2027 19:05:13.065   01 Jun 2027 19:07:06.512           113.447                Sumatra          3545.219
        77   01 Jun 2027 19:10:25.436   01 Jun 2027 19:11:43.643            78.207                Sumatra          2443.969
        78   01 Jun 2027 20:25:02.029   01 Jun 2027 20:25:37.227            35.198                Novosib          1099.938
        79   01 Jun 2027 20:27:03.052   01 Jun 2027 20:27:31.807            28.755                Novosib           898.594
        80   01 Jun 2027 20:27:52.192   01 Jun 2027 20:28:40.028            47.836                Novosib          1494.875
        81   01 Jun 2027 20:30:38.250   01 Jun 2027 20:31:16.850            38.600                Novosib          1206.250
        82   01 Jun 2027 20:37:00.463   01 Jun 2027 20:38:03.084            62.621                  Delhi          1956.906
        83   01 Jun 2027 21:56:48.327   01 Jun 2027 21:58:15.420            87.093               Magadan1          2721.656
        84   01 Jun 2027 21:59:24.882   01 Jun 2027 21:59:32.013             7.131                Norilsk           222.844
        85   01 Jun 2027 21:59:40.407   01 Jun 2027 22:03:43.040           242.633              Murmansk1          7582.281
        86   01 Jun 2027 22:11:36.044   01 Jun 2027 22:12:22.313            46.269                  Delhi          1445.906
        87   01 Jun 2027 22:15:33.684   01 Jun 2027 22:16:58.236            84.552                  Delhi          2642.250
        88   01 Jun 2027 23:29:58.922   01 Jun 2027 23:30:00.434             1.512                Anadyr1            47.250
        89   01 Jun 2027 23:30:07.754   01 Jun 2027 23:30:38.154            30.400                Anadyr2           950.000
        90   01 Jun 2027 23:31:21.001   01 Jun 2027 23:32:53.746            92.745               Magadan2          2898.281
        91   01 Jun 2027 23:33:36.281   01 Jun 2027 23:33:42.740             6.459                Norilsk           201.844
        92   01 Jun 2027 23:34:05.640   01 Jun 2027 23:34:15.010             9.370               Magadan2           292.812
        93   01 Jun 2027 23:34:26.696   01 Jun 2027 23:36:14.024           107.328              Murmansk1          3354.000
        94   01 Jun 2027 23:37:13.854   01 Jun 2027 23:39:18.223           124.369              Murmansk2          3886.531
        95   01 Jun 2027 23:40:36.792   01 Jun 2027 23:40:55.751            18.959                 Moscow           592.469
        96   01 Jun 2027 23:41:08.937   01 Jun 2027 23:42:16.230            67.293                 Moscow          2102.906
        97   02 Jun 2027 00:05:01.515   02 Jun 2027 00:07:03.597           122.082               CapeTown          3815.063
        98   02 Jun 2027 00:08:11.895   02 Jun 2027 00:09:50.664            98.769               CapeTown          3086.531
        99   02 Jun 2027 01:10:20.340   02 Jun 2027 01:11:38.091            77.751              Murmansk1          2429.719
       100   02 Jun 2027 01:11:38.091   02 Jun 2027 01:11:50.982            12.891              Murmansk2           402.844
       101   02 Jun 2027 01:12:36.488   02 Jun 2027 01:12:42.149             5.661              Murmansk1           176.906
       102   02 Jun 2027 01:13:06.445   02 Jun 2027 01:13:23.863            17.418              Murmansk2           544.313
       103   02 Jun 2027 01:13:34.274   02 Jun 2027 01:15:06.214            91.940                 Moscow          2873.125
       104   02 Jun 2027 01:24:14.567   02 Jun 2027 01:24:48.842            34.275                 Moscow          1071.094
       105   02 Jun 2027 01:41:33.135   02 Jun 2027 01:41:45.662            12.527               CapeTown           391.469
       106   02 Jun 2027 01:44:41.946   02 Jun 2027 01:45:30.933            48.987               CapeTown          1530.844
       107   02 Jun 2027 01:46:34.842   02 Jun 2027 01:46:54.059            19.217               CapeTown           600.531
       108   02 Jun 2027 02:34:10.902   02 Jun 2027 02:35:36.555            85.653                Anadyr2          2676.656
       109   02 Jun 2027 02:35:51.035   02 Jun 2027 02:35:53.977             2.942                Anadyr2            91.938
       110   02 Jun 2027 02:36:03.046   02 Jun 2027 02:37:04.499            61.453               Magadan1          1920.406
       111   02 Jun 2027 02:37:11.262   02 Jun 2027 02:37:26.443            15.181               Magadan2           474.406
       112   02 Jun 2027 02:39:07.515   02 Jun 2027 02:39:57.986            50.471               Magadan2          1577.219
       113   02 Jun 2027 02:45:01.384   02 Jun 2027 02:45:11.594            10.210                Norilsk           319.062
       114   02 Jun 2027 02:46:13.216   02 Jun 2027 02:46:38.189            24.973                Norilsk           780.406
       115   02 Jun 2027 02:46:54.609   02 Jun 2027 02:47:56.016            61.407              Murmansk2          1918.969
       116   02 Jun 2027 02:49:23.143   02 Jun 2027 02:49:36.339            13.196              Murmansk2           412.375
       117   02 Jun 2027 02:49:39.535   02 Jun 2027 02:49:41.258             1.723                 Moscow            53.844
       118   02 Jun 2027 02:50:24.163   02 Jun 2027 02:50:56.365            32.202                 Moscow          1006.312
       119   02 Jun 2027 02:54:14.949   02 Jun 2027 02:54:57.181            42.232                 Moscow          1319.750
       120   02 Jun 2027 03:16:20.706   02 Jun 2027 03:16:50.801            30.095               CapeTown           940.469
       121   02 Jun 2027 04:16:54.313   02 Jun 2027 04:18:32.273            97.960                Anadyr2          3061.250
       122   02 Jun 2027 04:18:37.951   02 Jun 2027 04:18:48.177            10.226               Magadan2           319.563
       123   02 Jun 2027 04:18:48.177   02 Jun 2027 04:20:14.548            86.371               Magadan1          2699.094
       124   02 Jun 2027 05:52:11.057   02 Jun 2027 05:53:46.084            95.027               Magadan2          2969.594
       125   02 Jun 2027 05:53:54.254   02 Jun 2027 05:54:51.939            57.685                Novosib          1802.656
       126   02 Jun 2027 05:54:56.718   02 Jun 2027 05:55:20.318            23.600                Norilsk           737.500
       127   02 Jun 2027 05:55:39.300   02 Jun 2027 05:58:01.291           141.991                Irkutsk          4437.219
       128   02 Jun 2027 05:58:08.955   02 Jun 2027 05:58:25.636            16.681               Magadan2           521.281
       129   02 Jun 2027 05:58:32.219   02 Jun 2027 05:58:56.424            24.205                Novosib           756.406
       130   02 Jun 2027 05:58:58.193   02 Jun 2027 05:59:49.339            51.146              Murmansk2          1598.312
       131   02 Jun 2027 06:00:10.502   02 Jun 2027 06:00:35.293            24.791              Murmansk2           774.719
       132   02 Jun 2027 06:01:03.450   02 Jun 2027 06:01:16.621            13.171                Norilsk           411.594
       133   02 Jun 2027 06:33:29.351   02 Jun 2027 06:35:16.075           106.724            RioGallegos          3335.125
       134   02 Jun 2027 06:36:18.835   02 Jun 2027 06:37:18.462            59.627            RioGallegos          1863.344
       135   02 Jun 2027 07:10:39.271   02 Jun 2027 07:12:54.389           135.118                Sumatra          4222.438
       136   02 Jun 2027 07:29:01.037   02 Jun 2027 07:30:17.069            76.032                Irkutsk          2376.000
       137   02 Jun 2027 07:30:32.378   02 Jun 2027 07:31:12.545            40.167               Magadan1          1255.219
       138   02 Jun 2027 07:31:18.984   02 Jun 2027 07:32:47.623            88.639                Irkutsk          2769.969
       139   02 Jun 2027 07:32:55.003   02 Jun 2027 07:34:26.467            91.464                Irkutsk          2858.250
       140   02 Jun 2027 08:45:11.340   02 Jun 2027 08:45:35.846            24.506                Sumatra           765.813
       141   02 Jun 2027 08:53:22.337   02 Jun 2027 08:54:18.376            56.039                  Delhi          1751.219
       142   02 Jun 2027 09:06:28.209   02 Jun 2027 09:07:00.641            32.432              Murmansk1          1013.500
       143   02 Jun 2027 09:07:06.571   02 Jun 2027 09:08:45.434            98.863                Irkutsk          3089.469
       144   02 Jun 2027 09:08:48.160   02 Jun 2027 09:09:02.362            14.202              Murmansk1           443.813
       145   02 Jun 2027 09:09:02.362   02 Jun 2027 09:09:28.058            25.696              Murmansk2           803.000
       146   02 Jun 2027 09:09:49.069   02 Jun 2027 09:12:07.903           138.834                 Moscow          4338.563
       147   02 Jun 2027 09:12:21.793   02 Jun 2027 09:14:59.924           158.131              Murmansk1          4941.594
       148   02 Jun 2027 09:15:07.386   02 Jun 2027 09:15:17.998            10.612              Murmansk1           331.625
       149   02 Jun 2027 09:52:55.694   02 Jun 2027 09:53:03.638             7.944            RioGallegos           248.250
       150   02 Jun 2027 10:28:33.069   02 Jun 2027 10:32:02.667           209.598                  Delhi          6549.937
       151   02 Jun 2027 10:43:12.719   02 Jun 2027 10:44:02.151            49.432                 Moscow          1544.750
       152   02 Jun 2027 10:44:07.945   02 Jun 2027 10:46:11.342           123.397              Murmansk1          3856.156
       153   02 Jun 2027 10:46:11.342   02 Jun 2027 10:46:12.134             0.792              Murmansk2            24.750
       154   02 Jun 2027 10:46:42.814   02 Jun 2027 10:46:57.684            14.870              Murmansk2           464.687
       155   02 Jun 2027 10:47:07.112   02 Jun 2027 10:47:35.771            28.659              Murmansk2           895.594
       156   02 Jun 2027 10:49:00.165   02 Jun 2027 10:49:05.556             5.391              Murmansk2           168.469
       157   02 Jun 2027 10:51:53.205   02 Jun 2027 10:51:56.263             3.058              Murmansk1            95.562
       158   02 Jun 2027 10:52:07.131   02 Jun 2027 10:52:24.197            17.066              Murmansk1           533.313
       159   02 Jun 2027 12:12:33.168   02 Jun 2027 12:17:03.722           270.554                 Moscow          8454.813
       160   02 Jun 2027 12:17:33.633   02 Jun 2027 12:20:51.762           198.129              Murmansk2          6191.531
       161   02 Jun 2027 12:20:51.762   02 Jun 2027 12:20:55.550             3.788              Murmansk1           118.375
       162   02 Jun 2027 12:21:19.585   02 Jun 2027 12:22:02.553            42.968              Murmansk2          1342.750
       163   02 Jun 2027 13:26:41.166   02 Jun 2027 13:29:38.987           177.821               CapeTown          5556.906
       164   02 Jun 2027 13:53:27.865   02 Jun 2027 13:53:52.448            24.583              Murmansk2           768.219
       165   02 Jun 2027 13:54:04.674   02 Jun 2027 13:55:18.283            73.609              Murmansk1          2300.281
       166   02 Jun 2027 13:55:56.462   02 Jun 2027 13:56:49.162            52.700              Murmansk2          1646.875
       167   02 Jun 2027 14:06:56.832   02 Jun 2027 14:09:13.810           136.978                Anadyr1          4280.562
       168   02 Jun 2027 14:09:29.350   02 Jun 2027 14:10:57.604            88.254                Anadyr2          2757.937
       169   02 Jun 2027 15:11:57.790   02 Jun 2027 15:12:07.947            10.157               CapeTown           317.406
       170   02 Jun 2027 15:33:19.016   02 Jun 2027 15:34:33.994            74.978              Murmansk2          2343.062
       171   02 Jun 2027 15:36:36.283   02 Jun 2027 15:36:54.169            17.886              Murmansk2           558.937
       172   02 Jun 2027 15:38:43.293   02 Jun 2027 15:39:41.965            58.672              Murmansk1          1833.500
       173   02 Jun 2027 15:42:36.075   02 Jun 2027 15:42:52.086            16.011                Anadyr1           500.344
       174   02 Jun 2027 15:44:48.087   02 Jun 2027 15:45:22.378            34.291                Anadyr1          1071.594
       175   02 Jun 2027 15:45:39.633   02 Jun 2027 15:45:53.125            13.492                Anadyr1           421.625
       176   02 Jun 2027 15:46:05.034   02 Jun 2027 15:46:46.523            41.489                Anadyr1          1296.531
       177   02 Jun 2027 15:47:44.704   02 Jun 2027 15:52:33.704           289.000               Magadan1          9031.250
       178   02 Jun 2027 17:21:08.548   02 Jun 2027 17:21:38.129            29.581                Anadyr2           924.406
       179   02 Jun 2027 17:22:57.684   02 Jun 2027 17:23:08.125            10.441               Magadan2           326.281
       180   02 Jun 2027 17:23:22.896   02 Jun 2027 17:24:01.776            38.880                Anadyr1          1215.000
       181   02 Jun 2027 17:26:58.725   02 Jun 2027 17:27:52.187            53.462               Magadan2          1670.688
       182   02 Jun 2027 17:32:29.767   02 Jun 2027 17:33:22.803            53.036               Magadan2          1657.375
       183   02 Jun 2027 18:14:34.987   02 Jun 2027 18:17:23.752           168.765            RioGallegos          5273.906
       184   02 Jun 2027 18:20:06.655   02 Jun 2027 18:20:36.254            29.599            RioGallegos           924.969
       185   02 Jun 2027 18:56:30.717   02 Jun 2027 18:57:47.687            76.970                Norilsk          2405.312
       186   02 Jun 2027 18:58:22.409   02 Jun 2027 19:00:16.110           113.701                Norilsk          3553.156
       187   02 Jun 2027 19:01:22.114   02 Jun 2027 19:02:44.313            82.199                Irkutsk          2568.719
       188   02 Jun 2027 19:04:05.130   02 Jun 2027 19:04:51.430            46.300                Irkutsk          1446.875
       189   02 Jun 2027 19:06:15.734   02 Jun 2027 19:06:45.859            30.125                Irkutsk           941.406
       190   02 Jun 2027 19:16:11.709   02 Jun 2027 19:18:44.215           152.506                Sumatra          4765.812
       191   02 Jun 2027 19:20:10.885   02 Jun 2027 19:20:54.623            43.738                Sumatra          1366.813
       192   02 Jun 2027 19:22:30.484   02 Jun 2027 19:23:47.451            76.967                Sumatra          2405.219
       193   02 Jun 2027 20:37:34.457   02 Jun 2027 20:37:55.146            20.689                Novosib           646.531
       194   02 Jun 2027 20:39:06.845   02 Jun 2027 20:40:34.581            87.736                Novosib          2741.750
       195   02 Jun 2027 20:46:34.439   02 Jun 2027 20:48:37.639           123.200                  Delhi          3850.000
       196   02 Jun 2027 20:51:36.999   02 Jun 2027 20:52:06.215            29.216                  Delhi           913.000
       197   02 Jun 2027 22:10:00.516   02 Jun 2027 22:10:22.144            21.628               Magadan2           675.875
       198   02 Jun 2027 22:11:11.484   02 Jun 2027 22:14:55.843           224.359              Murmansk1          7011.219
       199   02 Jun 2027 22:14:58.275   02 Jun 2027 22:16:42.510           104.235              Murmansk2          3257.344
       200   02 Jun 2027 23:41:58.008   02 Jun 2027 23:41:58.827             0.819                Anadyr1            25.594
       201   02 Jun 2027 23:42:13.499   02 Jun 2027 23:42:51.253            37.754                Anadyr2          1179.813
       202   02 Jun 2027 23:42:55.845   02 Jun 2027 23:44:34.948            99.103               Magadan1          3096.969
       203   02 Jun 2027 23:45:34.356   02 Jun 2027 23:45:57.890            23.534               Magadan1           735.438
       204   02 Jun 2027 23:46:26.766   02 Jun 2027 23:47:34.466            67.700              Murmansk2          2115.625
       205   02 Jun 2027 23:47:34.466   02 Jun 2027 23:49:13.201            98.735              Murmansk1          3085.469
       206   02 Jun 2027 23:49:44.245   02 Jun 2027 23:50:36.327            52.082              Murmansk1          1627.562
       207   02 Jun 2027 23:50:57.507   02 Jun 2027 23:51:35.794            38.287                 Moscow          1196.469
       208   02 Jun 2027 23:52:40.964   02 Jun 2027 23:53:23.622            42.658                 Moscow          1333.063
       209   02 Jun 2027 23:58:54.673   03 Jun 2027 00:00:29.707            95.034                 Moscow          2969.812
       210   03 Jun 2027 00:17:56.883   03 Jun 2027 00:18:37.616            40.733               CapeTown          1272.906
       211   03 Jun 2027 00:20:01.632   03 Jun 2027 00:20:29.045            27.413               CapeTown           856.656
       212   03 Jun 2027 00:22:06.618   03 Jun 2027 00:23:47.640           101.022               CapeTown          3156.938
       213   03 Jun 2027 01:22:22.038   03 Jun 2027 01:23:31.819            69.781              Murmansk2          2180.656
       214   03 Jun 2027 01:25:40.306   03 Jun 2027 01:25:45.156             4.850              Murmansk1           151.562
       215   03 Jun 2027 01:26:29.049   03 Jun 2027 01:26:32.494             3.445                Novosib           107.656
       216   03 Jun 2027 01:27:14.856   03 Jun 2027 01:27:16.630             1.774                 Moscow            55.438
       217   03 Jun 2027 01:28:46.044   03 Jun 2027 01:29:08.343            22.299                 Moscow           696.844
       218   03 Jun 2027 01:30:36.367   03 Jun 2027 01:30:52.641            16.274              Murmansk1           508.563
       219   03 Jun 2027 01:33:07.650   03 Jun 2027 01:33:42.835            35.185                 Moscow          1099.531
       220   03 Jun 2027 01:49:28.201   03 Jun 2027 01:49:54.157            25.956               CapeTown           811.125
       221   03 Jun 2027 01:53:49.050   03 Jun 2027 01:54:08.424            19.374               CapeTown           605.437
       222   03 Jun 2027 01:55:05.337   03 Jun 2027 01:56:20.125            74.788               CapeTown          2337.125
       223   03 Jun 2027 02:46:14.858   03 Jun 2027 02:47:23.298            68.440                Anadyr1          2138.750
       224   03 Jun 2027 02:47:26.041   03 Jun 2027 02:48:06.254            40.213               Magadan1          1256.656
       225   03 Jun 2027 02:48:06.254   03 Jun 2027 02:48:32.219            25.965               Magadan2           811.406
       226   03 Jun 2027 02:48:53.687   03 Jun 2027 02:49:02.664             8.977               Magadan2           280.531
       227   03 Jun 2027 02:49:07.218   03 Jun 2027 02:49:12.189             4.971               Magadan2           155.344
       228   03 Jun 2027 02:50:31.929   03 Jun 2027 02:50:50.313            18.384               Magadan1           574.500
       229   03 Jun 2027 02:51:56.005   03 Jun 2027 02:52:18.577            22.572               Magadan1           705.375
       230   03 Jun 2027 02:53:22.016   03 Jun 2027 02:53:31.342             9.326               Magadan2           291.437
       231   03 Jun 2027 02:54:48.194   03 Jun 2027 02:55:22.623            34.429                Norilsk          1075.906
       232   03 Jun 2027 02:58:18.682   03 Jun 2027 02:58:28.682            10.000              Murmansk2           312.500
       233   03 Jun 2027 02:59:03.732   03 Jun 2027 02:59:50.322            46.590              Murmansk2          1455.937
       234   03 Jun 2027 04:29:27.353   03 Jun 2027 04:29:30.921             3.568                Anadyr1           111.500
       235   03 Jun 2027 04:29:34.502   03 Jun 2027 04:29:41.167             6.665                Norilsk           208.281
       236   03 Jun 2027 04:30:14.498   03 Jun 2027 04:34:52.574           278.076                Anadyr2          8689.875
       237   03 Jun 2027 04:35:03.443   03 Jun 2027 04:35:43.189            39.746              Murmansk1          1242.062
       238   03 Jun 2027 04:36:36.340   03 Jun 2027 04:36:48.022            11.682                Norilsk           365.063
       239   03 Jun 2027 05:12:20.757   03 Jun 2027 05:12:37.436            16.679            RioGallegos           521.219
       240   03 Jun 2027 05:15:00.599   03 Jun 2027 05:15:45.924            45.325            RioGallegos          1416.406
       241   03 Jun 2027 05:16:15.521   03 Jun 2027 05:16:33.757            18.236            RioGallegos           569.875
       242   03 Jun 2027 06:03:42.374   03 Jun 2027 06:03:56.816            14.442               Magadan2           451.313
       243   03 Jun 2027 06:03:59.932   03 Jun 2027 06:04:27.611            27.679               Magadan2           864.969
       244   03 Jun 2027 06:04:37.854   03 Jun 2027 06:09:03.411           265.557               Magadan2          8298.656
       245   03 Jun 2027 06:09:18.519   03 Jun 2027 06:10:26.203            67.684              Murmansk2          2115.125
       246   03 Jun 2027 06:11:07.077   03 Jun 2027 06:11:10.111             3.034                Norilsk            94.813
       247   03 Jun 2027 06:11:42.332   03 Jun 2027 06:11:53.486            11.154                Norilsk           348.562
       248   03 Jun 2027 06:45:20.154   03 Jun 2027 06:47:15.122           114.968            RioGallegos          3592.750
       249   03 Jun 2027 07:21:48.667   03 Jun 2027 07:23:42.854           114.187                Sumatra          3568.344
       250   03 Jun 2027 07:42:18.541   03 Jun 2027 07:43:24.849            66.308                Norilsk          2072.125
       251   03 Jun 2027 07:43:28.685   03 Jun 2027 07:44:34.318            65.633                Norilsk          2051.031
       252   03 Jun 2027 07:44:43.087   03 Jun 2027 07:47:51.038           187.951                Novosib          5873.469
       253   03 Jun 2027 07:47:52.552   03 Jun 2027 07:48:32.032            39.480              Murmansk2          1233.750
       254   03 Jun 2027 07:51:47.699   03 Jun 2027 07:52:30.514            42.815              Murmansk2          1337.969
       255   03 Jun 2027 08:21:52.263   03 Jun 2027 08:23:16.689            84.426            RioGallegos          2638.313
       256   03 Jun 2027 08:26:02.377   03 Jun 2027 08:26:51.714            49.337            RioGallegos          1541.781
       257   03 Jun 2027 08:56:12.190   03 Jun 2027 08:57:47.146            94.956                Sumatra          2967.375
       258   03 Jun 2027 09:04:58.025   03 Jun 2027 09:05:34.044            36.019                  Delhi          1125.594
       259   03 Jun 2027 09:05:43.371   03 Jun 2027 09:06:16.369            32.998                  Delhi          1031.187
       260   03 Jun 2027 09:18:03.377   03 Jun 2027 09:18:56.460            53.083                Irkutsk          1658.844
       261   03 Jun 2027 09:19:20.613   03 Jun 2027 09:19:43.186            22.573                Irkutsk           705.406
       262   03 Jun 2027 09:20:00.290   03 Jun 2027 09:21:11.110            70.820                Irkutsk          2213.125
       263   03 Jun 2027 09:21:17.808   03 Jun 2027 09:22:48.676            90.868              Murmansk1          2839.625
       264   03 Jun 2027 09:22:48.676   03 Jun 2027 09:23:32.851            44.175              Murmansk2          1380.469
       265   03 Jun 2027 09:23:49.308   03 Jun 2027 09:24:13.532            24.224                 Moscow           757.000
       266   03 Jun 2027 09:24:38.514   03 Jun 2027 09:24:48.615            10.101                 Moscow           315.656
       267   03 Jun 2027 10:40:55.294   03 Jun 2027 10:41:42.959            47.665                  Delhi          1489.531
       268   03 Jun 2027 10:42:05.126   03 Jun 2027 10:42:28.716            23.590                  Delhi           737.188
       269   03 Jun 2027 10:42:51.364   03 Jun 2027 10:44:41.128           109.764                  Delhi          3430.125
       270   03 Jun 2027 10:54:15.274   03 Jun 2027 10:55:12.722            57.448                 Moscow          1795.250
       271   03 Jun 2027 10:55:21.119   03 Jun 2027 10:56:23.344            62.225                Norilsk          1944.531
       272   03 Jun 2027 10:56:26.878   03 Jun 2027 10:57:01.947            35.069              Murmansk1          1095.906
       273   03 Jun 2027 10:57:05.614   03 Jun 2027 10:58:09.826            64.212              Murmansk2          2006.625
       274   03 Jun 2027 10:59:10.509   03 Jun 2027 10:59:34.692            24.183              Murmansk2           755.719
       275   03 Jun 2027 11:01:17.851   03 Jun 2027 11:01:25.147             7.296                 Moscow           228.000
       276   03 Jun 2027 12:24:38.001   03 Jun 2027 12:28:41.683           243.682                 Moscow          7615.063
       277   03 Jun 2027 12:28:59.349   03 Jun 2027 12:32:08.324           188.975              Murmansk1          5905.469
       278   03 Jun 2027 12:45:11.946   03 Jun 2027 12:47:31.267           139.321                Anadyr2          4353.781
       279   03 Jun 2027 13:38:27.685   03 Jun 2027 13:40:05.304            97.619               CapeTown          3050.594
       280   03 Jun 2027 13:41:52.700   03 Jun 2027 13:42:14.497            21.797               CapeTown           681.156
       281   03 Jun 2027 14:05:49.370   03 Jun 2027 14:07:43.935           114.565              Murmansk2          3580.156
       282   03 Jun 2027 14:08:50.889   03 Jun 2027 14:09:29.386            38.497              Murmansk2          1203.031
       283   03 Jun 2027 14:10:40.082   03 Jun 2027 14:10:41.560             1.478              Murmansk2            46.188
       284   03 Jun 2027 14:18:53.800   03 Jun 2027 14:21:58.888           185.088                Anadyr2          5784.000
       285   03 Jun 2027 14:26:17.041   03 Jun 2027 14:27:10.881            53.840                Anadyr1          1682.500
       286   03 Jun 2027 15:46:05.771   03 Jun 2027 15:47:28.184            82.413              Murmansk1          2575.406
       287   03 Jun 2027 15:54:37.053   03 Jun 2027 15:56:12.281            95.228                Anadyr1          2975.875
       288   03 Jun 2027 15:56:44.097   03 Jun 2027 15:57:21.661            37.564                Anadyr2          1173.875
       289   03 Jun 2027 15:57:30.486   03 Jun 2027 16:00:55.581           205.095               Magadan2          6409.219
       290   03 Jun 2027 16:01:19.485   03 Jun 2027 16:02:46.105            86.620               Magadan1          2706.875
       291   03 Jun 2027 17:30:32.458   03 Jun 2027 17:32:16.735           104.277                Anadyr1          3258.656
       292   03 Jun 2027 17:32:50.137   03 Jun 2027 17:34:54.386           124.249               Magadan2          3882.781
       293   03 Jun 2027 18:25:58.421   03 Jun 2027 18:29:10.309           191.888            RioGallegos          5996.500
       294   03 Jun 2027 18:32:21.811   03 Jun 2027 18:33:00.137            38.326            RioGallegos          1197.688
       295   03 Jun 2027 19:08:28.433   03 Jun 2027 19:12:34.037           245.604                Norilsk          7675.125
       296   03 Jun 2027 19:13:05.604   03 Jun 2027 19:15:18.906           133.302                Irkutsk          4165.687
       297   03 Jun 2027 19:16:21.446   03 Jun 2027 19:16:44.378            22.932                Irkutsk           716.625
       298   03 Jun 2027 19:20:06.575   03 Jun 2027 19:22:29.988           143.413                Irkutsk          4481.656
       299   03 Jun 2027 19:29:53.049   03 Jun 2027 19:31:54.200           121.151                Sumatra          3785.969
       300   03 Jun 2027 19:33:11.542   03 Jun 2027 19:34:10.454            58.912                Sumatra          1841.000
       301   03 Jun 2027 20:48:39.804   03 Jun 2027 20:50:07.237            87.433                Novosib          2732.281
       302   03 Jun 2027 20:51:11.108   03 Jun 2027 20:52:30.632            79.524                Novosib          2485.125
       303   03 Jun 2027 20:57:35.537   03 Jun 2027 21:00:14.849           159.312                  Delhi          4978.500
       304   03 Jun 2027 21:05:30.181   03 Jun 2027 21:05:54.740            24.559                  Delhi           767.469
       305   03 Jun 2027 22:23:00.542   03 Jun 2027 22:26:52.527           231.985              Murmansk2          7249.531
       306   03 Jun 2027 22:27:21.718   03 Jun 2027 22:29:02.587           100.869              Murmansk1          3152.156
       307   03 Jun 2027 23:54:27.765   03 Jun 2027 23:54:40.644            12.879               Magadan1           402.469
       308   03 Jun 2027 23:55:20.158   03 Jun 2027 23:56:11.863            51.705               Magadan2          1615.781
       309   03 Jun 2027 23:57:36.500   03 Jun 2027 23:58:03.843            27.343               Magadan2           854.469
       310   03 Jun 2027 23:58:27.266   04 Jun 2027 00:01:12.148           164.882              Murmansk1          5152.563
       311   04 Jun 2027 00:01:45.896   04 Jun 2027 00:02:37.608            51.712              Murmansk1          1616.000
       312   04 Jun 2027 00:02:53.413   04 Jun 2027 00:04:45.617           112.204                 Moscow          3506.375
       313   04 Jun 2027 00:27:28.079   04 Jun 2027 00:29:13.648           105.569               CapeTown          3299.031
       314   04 Jun 2027 00:32:32.466   04 Jun 2027 00:34:02.817            90.351               CapeTown          2823.469
       315   04 Jun 2027 01:27:17.006   04 Jun 2027 01:27:40.167            23.161               Magadan2           723.781
       316   04 Jun 2027 01:33:40.325   04 Jun 2027 01:33:58.529            18.204               Magadan2           568.875
       317   04 Jun 2027 01:34:23.742   04 Jun 2027 01:35:53.650            89.908              Murmansk2          2809.625
       318   04 Jun 2027 01:37:34.180   04 Jun 2027 01:37:40.900             6.720              Murmansk1           210.000
       319   04 Jun 2027 01:37:57.816   04 Jun 2027 01:37:59.755             1.939                Novosib            60.594
       320   04 Jun 2027 01:38:02.097   04 Jun 2027 01:38:18.525            16.428                Novosib           513.375
       321   04 Jun 2027 01:38:26.265   04 Jun 2027 01:39:01.701            35.436                 Moscow          1107.375
       322   04 Jun 2027 01:41:09.027   04 Jun 2027 01:41:13.903             4.876                 Moscow           152.375
       323   04 Jun 2027 01:45:11.592   04 Jun 2027 01:46:05.528            53.936                 Moscow          1685.500
       324   04 Jun 2027 02:01:33.959   04 Jun 2027 02:02:13.033            39.074               CapeTown          1221.062
       325   04 Jun 2027 02:09:48.301   04 Jun 2027 02:10:13.515            25.214               CapeTown           787.938
       326   04 Jun 2027 02:58:20.852   04 Jun 2027 02:58:50.690            29.838                Anadyr2           932.438
       327   04 Jun 2027 02:58:55.409   04 Jun 2027 03:00:55.537           120.128               Magadan1          3754.000
       328   04 Jun 2027 03:03:56.654   04 Jun 2027 03:04:37.102            40.448                Anadyr2          1264.000
       329   04 Jun 2027 03:04:39.652   04 Jun 2027 03:05:20.560            40.908                Anadyr1          1278.375
       330   04 Jun 2027 03:05:33.776   04 Jun 2027 03:07:02.140            88.364                Anadyr2          2761.375
       331   04 Jun 2027 03:07:10.629   04 Jun 2027 03:07:42.156            31.527               Magadan1           985.219
       332   04 Jun 2027 03:08:09.372   04 Jun 2027 03:08:13.317             3.945               Magadan1           123.281
       333   04 Jun 2027 03:08:18.827   04 Jun 2027 03:08:23.025             4.198               Magadan1           131.188
       334   04 Jun 2027 04:41:57.446   04 Jun 2027 04:44:51.868           174.422                Anadyr2          5450.688
       335   04 Jun 2027 04:45:28.579   04 Jun 2027 04:45:56.622            28.043               Magadan2           876.344
       336   04 Jun 2027 04:46:05.499   04 Jun 2027 04:46:39.957            34.458                Anadyr2          1076.812
       337   04 Jun 2027 06:17:01.327   04 Jun 2027 06:17:34.382            33.055                Irkutsk          1032.969
       338   04 Jun 2027 06:17:50.834   04 Jun 2027 06:18:03.575            12.741                Norilsk           398.156
       339   04 Jun 2027 06:18:10.444   04 Jun 2027 06:21:07.833           177.389                Novosib          5543.406
       340   04 Jun 2027 06:21:25.943   04 Jun 2027 06:21:38.602            12.659                Irkutsk           395.594
       341   04 Jun 2027 06:21:40.008   04 Jun 2027 06:22:35.389            55.381              Murmansk1          1730.656
       342   04 Jun 2027 06:57:14.131   04 Jun 2027 06:59:48.101           153.970            RioGallegos          4811.562
       343   04 Jun 2027 07:33:12.554   04 Jun 2027 07:36:05.307           172.753                Sumatra          5398.531
       344   04 Jun 2027 07:53:41.842   04 Jun 2027 07:54:08.354            26.512                Novosib           828.500
       345   04 Jun 2027 07:54:23.604   04 Jun 2027 07:58:25.279           241.675                Irkutsk          7552.344
       346   04 Jun 2027 09:08:30.203   04 Jun 2027 09:09:37.154            66.951                Sumatra          2092.219
       347   04 Jun 2027 09:18:10.847   04 Jun 2027 09:18:54.508            43.661                  Delhi          1364.406
       348   04 Jun 2027 09:19:15.264   04 Jun 2027 09:20:26.561            71.297                  Delhi          2228.031
       349   04 Jun 2027 09:30:16.994   04 Jun 2027 09:31:19.353            62.359                 Moscow          1948.719
       350   04 Jun 2027 09:31:22.194   04 Jun 2027 09:32:25.444            63.250                 Moscow          1976.562
       351   04 Jun 2027 09:32:30.979   04 Jun 2027 09:32:41.523            10.544              Murmansk1           329.500
       352   04 Jun 2027 09:32:41.523   04 Jun 2027 09:33:08.350            26.827              Murmansk2           838.344
       353   04 Jun 2027 09:33:11.188   04 Jun 2027 09:33:12.157             0.969                Irkutsk            30.281
       354   04 Jun 2027 09:33:26.671   04 Jun 2027 09:33:28.499             1.828                Irkutsk            57.125
       355   04 Jun 2027 09:33:40.410   04 Jun 2027 09:34:26.839            46.429              Murmansk1          1450.906
       356   04 Jun 2027 09:34:53.122   04 Jun 2027 09:35:28.820            35.698                 Moscow          1115.562
       357   04 Jun 2027 10:53:25.763   04 Jun 2027 10:56:16.961           171.198                  Delhi          5349.938
       358   04 Jun 2027 11:05:51.281   04 Jun 2027 11:06:05.001            13.720                 Moscow           428.750
       359   04 Jun 2027 11:06:07.066   04 Jun 2027 11:06:20.470            13.404              Murmansk1           418.875
       360   04 Jun 2027 11:06:21.537   04 Jun 2027 11:07:27.793            66.256              Murmansk2          2070.500
       361   04 Jun 2027 11:07:31.363   04 Jun 2027 11:07:43.700            12.337              Murmansk2           385.531
       362   04 Jun 2027 11:07:48.556   04 Jun 2027 11:08:03.438            14.882                Norilsk           465.062
       363   04 Jun 2027 11:08:08.083   04 Jun 2027 11:09:08.955            60.872                 Moscow          1902.250
       364   04 Jun 2027 11:09:15.851   04 Jun 2027 11:09:40.805            24.954                 Moscow           779.813
       365   04 Jun 2027 11:09:57.278   04 Jun 2027 11:10:02.946             5.668              Murmansk1           177.125
       366   04 Jun 2027 11:10:43.104   04 Jun 2027 11:11:00.916            17.812                 Moscow           556.625
       367   04 Jun 2027 11:14:50.045   04 Jun 2027 11:15:01.842            11.797              Murmansk2           368.656
       368   04 Jun 2027 12:36:45.917   04 Jun 2027 12:39:37.074           171.157                 Moscow          5348.656
       369   04 Jun 2027 12:40:17.244   04 Jun 2027 12:44:02.680           225.436              Murmansk1          7044.875
       370   04 Jun 2027 12:56:21.507   04 Jun 2027 12:59:37.233           195.726                Anadyr1          6116.438
       371   04 Jun 2027 12:59:47.458   04 Jun 2027 13:01:03.128            75.670                Anadyr2          2364.687
       372   04 Jun 2027 14:18:13.185   04 Jun 2027 14:19:19.894            66.709              Murmansk2          2084.656
       373   04 Jun 2027 14:20:52.545   04 Jun 2027 14:21:26.368            33.823              Murmansk1          1056.969
       374   04 Jun 2027 14:22:41.902   04 Jun 2027 14:23:00.829            18.927              Murmansk1           591.469
       375   04 Jun 2027 14:30:51.715   04 Jun 2027 14:32:49.646           117.931                Anadyr1          3685.344
       376   04 Jun 2027 14:33:28.540   04 Jun 2027 14:34:56.594            88.054                Anadyr2          2751.688
       377   04 Jun 2027 15:31:21.063   04 Jun 2027 15:31:44.817            23.754               CapeTown           742.313
       378   04 Jun 2027 15:32:08.975   04 Jun 2027 15:33:17.110            68.135               CapeTown          2129.219
       379   04 Jun 2027 15:58:59.107   04 Jun 2027 15:59:34.763            35.656              Murmansk2          1114.250
       380   04 Jun 2027 16:00:42.281   04 Jun 2027 16:00:56.562            14.281              Murmansk1           446.281
       381   04 Jun 2027 16:06:38.197   04 Jun 2027 16:08:12.255            94.058                Anadyr1          2939.312
       382   04 Jun 2027 16:08:25.324   04 Jun 2027 16:09:20.461            55.137                Anadyr2          1723.031
       383   04 Jun 2027 16:09:22.666   04 Jun 2027 16:12:11.289           168.623               Magadan2          5269.469
       384   04 Jun 2027 16:12:12.097   04 Jun 2027 16:14:09.510           117.413               Magadan1          3669.156
       385   04 Jun 2027 17:42:33.486   04 Jun 2027 17:43:30.068            56.582                Anadyr2          1768.188
       386   04 Jun 2027 17:43:58.415   04 Jun 2027 17:44:20.927            22.512                Anadyr2           703.500
       387   04 Jun 2027 17:44:50.523   04 Jun 2027 17:46:31.360           100.837               Magadan1          3151.156
       388   04 Jun 2027 17:48:12.388   04 Jun 2027 17:48:39.692            27.304               Magadan2           853.250
       389   04 Jun 2027 17:48:43.676   04 Jun 2027 17:48:48.843             5.167               Magadan2           161.469
       390   04 Jun 2027 17:54:03.652   04 Jun 2027 17:54:56.880            53.228               Magadan2          1663.375
       391   04 Jun 2027 18:37:33.795   04 Jun 2027 18:41:48.742           254.947            RioGallegos          7967.094
       392   04 Jun 2027 19:20:49.864   04 Jun 2027 19:21:40.992            51.128               Magadan2          1597.750
       393   04 Jun 2027 19:21:40.992   04 Jun 2027 19:22:12.471            31.479               Magadan1           983.719
       394   04 Jun 2027 19:23:19.571   04 Jun 2027 19:23:54.131            34.560                Norilsk          1080.000
       395   04 Jun 2027 19:24:53.257   04 Jun 2027 19:28:30.893           217.636                Irkutsk          6801.125
       396   04 Jun 2027 19:38:58.425   04 Jun 2027 19:40:23.713            85.288                Sumatra          2665.250
       397   04 Jun 2027 19:42:19.922   04 Jun 2027 19:45:21.894           181.972                Sumatra          5686.625
       398   04 Jun 2027 21:00:11.048   04 Jun 2027 21:01:29.361            78.313                Irkutsk          2447.281
       399   04 Jun 2027 21:01:38.780   04 Jun 2027 21:03:15.869            97.089                Novosib          3034.031
       400   04 Jun 2027 21:08:56.981   04 Jun 2027 21:10:54.341           117.360                  Delhi          3667.500
       401   04 Jun 2027 21:10:58.183   04 Jun 2027 21:12:03.241            65.058                  Delhi          2033.062
       402   04 Jun 2027 21:15:58.964   04 Jun 2027 21:16:09.210            10.246                  Delhi           320.188
       403   04 Jun 2027 22:34:53.314   04 Jun 2027 22:38:50.409           237.095              Murmansk1          7409.219
       404   04 Jun 2027 22:39:42.873   04 Jun 2027 22:42:11.797           148.924              Murmansk2          4653.875
       405   05 Jun 2027 00:05:57.655   05 Jun 2027 00:06:43.763            46.108               Magadan1          1440.875
       406   05 Jun 2027 00:07:50.527   05 Jun 2027 00:07:55.701             5.174               Magadan2           161.688
       407   05 Jun 2027 00:08:30.482   05 Jun 2027 00:09:00.954            30.472               Magadan2           952.250
       408   05 Jun 2027 00:10:28.109   05 Jun 2027 00:12:09.872           101.763              Murmansk1          3180.094
       409   05 Jun 2027 00:12:54.515   05 Jun 2027 00:13:36.764            42.249                Novosib          1320.281
       410   05 Jun 2027 00:13:47.520   05 Jun 2027 00:14:39.050            51.530              Murmansk1          1610.313
       411   05 Jun 2027 00:14:43.074   05 Jun 2027 00:16:25.547           102.473                 Moscow          3202.281
       412   05 Jun 2027 00:20:53.018   05 Jun 2027 00:21:19.095            26.077                 Moscow           814.906
       413   05 Jun 2027 00:21:56.311   05 Jun 2027 00:22:10.385            14.074                 Moscow           439.813
       414   05 Jun 2027 00:38:55.437   05 Jun 2027 00:41:15.245           139.808               CapeTown          4369.000
       415   05 Jun 2027 00:44:45.544   05 Jun 2027 00:45:06.144            20.600               CapeTown           643.750
       416   05 Jun 2027 01:37:55.820   05 Jun 2027 01:38:10.379            14.559               Magadan2           454.969
       417   05 Jun 2027 01:38:10.379   05 Jun 2027 01:38:36.537            26.158               Magadan1           817.437
       418   05 Jun 2027 01:41:56.244   05 Jun 2027 01:42:35.372            39.128               Magadan1          1222.750
       419   05 Jun 2027 01:44:04.553   05 Jun 2027 01:44:05.419             0.866                Norilsk            27.063
       420   05 Jun 2027 01:45:26.619   05 Jun 2027 01:45:43.001            16.382               Magadan2           511.937
       421   05 Jun 2027 01:46:25.422   05 Jun 2027 01:47:55.220            89.798              Murmansk1          2806.188
       422   05 Jun 2027 01:49:27.451   05 Jun 2027 01:50:11.507            44.056                Novosib          1376.750
       423   05 Jun 2027 01:50:31.346   05 Jun 2027 01:50:56.181            24.835              Murmansk1           776.094
       424   05 Jun 2027 01:53:20.067   05 Jun 2027 01:53:23.411             3.344                 Moscow           104.500
       425   05 Jun 2027 01:56:18.539   05 Jun 2027 01:56:37.372            18.833                 Moscow           588.531
       426   05 Jun 2027 01:59:31.038   05 Jun 2027 01:59:47.414            16.376                 Moscow           511.750
       427   05 Jun 2027 02:13:45.072   05 Jun 2027 02:15:15.603            90.531               CapeTown          2829.094
       428   05 Jun 2027 03:16:22.525   05 Jun 2027 03:16:41.353            18.828               Magadan1           588.375
       429   05 Jun 2027 03:16:50.366   05 Jun 2027 03:17:43.234            52.868                Anadyr1          1652.125
       430   05 Jun 2027 03:17:43.234   05 Jun 2027 03:19:59.301           136.067                Anadyr2          4252.094
       431   05 Jun 2027 03:20:35.334   05 Jun 2027 03:23:09.739           154.405                Anadyr1          4825.156
       432   05 Jun 2027 04:54:43.352   05 Jun 2027 04:55:36.631            53.279               Magadan1          1664.969
       433   05 Jun 2027 04:55:43.646   05 Jun 2027 04:56:03.070            19.424                Norilsk           607.000
       434   05 Jun 2027 04:56:05.917   05 Jun 2027 04:56:32.456            26.539                Irkutsk           829.344
       435   05 Jun 2027 04:56:42.403   05 Jun 2027 04:57:32.957            50.554                Anadyr1          1579.812
       436   05 Jun 2027 06:29:14.804   05 Jun 2027 06:30:16.313            61.509               Magadan2          1922.156
       437   05 Jun 2027 06:30:16.313   05 Jun 2027 06:32:19.085           122.772               Magadan1          3836.625
       438   05 Jun 2027 06:32:33.895   05 Jun 2027 06:33:31.213            57.318               Magadan1          1791.187
       439   05 Jun 2027 06:33:34.863   05 Jun 2027 06:34:11.249            36.386              Murmansk1          1137.063
       440   05 Jun 2027 06:34:35.742   05 Jun 2027 06:34:48.983            13.241              Murmansk2           413.781
       441   05 Jun 2027 06:34:48.983   05 Jun 2027 06:35:22.543            33.560              Murmansk1          1048.750
       442   05 Jun 2027 07:09:11.301   05 Jun 2027 07:11:30.255           138.954            RioGallegos          4342.313
       443   05 Jun 2027 07:44:46.451   05 Jun 2027 07:47:06.360           139.909                Sumatra          4372.156
       444   05 Jun 2027 08:05:22.678   05 Jun 2027 08:05:43.603            20.925                Irkutsk           653.906
       445   05 Jun 2027 08:05:49.116   05 Jun 2027 08:06:37.810            48.694                Novosib          1521.688
       446   05 Jun 2027 08:07:00.712   05 Jun 2027 08:07:35.891            35.179                Novosib          1099.344
       447   05 Jun 2027 08:07:38.983   05 Jun 2027 08:09:06.137            87.154                Novosib          2723.562
       448   05 Jun 2027 08:09:13.461   05 Jun 2027 08:09:22.701             9.240                Norilsk           288.750
       449   05 Jun 2027 08:09:23.886   05 Jun 2027 08:09:56.662            32.776                Novosib          1024.250
       450   05 Jun 2027 08:10:03.746   05 Jun 2027 08:10:09.021             5.275                Norilsk           164.844
       451   05 Jun 2027 08:10:18.472   05 Jun 2027 08:11:26.485            68.013              Murmansk1          2125.406
       452   05 Jun 2027 08:46:44.802   05 Jun 2027 08:47:50.338            65.536            RioGallegos          2048.000
       453   05 Jun 2027 08:51:07.955   05 Jun 2027 08:51:24.157            16.202            RioGallegos           506.312
       454   05 Jun 2027 09:20:56.406   05 Jun 2027 09:21:32.974            36.568                Sumatra          1142.750
       455   05 Jun 2027 09:22:11.166   05 Jun 2027 09:22:39.249            28.083                Sumatra           877.594
       456   05 Jun 2027 09:25:27.859   05 Jun 2027 09:25:45.376            17.517                Sumatra           547.406
       457   05 Jun 2027 09:30:01.440   05 Jun 2027 09:30:55.486            54.046                  Delhi          1688.937
       458   05 Jun 2027 09:33:11.884   05 Jun 2027 09:33:58.693            46.809                  Delhi          1462.781
       459   05 Jun 2027 09:41:46.357   05 Jun 2027 09:41:58.064            11.707              Murmansk1           365.844
       460   05 Jun 2027 09:42:10.542   05 Jun 2027 09:43:18.205            67.663                 Moscow          2114.469
       461   05 Jun 2027 09:43:22.758   05 Jun 2027 09:43:54.041            31.283                Novosib           977.594
       462   05 Jun 2027 09:44:00.537   05 Jun 2027 09:44:06.775             6.238                Norilsk           194.937
       463   05 Jun 2027 09:44:10.098   05 Jun 2027 09:44:32.125            22.027              Murmansk2           688.344
       464   05 Jun 2027 09:44:34.258   05 Jun 2027 09:44:38.450             4.192                 Moscow           131.000
       465   05 Jun 2027 09:44:44.392   05 Jun 2027 09:45:10.387            25.995                Irkutsk           812.344
       466   05 Jun 2027 09:45:33.094   05 Jun 2027 09:45:35.016             1.922                Novosib            60.063
       467   05 Jun 2027 09:45:35.810   05 Jun 2027 09:46:25.911            50.101              Murmansk2          1565.656
       468   05 Jun 2027 09:48:23.187   05 Jun 2027 09:48:44.045            20.858                 Moscow           651.812
       469   05 Jun 2027 11:06:11.060   05 Jun 2027 11:07:59.161           108.101                  Delhi          3378.156
       470   05 Jun 2027 11:08:53.319   05 Jun 2027 11:10:28.231            94.912                  Delhi          2966.000
       471   05 Jun 2027 11:17:55.064   05 Jun 2027 11:18:13.310            18.246              Murmansk1           570.187
       472   05 Jun 2027 11:18:22.063   05 Jun 2027 11:19:27.751            65.688              Murmansk1          2052.750
       473   05 Jun 2027 11:19:36.772   05 Jun 2027 11:19:58.071            21.299                 Moscow           665.594
       474   05 Jun 2027 11:20:02.595   05 Jun 2027 11:20:10.298             7.703                 Moscow           240.719
       475   05 Jun 2027 11:20:36.772   05 Jun 2027 11:21:04.421            27.649              Murmansk2           864.031
       476   05 Jun 2027 11:21:11.417   05 Jun 2027 11:21:51.913            40.496              Murmansk1          1265.500
       477   05 Jun 2027 11:21:56.690   05 Jun 2027 11:22:00.839             4.149              Murmansk2           129.656
       478   05 Jun 2027 11:22:07.593   05 Jun 2027 11:23:22.404            74.811                 Moscow          2337.844
       479   05 Jun 2027 12:31:09.401   05 Jun 2027 12:31:48.036            38.635               CapeTown          1207.344
       480   05 Jun 2027 12:48:57.060   05 Jun 2027 12:50:09.520            72.460                 Moscow          2264.375
       481   05 Jun 2027 12:52:26.769   05 Jun 2027 12:55:57.771           211.002              Murmansk1          6593.813
       482   05 Jun 2027 12:56:55.835   05 Jun 2027 12:57:13.020            17.185              Murmansk2           537.031
