uniorb/output/strategy_1/Drop/Drop_KinoSat_111301.txt

KinoSat_111301
-------------------------
    Access    *     Start Time (UTCG)     *     Stop Time (UTCG)  *   Duration (s)        *       Station  *  Data (Mbytes)
         1   01 Jun 2027 04:09:05.450   01 Jun 2027 04:10:05.757            60.307              Murmansk1          1884.594
         2   01 Jun 2027 04:10:09.469   01 Jun 2027 04:11:10.145            60.676                 Moscow          1896.125
         3   01 Jun 2027 04:11:13.908   01 Jun 2027 04:11:49.777            35.869              Murmansk1          1120.906
         4   01 Jun 2027 04:11:49.777   01 Jun 2027 04:12:01.657            11.880              Murmansk2           371.250
         5   01 Jun 2027 04:14:12.029   01 Jun 2027 04:14:37.540            25.511                 Moscow           797.219
         6   01 Jun 2027 05:31:29.999   01 Jun 2027 05:36:33.096           303.097                Anadyr1          9471.781
         7   01 Jun 2027 07:08:30.301   01 Jun 2027 07:11:10.920           160.619                Anadyr2          5019.344
         8   01 Jun 2027 07:11:10.920   01 Jun 2027 07:11:45.918            34.998                Anadyr1          1093.687
         9   01 Jun 2027 07:11:55.072   01 Jun 2027 07:11:56.894             1.822              Murmansk2            56.937
        10   01 Jun 2027 07:12:26.336   01 Jun 2027 07:12:33.588             7.252                Anadyr1           226.625
        11   01 Jun 2027 08:42:50.857   01 Jun 2027 08:43:51.324            60.467               Magadan2          1889.594
        12   01 Jun 2027 08:44:27.937   01 Jun 2027 08:44:58.796            30.859               Magadan2           964.344
        13   01 Jun 2027 08:45:02.706   01 Jun 2027 08:46:19.194            76.488                Novosib          2390.250
        14   01 Jun 2027 08:46:21.097   01 Jun 2027 08:46:59.250            38.153                Irkutsk          1192.281
        15   01 Jun 2027 08:47:24.419   01 Jun 2027 08:49:37.665           133.246                Norilsk          4163.938
        16   01 Jun 2027 08:50:15.926   01 Jun 2027 08:50:27.123            11.197              Murmansk1           349.906
        17   01 Jun 2027 08:52:07.600   01 Jun 2027 08:53:03.165            55.565              Murmansk1          1736.406
        18   01 Jun 2027 09:22:57.027   01 Jun 2027 09:25:39.617           162.590            RioGallegos          5080.937
        19   01 Jun 2027 09:58:36.372   01 Jun 2027 10:00:08.132            91.760                Sumatra          2867.500
        20   01 Jun 2027 10:19:35.321   01 Jun 2027 10:19:58.250            22.929                Novosib           716.531
        21   01 Jun 2027 10:20:04.779   01 Jun 2027 10:20:26.584            21.805                Irkutsk           681.406
        22   01 Jun 2027 10:20:32.226   01 Jun 2027 10:22:02.958            90.732                Novosib          2835.375
        23   01 Jun 2027 10:22:04.590   01 Jun 2027 10:22:50.172            45.582              Murmansk2          1424.437
        24   01 Jun 2027 10:22:57.945   01 Jun 2027 10:23:28.284            30.339                Novosib           948.094
        25   01 Jun 2027 10:23:35.729   01 Jun 2027 10:24:24.652            48.923              Murmansk2          1528.844
        26   01 Jun 2027 11:04:09.631   01 Jun 2027 11:04:50.587            40.956            RioGallegos          1279.875
        27   01 Jun 2027 11:34:35.772   01 Jun 2027 11:35:51.385            75.613                Sumatra          2362.906
        28   01 Jun 2027 11:42:15.330   01 Jun 2027 11:44:12.218           116.888                  Delhi          3652.750
        29   01 Jun 2027 11:56:31.594   01 Jun 2027 11:56:53.616            22.022                Novosib           688.187
        30   01 Jun 2027 11:56:56.990   01 Jun 2027 11:57:52.107            55.117                Novosib          1722.406
        31   01 Jun 2027 11:58:24.257   01 Jun 2027 12:02:48.719           264.462                 Moscow          8264.437
        32   01 Jun 2027 12:03:13.979   01 Jun 2027 12:03:58.998            45.019              Murmansk2          1406.844
        33   01 Jun 2027 12:03:58.998   01 Jun 2027 12:04:18.583            19.585              Murmansk1           612.031
        34   01 Jun 2027 12:04:32.606   01 Jun 2027 12:04:58.235            25.629              Murmansk1           800.906
        35   01 Jun 2027 12:05:33.556   01 Jun 2027 12:06:48.902            75.346              Murmansk2          2354.563
        36   01 Jun 2027 13:20:12.495   01 Jun 2027 13:22:19.468           126.973                  Delhi          3967.906
        37   01 Jun 2027 13:23:09.022   01 Jun 2027 13:24:20.208            71.186                  Delhi          2224.562
        38   01 Jun 2027 13:24:38.947   01 Jun 2027 13:26:30.965           112.018                  Delhi          3500.562
        39   01 Jun 2027 13:28:11.954   01 Jun 2027 13:29:44.292            92.338                Novosib          2885.562
        40   01 Jun 2027 13:30:11.171   01 Jun 2027 13:30:54.357            43.186                Novosib          1349.562
        41   01 Jun 2027 13:32:12.368   01 Jun 2027 13:36:22.399           250.031                Novosib          7813.469
        42   01 Jun 2027 13:38:53.351   01 Jun 2027 13:41:07.284           133.933                Norilsk          4185.406
        43   01 Jun 2027 15:02:39.685   01 Jun 2027 15:03:18.120            38.435                 Moscow          1201.094
        44   01 Jun 2027 15:03:59.160   01 Jun 2027 15:05:36.291            97.131                 Moscow          3035.344
        45   01 Jun 2027 15:06:43.418   01 Jun 2027 15:07:03.437            20.019                 Moscow           625.594
        46   01 Jun 2027 15:07:14.467   01 Jun 2027 15:07:27.520            13.053              Murmansk1           407.906
        47   01 Jun 2027 15:07:30.010   01 Jun 2027 15:07:54.641            24.631              Murmansk1           769.719
        48   01 Jun 2027 15:09:11.100   01 Jun 2027 15:09:48.445            37.345              Murmansk2          1167.031
        49   01 Jun 2027 15:10:02.954   01 Jun 2027 15:10:23.644            20.690              Murmansk1           646.563
        50   01 Jun 2027 15:11:08.122   01 Jun 2027 15:11:48.489            40.367              Murmansk2          1261.469
        51   01 Jun 2027 15:11:56.519   01 Jun 2027 15:15:09.506           192.987                 Moscow          6030.844
        52   01 Jun 2027 15:15:20.981   01 Jun 2027 15:15:21.179             0.198                Norilsk             6.187
        53   01 Jun 2027 15:15:52.892   01 Jun 2027 15:16:35.093            42.201              Murmansk1          1318.781
        54   01 Jun 2027 15:16:50.003   01 Jun 2027 15:17:05.661            15.658              Murmansk2           489.312
        55   01 Jun 2027 15:17:05.661   01 Jun 2027 15:17:32.379            26.718              Murmansk1           834.938
        56   01 Jun 2027 15:23:12.246   01 Jun 2027 15:23:43.919            31.673                Anadyr2           989.781
        57   01 Jun 2027 15:24:02.554   01 Jun 2027 15:24:56.385            53.831                Anadyr1          1682.219
        58   01 Jun 2027 15:25:09.862   01 Jun 2027 15:26:03.344            53.482                Anadyr1          1671.312
        59   01 Jun 2027 15:26:33.544   01 Jun 2027 15:27:30.468            56.924                Anadyr1          1778.875
        60   01 Jun 2027 16:25:30.245   01 Jun 2027 16:26:22.192            51.947               CapeTown          1623.344
        61   01 Jun 2027 16:26:56.338   01 Jun 2027 16:28:06.673            70.335               CapeTown          2197.969
        62   01 Jun 2027 16:50:29.866   01 Jun 2027 16:50:57.949            28.083              Murmansk1           877.594
        63   01 Jun 2027 16:51:52.717   01 Jun 2027 16:52:29.916            37.199              Murmansk1          1162.469
        64   01 Jun 2027 16:53:04.584   01 Jun 2027 16:54:15.231            70.647              Murmansk1          2207.719
        65   01 Jun 2027 16:54:36.805   01 Jun 2027 16:54:41.028             4.223              Murmansk2           131.969
        66   01 Jun 2027 16:59:35.071   01 Jun 2027 17:00:00.780            25.709                Anadyr1           803.406
        67   01 Jun 2027 17:01:05.222   01 Jun 2027 17:01:39.911            34.689                Anadyr1          1084.031
        68   01 Jun 2027 17:02:29.720   01 Jun 2027 17:02:48.314            18.594                Anadyr1           581.062
        69   01 Jun 2027 17:03:04.671   01 Jun 2027 17:03:26.217            21.546                Anadyr1           673.312
        70   01 Jun 2027 17:04:03.080   01 Jun 2027 17:04:29.359            26.279                Anadyr2           821.219
        71   01 Jun 2027 17:04:58.157   01 Jun 2027 17:05:21.168            23.011                Anadyr1           719.094
        72   01 Jun 2027 17:06:09.207   01 Jun 2027 17:06:30.017            20.810                Anadyr2           650.313
        73   01 Jun 2027 17:06:46.339   01 Jun 2027 17:07:08.417            22.078                Anadyr1           689.937
        74   01 Jun 2027 17:07:45.961   01 Jun 2027 17:08:00.822            14.861                Anadyr1           464.406
        75   01 Jun 2027 18:25:30.540   01 Jun 2027 18:29:37.704           247.164              Murmansk2          7723.875
        76   01 Jun 2027 18:37:47.906   01 Jun 2027 18:38:14.515            26.609               Magadan1           831.531
        77   01 Jun 2027 18:39:27.525   01 Jun 2027 18:40:22.830            55.305                Anadyr1          1728.281
        78   01 Jun 2027 18:41:44.091   01 Jun 2027 18:42:04.200            20.109               Magadan2           628.406
        79   01 Jun 2027 18:42:34.084   01 Jun 2027 18:42:54.126            20.042               Magadan2           626.313
        80   01 Jun 2027 18:43:41.928   01 Jun 2027 18:43:56.448            14.520               Magadan2           453.750
        81   01 Jun 2027 18:44:07.947   01 Jun 2027 18:44:40.731            32.784                Anadyr2          1024.500
        82   01 Jun 2027 18:45:54.869   01 Jun 2027 18:46:02.266             7.397               Magadan2           231.156
        83   01 Jun 2027 20:08:19.986   01 Jun 2027 20:12:05.444           225.458                Anadyr2          7045.562
        84   01 Jun 2027 20:12:14.569   01 Jun 2027 20:13:29.047            74.478                Norilsk          2327.438
        85   01 Jun 2027 20:15:20.937   01 Jun 2027 20:15:26.542             5.605               Magadan2           175.156
        86   01 Jun 2027 20:15:35.941   01 Jun 2027 20:15:51.784            15.843                Anadyr2           495.094
        87   01 Jun 2027 20:16:17.576   01 Jun 2027 20:16:27.508             9.932               Magadan2           310.375
        88   01 Jun 2027 20:16:39.657   01 Jun 2027 20:17:12.977            33.320               Magadan1          1041.250
        89   01 Jun 2027 20:18:07.628   01 Jun 2027 20:18:34.016            26.388               Magadan1           824.625
        90   01 Jun 2027 20:19:37.745   01 Jun 2027 20:20:45.778            68.033               Magadan1          2126.031
        91   01 Jun 2027 20:23:25.219   01 Jun 2027 20:23:31.664             6.445               Magadan1           201.406
        92   01 Jun 2027 21:03:03.614   01 Jun 2027 21:04:06.346            62.732            RioGallegos          1960.375
        93   01 Jun 2027 21:06:20.250   01 Jun 2027 21:06:54.725            34.475            RioGallegos          1077.344
        94   01 Jun 2027 21:07:11.561   01 Jun 2027 21:07:35.224            23.663            RioGallegos           739.469
        95   01 Jun 2027 21:09:53.777   01 Jun 2027 21:10:42.806            49.029            RioGallegos          1532.156
        96   01 Jun 2027 21:12:21.856   01 Jun 2027 21:12:26.713             4.857            RioGallegos           151.781
        97   01 Jun 2027 21:44:32.783   01 Jun 2027 21:44:48.552            15.769                Anadyr1           492.781
        98   01 Jun 2027 21:46:10.999   01 Jun 2027 21:46:31.955            20.956                Norilsk           654.875
        99   01 Jun 2027 21:46:37.834   01 Jun 2027 21:48:19.729           101.895               Magadan1          3184.219
       100   01 Jun 2027 21:49:12.068   01 Jun 2027 21:49:48.035            35.967               Magadan2          1123.969
       101   01 Jun 2027 21:50:46.017   01 Jun 2027 21:51:08.710            22.693               Magadan1           709.156
       102   01 Jun 2027 21:51:58.775   01 Jun 2027 21:52:39.917            41.142                Irkutsk          1285.687
       103   01 Jun 2027 21:53:47.200   01 Jun 2027 21:53:51.915             4.715                Norilsk           147.344
       104   01 Jun 2027 21:54:10.151   01 Jun 2027 21:54:21.434            11.283                Norilsk           352.594
       105   01 Jun 2027 21:54:55.818   01 Jun 2027 21:55:08.873            13.055                Norilsk           407.969
       106   01 Jun 2027 21:56:15.907   01 Jun 2027 21:56:47.674            31.767               Magadan2           992.719
       107   01 Jun 2027 21:59:07.946   01 Jun 2027 21:59:26.083            18.137                Irkutsk           566.781
       108   01 Jun 2027 22:00:34.037   01 Jun 2027 22:01:29.372            55.335                Irkutsk          1729.219
       109   01 Jun 2027 22:10:54.329   01 Jun 2027 22:11:34.434            40.105                Sumatra          1253.281
       110   01 Jun 2027 22:14:30.896   01 Jun 2027 22:16:07.141            96.245                Sumatra          3007.656
       111   01 Jun 2027 23:19:09.031   01 Jun 2027 23:19:22.952            13.921                Anadyr1           435.031
       112   01 Jun 2027 23:21:14.334   01 Jun 2027 23:21:39.476            25.142                Anadyr2           785.687
       113   01 Jun 2027 23:22:06.115   01 Jun 2027 23:23:31.574            85.459                Norilsk          2670.594
       114   01 Jun 2027 23:24:01.133   01 Jun 2027 23:24:22.132            20.999               Magadan2           656.219
       115   01 Jun 2027 23:24:50.858   01 Jun 2027 23:25:29.946            39.088                Norilsk          1221.500
       116   01 Jun 2027 23:26:13.061   01 Jun 2027 23:27:09.293            56.232                Novosib          1757.250
       117   01 Jun 2027 23:29:07.285   01 Jun 2027 23:30:27.334            80.049                Novosib          2501.531
       118   01 Jun 2027 23:34:54.526   01 Jun 2027 23:35:14.723            20.197                  Delhi           631.156
       119   01 Jun 2027 23:36:02.007   01 Jun 2027 23:36:49.580            47.573                Novosib          1486.656
       120   01 Jun 2027 23:38:22.453   01 Jun 2027 23:39:21.801            59.348                  Delhi          1854.625
       121   01 Jun 2027 23:44:39.581   01 Jun 2027 23:44:53.810            14.229                  Delhi           444.656
       122   02 Jun 2027 00:20:58.852   02 Jun 2027 00:21:25.698            26.846            RioGallegos           838.938
       123   02 Jun 2027 00:23:32.287   02 Jun 2027 00:23:58.802            26.515            RioGallegos           828.594
       124   02 Jun 2027 00:52:35.443   02 Jun 2027 00:52:48.619            13.176                Anadyr1           411.750
       125   02 Jun 2027 00:53:12.270   02 Jun 2027 00:54:25.606            73.336                Anadyr1          2291.750
       126   02 Jun 2027 00:55:14.351   02 Jun 2027 00:55:17.463             3.112                Anadyr1            97.250
       127   02 Jun 2027 00:57:10.852   02 Jun 2027 00:57:34.286            23.434                Anadyr2           732.313
       128   02 Jun 2027 00:58:06.154   02 Jun 2027 00:58:22.307            16.153                Norilsk           504.781
       129   02 Jun 2027 00:58:26.363   02 Jun 2027 00:59:08.131            41.768               Magadan2          1305.250
       130   02 Jun 2027 00:59:08.131   02 Jun 2027 00:59:58.324            50.193               Magadan1          1568.531
       131   02 Jun 2027 01:00:33.089   02 Jun 2027 01:02:07.736            94.647              Murmansk1          2957.719
       132   02 Jun 2027 01:02:59.636   02 Jun 2027 01:03:09.110             9.474              Murmansk1           296.062
       133   02 Jun 2027 01:03:31.287   02 Jun 2027 01:03:44.959            13.672              Murmansk2           427.250
       134   02 Jun 2027 01:04:52.689   02 Jun 2027 01:06:14.696            82.007              Murmansk1          2562.719
       135   02 Jun 2027 01:13:15.168   02 Jun 2027 01:13:27.027            11.859                Novosib           370.594
       136   02 Jun 2027 01:13:44.617   02 Jun 2027 01:14:38.934            54.317                Novosib          1697.406
       137   02 Jun 2027 01:19:03.672   02 Jun 2027 01:19:34.768            31.096                  Delhi           971.750
       138   02 Jun 2027 01:52:58.791   02 Jun 2027 01:53:52.872            54.081            RioGallegos          1690.031
       139   02 Jun 2027 01:54:27.393   02 Jun 2027 01:54:37.347             9.954            RioGallegos           311.063
       140   02 Jun 2027 02:25:55.731   02 Jun 2027 02:26:47.259            51.528                Anadyr1          1610.250
       141   02 Jun 2027 02:27:35.741   02 Jun 2027 02:28:55.031            79.290                Anadyr1          2477.813
       142   02 Jun 2027 02:31:20.824   02 Jun 2027 02:31:42.975            22.151               Magadan1           692.219
       143   02 Jun 2027 02:31:42.975   02 Jun 2027 02:32:11.693            28.718               Magadan2           897.438
       144   02 Jun 2027 02:32:55.600   02 Jun 2027 02:33:04.413             8.813               Magadan2           275.406
       145   02 Jun 2027 02:33:56.326   02 Jun 2027 02:34:23.410            27.084                Norilsk           846.375
       146   02 Jun 2027 02:36:09.185   02 Jun 2027 02:36:44.041            34.856                Norilsk          1089.250
       147   02 Jun 2027 02:37:03.512   02 Jun 2027 02:37:58.321            54.809              Murmansk1          1712.781
       148   02 Jun 2027 02:39:03.254   02 Jun 2027 02:39:45.668            42.414                Novosib          1325.438
       149   02 Jun 2027 02:43:54.284   02 Jun 2027 02:44:02.160             7.876                Novosib           246.125
       150   02 Jun 2027 02:45:03.431   02 Jun 2027 02:45:13.071             9.640                Novosib           301.250
       151   02 Jun 2027 02:45:25.696   02 Jun 2027 02:45:30.066             4.370                Novosib           136.563
       152   02 Jun 2027 02:45:59.051   02 Jun 2027 02:46:23.656            24.605                Novosib           768.906
       153   02 Jun 2027 02:49:41.258   02 Jun 2027 02:50:24.163            42.905                 Moscow          1340.781
       154   02 Jun 2027 03:09:05.075   02 Jun 2027 03:10:14.249            69.174               CapeTown          2161.687
       155   02 Jun 2027 04:20:44.819   02 Jun 2027 04:21:59.241            74.422                 Moscow          2325.688
       156   02 Jun 2027 04:22:02.935   02 Jun 2027 04:25:08.416           185.481              Murmansk2          5796.281
       157   02 Jun 2027 04:26:24.901   02 Jun 2027 04:27:05.208            40.307                 Moscow          1259.594
       158   02 Jun 2027 05:43:31.677   02 Jun 2027 05:44:48.608            76.931                Anadyr1          2404.094
       159   02 Jun 2027 05:44:56.346   02 Jun 2027 05:45:42.986            46.640               Magadan1          1457.500
       160   02 Jun 2027 05:45:49.333   02 Jun 2027 05:46:52.070            62.737                Anadyr1          1960.531
       161   02 Jun 2027 05:47:44.093   02 Jun 2027 05:48:56.116            72.023                Anadyr2          2250.719
       162   02 Jun 2027 07:20:39.119   02 Jun 2027 07:21:12.972            33.853                Irkutsk          1057.906
       163   02 Jun 2027 07:21:13.321   02 Jun 2027 07:22:23.565            70.244               Magadan2          2195.125
       164   02 Jun 2027 07:23:11.457   02 Jun 2027 07:23:44.580            33.123                Anadyr2          1035.094
       165   02 Jun 2027 08:53:36.506   02 Jun 2027 08:53:44.162             7.656               Magadan1           239.250
       166   02 Jun 2027 08:55:04.439   02 Jun 2027 08:55:18.243            13.804               Magadan2           431.375
       167   02 Jun 2027 08:55:37.409   02 Jun 2027 08:55:47.416            10.007                Norilsk           312.719
       168   02 Jun 2027 08:55:50.865   02 Jun 2027 08:59:48.334           237.469               Magadan1          7420.906
       169   02 Jun 2027 09:00:22.323   02 Jun 2027 09:01:39.348            77.025                Norilsk          2407.031
       170   02 Jun 2027 09:02:07.364   02 Jun 2027 09:02:18.748            11.384              Murmansk2           355.750
       171   02 Jun 2027 09:02:18.748   02 Jun 2027 09:03:44.541            85.793              Murmansk1          2681.031
       172   02 Jun 2027 09:05:31.510   02 Jun 2027 09:05:42.594            11.084              Murmansk1           346.375
       173   02 Jun 2027 09:05:47.575   02 Jun 2027 09:06:19.548            31.973              Murmansk1           999.156
       174   02 Jun 2027 09:34:56.871   02 Jun 2027 09:36:19.082            82.211            RioGallegos          2569.094
       175   02 Jun 2027 09:36:37.357   02 Jun 2027 09:37:26.985            49.628            RioGallegos          1550.875
       176   02 Jun 2027 10:10:16.695   02 Jun 2027 10:10:58.533            41.838                Sumatra          1307.437
       177   02 Jun 2027 10:12:08.971   02 Jun 2027 10:12:29.884            20.913                Sumatra           653.531
       178   02 Jun 2027 10:31:36.704   02 Jun 2027 10:36:12.824           276.120                Irkutsk          8628.750
       179   02 Jun 2027 11:12:57.142   02 Jun 2027 11:13:27.633            30.491            RioGallegos           952.844
       180   02 Jun 2027 11:14:12.432   02 Jun 2027 11:14:30.991            18.559            RioGallegos           579.969
       181   02 Jun 2027 11:15:03.297   02 Jun 2027 11:15:31.513            28.216            RioGallegos           881.750
       182   02 Jun 2027 11:16:03.153   02 Jun 2027 11:16:07.101             3.948            RioGallegos           123.375
       183   02 Jun 2027 11:16:28.762   02 Jun 2027 11:17:24.355            55.593            RioGallegos          1737.281
       184   02 Jun 2027 11:47:10.744   02 Jun 2027 11:47:56.479            45.735                Sumatra          1429.219
       185   02 Jun 2027 11:48:58.983   02 Jun 2027 11:50:19.733            80.750                Sumatra          2523.438
       186   02 Jun 2027 11:52:03.363   02 Jun 2027 11:52:13.517            10.154                Sumatra           317.312
       187   02 Jun 2027 12:04:21.748   02 Jun 2027 12:04:41.047            19.299                Irkutsk           603.094
       188   02 Jun 2027 12:05:30.824   02 Jun 2027 12:06:45.474            74.650                Irkutsk          2332.812
       189   02 Jun 2027 13:38:00.325   02 Jun 2027 13:38:07.087             6.762                  Delhi           211.313
       190   02 Jun 2027 13:38:33.755   02 Jun 2027 13:40:16.265           102.510                  Delhi          3203.438
       191   02 Jun 2027 13:42:53.839   02 Jun 2027 13:44:11.580            77.741                Novosib          2429.406
       192   02 Jun 2027 13:47:47.497   02 Jun 2027 13:47:56.947             9.450                Novosib           295.313
       193   02 Jun 2027 13:51:32.817   02 Jun 2027 13:51:33.022             0.205                Norilsk             6.406
       194   02 Jun 2027 13:53:00.776   02 Jun 2027 13:53:06.722             5.946                Norilsk           185.813
       195   02 Jun 2027 14:57:54.048   02 Jun 2027 14:58:32.923            38.875               CapeTown          1214.844
       196   02 Jun 2027 15:00:02.836   02 Jun 2027 15:00:49.808            46.972               CapeTown          1467.875
       197   02 Jun 2027 15:23:27.421   02 Jun 2027 15:24:18.210            50.789              Murmansk1          1587.156
       198   02 Jun 2027 15:24:36.899   02 Jun 2027 15:25:38.250            61.351                 Moscow          1917.219
       199   02 Jun 2027 15:27:02.529   02 Jun 2027 15:27:54.535            52.006              Murmansk2          1625.187
       200   02 Jun 2027 15:27:54.535   02 Jun 2027 15:28:05.486            10.951              Murmansk1           342.219
       201   02 Jun 2027 15:28:51.163   02 Jun 2027 15:29:41.649            50.486              Murmansk2          1577.688
       202   02 Jun 2027 15:35:48.115   02 Jun 2027 15:35:56.630             8.515                Anadyr2           266.094
       203   02 Jun 2027 15:36:12.457   02 Jun 2027 15:36:49.152            36.695                Anadyr2          1146.719
       204   02 Jun 2027 15:36:49.152   02 Jun 2027 15:37:11.007            21.855                Anadyr1           682.969
       205   02 Jun 2027 15:38:33.435   02 Jun 2027 15:39:26.022            52.587                Anadyr1          1643.344
       206   02 Jun 2027 16:35:51.350   02 Jun 2027 16:35:55.715             4.365               CapeTown           136.406
       207   02 Jun 2027 16:36:41.656   02 Jun 2027 16:37:01.710            20.054               CapeTown           626.688
       208   02 Jun 2027 16:38:06.067   02 Jun 2027 16:40:01.403           115.336               CapeTown          3604.250
       209   02 Jun 2027 17:01:19.870   02 Jun 2027 17:01:50.880            31.010              Murmansk2           969.063
       210   02 Jun 2027 17:02:58.820   02 Jun 2027 17:03:14.117            15.297              Murmansk1           478.031
       211   02 Jun 2027 17:04:01.417   02 Jun 2027 17:04:24.717            23.300              Murmansk1           728.125
       212   02 Jun 2027 17:05:32.136   02 Jun 2027 17:06:40.721            68.585              Murmansk1          2143.281
       213   02 Jun 2027 17:14:31.167   02 Jun 2027 17:15:23.237            52.070               Magadan1          1627.188
       214   02 Jun 2027 17:16:51.592   02 Jun 2027 17:17:09.753            18.161                Anadyr1           567.531
       215   02 Jun 2027 17:18:09.027   02 Jun 2027 17:18:31.288            22.261                Anadyr2           695.656
       216   02 Jun 2027 17:19:24.407   02 Jun 2027 17:19:33.275             8.868                Anadyr1           277.125
       217   02 Jun 2027 17:20:24.042   02 Jun 2027 17:20:28.432             4.390                Anadyr1           137.188
       218   02 Jun 2027 18:38:53.522   02 Jun 2027 18:40:59.288           125.766              Murmansk1          3930.187
       219   02 Jun 2027 18:45:24.397   02 Jun 2027 18:45:35.902            11.505                Anadyr1           359.531
       220   02 Jun 2027 18:46:09.301   02 Jun 2027 18:46:22.361            13.060                Anadyr2           408.125
       221   02 Jun 2027 18:46:30.333   02 Jun 2027 18:47:02.442            32.109                Anadyr1          1003.406
       222   02 Jun 2027 18:47:46.844   02 Jun 2027 18:48:40.204            53.360                Anadyr1          1667.500
       223   02 Jun 2027 18:49:35.412   02 Jun 2027 18:50:13.991            38.579               Magadan1          1205.594
       224   02 Jun 2027 18:51:09.106   02 Jun 2027 18:51:22.837            13.731               Magadan2           429.094
       225   02 Jun 2027 18:51:56.322   02 Jun 2027 18:52:57.747            61.425               Magadan1          1919.531
       226   02 Jun 2027 18:54:50.867   02 Jun 2027 18:55:12.192            21.325               Magadan1           666.406
       227   02 Jun 2027 18:55:44.613   02 Jun 2027 18:55:52.776             8.163               Magadan1           255.094
       228   02 Jun 2027 18:56:46.587   02 Jun 2027 18:57:16.149            29.562               Magadan2           923.813
       229   02 Jun 2027 20:20:20.861   02 Jun 2027 20:22:27.850           126.989                Anadyr2          3968.406
       230   02 Jun 2027 20:22:33.569   02 Jun 2027 20:24:32.467           118.898                Anadyr1          3715.563
       231   02 Jun 2027 20:24:39.556   02 Jun 2027 20:25:08.877            29.321               Magadan1           916.281
       232   02 Jun 2027 20:25:27.819   02 Jun 2027 20:25:37.351             9.532                Norilsk           297.875
       233   02 Jun 2027 20:25:57.628   02 Jun 2027 20:26:29.092            31.464               Magadan2           983.250
       234   02 Jun 2027 20:26:52.629   02 Jun 2027 20:27:08.884            16.255                Norilsk           507.969
       235   02 Jun 2027 20:28:42.411   02 Jun 2027 20:28:54.720            12.309               Magadan2           384.656
       236   02 Jun 2027 20:29:32.369   02 Jun 2027 20:29:37.312             4.943               Magadan2           154.469
       237   02 Jun 2027 20:29:38.348   02 Jun 2027 20:30:16.181            37.833               Magadan2          1182.281
       238   02 Jun 2027 20:31:47.992   02 Jun 2027 20:32:13.802            25.810               Magadan1           806.563
       239   02 Jun 2027 20:32:51.056   02 Jun 2027 20:32:59.615             8.559               Magadan2           267.469
       240   02 Jun 2027 20:33:00.518   02 Jun 2027 20:33:08.057             7.539               Magadan1           235.594
       241   02 Jun 2027 20:33:15.037   02 Jun 2027 20:33:17.128             2.091               Magadan2            65.344
       242   02 Jun 2027 20:33:49.450   02 Jun 2027 20:34:26.511            37.061               Magadan2          1158.156
       243   02 Jun 2027 21:17:11.095   02 Jun 2027 21:17:32.232            21.137            RioGallegos           660.531
       244   02 Jun 2027 21:18:13.412   02 Jun 2027 21:18:32.571            19.159            RioGallegos           598.719
       245   02 Jun 2027 21:19:20.093   02 Jun 2027 21:20:04.703            44.610            RioGallegos          1394.063
       246   02 Jun 2027 21:20:56.587   02 Jun 2027 21:21:05.355             8.768            RioGallegos           274.000
       247   02 Jun 2027 21:21:51.089   02 Jun 2027 21:23:18.782            87.693            RioGallegos          2740.406
       248   02 Jun 2027 21:56:30.107   02 Jun 2027 21:56:40.643            10.536                Anadyr2           329.250
       249   02 Jun 2027 21:58:11.295   02 Jun 2027 21:58:20.921             9.626                Norilsk           300.813
       250   02 Jun 2027 21:58:40.167   02 Jun 2027 21:59:44.040            63.873                Norilsk          1996.031
       251   02 Jun 2027 22:00:41.300   02 Jun 2027 22:00:45.893             4.593               Magadan1           143.531
       252   02 Jun 2027 22:00:55.104   02 Jun 2027 22:01:19.212            24.108                Norilsk           753.375
       253   02 Jun 2027 22:01:57.408   02 Jun 2027 22:01:57.855             0.447                Norilsk            13.969
       254   02 Jun 2027 22:02:22.010   02 Jun 2027 22:02:36.781            14.771                Norilsk           461.594
       255   02 Jun 2027 22:02:52.382   02 Jun 2027 22:03:01.156             8.774                Norilsk           274.188
       256   02 Jun 2027 22:03:09.828   02 Jun 2027 22:03:24.249            14.421                Norilsk           450.656
       257   02 Jun 2027 22:04:02.798   02 Jun 2027 22:04:09.643             6.845               Magadan2           213.906
       258   02 Jun 2027 22:04:26.868   02 Jun 2027 22:04:58.407            31.539                Novosib           985.594
       259   02 Jun 2027 22:05:39.909   02 Jun 2027 22:05:55.285            15.376                Novosib           480.500
       260   02 Jun 2027 22:07:08.320   02 Jun 2027 22:08:06.105            57.785                Novosib          1805.781
       261   02 Jun 2027 22:10:52.264   02 Jun 2027 22:11:00.606             8.342                Irkutsk           260.687
       262   02 Jun 2027 22:11:50.185   02 Jun 2027 22:11:53.371             3.186                Irkutsk            99.563
       263   02 Jun 2027 22:12:46.342   02 Jun 2027 22:13:36.185            49.843                Irkutsk          1557.594
       264   02 Jun 2027 22:20:00.253   02 Jun 2027 22:20:12.644            12.391                Sumatra           387.219
       265   02 Jun 2027 22:22:49.373   02 Jun 2027 22:23:47.122            57.749                Sumatra          1804.656
       266   02 Jun 2027 22:26:19.979   02 Jun 2027 22:27:59.972            99.993                Sumatra          3124.781
       267   02 Jun 2027 23:32:24.172   02 Jun 2027 23:32:25.893             1.721                Anadyr2            53.781
       268   02 Jun 2027 23:32:34.964   02 Jun 2027 23:33:01.141            26.177                Anadyr1           818.031
       269   02 Jun 2027 23:34:08.231   02 Jun 2027 23:36:08.583           120.352                Norilsk          3761.000
       270   02 Jun 2027 23:36:24.885   02 Jun 2027 23:36:41.282            16.397               Magadan2           512.406
       271   02 Jun 2027 23:37:36.443   02 Jun 2027 23:38:19.033            42.590               Magadan1          1330.937
       272   02 Jun 2027 23:40:14.797   02 Jun 2027 23:40:30.346            15.549                Novosib           485.906
       273   02 Jun 2027 23:42:38.245   02 Jun 2027 23:42:53.446            15.201                Novosib           475.031
       274   02 Jun 2027 23:43:11.424   02 Jun 2027 23:44:05.709            54.285                Novosib          1696.406
       275   02 Jun 2027 23:46:32.577   02 Jun 2027 23:46:38.925             6.348                  Delhi           198.375
       276   02 Jun 2027 23:46:53.319   02 Jun 2027 23:47:20.847            27.528                  Delhi           860.250
       277   02 Jun 2027 23:50:14.975   02 Jun 2027 23:52:06.169           111.194                  Delhi          3474.812
       278   03 Jun 2027 00:33:58.977   03 Jun 2027 00:34:58.694            59.717            RioGallegos          1866.156
       279   03 Jun 2027 01:04:37.890   03 Jun 2027 01:05:05.691            27.801                Anadyr1           868.781
       280   03 Jun 2027 01:05:39.337   03 Jun 2027 01:06:18.429            39.092                Anadyr1          1221.625
       281   03 Jun 2027 01:08:55.582   03 Jun 2027 01:09:09.624            14.042                Anadyr1           438.813
       282   03 Jun 2027 01:09:34.330   03 Jun 2027 01:09:52.525            18.195                Anadyr2           568.594
       283   03 Jun 2027 01:10:07.740   03 Jun 2027 01:10:24.542            16.802                Norilsk           525.062
       284   03 Jun 2027 01:10:42.444   03 Jun 2027 01:12:01.489            79.045               Magadan2          2470.156
       285   03 Jun 2027 01:12:11.840   03 Jun 2027 01:12:12.103             0.263                Norilsk             8.219
       286   03 Jun 2027 01:12:29.908   03 Jun 2027 01:13:59.332            89.424              Murmansk2          2794.500
       287   03 Jun 2027 01:15:43.065   03 Jun 2027 01:15:58.841            15.776              Murmansk2           493.000
       288   03 Jun 2027 01:17:35.520   03 Jun 2027 01:18:07.256            31.736                Irkutsk           991.750
       289   03 Jun 2027 01:20:16.389   03 Jun 2027 01:21:23.142            66.753                 Moscow          2086.031
       290   03 Jun 2027 01:27:42.650   03 Jun 2027 01:28:23.008            40.358                  Delhi          1261.188
       291   03 Jun 2027 01:32:12.724   03 Jun 2027 01:32:25.546            12.822                  Delhi           400.688
       292   03 Jun 2027 02:37:40.595   03 Jun 2027 02:40:46.366           185.771                Anadyr1          5805.344
       293   03 Jun 2027 02:42:48.700   03 Jun 2027 02:44:19.376            90.676               Magadan1          2833.625
       294   03 Jun 2027 02:47:42.097   03 Jun 2027 02:48:07.560            25.463                Norilsk           795.719
       295   03 Jun 2027 02:48:15.287   03 Jun 2027 02:48:31.110            15.823              Murmansk2           494.469
       296   03 Jun 2027 02:49:48.078   03 Jun 2027 02:50:14.508            26.430              Murmansk2           825.938
       297   03 Jun 2027 02:50:37.579   03 Jun 2027 02:51:03.454            25.875                Novosib           808.594
       298   03 Jun 2027 02:52:05.846   03 Jun 2027 02:52:08.705             2.859                Novosib            89.344
       299   03 Jun 2027 02:52:11.697   03 Jun 2027 02:53:08.585            56.888                Novosib          1777.750
       300   03 Jun 2027 02:57:35.067   03 Jun 2027 02:58:27.510            52.443                Novosib          1638.844
       301   03 Jun 2027 03:00:14.780   03 Jun 2027 03:00:18.443             3.663              Murmansk2           114.469
       302   03 Jun 2027 03:01:05.833   03 Jun 2027 03:04:01.533           175.700                 Moscow          5490.625
       303   03 Jun 2027 03:15:59.236   03 Jun 2027 03:19:15.129           195.893               CapeTown          6121.656
       304   03 Jun 2027 03:22:22.061   03 Jun 2027 03:22:26.838             4.777               CapeTown           149.281
       305   03 Jun 2027 04:13:29.631   03 Jun 2027 04:13:49.591            19.960                Anadyr1           623.750
       306   03 Jun 2027 04:15:27.059   03 Jun 2027 04:15:30.575             3.516                Anadyr1           109.875
       307   03 Jun 2027 04:19:26.131   03 Jun 2027 04:19:40.978            14.847                Anadyr1           463.969
       308   03 Jun 2027 04:19:44.643   03 Jun 2027 04:21:16.605            91.962               Magadan1          2873.812
       309   03 Jun 2027 04:21:16.605   03 Jun 2027 04:21:50.167            33.562               Magadan2          1048.812
       310   03 Jun 2027 04:30:58.978   03 Jun 2027 04:32:01.058            62.080              Murmansk2          1940.000
       311   03 Jun 2027 04:32:46.981   03 Jun 2027 04:34:54.442           127.461              Murmansk2          3983.156
       312   03 Jun 2027 04:36:00.165   03 Jun 2027 04:36:00.222             0.057              Murmansk2             1.781
       313   03 Jun 2027 04:36:06.565   03 Jun 2027 04:36:20.158            13.593              Murmansk2           424.781
       314   03 Jun 2027 05:54:12.697   03 Jun 2027 05:54:41.073            28.376               Magadan2           886.750
       315   03 Jun 2027 05:54:44.548   03 Jun 2027 05:57:12.954           148.406                Anadyr2          4637.688
       316   03 Jun 2027 05:57:29.590   03 Jun 2027 05:58:20.435            50.845                Anadyr2          1588.906
       317   03 Jun 2027 05:58:50.539   03 Jun 2027 05:59:49.650            59.111                Anadyr2          1847.219
       318   03 Jun 2027 07:31:41.715   03 Jun 2027 07:33:40.768           119.053               Magadan1          3720.406
       319   03 Jun 2027 07:33:40.768   03 Jun 2027 07:34:14.776            34.008               Magadan2          1062.750
       320   03 Jun 2027 07:34:56.542   03 Jun 2027 07:36:32.530            95.988               Magadan2          2999.625
       321   03 Jun 2027 09:05:16.251   03 Jun 2027 09:07:04.842           108.591               Magadan1          3393.469
       322   03 Jun 2027 09:07:50.058   03 Jun 2027 09:08:17.873            27.815               Magadan1           869.219
       323   03 Jun 2027 09:08:22.397   03 Jun 2027 09:08:54.009            31.612               Magadan1           987.875
       324   03 Jun 2027 09:09:40.305   03 Jun 2027 09:11:29.412           109.107               Magadan1          3409.594
       325   03 Jun 2027 09:11:29.412   03 Jun 2027 09:11:36.533             7.121               Magadan2           222.531
       326   03 Jun 2027 09:11:51.404   03 Jun 2027 09:13:13.698            82.294              Murmansk2          2571.688
       327   03 Jun 2027 09:13:13.698   03 Jun 2027 09:14:08.031            54.333              Murmansk1          1697.906
       328   03 Jun 2027 09:47:00.065   03 Jun 2027 09:47:44.971            44.906            RioGallegos          1403.313
       329   03 Jun 2027 09:48:03.426   03 Jun 2027 09:48:25.745            22.319            RioGallegos           697.469
       330   03 Jun 2027 09:50:38.123   03 Jun 2027 09:50:48.892            10.769            RioGallegos           336.531
       331   03 Jun 2027 10:22:03.852   03 Jun 2027 10:24:54.132           170.280                Sumatra          5321.250
       332   03 Jun 2027 10:43:07.208   03 Jun 2027 10:43:11.148             3.940                Norilsk           123.125
       333   03 Jun 2027 10:43:20.051   03 Jun 2027 10:43:50.896            30.845                Novosib           963.906
       334   03 Jun 2027 10:43:53.528   03 Jun 2027 10:43:56.172             2.644                Novosib            82.625
       335   03 Jun 2027 10:44:03.125   03 Jun 2027 10:44:38.501            35.376                Novosib          1105.500
       336   03 Jun 2027 10:44:43.292   03 Jun 2027 10:45:21.145            37.853              Murmansk1          1182.906
       337   03 Jun 2027 10:45:21.145   03 Jun 2027 10:45:54.678            33.533              Murmansk2          1047.906
       338   03 Jun 2027 10:45:56.981   03 Jun 2027 10:45:59.770             2.789                Novosib            87.156
       339   03 Jun 2027 10:46:05.120   03 Jun 2027 10:46:37.056            31.936              Murmansk2           998.000
       340   03 Jun 2027 10:46:37.056   03 Jun 2027 10:47:32.068            55.012              Murmansk1          1719.125
       341   03 Jun 2027 10:47:52.373   03 Jun 2027 10:48:55.677            63.304                Novosib          1978.250
       342   03 Jun 2027 10:49:38.739   03 Jun 2027 10:50:01.443            22.704              Murmansk2           709.500
       343   03 Jun 2027 11:25:38.498   03 Jun 2027 11:25:46.377             7.879            RioGallegos           246.219
       344   03 Jun 2027 11:25:54.613   03 Jun 2027 11:26:34.194            39.581            RioGallegos          1236.906
       345   03 Jun 2027 11:28:10.353   03 Jun 2027 11:29:14.930            64.577            RioGallegos          2018.031
       346   03 Jun 2027 12:00:01.654   03 Jun 2027 12:00:07.540             5.886                Sumatra           183.938
       347   03 Jun 2027 12:02:48.654   03 Jun 2027 12:04:42.405           113.751                Sumatra          3554.719
       348   03 Jun 2027 12:13:37.771   03 Jun 2027 12:13:58.052            20.281                Novosib           633.781
       349   03 Jun 2027 12:14:31.985   03 Jun 2027 12:14:59.247            27.262                Novosib           851.938
       350   03 Jun 2027 12:16:25.830   03 Jun 2027 12:16:52.174            26.344                Novosib           823.250
       351   03 Jun 2027 12:17:16.422   03 Jun 2027 12:17:57.031            40.609                Novosib          1269.031
       352   03 Jun 2027 12:18:48.779   03 Jun 2027 12:19:10.463            21.684              Murmansk2           677.625
       353   03 Jun 2027 12:19:30.560   03 Jun 2027 12:19:59.122            28.562              Murmansk1           892.562
       354   03 Jun 2027 13:45:56.504   03 Jun 2027 13:48:54.262           177.758                  Delhi          5554.937
       355   03 Jun 2027 13:51:48.628   03 Jun 2027 13:52:51.856            63.228                 Moscow          1975.875
       356   03 Jun 2027 13:53:55.293   03 Jun 2027 13:55:57.512           122.219              Murmansk2          3819.344
       357   03 Jun 2027 13:56:09.819   03 Jun 2027 13:56:47.722            37.903                Novosib          1184.469
       358   03 Jun 2027 13:57:43.351   03 Jun 2027 13:57:48.631             5.280                Norilsk           165.000
       359   03 Jun 2027 13:58:42.645   03 Jun 2027 13:59:09.295            26.650                Norilsk           832.813
       360   03 Jun 2027 14:01:25.666   03 Jun 2027 14:01:41.708            16.042                Norilsk           501.313
       361   03 Jun 2027 15:06:09.010   03 Jun 2027 15:08:39.409           150.399               CapeTown          4699.969
       362   03 Jun 2027 15:11:30.085   03 Jun 2027 15:13:03.970            93.885               CapeTown          2933.906
       363   03 Jun 2027 15:28:04.378   03 Jun 2027 15:28:33.846            29.468                 Moscow           920.875
       364   03 Jun 2027 15:30:33.898   03 Jun 2027 15:31:16.908            43.010              Murmansk1          1344.062
       365   03 Jun 2027 15:39:01.348   03 Jun 2027 15:39:20.142            18.794              Murmansk1           587.313
       366   03 Jun 2027 15:45:15.662   03 Jun 2027 15:46:38.153            82.491                Anadyr2          2577.844
       367   03 Jun 2027 15:47:13.322   03 Jun 2027 15:47:47.741            34.419                Anadyr1          1075.594
       368   03 Jun 2027 15:48:07.034   03 Jun 2027 15:48:18.808            11.774                Anadyr1           367.938
       369   03 Jun 2027 15:48:34.284   03 Jun 2027 15:48:43.926             9.642                Anadyr1           301.313
       370   03 Jun 2027 15:49:06.407   03 Jun 2027 15:49:12.254             5.847                Anadyr2           182.719
       371   03 Jun 2027 16:39:55.173   03 Jun 2027 16:42:24.639           149.466               CapeTown          4670.812
       372   03 Jun 2027 17:09:18.034   03 Jun 2027 17:09:57.329            39.295              Murmansk1          1227.969
       373   03 Jun 2027 17:11:16.828   03 Jun 2027 17:12:45.121            88.293              Murmansk1          2759.156
       374   03 Jun 2027 17:20:34.647   03 Jun 2027 17:21:44.955            70.308                Anadyr2          2197.125
       375   03 Jun 2027 17:21:46.915   03 Jun 2027 17:21:56.036             9.121                Anadyr1           285.031
       376   03 Jun 2027 17:22:06.787   03 Jun 2027 17:22:28.436            21.649                Anadyr2           676.531
       377   03 Jun 2027 17:24:49.573   03 Jun 2027 17:25:22.672            33.099               Magadan1          1034.344
       378   03 Jun 2027 17:25:22.672   03 Jun 2027 17:26:15.756            53.084               Magadan2          1658.875
       379   03 Jun 2027 18:56:27.614   03 Jun 2027 19:01:29.681           302.067                Anadyr2          9439.594
       380   03 Jun 2027 19:01:44.306   03 Jun 2027 19:02:13.555            29.249                Anadyr2           914.031
       381   03 Jun 2027 19:02:15.777   03 Jun 2027 19:02:35.198            19.421               Magadan1           606.906
       382   03 Jun 2027 19:05:36.964   03 Jun 2027 19:05:38.522             1.558               Magadan2            48.687
       383   03 Jun 2027 19:05:58.257   03 Jun 2027 19:06:11.013            12.756               Magadan2           398.625
       384   03 Jun 2027 19:07:14.010   03 Jun 2027 19:07:36.208            22.198               Magadan2           693.687
       385   03 Jun 2027 19:09:35.445   03 Jun 2027 19:10:17.365            41.920               Magadan1          1310.000
       386   03 Jun 2027 20:32:21.477   03 Jun 2027 20:34:29.350           127.873                Anadyr2          3996.031
       387   03 Jun 2027 20:34:35.613   03 Jun 2027 20:35:36.169            60.556                Anadyr1          1892.375
       388   03 Jun 2027 20:35:37.776   03 Jun 2027 20:38:04.782           147.006               Magadan2          4593.938
       389   03 Jun 2027 20:38:54.470   03 Jun 2027 20:39:54.419            59.949                Norilsk          1873.406
       390   03 Jun 2027 20:41:29.487   03 Jun 2027 20:42:09.160            39.673                Irkutsk          1239.781
       391   03 Jun 2027 20:42:45.630   03 Jun 2027 20:43:22.731            37.101                Irkutsk          1159.406
       392   03 Jun 2027 21:26:39.494   03 Jun 2027 21:27:57.449            77.955            RioGallegos          2436.094
       393   03 Jun 2027 21:28:26.622   03 Jun 2027 21:29:15.815            49.193            RioGallegos          1537.281
       394   03 Jun 2027 22:09:14.445   03 Jun 2027 22:10:16.034            61.589                Anadyr1          1924.656
       395   03 Jun 2027 22:10:43.663   03 Jun 2027 22:12:52.364           128.701               Magadan1          4021.906
       396   03 Jun 2027 22:14:18.052   03 Jun 2027 22:15:00.162            42.110                Irkutsk          1315.938
       397   03 Jun 2027 22:15:23.730   03 Jun 2027 22:16:02.199            38.469                Irkutsk          1202.156
       398   03 Jun 2027 22:16:16.079   03 Jun 2027 22:17:45.922            89.843                Novosib          2807.594
       399   03 Jun 2027 22:27:59.734   03 Jun 2027 22:28:42.533            42.799                Sumatra          1337.469
       400   03 Jun 2027 22:36:06.776   03 Jun 2027 22:36:30.643            23.867                Sumatra           745.844
       401   03 Jun 2027 22:38:02.546   03 Jun 2027 22:38:36.345            33.799                Sumatra          1056.219
       402   03 Jun 2027 23:42:30.118   03 Jun 2027 23:44:24.151           114.033                Anadyr1          3563.531
       403   03 Jun 2027 23:44:38.475   03 Jun 2027 23:44:44.836             6.361                Anadyr2           198.781
       404   03 Jun 2027 23:44:49.228   03 Jun 2027 23:45:13.246            24.018                Anadyr2           750.562
       405   03 Jun 2027 23:46:10.376   03 Jun 2027 23:47:50.773           100.397                Norilsk          3137.406
       406   03 Jun 2027 23:48:01.127   03 Jun 2027 23:48:50.152            49.025               Magadan2          1532.031
       407   03 Jun 2027 23:50:06.495   03 Jun 2027 23:50:57.305            50.810                Novosib          1587.812
       408   03 Jun 2027 23:51:20.258   03 Jun 2027 23:51:33.895            13.637                Novosib           426.156
       409   03 Jun 2027 23:52:31.463   03 Jun 2027 23:53:27.947            56.484                Novosib          1765.125
       410   03 Jun 2027 23:57:43.467   03 Jun 2027 23:58:33.467            50.000                  Delhi          1562.500
       411   03 Jun 2027 23:59:15.821   03 Jun 2027 23:59:30.519            14.698                  Delhi           459.312
       412   03 Jun 2027 23:59:56.478   04 Jun 2027 00:01:09.622            73.144                  Delhi          2285.750
       413   04 Jun 2027 01:15:57.633   04 Jun 2027 01:16:05.787             8.154                Anadyr1           254.812
       414   04 Jun 2027 01:16:06.003   04 Jun 2027 01:16:58.193            52.190                Anadyr1          1630.937
       415   04 Jun 2027 01:18:30.292   04 Jun 2027 01:19:07.311            37.019                Anadyr1          1156.844
       416   04 Jun 2027 01:21:34.700   04 Jun 2027 01:21:49.973            15.273                Anadyr1           477.281
       417   04 Jun 2027 01:22:06.509   04 Jun 2027 01:24:03.645           117.136               Magadan1          3660.500
       418   04 Jun 2027 01:24:27.956   04 Jun 2027 01:24:47.867            19.911              Murmansk1           622.219
       419   04 Jun 2027 01:25:55.888   04 Jun 2027 01:26:18.014            22.126              Murmansk1           691.438
       420   04 Jun 2027 01:26:20.231   04 Jun 2027 01:28:12.318           112.087                Novosib          3502.719
       421   04 Jun 2027 01:28:57.243   04 Jun 2027 01:29:24.275            27.032                 Moscow           844.750
       422   04 Jun 2027 01:31:19.313   04 Jun 2027 01:31:34.878            15.565                 Moscow           486.406
       423   04 Jun 2027 01:34:17.455   04 Jun 2027 01:34:40.869            23.414                  Delhi           731.687
       424   04 Jun 2027 01:40:07.995   04 Jun 2027 01:41:13.931            65.936                  Delhi          2060.500
       425   04 Jun 2027 02:49:26.576   04 Jun 2027 02:51:58.084           151.508                Anadyr2          4734.625
       426   04 Jun 2027 02:52:38.529   04 Jun 2027 02:53:02.574            24.045                Anadyr1           751.406
       427   04 Jun 2027 02:54:16.441   04 Jun 2027 02:54:57.517            41.076               Magadan2          1283.625
       428   04 Jun 2027 02:55:13.174   04 Jun 2027 02:55:43.682            30.508               Magadan2           953.375
       429   04 Jun 2027 02:57:54.680   04 Jun 2027 02:58:27.588            32.908                Norilsk          1028.375
       430   04 Jun 2027 03:06:49.701   04 Jun 2027 03:07:51.113            61.412              Murmansk1          1919.125
       431   04 Jun 2027 03:07:51.113   04 Jun 2027 03:10:19.452           148.339              Murmansk2          4635.594
       432   04 Jun 2027 03:10:40.915   04 Jun 2027 03:11:25.806            44.891                 Moscow          1402.844
       433   04 Jun 2027 03:11:38.780   04 Jun 2027 03:12:33.419            54.639              Murmansk2          1707.469
       434   04 Jun 2027 03:13:09.493   04 Jun 2027 03:16:13.425           183.932                 Moscow          5747.875
       435   04 Jun 2027 03:27:43.929   04 Jun 2027 03:30:28.665           164.736               CapeTown          5148.000
       436   04 Jun 2027 03:31:12.043   04 Jun 2027 03:32:09.908            57.865               CapeTown          1808.281
       437   04 Jun 2027 03:32:38.876   04 Jun 2027 03:34:02.585            83.709               CapeTown          2615.906
       438   04 Jun 2027 04:24:09.684   04 Jun 2027 04:25:30.922            81.238                Anadyr1          2538.687
       439   04 Jun 2027 04:25:30.922   04 Jun 2027 04:26:38.610            67.688                Anadyr2          2115.250
       440   04 Jun 2027 04:31:01.829   04 Jun 2027 04:31:52.736            50.907               Magadan2          1590.844
       441   04 Jun 2027 04:31:58.173   04 Jun 2027 04:33:18.639            80.466                Anadyr1          2514.563
       442   04 Jun 2027 04:33:18.639   04 Jun 2027 04:33:43.807            25.168                Anadyr2           786.500
       443   04 Jun 2027 04:43:20.685   04 Jun 2027 04:43:40.134            19.449              Murmansk1           607.781
       444   04 Jun 2027 04:43:40.134   04 Jun 2027 04:43:49.974             9.840              Murmansk2           307.500
       445   04 Jun 2027 04:45:49.007   04 Jun 2027 04:45:51.176             2.169              Murmansk1            67.781
       446   04 Jun 2027 04:46:10.132   04 Jun 2027 04:46:42.530            32.398              Murmansk1          1012.438
       447   04 Jun 2027 04:48:36.666   04 Jun 2027 04:49:12.329            35.663              Murmansk2          1114.469
       448   04 Jun 2027 05:04:35.854   04 Jun 2027 05:04:47.368            11.514               CapeTown           359.812
       449   04 Jun 2027 06:05:18.942   04 Jun 2027 06:05:30.370            11.428                Anadyr2           357.125
       450   04 Jun 2027 06:06:05.907   04 Jun 2027 06:10:28.648           262.741               Magadan2          8210.656
       451   04 Jun 2027 06:10:28.648   04 Jun 2027 06:11:34.522            65.874               Magadan1          2058.562
       452   04 Jun 2027 06:11:57.329   04 Jun 2027 06:12:35.342            38.013                Anadyr1          1187.906
       453   04 Jun 2027 07:42:00.966   04 Jun 2027 07:43:29.355            88.389                Anadyr1          2762.156
       454   04 Jun 2027 07:43:39.932   04 Jun 2027 07:45:27.112           107.180               Magadan2          3349.375
       455   04 Jun 2027 07:45:27.733   04 Jun 2027 07:46:25.150            57.417                Anadyr1          1794.281
       456   04 Jun 2027 07:46:58.624   04 Jun 2027 07:47:06.629             8.005               Magadan1           250.156
       457   04 Jun 2027 07:47:11.218   04 Jun 2027 07:47:47.600            36.382                Anadyr2          1136.938
       458   04 Jun 2027 07:47:47.600   04 Jun 2027 07:48:14.208            26.608                Anadyr1           831.500
       459   04 Jun 2027 07:48:28.076   04 Jun 2027 07:48:49.614            21.538              Murmansk1           673.063
       460   04 Jun 2027 07:50:17.782   04 Jun 2027 07:50:19.020             1.238              Murmansk1            38.687
       461   04 Jun 2027 07:51:12.576   04 Jun 2027 07:51:29.094            16.518              Murmansk2           516.187
       462   04 Jun 2027 07:54:55.225   04 Jun 2027 07:55:10.787            15.562              Murmansk2           486.313
       463   04 Jun 2027 07:56:46.195   04 Jun 2027 07:57:24.396            38.201              Murmansk1          1193.781
       464   04 Jun 2027 08:24:01.379   04 Jun 2027 08:24:22.123            20.744            RioGallegos           648.250
       465   04 Jun 2027 08:32:41.531   04 Jun 2027 08:33:08.587            27.056            RioGallegos           845.500
       466   04 Jun 2027 09:17:14.986   04 Jun 2027 09:17:22.669             7.683                Irkutsk           240.094
       467   04 Jun 2027 09:17:29.118   04 Jun 2027 09:17:47.835            18.717                Norilsk           584.906
       468   04 Jun 2027 09:17:56.272   04 Jun 2027 09:18:14.937            18.665                Novosib           583.281
       469   04 Jun 2027 09:18:22.214   04 Jun 2027 09:18:24.393             2.179                Norilsk            68.094
       470   04 Jun 2027 09:18:35.520   04 Jun 2027 09:20:00.783            85.263                Irkutsk          2664.469
       471   04 Jun 2027 09:20:10.044   04 Jun 2027 09:20:42.844            32.800               Magadan1          1025.000
       472   04 Jun 2027 09:20:51.419   04 Jun 2027 09:21:34.672            43.253                Novosib          1351.656
       473   04 Jun 2027 09:21:40.474   04 Jun 2027 09:22:10.962            30.488                Irkutsk           952.750
       474   04 Jun 2027 09:22:16.237   04 Jun 2027 09:22:37.418            21.181              Murmansk2           661.906
       475   04 Jun 2027 09:22:41.380   04 Jun 2027 09:22:58.414            17.034              Murmansk1           532.312
       476   04 Jun 2027 09:23:00.659   04 Jun 2027 09:23:10.621             9.962                Norilsk           311.313
       477   04 Jun 2027 09:23:15.099   04 Jun 2027 09:23:41.306            26.207              Murmansk1           818.969
       478   04 Jun 2027 09:23:44.124   04 Jun 2027 09:24:05.029            20.905                Irkutsk           653.281
       479   04 Jun 2027 09:24:10.092   04 Jun 2027 09:24:48.395            38.303              Murmansk1          1196.969
       480   04 Jun 2027 09:28:44.473   04 Jun 2027 09:28:46.886             2.413                Norilsk            75.406
       481   04 Jun 2027 09:31:10.579   04 Jun 2027 09:31:33.499            22.920              Murmansk1           716.250
       482   04 Jun 2027 09:59:06.724   04 Jun 2027 09:59:29.587            22.863            RioGallegos           714.469
