uniorb/output/strategy_1/Drop/Drop_KinoSat_111404.txt

KinoSat_111404
-------------------------
    Access    *     Start Time (UTCG)     *     Stop Time (UTCG)  *   Duration (s)        *       Station  *  Data (Mbytes)
         1   01 Jun 2027 03:35:27.622   01 Jun 2027 03:36:40.428            72.806                 Moscow          2275.188
         2   01 Jun 2027 03:36:41.932   01 Jun 2027 03:39:55.263           193.331              Murmansk2          6041.594
         3   01 Jun 2027 03:56:49.956   01 Jun 2027 03:57:11.363            21.407               CapeTown           668.969
         4   01 Jun 2027 03:58:28.974   01 Jun 2027 03:58:39.453            10.479               CapeTown           327.469
         5   01 Jun 2027 03:59:01.106   01 Jun 2027 03:59:20.300            19.194               CapeTown           599.812
         6   01 Jun 2027 04:01:17.298   01 Jun 2027 04:01:42.654            25.356               CapeTown           792.375
         7   01 Jun 2027 04:02:23.461   01 Jun 2027 04:02:28.493             5.032               CapeTown           157.250
         8   01 Jun 2027 04:03:26.008   01 Jun 2027 04:04:26.948            60.940               CapeTown          1904.375
         9   01 Jun 2027 04:58:06.697   01 Jun 2027 04:58:17.098            10.401               Magadan2           325.031
        10   01 Jun 2027 04:58:41.223   01 Jun 2027 04:58:57.034            15.811                Anadyr2           494.094
        11   01 Jun 2027 04:59:13.177   01 Jun 2027 05:00:26.117            72.940                Anadyr2          2279.375
        12   01 Jun 2027 05:00:53.479   01 Jun 2027 05:01:02.720             9.241                Anadyr2           288.781
        13   01 Jun 2027 05:03:12.797   01 Jun 2027 05:03:29.125            16.328                Anadyr1           510.250
        14   01 Jun 2027 05:10:34.074   01 Jun 2027 05:11:44.526            70.452              Murmansk2          2201.625
        15   01 Jun 2027 05:11:44.526   01 Jun 2027 05:14:53.571           189.045              Murmansk1          5907.656
        16   01 Jun 2027 05:14:53.571   01 Jun 2027 05:15:11.946            18.375              Murmansk2           574.219
        17   01 Jun 2027 05:15:33.982   01 Jun 2027 05:16:17.794            43.812              Murmansk1          1369.125
        18   01 Jun 2027 06:33:42.349   01 Jun 2027 06:34:22.763            40.414                Anadyr1          1262.938
        19   01 Jun 2027 06:34:41.608   01 Jun 2027 06:37:58.030           196.422               Magadan2          6138.188
        20   01 Jun 2027 06:37:59.755   01 Jun 2027 06:39:18.686            78.931                Anadyr2          2466.594
        21   01 Jun 2027 08:09:05.572   01 Jun 2027 08:12:10.465           184.893               Magadan1          5777.906
        22   01 Jun 2027 08:12:35.055   01 Jun 2027 08:15:31.178           176.123                Anadyr1          5503.844
        23   01 Jun 2027 08:51:16.466   01 Jun 2027 08:51:37.444            20.978            RioGallegos           655.563
        24   01 Jun 2027 08:52:11.926   01 Jun 2027 08:52:42.980            31.054            RioGallegos           970.438
        25   01 Jun 2027 08:55:28.773   01 Jun 2027 08:55:56.055            27.282            RioGallegos           852.563
        26   01 Jun 2027 09:44:02.923   01 Jun 2027 09:44:54.103            51.180               Magadan2          1599.375
        27   01 Jun 2027 09:46:20.433   01 Jun 2027 09:49:01.971           161.538               Magadan1          5048.062
        28   01 Jun 2027 09:49:01.971   01 Jun 2027 09:50:35.220            93.249               Magadan2          2914.031
        29   01 Jun 2027 09:51:04.844   01 Jun 2027 09:51:14.757             9.913              Murmansk2           309.781
        30   01 Jun 2027 09:51:16.035   01 Jun 2027 09:52:13.626            57.591                Norilsk          1799.719
        31   01 Jun 2027 10:27:50.403   01 Jun 2027 10:28:22.194            31.791            RioGallegos           993.469
        32   01 Jun 2027 11:01:15.130   01 Jun 2027 11:04:05.910           170.780                Sumatra          5336.875
        33   01 Jun 2027 11:22:06.632   01 Jun 2027 11:22:43.147            36.515                Irkutsk          1141.094
        34   01 Jun 2027 11:23:35.894   01 Jun 2027 11:25:02.824            86.930                Irkutsk          2716.563
        35   01 Jun 2027 11:25:19.191   01 Jun 2027 11:27:25.219           126.028                Irkutsk          3938.375
        36   01 Jun 2027 12:10:31.336   01 Jun 2027 12:10:36.289             4.953            RioGallegos           154.781
        37   01 Jun 2027 12:41:16.724   01 Jun 2027 12:44:16.727           180.003                Sumatra          5625.094
        38   01 Jun 2027 12:53:08.035   01 Jun 2027 12:53:52.599            44.564                Novosib          1392.625
        39   01 Jun 2027 12:57:11.850   01 Jun 2027 12:59:02.138           110.288                Norilsk          3446.500
        40   01 Jun 2027 12:59:56.023   01 Jun 2027 12:59:59.515             3.492                Irkutsk           109.125
        41   01 Jun 2027 13:01:06.516   01 Jun 2027 13:01:32.029            25.513                Norilsk           797.281
        42   01 Jun 2027 14:29:51.742   01 Jun 2027 14:32:18.727           146.985                 Moscow          4593.281
        43   01 Jun 2027 14:32:47.541   01 Jun 2027 14:33:07.865            20.324                 Moscow           635.125
        44   01 Jun 2027 14:33:15.689   01 Jun 2027 14:35:42.985           147.296              Murmansk1          4603.000
        45   01 Jun 2027 14:36:52.414   01 Jun 2027 14:38:13.467            81.053                Norilsk          2532.906
        46   01 Jun 2027 14:40:45.224   01 Jun 2027 14:42:23.971            98.747                Norilsk          3085.844
        47   01 Jun 2027 15:44:42.716   01 Jun 2027 15:45:54.930            72.214               CapeTown          2256.688
        48   01 Jun 2027 15:50:59.332   01 Jun 2027 15:51:35.961            36.629               CapeTown          1144.656
        49   01 Jun 2027 16:06:56.817   01 Jun 2027 16:07:24.459            27.642                 Moscow           863.813
        50   01 Jun 2027 16:08:40.182   01 Jun 2027 16:09:16.607            36.425                 Moscow          1138.281
        51   01 Jun 2027 16:10:11.033   01 Jun 2027 16:11:55.414           104.381              Murmansk2          3261.906
        52   01 Jun 2027 16:13:19.367   01 Jun 2027 16:14:19.035            59.668              Murmansk1          1864.625
        53   01 Jun 2027 16:24:24.493   01 Jun 2027 16:25:48.063            83.570                Anadyr2          2611.563
        54   01 Jun 2027 16:27:00.602   01 Jun 2027 16:27:27.678            27.076                Anadyr1           846.125
        55   01 Jun 2027 17:19:17.409   01 Jun 2027 17:21:32.861           135.452               CapeTown          4232.875
        56   01 Jun 2027 17:49:18.510   01 Jun 2027 17:50:09.105            50.595              Murmansk2          1581.094
        57   01 Jun 2027 17:50:16.195   01 Jun 2027 17:54:19.054           242.859              Murmansk1          7589.344
        58   01 Jun 2027 17:59:53.787   01 Jun 2027 17:59:58.419             4.632                Anadyr1           144.750
        59   01 Jun 2027 18:03:30.894   01 Jun 2027 18:05:35.178           124.284               Magadan1          3883.875
        60   01 Jun 2027 19:01:21.019   01 Jun 2027 19:02:28.017            66.998               CapeTown          2093.688
        61   01 Jun 2027 19:35:48.369   01 Jun 2027 19:39:33.884           225.515                Anadyr1          7047.344
        62   01 Jun 2027 19:39:39.379   01 Jun 2027 19:41:16.897            97.518               Magadan1          3047.437
        63   01 Jun 2027 19:41:16.897   01 Jun 2027 19:41:18.384             1.487               Magadan2            46.469
        64   01 Jun 2027 19:41:38.053   01 Jun 2027 19:42:48.851            70.798               Magadan2          2212.437
        65   01 Jun 2027 21:11:40.768   01 Jun 2027 21:14:14.479           153.711                Anadyr1          4803.469
        66   01 Jun 2027 21:14:19.085   01 Jun 2027 21:17:02.981           163.896               Magadan1          5121.750
        67   01 Jun 2027 21:17:13.223   01 Jun 2027 21:17:43.095            29.872               Magadan2           933.500
        68   01 Jun 2027 21:17:43.095   01 Jun 2027 21:17:48.142             5.047               Magadan1           157.719
        69   01 Jun 2027 21:19:19.001   01 Jun 2027 21:20:05.305            46.304                Norilsk          1447.000
        70   01 Jun 2027 21:20:52.578   01 Jun 2027 21:21:41.681            49.103                Irkutsk          1534.469
        71   01 Jun 2027 21:22:31.784   01 Jun 2027 21:23:15.919            44.135                Irkutsk          1379.219
        72   01 Jun 2027 21:25:25.516   01 Jun 2027 21:25:31.178             5.662                Irkutsk           176.937
        73   01 Jun 2027 21:36:13.824   01 Jun 2027 21:36:54.689            40.865                Sumatra          1277.031
        74   01 Jun 2027 21:37:14.397   01 Jun 2027 21:39:26.132           131.735                Sumatra          4116.719
        75   01 Jun 2027 22:47:07.556   01 Jun 2027 22:49:33.668           146.112                Anadyr2          4566.000
        76   01 Jun 2027 22:49:43.781   01 Jun 2027 22:50:09.925            26.144                Norilsk           817.000
        77   01 Jun 2027 22:50:12.235   01 Jun 2027 22:51:42.766            90.531               Magadan2          2829.094
        78   01 Jun 2027 22:53:04.471   01 Jun 2027 22:53:30.529            26.058               Magadan1           814.312
        79   01 Jun 2027 22:54:36.091   01 Jun 2027 22:56:38.843           122.752                Novosib          3836.000
        80   01 Jun 2027 22:58:15.568   01 Jun 2027 22:59:08.193            52.625                Novosib          1644.531
        81   01 Jun 2027 23:07:14.522   01 Jun 2027 23:07:55.726            41.204                Sumatra          1287.625
        82   01 Jun 2027 23:46:56.496   01 Jun 2027 23:47:16.494            19.998            RioGallegos           624.937
        83   01 Jun 2027 23:51:05.329   01 Jun 2027 23:51:50.423            45.094            RioGallegos          1409.187
        84   02 Jun 2027 00:22:06.345   02 Jun 2027 00:23:04.538            58.193                Anadyr1          1818.531
        85   02 Jun 2027 00:23:04.538   02 Jun 2027 00:23:34.280            29.742                Anadyr2           929.438
        86   02 Jun 2027 00:24:05.923   02 Jun 2027 00:24:18.644            12.721                Anadyr1           397.531
        87   02 Jun 2027 00:25:31.700   02 Jun 2027 00:25:44.154            12.454                Norilsk           389.187
        88   02 Jun 2027 00:26:10.014   02 Jun 2027 00:27:36.671            86.657               Magadan1          2708.031
        89   02 Jun 2027 00:28:26.881   02 Jun 2027 00:28:44.109            17.228               Magadan1           538.375
        90   02 Jun 2027 00:29:01.368   02 Jun 2027 00:29:51.585            50.217               Magadan1          1569.281
        91   02 Jun 2027 00:29:54.215   02 Jun 2027 00:30:13.333            19.118              Murmansk2           597.437
        92   02 Jun 2027 00:30:13.333   02 Jun 2027 00:31:54.486           101.153              Murmansk1          3161.031
        93   02 Jun 2027 00:34:19.932   02 Jun 2027 00:36:23.198           123.266                Novosib          3852.063
        94   02 Jun 2027 01:18:10.903   02 Jun 2027 01:18:47.614            36.711            RioGallegos          1147.219
        95   02 Jun 2027 01:19:45.673   02 Jun 2027 01:19:58.110            12.437            RioGallegos           388.656
        96   02 Jun 2027 01:20:56.181   02 Jun 2027 01:21:20.402            24.221            RioGallegos           756.906
        97   02 Jun 2027 01:22:12.733   02 Jun 2027 01:22:32.305            19.572            RioGallegos           611.625
        98   02 Jun 2027 01:26:22.897   02 Jun 2027 01:26:30.612             7.715            RioGallegos           241.094
        99   02 Jun 2027 01:54:53.646   02 Jun 2027 01:55:04.011            10.365                Anadyr1           323.906
       100   02 Jun 2027 01:55:18.726   02 Jun 2027 01:55:53.080            34.354                Anadyr1          1073.562
       101   02 Jun 2027 01:56:27.249   02 Jun 2027 01:56:48.881            21.632                Anadyr1           676.000
       102   02 Jun 2027 01:57:16.154   02 Jun 2027 01:57:51.684            35.530                Anadyr1          1110.312
       103   02 Jun 2027 01:59:45.541   02 Jun 2027 01:59:59.338            13.797                Anadyr1           431.156
       104   02 Jun 2027 02:00:38.138   02 Jun 2027 02:01:18.829            40.691                Anadyr2          1271.594
       105   02 Jun 2027 02:01:19.399   02 Jun 2027 02:01:22.144             2.745               Magadan2            85.781
       106   02 Jun 2027 02:01:29.414   02 Jun 2027 02:01:41.909            12.495                Norilsk           390.469
       107   02 Jun 2027 02:01:48.499   02 Jun 2027 02:02:08.167            19.668               Magadan1           614.625
       108   02 Jun 2027 02:02:51.250   02 Jun 2027 02:03:13.907            22.657                Norilsk           708.031
       109   02 Jun 2027 02:03:20.201   02 Jun 2027 02:03:58.429            38.228               Magadan1          1194.625
       110   02 Jun 2027 02:04:29.512   02 Jun 2027 02:05:29.814            60.302              Murmansk1          1884.437
       111   02 Jun 2027 02:05:51.809   02 Jun 2027 02:06:05.406            13.597              Murmansk2           424.906
       112   02 Jun 2027 02:06:21.611   02 Jun 2027 02:06:34.543            12.932                Novosib           404.125
       113   02 Jun 2027 02:06:51.882   02 Jun 2027 02:07:31.799            39.917                Novosib          1247.406
       114   02 Jun 2027 02:10:55.492   02 Jun 2027 02:10:57.693             2.201                Irkutsk            68.781
       115   02 Jun 2027 02:12:28.279   02 Jun 2027 02:13:03.521            35.242                Novosib          1101.312
       116   02 Jun 2027 02:13:32.164   02 Jun 2027 02:13:34.604             2.440                  Delhi            76.250
       117   02 Jun 2027 02:14:08.272   02 Jun 2027 02:14:17.313             9.041                  Delhi           282.531
       118   02 Jun 2027 02:14:46.612   02 Jun 2027 02:15:01.210            14.598                  Delhi           456.188
       119   02 Jun 2027 02:18:54.244   02 Jun 2027 02:19:27.940            33.696                  Delhi          1053.000
       120   02 Jun 2027 02:36:26.977   02 Jun 2027 02:36:53.963            26.986               CapeTown           843.312
       121   02 Jun 2027 03:47:08.240   02 Jun 2027 03:49:21.752           133.512                Novosib          4172.250
       122   02 Jun 2027 03:49:35.486   02 Jun 2027 03:52:07.904           152.418              Murmansk1          4763.062
       123   02 Jun 2027 04:13:42.817   02 Jun 2027 04:13:51.059             8.242               CapeTown           257.562
       124   02 Jun 2027 04:14:44.390   02 Jun 2027 04:15:23.921            39.531               CapeTown          1235.344
       125   02 Jun 2027 04:16:52.733   02 Jun 2027 04:17:14.862            22.129               CapeTown           691.531
       126   02 Jun 2027 05:10:31.037   02 Jun 2027 05:12:30.294           119.257               Magadan2          3726.781
       127   02 Jun 2027 05:12:30.294   02 Jun 2027 05:12:57.897            27.603               Magadan1           862.594
       128   02 Jun 2027 05:13:06.085   02 Jun 2027 05:14:00.407            54.322               Magadan1          1697.563
       129   02 Jun 2027 05:14:43.039   02 Jun 2027 05:15:28.566            45.527               Magadan1          1422.719
       130   02 Jun 2027 05:15:44.951   02 Jun 2027 05:16:16.170            31.219                Anadyr1           975.594
       131   02 Jun 2027 05:22:10.714   02 Jun 2027 05:23:19.276            68.562                Norilsk          2142.563
       132   02 Jun 2027 06:44:51.434   02 Jun 2027 06:45:04.053            12.619                Anadyr2           394.344
       133   02 Jun 2027 06:45:09.281   02 Jun 2027 06:46:12.416            63.135               Magadan1          1972.969
       134   02 Jun 2027 06:46:12.416   02 Jun 2027 06:46:39.817            27.401               Magadan2           856.281
       135   02 Jun 2027 06:46:48.296   02 Jun 2027 06:48:05.290            76.994               Magadan1          2406.063
       136   02 Jun 2027 06:48:05.290   02 Jun 2027 06:48:10.490             5.200               Magadan2           162.500
       137   02 Jun 2027 06:48:15.868   02 Jun 2027 06:49:58.707           102.839               Magadan2          3213.719
       138   02 Jun 2027 06:49:58.707   02 Jun 2027 06:50:15.659            16.952               Magadan1           529.750
       139   02 Jun 2027 06:50:15.659   02 Jun 2027 06:50:57.978            42.319               Magadan2          1322.469
       140   02 Jun 2027 08:19:55.299   02 Jun 2027 08:20:31.826            36.527                Irkutsk          1141.469
       141   02 Jun 2027 08:20:41.423   02 Jun 2027 08:22:19.246            97.823                Irkutsk          3056.969
       142   02 Jun 2027 08:22:29.773   02 Jun 2027 08:22:59.043            29.270               Magadan2           914.688
       143   02 Jun 2027 08:23:39.138   02 Jun 2027 08:23:55.164            16.026                Irkutsk           500.813
       144   02 Jun 2027 08:24:02.113   02 Jun 2027 08:27:18.085           195.972                Anadyr2          6124.125
       145   02 Jun 2027 08:27:21.764   02 Jun 2027 08:27:53.412            31.648                Norilsk           989.000
       146   02 Jun 2027 08:28:27.940   02 Jun 2027 08:28:43.508            15.568                Norilsk           486.500
       147   02 Jun 2027 08:35:24.305   02 Jun 2027 08:35:32.840             8.535              Murmansk2           266.719
       148   02 Jun 2027 09:03:01.060   02 Jun 2027 09:04:03.720            62.660            RioGallegos          1958.125
       149   02 Jun 2027 09:05:33.303   02 Jun 2027 09:06:04.251            30.948            RioGallegos           967.125
       150   02 Jun 2027 09:41:11.884   02 Jun 2027 09:42:34.537            82.653                Sumatra          2582.906
       151   02 Jun 2027 09:56:58.593   02 Jun 2027 09:59:16.463           137.870               Magadan1          4308.438
       152   02 Jun 2027 09:59:16.463   02 Jun 2027 10:00:15.071            58.608               Magadan2          1831.500
       153   02 Jun 2027 10:01:13.451   02 Jun 2027 10:02:09.598            56.147               Magadan2          1754.594
       154   02 Jun 2027 10:02:29.968   02 Jun 2027 10:03:15.190            45.222              Murmansk2          1413.187
       155   02 Jun 2027 10:03:17.978   02 Jun 2027 10:03:54.754            36.776                Norilsk          1149.250
       156   02 Jun 2027 10:04:55.264   02 Jun 2027 10:05:14.663            19.399              Murmansk1           606.219
       157   02 Jun 2027 10:05:43.670   02 Jun 2027 10:06:14.124            30.454              Murmansk1           951.688
       158   02 Jun 2027 10:38:38.559   02 Jun 2027 10:39:47.104            68.545            RioGallegos          2142.031
       159   02 Jun 2027 10:42:13.907   02 Jun 2027 10:43:02.772            48.865            RioGallegos          1527.031
       160   02 Jun 2027 11:13:15.315   02 Jun 2027 11:13:30.895            15.580                Sumatra           486.875
       161   02 Jun 2027 11:15:23.447   02 Jun 2027 11:15:59.176            35.729                Sumatra          1116.531
       162   02 Jun 2027 11:16:24.195   02 Jun 2027 11:17:20.640            56.445                Sumatra          1763.906
       163   02 Jun 2027 11:34:55.200   02 Jun 2027 11:36:55.027           119.827                Norilsk          3744.594
       164   02 Jun 2027 11:36:57.987   02 Jun 2027 11:38:08.052            70.065                 Moscow          2189.531
       165   02 Jun 2027 11:38:15.295   02 Jun 2027 11:40:17.033           121.738                Novosib          3804.313
       166   02 Jun 2027 11:43:08.900   02 Jun 2027 11:43:22.935            14.035                Norilsk           438.594
       167   02 Jun 2027 11:44:17.826   02 Jun 2027 11:44:29.304            11.478              Murmansk2           358.687
       168   02 Jun 2027 12:19:12.777   02 Jun 2027 12:21:36.370           143.593            RioGallegos          4487.281
       169   02 Jun 2027 12:59:42.815   02 Jun 2027 13:00:31.672            48.857                  Delhi          1526.781
       170   02 Jun 2027 13:01:24.524   02 Jun 2027 13:02:08.269            43.745                  Delhi          1367.031
       171   02 Jun 2027 13:05:31.457   02 Jun 2027 13:05:49.611            18.154                Novosib           567.313
       172   02 Jun 2027 13:06:34.857   02 Jun 2027 13:06:59.684            24.827                Novosib           775.844
       173   02 Jun 2027 13:07:46.869   02 Jun 2027 13:08:24.086            37.217                Novosib          1163.031
       174   02 Jun 2027 13:09:33.294   02 Jun 2027 13:11:03.910            90.616                Norilsk          2831.750
       175   02 Jun 2027 13:11:15.019   02 Jun 2027 13:11:56.809            41.790                Norilsk          1305.938
       176   02 Jun 2027 13:13:08.799   02 Jun 2027 13:13:32.896            24.097                Norilsk           753.031
       177   02 Jun 2027 13:16:23.493   02 Jun 2027 13:16:28.018             4.525                Norilsk           141.406
       178   02 Jun 2027 13:17:32.691   02 Jun 2027 13:18:33.204            60.513                Norilsk          1891.031
       179   02 Jun 2027 14:41:50.990   02 Jun 2027 14:44:42.398           171.408                 Moscow          5356.500
       180   02 Jun 2027 14:44:55.756   02 Jun 2027 14:45:09.824            14.068                 Moscow           439.625
       181   02 Jun 2027 14:45:18.744   02 Jun 2027 14:48:38.931           200.187              Murmansk2          6255.844
       182   02 Jun 2027 14:49:35.558   02 Jun 2027 14:52:44.058           188.500                Norilsk          5890.625
       183   02 Jun 2027 15:57:01.535   02 Jun 2027 15:57:09.696             8.161               CapeTown           255.031
       184   02 Jun 2027 16:00:21.622   02 Jun 2027 16:01:17.228            55.606               CapeTown          1737.687
       185   02 Jun 2027 16:19:23.838   02 Jun 2027 16:20:05.628            41.790                 Moscow          1305.938
       186   02 Jun 2027 16:22:28.485   02 Jun 2027 16:22:56.007            27.522              Murmansk1           860.063
       187   02 Jun 2027 16:22:56.007   02 Jun 2027 16:23:44.354            48.347              Murmansk2          1510.844
       188   02 Jun 2027 16:26:17.976   02 Jun 2027 16:27:00.020            42.044              Murmansk1          1313.875
       189   02 Jun 2027 16:36:19.105   02 Jun 2027 16:37:48.171            89.066                Anadyr1          2783.313
       190   02 Jun 2027 16:37:57.580   02 Jun 2027 16:38:14.859            17.279                Anadyr2           539.969
       191   02 Jun 2027 16:38:49.826   02 Jun 2027 16:39:20.575            30.749                Anadyr2           960.906
       192   02 Jun 2027 16:45:34.296   02 Jun 2027 16:45:39.629             5.333                Anadyr1           166.656
       193   02 Jun 2027 16:45:39.682   02 Jun 2027 16:45:50.315            10.633                Anadyr2           332.281
       194   02 Jun 2027 17:31:23.373   02 Jun 2027 17:33:27.896           124.523               CapeTown          3891.344
       195   02 Jun 2027 17:40:07.119   02 Jun 2027 17:40:20.644            13.525               CapeTown           422.656
       196   02 Jun 2027 17:41:16.246   02 Jun 2027 17:41:33.768            17.522               CapeTown           547.562
       197   02 Jun 2027 17:42:41.977   02 Jun 2027 17:43:00.463            18.486               CapeTown           577.688
       198   02 Jun 2027 18:01:56.742   02 Jun 2027 18:06:18.278           261.536              Murmansk2          8173.000
       199   02 Jun 2027 18:11:54.585   02 Jun 2027 18:12:22.951            28.366                Anadyr2           886.437
       200   02 Jun 2027 18:13:06.756   02 Jun 2027 18:13:10.979             4.223                Anadyr2           131.969
       201   02 Jun 2027 18:13:29.108   02 Jun 2027 18:13:41.783            12.675                Anadyr2           396.094
       202   02 Jun 2027 18:15:12.041   02 Jun 2027 18:16:06.746            54.705               Magadan1          1709.531
       203   02 Jun 2027 18:16:27.236   02 Jun 2027 18:17:12.149            44.913               Magadan2          1403.531
       204   02 Jun 2027 19:47:49.975   02 Jun 2027 19:49:34.568           104.593                Anadyr2          3268.531
       205   02 Jun 2027 19:49:43.252   02 Jun 2027 19:51:35.207           111.955                Anadyr1          3498.594
       206   02 Jun 2027 19:51:48.619   02 Jun 2027 19:53:47.373           118.754               Magadan1          3711.062
       207   02 Jun 2027 19:53:47.373   02 Jun 2027 19:55:08.031            80.658               Magadan2          2520.563
       208   02 Jun 2027 19:56:59.750   02 Jun 2027 19:57:22.430            22.680               Magadan2           708.750
       209   02 Jun 2027 19:58:14.775   02 Jun 2027 19:58:31.737            16.962               Magadan2           530.063
       210   02 Jun 2027 19:58:31.737   02 Jun 2027 19:58:39.401             7.664               Magadan1           239.500
       211   02 Jun 2027 19:58:50.314   02 Jun 2027 19:59:11.673            21.359               Magadan1           667.469
       212   02 Jun 2027 20:01:32.416   02 Jun 2027 20:02:04.531            32.115               Magadan1          1003.594
       213   02 Jun 2027 20:44:53.187   02 Jun 2027 20:46:48.096           114.909            RioGallegos          3590.906
       214   02 Jun 2027 21:23:40.671   02 Jun 2027 21:26:15.704           155.033                Anadyr2          4844.781
       215   02 Jun 2027 21:26:19.691   02 Jun 2027 21:28:29.304           129.613               Magadan1          4050.406
       216   02 Jun 2027 21:29:09.045   02 Jun 2027 21:29:35.300            26.255               Magadan1           820.469
       217   02 Jun 2027 21:30:59.040   02 Jun 2027 21:31:27.091            28.051               Magadan1           876.594
       218   02 Jun 2027 21:32:09.822   02 Jun 2027 21:33:36.822            87.000                Irkutsk          2718.750
       219   02 Jun 2027 21:37:24.002   02 Jun 2027 21:37:50.237            26.235                Irkutsk           819.844
       220   02 Jun 2027 21:46:29.219   02 Jun 2027 21:48:16.784           107.565                Sumatra          3361.406
       221   02 Jun 2027 21:49:05.991   02 Jun 2027 21:49:11.508             5.517                Sumatra           172.406
       222   02 Jun 2027 21:52:00.420   02 Jun 2027 21:53:41.176           100.756                Sumatra          3148.625
       223   02 Jun 2027 22:59:01.793   02 Jun 2027 22:59:09.783             7.990                Anadyr2           249.688
       224   02 Jun 2027 22:59:33.018   02 Jun 2027 22:59:48.224            15.206                Anadyr1           475.187
       225   02 Jun 2027 22:59:48.224   02 Jun 2027 22:59:56.968             8.744                Anadyr2           273.250
       226   02 Jun 2027 23:00:21.155   02 Jun 2027 23:01:31.429            70.274                Anadyr2          2196.062
       227   02 Jun 2027 23:01:33.645   02 Jun 2027 23:02:01.383            27.738                Norilsk           866.813
       228   02 Jun 2027 23:02:09.340   02 Jun 2027 23:02:22.522            13.182               Magadan2           411.938
       229   02 Jun 2027 23:02:48.533   02 Jun 2027 23:03:25.083            36.550                Norilsk          1142.187
       230   02 Jun 2027 23:04:12.314   02 Jun 2027 23:04:58.651            46.337               Magadan1          1448.031
       231   02 Jun 2027 23:05:30.710   02 Jun 2027 23:06:40.333            69.623                Irkutsk          2175.719
       232   02 Jun 2027 23:08:48.435   02 Jun 2027 23:09:37.926            49.491                Novosib          1546.594
       233   02 Jun 2027 23:12:30.211   02 Jun 2027 23:13:27.861            57.650                Irkutsk          1801.562
       234   02 Jun 2027 23:15:15.298   02 Jun 2027 23:15:31.202            15.904                Novosib           497.000
       235   02 Jun 2027 23:16:24.353   02 Jun 2027 23:16:57.286            32.933                Irkutsk          1029.156
       236   02 Jun 2027 23:17:56.254   02 Jun 2027 23:18:28.303            32.049                  Delhi          1001.531
       237   02 Jun 2027 23:28:12.672   02 Jun 2027 23:28:34.806            22.134                Sumatra           691.688
       238   02 Jun 2027 23:28:51.875   02 Jun 2027 23:28:58.417             6.542                Sumatra           204.437
       239   02 Jun 2027 23:29:18.477   02 Jun 2027 23:31:12.801           114.324                Sumatra          3572.625
       240   03 Jun 2027 00:33:27.959   03 Jun 2027 00:34:07.459            39.500                Anadyr2          1234.375
       241   03 Jun 2027 00:35:11.762   03 Jun 2027 00:35:16.290             4.528                Anadyr1           141.500
       242   03 Jun 2027 00:35:17.410   03 Jun 2027 00:35:31.010            13.600                Anadyr1           425.000
       243   03 Jun 2027 00:35:44.531   03 Jun 2027 00:36:17.729            33.198                Anadyr2          1037.438
       244   03 Jun 2027 00:37:33.849   03 Jun 2027 00:37:45.268            11.419                Norilsk           356.844
       245   03 Jun 2027 00:38:10.802   03 Jun 2027 00:39:08.656            57.854               Magadan1          1807.937
       246   03 Jun 2027 00:39:57.956   03 Jun 2027 00:40:17.769            19.813               Magadan2           619.156
       247   03 Jun 2027 00:40:17.769   03 Jun 2027 00:40:28.038            10.269               Magadan1           320.906
       248   03 Jun 2027 00:40:43.428   03 Jun 2027 00:44:24.482           221.054              Murmansk2          6907.938
       249   03 Jun 2027 00:51:25.148   03 Jun 2027 00:52:04.086            38.938                Novosib          1216.812
       250   03 Jun 2027 00:55:36.539   03 Jun 2027 00:56:29.743            53.204                  Delhi          1662.625
       251   03 Jun 2027 00:58:17.540   03 Jun 2027 00:58:54.331            36.791                  Delhi          1149.719
       252   03 Jun 2027 01:32:31.896   03 Jun 2027 01:32:55.917            24.021            RioGallegos           750.656
       253   03 Jun 2027 01:33:36.299   03 Jun 2027 01:34:21.454            45.155            RioGallegos          1411.094
       254   03 Jun 2027 01:37:34.084   03 Jun 2027 01:38:14.528            40.444            RioGallegos          1263.875
       255   03 Jun 2027 02:06:35.033   03 Jun 2027 02:06:47.386            12.353                Anadyr1           386.031
       256   03 Jun 2027 02:08:14.649   03 Jun 2027 02:08:49.111            34.462                Anadyr2          1076.938
       257   03 Jun 2027 02:11:10.021   03 Jun 2027 02:11:38.020            27.999                Anadyr2           874.969
       258   03 Jun 2027 02:12:26.332   03 Jun 2027 02:12:41.890            15.558                Anadyr2           486.188
       259   03 Jun 2027 02:12:44.364   03 Jun 2027 02:13:04.020            19.656               Magadan2           614.250
       260   03 Jun 2027 02:13:12.794   03 Jun 2027 02:13:24.531            11.737               Magadan1           366.781
       261   03 Jun 2027 02:13:30.378   03 Jun 2027 02:13:44.374            13.996                Norilsk           437.375
       262   03 Jun 2027 02:14:44.769   03 Jun 2027 02:15:02.593            17.824                Norilsk           557.000
       263   03 Jun 2027 02:15:21.739   03 Jun 2027 02:15:57.631            35.892               Magadan1          1121.625
       264   03 Jun 2027 02:16:17.126   03 Jun 2027 02:17:10.904            53.778              Murmansk1          1680.562
       265   03 Jun 2027 02:17:25.859   03 Jun 2027 02:18:40.217            74.358                Novosib          2323.687
       266   03 Jun 2027 02:24:39.711   03 Jun 2027 02:24:41.471             1.760                 Moscow            55.000
       267   03 Jun 2027 02:25:24.874   03 Jun 2027 02:25:27.168             2.294              Murmansk1            71.687
       268   03 Jun 2027 02:25:38.113   03 Jun 2027 02:26:02.128            24.015                Novosib           750.469
       269   03 Jun 2027 02:27:08.739   03 Jun 2027 02:27:32.139            23.400                 Moscow           731.250
       270   03 Jun 2027 02:29:25.682   03 Jun 2027 02:29:47.136            21.454                 Moscow           670.438
       271   03 Jun 2027 02:31:54.678   03 Jun 2027 02:32:16.189            21.511                  Delhi           672.219
       272   03 Jun 2027 02:50:59.679   03 Jun 2027 02:51:45.942            46.263               CapeTown          1445.719
       273   03 Jun 2027 03:58:41.221   03 Jun 2027 03:59:19.349            38.128                Norilsk          1191.500
       274   03 Jun 2027 03:59:44.078   03 Jun 2027 03:59:54.101            10.023                Novosib           313.219
       275   03 Jun 2027 04:00:02.992   03 Jun 2027 04:04:18.677           255.685              Murmansk2          7990.156
       276   03 Jun 2027 04:05:29.426   03 Jun 2027 04:06:25.058            55.632                 Moscow          1738.500
       277   03 Jun 2027 05:22:36.246   03 Jun 2027 05:22:58.930            22.684                Anadyr1           708.875
       278   03 Jun 2027 05:22:58.930   03 Jun 2027 05:23:35.449            36.519                Anadyr2          1141.219
       279   03 Jun 2027 05:23:45.368   03 Jun 2027 05:26:27.689           162.321                Anadyr2          5072.531
       280   03 Jun 2027 05:27:00.055   03 Jun 2027 05:27:20.234            20.179               Magadan1           630.594
       281   03 Jun 2027 06:59:27.106   03 Jun 2027 06:59:55.131            28.025               Magadan2           875.781
       282   03 Jun 2027 07:00:08.482   03 Jun 2027 07:03:35.401           206.919               Magadan1          6466.219
       283   03 Jun 2027 07:07:45.553   03 Jun 2027 07:08:44.724            59.171                 Moscow          1849.094
       284   03 Jun 2027 08:33:14.233   03 Jun 2027 08:37:12.038           237.805               Magadan1          7431.406
       285   03 Jun 2027 08:37:12.038   03 Jun 2027 08:38:20.253            68.215               Magadan2          2131.719
       286   03 Jun 2027 08:38:20.253   03 Jun 2027 08:39:46.102            85.849               Magadan1          2682.781
       287   03 Jun 2027 10:09:36.969   03 Jun 2027 10:12:16.151           159.182               Magadan2          4974.438
       288   03 Jun 2027 10:12:16.151   03 Jun 2027 10:12:59.269            43.118               Magadan1          1347.438
       289   03 Jun 2027 10:13:38.664   03 Jun 2027 10:13:47.655             8.991                Irkutsk           280.969
       290   03 Jun 2027 10:13:48.567   03 Jun 2027 10:15:07.564            78.997              Murmansk1          2468.656
       291   03 Jun 2027 10:15:08.683   03 Jun 2027 10:15:46.300            37.617                Irkutsk          1175.531
       292   03 Jun 2027 10:50:53.644   03 Jun 2027 10:51:38.992            45.348            RioGallegos          1417.125
       293   03 Jun 2027 10:53:30.013   03 Jun 2027 10:53:40.365            10.352            RioGallegos           323.500
       294   03 Jun 2027 10:54:51.309   03 Jun 2027 10:55:28.577            37.268            RioGallegos          1164.625
       295   03 Jun 2027 11:25:58.003   03 Jun 2027 11:27:42.194           104.191                Sumatra          3255.969
       296   03 Jun 2027 11:45:49.620   03 Jun 2027 11:45:53.598             3.978                  Delhi           124.313
       297   03 Jun 2027 11:46:15.359   03 Jun 2027 11:47:23.133            67.774                Novosib          2117.937
       298   03 Jun 2027 11:47:27.097   03 Jun 2027 11:47:35.154             8.057              Murmansk2           251.781
       299   03 Jun 2027 11:47:45.747   03 Jun 2027 11:47:57.919            12.172                Irkutsk           380.375
       300   03 Jun 2027 11:48:09.459   03 Jun 2027 11:48:52.404            42.945                Norilsk          1342.031
       301   03 Jun 2027 11:48:54.628   03 Jun 2027 11:48:55.788             1.160              Murmansk1            36.250
       302   03 Jun 2027 11:48:56.498   03 Jun 2027 11:49:58.438            61.940                Irkutsk          1935.625
       303   03 Jun 2027 11:50:02.481   03 Jun 2027 11:50:56.664            54.183                Irkutsk          1693.219
       304   03 Jun 2027 11:51:04.095   03 Jun 2027 11:51:27.350            23.255                Novosib           726.719
       305   03 Jun 2027 11:51:38.119   03 Jun 2027 11:52:30.899            52.780                Norilsk          1649.375
       306   03 Jun 2027 11:53:06.858   03 Jun 2027 11:53:14.918             8.060                Novosib           251.875
       307   03 Jun 2027 11:53:40.636   03 Jun 2027 11:53:55.600            14.964                 Moscow           467.625
       308   03 Jun 2027 12:33:20.464   03 Jun 2027 12:35:05.506           105.042            RioGallegos          3282.563
       309   03 Jun 2027 13:09:53.710   03 Jun 2027 13:10:16.664            22.954                  Delhi           717.313
       310   03 Jun 2027 13:14:16.012   03 Jun 2027 13:14:42.878            26.866                  Delhi           839.562
       311   03 Jun 2027 13:17:40.576   03 Jun 2027 13:19:45.605           125.029                  Delhi          3907.156
       312   03 Jun 2027 13:19:50.258   03 Jun 2027 13:23:10.172           199.914                Novosib          6247.313
       313   03 Jun 2027 13:25:35.179   03 Jun 2027 13:26:49.470            74.291                Norilsk          2321.594
       314   03 Jun 2027 14:53:53.131   03 Jun 2027 14:57:52.002           238.871                 Moscow          7464.719
       315   03 Jun 2027 14:58:10.356   03 Jun 2027 14:58:39.567            29.211              Murmansk2           912.844
       316   03 Jun 2027 14:59:10.378   03 Jun 2027 15:00:04.527            54.149              Murmansk2          1692.156
       317   03 Jun 2027 15:02:23.356   03 Jun 2027 15:03:44.393            81.037                Norilsk          2532.406
       318   03 Jun 2027 15:04:41.768   03 Jun 2027 15:05:42.995            61.227                Norilsk          1913.344
       319   03 Jun 2027 16:07:59.610   03 Jun 2027 16:08:24.415            24.805               CapeTown           775.156
       320   03 Jun 2027 16:09:13.962   03 Jun 2027 16:09:36.260            22.298               CapeTown           696.813
       321   03 Jun 2027 16:13:29.269   03 Jun 2027 16:14:08.419            39.150               CapeTown          1223.437
       322   03 Jun 2027 16:18:06.802   03 Jun 2027 16:18:53.349            46.547               CapeTown          1454.594
       323   03 Jun 2027 16:19:18.169   03 Jun 2027 16:19:31.988            13.819               CapeTown           431.844
       324   03 Jun 2027 16:31:55.996   03 Jun 2027 16:32:30.486            34.490                 Moscow          1077.812
       325   03 Jun 2027 16:34:48.063   03 Jun 2027 16:35:53.489            65.426              Murmansk1          2044.562
       326   03 Jun 2027 16:40:44.898   03 Jun 2027 16:41:26.817            41.919              Murmansk1          1309.969
       327   03 Jun 2027 16:44:39.571   03 Jun 2027 16:45:10.063            30.492              Murmansk1           952.875
       328   03 Jun 2027 16:48:15.269   03 Jun 2027 16:49:48.647            93.378                Anadyr2          2918.063
       329   03 Jun 2027 16:51:25.080   03 Jun 2027 16:51:30.743             5.663                Anadyr2           176.969
       330   03 Jun 2027 16:53:24.913   03 Jun 2027 16:53:41.899            16.986                Anadyr1           530.813
       331   03 Jun 2027 16:55:23.408   03 Jun 2027 16:55:35.440            12.032                Anadyr2           376.000
       332   03 Jun 2027 16:56:21.206   03 Jun 2027 16:56:53.728            32.522                Anadyr2          1016.313
       333   03 Jun 2027 16:58:28.296   03 Jun 2027 16:58:36.147             7.851                Anadyr2           245.344
       334   03 Jun 2027 17:46:05.223   03 Jun 2027 17:47:03.250            58.027               CapeTown          1813.344
       335   03 Jun 2027 17:54:17.292   03 Jun 2027 17:54:28.874            11.582               CapeTown           361.938
       336   03 Jun 2027 18:14:38.885   03 Jun 2027 18:16:51.850           132.965              Murmansk2          4155.156
       337   03 Jun 2027 18:18:03.283   03 Jun 2027 18:20:08.764           125.481              Murmansk1          3921.281
       338   03 Jun 2027 18:26:58.604   03 Jun 2027 18:28:37.830            99.226               Magadan1          3100.813
       339   03 Jun 2027 18:31:35.117   03 Jun 2027 18:33:08.267            93.150               Magadan2          2910.937
       340   03 Jun 2027 19:59:51.509   03 Jun 2027 20:01:57.653           126.144                Anadyr2          3942.000
       341   03 Jun 2027 20:02:09.726   03 Jun 2027 20:05:26.290           196.564               Magadan2          6142.625
       342   03 Jun 2027 20:06:10.927   03 Jun 2027 20:06:27.073            16.146               Magadan1           504.562
       343   03 Jun 2027 20:06:59.476   03 Jun 2027 20:07:05.640             6.164               Magadan2           192.625
       344   03 Jun 2027 20:08:48.281   03 Jun 2027 20:09:09.847            21.566               Magadan1           673.938
       345   03 Jun 2027 20:12:37.778   03 Jun 2027 20:12:58.623            20.845               Magadan2           651.406
       346   03 Jun 2027 20:55:50.069   03 Jun 2027 20:58:26.950           156.881            RioGallegos          4902.531
       347   03 Jun 2027 21:01:20.477   03 Jun 2027 21:01:40.234            19.757            RioGallegos           617.406
       348   03 Jun 2027 21:35:40.137   03 Jun 2027 21:37:52.558           132.421                Anadyr1          4138.156
       349   03 Jun 2027 21:38:05.399   03 Jun 2027 21:39:38.313            92.914               Magadan2          2903.563
       350   03 Jun 2027 21:40:31.339   03 Jun 2027 21:40:45.708            14.369                Norilsk           449.031
       351   03 Jun 2027 21:40:49.983   03 Jun 2027 21:41:01.906            11.923               Magadan2           372.594
       352   03 Jun 2027 21:42:39.570   03 Jun 2027 21:43:26.009            46.439                Irkutsk          1451.219
       353   03 Jun 2027 21:45:43.402   03 Jun 2027 21:45:50.563             7.161                Irkutsk           223.781
       354   03 Jun 2027 21:46:54.304   03 Jun 2027 21:48:12.904            78.600                Irkutsk          2456.250
       355   03 Jun 2027 21:57:28.894   03 Jun 2027 21:57:55.296            26.402                Sumatra           825.062
       356   03 Jun 2027 21:59:01.647   03 Jun 2027 21:59:50.553            48.906                Sumatra          1528.312
       357   03 Jun 2027 22:03:00.335   03 Jun 2027 22:03:47.086            46.751                Sumatra          1460.969
       358   03 Jun 2027 22:41:01.337   03 Jun 2027 22:41:43.015            41.678            RioGallegos          1302.438
       359   03 Jun 2027 23:10:54.929   03 Jun 2027 23:11:18.021            23.092                Anadyr1           721.625
       360   03 Jun 2027 23:11:43.814   03 Jun 2027 23:12:09.023            25.209                Anadyr2           787.781
       361   03 Jun 2027 23:13:35.420   03 Jun 2027 23:15:27.101           111.681                Norilsk          3490.031
       362   03 Jun 2027 23:15:40.315   03 Jun 2027 23:17:16.432            96.117               Magadan2          3003.656
       363   03 Jun 2027 23:18:07.507   03 Jun 2027 23:18:20.908            13.401                Novosib           418.781
       364   03 Jun 2027 23:18:30.772   03 Jun 2027 23:20:47.727           136.955                Novosib          4279.844
       365   03 Jun 2027 23:27:49.048   03 Jun 2027 23:29:38.857           109.809                  Delhi          3431.531
       366   04 Jun 2027 00:14:25.565   04 Jun 2027 00:15:15.325            49.760            RioGallegos          1555.000
       367   04 Jun 2027 00:44:59.777   04 Jun 2027 00:45:09.765             9.988                Anadyr2           312.125
       368   04 Jun 2027 00:45:29.092   04 Jun 2027 00:46:08.687            39.595                Anadyr1          1237.344
       369   04 Jun 2027 00:47:12.544   04 Jun 2027 00:47:26.833            14.289                Anadyr1           446.531
       370   04 Jun 2027 00:49:35.940   04 Jun 2027 00:49:46.751            10.811                Norilsk           337.844
       371   04 Jun 2027 00:50:10.655   04 Jun 2027 00:51:14.909            64.254               Magadan2          2007.937
       372   04 Jun 2027 00:51:14.909   04 Jun 2027 00:52:01.718            46.809               Magadan1          1462.781
       373   04 Jun 2027 00:52:13.981   04 Jun 2027 00:53:08.635            54.654               Magadan1          1707.937
       374   04 Jun 2027 00:53:23.366   04 Jun 2027 00:54:28.441            65.075                Novosib          2033.594
       375   04 Jun 2027 00:57:20.382   04 Jun 2027 00:57:51.683            31.301                Novosib           978.156
       376   04 Jun 2027 01:00:25.383   04 Jun 2027 01:00:58.937            33.554                Novosib          1048.562
       377   04 Jun 2027 01:02:53.955   04 Jun 2027 01:03:04.674            10.719                Novosib           334.969
       378   04 Jun 2027 01:03:31.673   04 Jun 2027 01:03:53.805            22.132                Novosib           691.625
       379   04 Jun 2027 01:07:41.738   04 Jun 2027 01:08:47.935            66.197                  Delhi          2068.656
       380   04 Jun 2027 01:42:43.434   04 Jun 2027 01:44:02.762            79.328            RioGallegos          2479.000
       381   04 Jun 2027 02:18:16.873   04 Jun 2027 02:18:18.617             1.744                Anadyr1            54.500
       382   04 Jun 2027 02:18:36.907   04 Jun 2027 02:19:50.699            73.792                Anadyr2          2306.000
       383   04 Jun 2027 02:20:49.651   04 Jun 2027 02:21:12.977            23.326                Anadyr1           728.938
       384   04 Jun 2027 02:24:15.862   04 Jun 2027 02:24:38.452            22.590                Anadyr2           705.937
       385   04 Jun 2027 02:25:04.002   04 Jun 2027 02:25:36.643            32.641               Magadan1          1020.031
       386   04 Jun 2027 02:25:46.831   04 Jun 2027 02:25:55.256             8.425                Norilsk           263.281
       387   04 Jun 2027 02:26:04.066   04 Jun 2027 02:26:51.087            47.021                Norilsk          1469.406
       388   04 Jun 2027 02:27:45.621   04 Jun 2027 02:28:56.537            70.916              Murmansk1          2216.125
       389   04 Jun 2027 02:29:30.569   04 Jun 2027 02:29:39.596             9.027                Novosib           282.094
       390   04 Jun 2027 02:30:54.250   04 Jun 2027 02:31:34.433            40.183                Novosib          1255.719
       391   04 Jun 2027 02:34:29.243   04 Jun 2027 02:34:32.182             2.939                Novosib            91.844
       392   04 Jun 2027 02:35:06.134   04 Jun 2027 02:35:18.763            12.629                Irkutsk           394.656
       393   04 Jun 2027 02:37:09.640   04 Jun 2027 02:37:25.851            16.211                Novosib           506.594
       394   04 Jun 2027 02:41:06.023   04 Jun 2027 02:41:30.591            24.568                 Moscow           767.750
       395   04 Jun 2027 02:43:13.731   04 Jun 2027 02:43:38.723            24.992                  Delhi           781.000
       396   04 Jun 2027 02:44:42.432   04 Jun 2027 02:44:51.689             9.257                  Delhi           289.281
       397   04 Jun 2027 03:01:14.470   04 Jun 2027 03:02:44.421            89.951               CapeTown          2810.969
       398   04 Jun 2027 04:11:13.743   04 Jun 2027 04:11:53.687            39.944                Novosib          1248.250
       399   04 Jun 2027 04:12:17.481   04 Jun 2027 04:12:36.335            18.854                Novosib           589.187
       400   04 Jun 2027 04:12:57.767   04 Jun 2027 04:16:27.637           209.870              Murmansk1          6558.437
       401   04 Jun 2027 04:18:39.724   04 Jun 2027 04:19:29.777            50.053                 Moscow          1564.156
       402   04 Jun 2027 04:33:24.194   04 Jun 2027 04:34:01.170            36.976               CapeTown          1155.500
       403   04 Jun 2027 04:34:53.357   04 Jun 2027 04:35:03.950            10.593               CapeTown           331.031
       404   04 Jun 2027 04:35:36.844   04 Jun 2027 04:35:53.216            16.372               CapeTown           511.625
       405   04 Jun 2027 04:36:19.824   04 Jun 2027 04:36:40.547            20.723               CapeTown           647.594
       406   04 Jun 2027 04:37:34.305   04 Jun 2027 04:39:36.921           122.616               CapeTown          3831.750
       407   04 Jun 2027 05:34:52.008   04 Jun 2027 05:35:56.337            64.329               Magadan1          2010.281
       408   04 Jun 2027 05:35:56.337   04 Jun 2027 05:37:11.587            75.250               Magadan2          2351.562
       409   04 Jun 2027 05:37:17.076   04 Jun 2027 05:38:15.836            58.760                Anadyr2          1836.250
       410   04 Jun 2027 05:38:22.947   04 Jun 2027 05:39:15.074            52.127                Anadyr2          1628.969
       411   04 Jun 2027 05:40:07.555   04 Jun 2027 05:40:28.058            20.503                Anadyr2           640.719
       412   04 Jun 2027 07:11:43.137   04 Jun 2027 07:12:44.916            61.779                Anadyr1          1930.594
       413   04 Jun 2027 07:12:46.141   04 Jun 2027 07:13:58.560            72.419               Magadan2          2263.094
       414   04 Jun 2027 07:13:58.560   04 Jun 2027 07:14:50.045            51.485               Magadan1          1608.906
       415   04 Jun 2027 08:44:29.632   04 Jun 2027 08:45:20.385            50.753               Magadan2          1586.031
       416   04 Jun 2027 08:45:25.575   04 Jun 2027 08:47:09.033           103.458               Magadan2          3233.063
       417   04 Jun 2027 08:47:25.879   04 Jun 2027 08:47:28.998             3.119                Irkutsk            97.469
       418   04 Jun 2027 08:47:42.423   04 Jun 2027 08:50:14.682           152.259                Anadyr2          4758.094
       419   04 Jun 2027 08:50:21.304   04 Jun 2027 08:50:46.653            25.349               Magadan1           792.156
       420   04 Jun 2027 08:51:16.699   04 Jun 2027 08:51:42.359            25.660               Magadan2           801.875
       421   04 Jun 2027 08:51:44.674   04 Jun 2027 08:52:11.164            26.490              Murmansk1           827.812
       422   04 Jun 2027 08:53:20.456   04 Jun 2027 08:53:30.597            10.141              Murmansk1           316.906
       423   04 Jun 2027 08:54:45.853   04 Jun 2027 08:54:58.201            12.348              Murmansk2           385.875
       424   04 Jun 2027 08:58:15.826   04 Jun 2027 08:59:04.467            48.641              Murmansk1          1520.031
       425   04 Jun 2027 09:26:39.921   04 Jun 2027 09:26:59.037            19.116            RioGallegos           597.375
       426   04 Jun 2027 09:28:24.328   04 Jun 2027 09:28:39.377            15.049            RioGallegos           470.281
       427   04 Jun 2027 10:03:06.237   04 Jun 2027 10:03:45.098            38.861                Sumatra          1214.406
       428   04 Jun 2027 10:12:03.422   04 Jun 2027 10:12:11.524             8.102                Sumatra           253.187
       429   04 Jun 2027 10:21:16.997   04 Jun 2027 10:21:20.044             3.047                Novosib            95.219
       430   04 Jun 2027 10:21:56.238   04 Jun 2027 10:22:51.951            55.713                Irkutsk          1741.031
       431   04 Jun 2027 10:23:09.344   04 Jun 2027 10:23:19.240             9.896                Norilsk           309.250
       432   04 Jun 2027 10:23:24.873   04 Jun 2027 10:23:36.978            12.105                Novosib           378.281
       433   04 Jun 2027 10:23:46.937   04 Jun 2027 10:24:01.873            14.936                Irkutsk           466.750
       434   04 Jun 2027 10:24:29.807   04 Jun 2027 10:25:36.218            66.411                Irkutsk          2075.344
       435   04 Jun 2027 10:25:46.613   04 Jun 2027 10:25:51.130             4.517                Norilsk           141.156
       436   04 Jun 2027 10:25:54.545   04 Jun 2027 10:26:12.274            17.729                Irkutsk           554.031
       437   04 Jun 2027 10:26:13.503   04 Jun 2027 10:27:03.967            50.464              Murmansk1          1577.000
       438   04 Jun 2027 10:27:07.009   04 Jun 2027 10:27:08.628             1.619              Murmansk2            50.594
       439   04 Jun 2027 10:27:16.672   04 Jun 2027 10:27:19.454             2.782                Novosib            86.937
       440   04 Jun 2027 10:27:19.625   04 Jun 2027 10:27:57.914            38.289              Murmansk1          1196.531
       441   04 Jun 2027 10:28:17.653   04 Jun 2027 10:28:54.580            36.927                Norilsk          1153.969
       442   04 Jun 2027 11:03:12.995   04 Jun 2027 11:03:15.008             2.013            RioGallegos            62.906
       443   04 Jun 2027 11:04:01.844   04 Jun 2027 11:04:33.168            31.324            RioGallegos           978.875
       444   04 Jun 2027 11:11:54.811   04 Jun 2027 11:12:46.012            51.201            RioGallegos          1600.031
       445   04 Jun 2027 11:40:10.292   04 Jun 2027 11:42:06.166           115.874                Sumatra          3621.062
       446   04 Jun 2027 11:58:16.385   04 Jun 2027 11:59:20.122            63.737                Irkutsk          1991.781
       447   04 Jun 2027 11:59:36.246   04 Jun 2027 12:00:31.751            55.505                Novosib          1734.531
       448   04 Jun 2027 12:00:55.747   04 Jun 2027 12:01:07.271            11.524              Murmansk2           360.125
       449   04 Jun 2027 12:01:32.059   04 Jun 2027 12:02:02.024            29.965                Novosib           936.406
       450   04 Jun 2027 12:02:32.250   04 Jun 2027 12:03:02.518            30.268                Irkutsk           945.875
       451   04 Jun 2027 12:03:31.647   04 Jun 2027 12:05:13.510           101.863                Novosib          3183.219
       452   04 Jun 2027 12:08:20.533   04 Jun 2027 12:08:27.907             7.374              Murmansk1           230.438
       453   04 Jun 2027 12:09:12.664   04 Jun 2027 12:09:34.206            21.542              Murmansk1           673.187
       454   04 Jun 2027 13:22:16.548   04 Jun 2027 13:23:36.614            80.066                  Delhi          2502.062
       455   04 Jun 2027 13:23:41.489   04 Jun 2027 13:23:46.093             4.604                  Delhi           143.875
       456   04 Jun 2027 13:26:49.177   04 Jun 2027 13:27:29.908            40.731                  Delhi          1272.844
       457   04 Jun 2027 13:28:26.119   04 Jun 2027 13:29:31.811            65.692                  Delhi          2052.875
       458   04 Jun 2027 13:30:32.841   04 Jun 2027 13:31:53.123            80.282                Novosib          2508.813
       459   04 Jun 2027 13:32:27.704   04 Jun 2027 13:33:34.129            66.425                Novosib          2075.781
       460   04 Jun 2027 13:36:16.196   04 Jun 2027 13:37:13.191            56.995                Norilsk          1781.094
       461   04 Jun 2027 13:40:58.329   04 Jun 2027 13:41:40.220            41.891                Norilsk          1309.094
       462   04 Jun 2027 15:05:58.264   04 Jun 2027 15:09:32.647           214.383                 Moscow          6699.469
       463   04 Jun 2027 15:10:08.871   04 Jun 2027 15:10:41.337            32.466              Murmansk1          1014.562
       464   04 Jun 2027 15:11:02.431   04 Jun 2027 15:12:31.801            89.370              Murmansk1          2792.812
       465   04 Jun 2027 15:15:17.635   04 Jun 2027 15:16:28.568            70.933                Norilsk          2216.656
       466   04 Jun 2027 15:16:37.893   04 Jun 2027 15:17:00.061            22.168                Norilsk           692.750
       467   04 Jun 2027 15:18:57.384   04 Jun 2027 15:19:33.780            36.396                Norilsk          1137.375
       468   04 Jun 2027 16:20:35.298   04 Jun 2027 16:20:51.254            15.956               CapeTown           498.625
       469   04 Jun 2027 16:21:34.849   04 Jun 2027 16:22:02.363            27.514               CapeTown           859.812
       470   04 Jun 2027 16:26:01.723   04 Jun 2027 16:26:19.375            17.652               CapeTown           551.625
       471   04 Jun 2027 16:27:12.665   04 Jun 2027 16:29:13.661           120.996               CapeTown          3781.125
       472   04 Jun 2027 16:48:54.749   04 Jun 2027 16:49:34.411            39.662              Murmansk2          1239.438
       473   04 Jun 2027 16:51:13.405   04 Jun 2027 16:51:52.369            38.964              Murmansk2          1217.625
       474   04 Jun 2027 16:56:14.534   04 Jun 2027 16:56:36.225            21.691              Murmansk2           677.844
       475   04 Jun 2027 17:00:12.617   04 Jun 2027 17:01:18.810            66.193                Anadyr2          2068.531
       476   04 Jun 2027 17:04:11.694   04 Jun 2027 17:04:31.119            19.425                Anadyr1           607.031
       477   04 Jun 2027 17:05:23.076   04 Jun 2027 17:05:30.142             7.066                Anadyr2           220.812
       478   04 Jun 2027 17:06:10.004   04 Jun 2027 17:06:10.295             0.291                Anadyr1             9.094
       479   04 Jun 2027 17:07:22.874   04 Jun 2027 17:07:35.725            12.851                Anadyr1           401.594
       480   04 Jun 2027 17:08:22.249   04 Jun 2027 17:09:00.091            37.842                Anadyr2          1182.563
       481   04 Jun 2027 17:55:44.516   04 Jun 2027 17:56:40.654            56.138               CapeTown          1754.313
       482   04 Jun 2027 18:05:31.360   04 Jun 2027 18:05:37.928             6.568               CapeTown           205.250
