uniorb/output/strategy_1/Drop/Drop_KinoSat_110709.txt

KinoSat_110709
-------------------------
    Access    *     Start Time (UTCG)     *     Stop Time (UTCG)  *   Duration (s)        *       Station  *  Data (Mbytes)
         1   01 Jun 2027 03:01:31.758   01 Jun 2027 03:01:43.860            12.102               Magadan1           378.188
         2   01 Jun 2027 03:02:01.530   01 Jun 2027 03:03:27.938            86.408                Anadyr1          2700.250
         3   01 Jun 2027 03:03:27.938   01 Jun 2027 03:03:51.803            23.865                Anadyr2           745.781
         4   01 Jun 2027 03:04:17.469   01 Jun 2027 03:04:28.931            11.462               Magadan1           358.188
         5   01 Jun 2027 03:04:28.931   01 Jun 2027 03:04:44.483            15.552               Magadan2           486.000
         6   01 Jun 2027 03:04:44.483   01 Jun 2027 03:04:53.043             8.560               Magadan1           267.500
         7   01 Jun 2027 03:05:15.437   01 Jun 2027 03:05:39.257            23.820                Anadyr1           744.375
         8   01 Jun 2027 03:05:39.257   01 Jun 2027 03:06:54.669            75.412                Anadyr2          2356.625
         9   01 Jun 2027 04:38:53.158   01 Jun 2027 04:38:58.187             5.029               Magadan1           157.156
        10   01 Jun 2027 04:39:08.451   01 Jun 2027 04:40:40.623            92.172               Magadan1          2880.375
        11   01 Jun 2027 04:40:59.121   01 Jun 2027 04:42:44.381           105.260               Magadan1          3289.375
        12   01 Jun 2027 04:42:50.717   01 Jun 2027 04:43:14.747            24.030                Norilsk           750.938
        13   01 Jun 2027 04:43:49.106   01 Jun 2027 04:44:20.712            31.606              Murmansk1           987.687
        14   01 Jun 2027 05:19:34.986   01 Jun 2027 05:22:54.240           199.254            RioGallegos          6226.687
        15   01 Jun 2027 06:13:43.715   01 Jun 2027 06:15:17.918            94.203                Irkutsk          2943.844
        16   01 Jun 2027 06:15:24.193   01 Jun 2027 06:16:23.576            59.383                Novosib          1855.719
        17   01 Jun 2027 06:16:30.910   01 Jun 2027 06:16:39.829             8.919                Irkutsk           278.719
        18   01 Jun 2027 06:16:40.330   01 Jun 2027 06:17:37.511            57.181                Norilsk          1786.906
        19   01 Jun 2027 06:17:48.633   01 Jun 2027 06:18:45.797            57.164               Magadan2          1786.375
        20   01 Jun 2027 06:19:07.149   01 Jun 2027 06:21:32.699           145.550                Norilsk          4548.438
        21   01 Jun 2027 06:21:51.031   01 Jun 2027 06:23:02.882            71.851              Murmansk2          2245.344
        22   01 Jun 2027 06:23:02.882   01 Jun 2027 06:24:26.627            83.745              Murmansk1          2617.031
        23   01 Jun 2027 06:54:03.373   01 Jun 2027 06:58:32.763           269.390            RioGallegos          8418.437
        24   01 Jun 2027 07:29:13.928   01 Jun 2027 07:33:00.758           226.830                Sumatra          7088.437
        25   01 Jun 2027 07:42:01.162   01 Jun 2027 07:42:56.365            55.203                  Delhi          1725.094
        26   01 Jun 2027 07:49:57.850   01 Jun 2027 07:50:31.349            33.499                Irkutsk          1046.844
        27   01 Jun 2027 07:50:59.408   01 Jun 2027 07:51:37.967            38.559                Novosib          1204.969
        28   01 Jun 2027 07:52:25.893   01 Jun 2027 07:55:16.510           170.617                Irkutsk          5331.781
        29   01 Jun 2027 07:55:59.877   01 Jun 2027 07:56:22.469            22.592                Novosib           706.000
        30   01 Jun 2027 09:13:10.548   01 Jun 2027 09:14:38.853            88.305                  Delhi          2759.531
        31   01 Jun 2027 09:28:31.502   01 Jun 2027 09:29:24.013            52.511                Irkutsk          1640.969
        32   01 Jun 2027 09:29:47.312   01 Jun 2027 09:29:58.508            11.196                 Moscow           349.875
        33   01 Jun 2027 09:30:10.258   01 Jun 2027 09:30:52.332            42.074                Novosib          1314.812
        34   01 Jun 2027 09:30:53.981   01 Jun 2027 09:32:21.030            87.049              Murmansk1          2720.281
        35   01 Jun 2027 09:32:45.727   01 Jun 2027 09:33:23.545            37.818              Murmansk1          1181.812
        36   01 Jun 2027 10:52:21.830   01 Jun 2027 10:54:16.396           114.566                  Delhi          3580.187
        37   01 Jun 2027 11:02:44.592   01 Jun 2027 11:03:04.229            19.637              Murmansk1           613.656
        38   01 Jun 2027 11:03:13.363   01 Jun 2027 11:07:15.226           241.863                 Moscow          7558.219
        39   01 Jun 2027 11:07:23.878   01 Jun 2027 11:08:20.758            56.880                 Moscow          1777.500
        40   01 Jun 2027 11:09:36.818   01 Jun 2027 11:10:06.878            30.060                Norilsk           939.375
        41   01 Jun 2027 12:13:37.941   01 Jun 2027 12:16:09.020           151.079               CapeTown          4721.219
        42   01 Jun 2027 12:19:43.901   01 Jun 2027 12:20:41.498            57.597               CapeTown          1799.906
        43   01 Jun 2027 12:34:08.440   01 Jun 2027 12:34:48.570            40.130                 Moscow          1254.063
        44   01 Jun 2027 12:37:33.334   01 Jun 2027 12:41:36.614           243.280              Murmansk2          7602.500
        45   01 Jun 2027 12:41:56.362   01 Jun 2027 12:42:27.653            31.291              Murmansk2           977.844
        46   01 Jun 2027 12:52:27.148   01 Jun 2027 12:56:18.040           230.892                Anadyr1          7215.375
        47   01 Jun 2027 12:57:53.578   01 Jun 2027 12:58:33.682            40.104                Anadyr2          1253.250
        48   01 Jun 2027 14:16:10.050   01 Jun 2027 14:17:55.940           105.890              Murmansk2          3309.063
        49   01 Jun 2027 14:27:40.277   01 Jun 2027 14:31:47.369           247.092                Anadyr2          7721.625
        50   01 Jun 2027 14:32:19.738   01 Jun 2027 14:35:55.107           215.369               Magadan1          6730.281
        51   01 Jun 2027 14:35:55.107   01 Jun 2027 14:36:18.167            23.060               Magadan2           720.625
        52   01 Jun 2027 16:03:31.951   01 Jun 2027 16:04:52.437            80.486                Anadyr1          2515.187
        53   01 Jun 2027 16:06:01.911   01 Jun 2027 16:09:20.948           199.037               Magadan1          6219.906
        54   01 Jun 2027 16:10:02.692   01 Jun 2027 16:10:09.622             6.930               Magadan2           216.562
        55   01 Jun 2027 17:39:25.743   01 Jun 2027 17:42:36.208           190.465                Anadyr2          5952.031
        56   01 Jun 2027 17:42:44.635   01 Jun 2027 17:45:51.726           187.091                Norilsk          5846.594
        57   01 Jun 2027 18:33:49.545   01 Jun 2027 18:37:26.975           217.430            RioGallegos          6794.687
        58   01 Jun 2027 19:17:17.789   01 Jun 2027 19:18:49.516            91.727                Norilsk          2866.469
        59   01 Jun 2027 19:19:03.728   01 Jun 2027 19:19:37.431            33.703               Magadan2          1053.219
        60   01 Jun 2027 19:20:57.968   01 Jun 2027 19:21:34.668            36.700                Norilsk          1146.875
        61   01 Jun 2027 19:21:55.641   01 Jun 2027 19:23:34.021            98.380                Irkutsk          3074.375
        62   01 Jun 2027 19:24:35.835   01 Jun 2027 19:29:12.807           276.972                Novosib          8655.375
        63   01 Jun 2027 19:35:08.401   01 Jun 2027 19:39:04.026           235.625                Sumatra          7363.281
        64   01 Jun 2027 20:57:13.004   01 Jun 2027 20:57:57.474            44.470                Novosib          1389.687
        65   01 Jun 2027 21:04:54.875   01 Jun 2027 21:09:53.240           298.365                  Delhi          9323.906
        66   01 Jun 2027 22:31:35.140   01 Jun 2027 22:33:37.908           122.768              Murmansk2          3836.500
        67   01 Jun 2027 22:34:35.017   01 Jun 2027 22:37:42.000           186.983              Murmansk1          5843.219
        68   01 Jun 2027 22:38:08.888   01 Jun 2027 22:43:34.054           325.166                 Moscow         10161.437
        69   02 Jun 2027 00:09:19.071   02 Jun 2027 00:10:46.016            86.945              Murmansk2          2717.031
        70   02 Jun 2027 00:34:54.888   02 Jun 2027 00:38:46.284           231.396               CapeTown          7231.125
        71   02 Jun 2027 01:34:14.647   02 Jun 2027 01:34:39.381            24.734               Magadan2           772.938
        72   02 Jun 2027 01:43:19.820   02 Jun 2027 01:44:37.855            78.035              Murmansk2          2438.594
        73   02 Jun 2027 01:46:15.125   02 Jun 2027 01:46:41.185            26.060              Murmansk1           814.375
        74   02 Jun 2027 01:46:48.621   02 Jun 2027 01:47:43.789            55.168                 Moscow          1724.000
        75   02 Jun 2027 01:50:52.677   02 Jun 2027 01:51:07.977            15.300                 Moscow           478.125
        76   02 Jun 2027 01:51:50.456   02 Jun 2027 01:51:56.354             5.898                 Moscow           184.313
        77   02 Jun 2027 01:55:10.510   02 Jun 2027 01:55:39.505            28.995                 Moscow           906.094
        78   02 Jun 2027 02:11:26.683   02 Jun 2027 02:11:44.126            17.443               CapeTown           545.094
        79   02 Jun 2027 02:14:57.774   02 Jun 2027 02:15:47.490            49.716               CapeTown          1553.625
        80   02 Jun 2027 03:07:08.372   02 Jun 2027 03:07:19.124            10.752               Magadan2           336.000
        81   02 Jun 2027 03:07:56.348   02 Jun 2027 03:08:35.208            38.860               Magadan1          1214.375
        82   02 Jun 2027 03:09:16.677   02 Jun 2027 03:09:28.906            12.229               Magadan2           382.156
        83   02 Jun 2027 03:12:20.795   02 Jun 2027 03:13:31.562            70.767               Magadan2          2211.469
        84   02 Jun 2027 03:13:36.728   02 Jun 2027 03:15:28.659           111.931                Anadyr1          3497.844
        85   02 Jun 2027 03:15:28.659   02 Jun 2027 03:15:32.767             4.108                Anadyr2           128.375
        86   02 Jun 2027 03:15:41.195   02 Jun 2027 03:18:06.177           144.982               Magadan1          4530.688
        87   02 Jun 2027 03:18:06.177   02 Jun 2027 03:18:40.664            34.487               Magadan2          1077.719
        88   02 Jun 2027 03:18:44.378   02 Jun 2027 03:18:52.958             8.580                Anadyr2           268.125
        89   02 Jun 2027 03:18:52.958   02 Jun 2027 03:19:31.291            38.333                Anadyr1          1197.906
        90   02 Jun 2027 04:49:32.077   02 Jun 2027 04:52:13.969           161.892                Irkutsk          5059.125
        91   02 Jun 2027 04:52:47.502   02 Jun 2027 04:55:11.070           143.568                Anadyr1          4486.500
        92   02 Jun 2027 05:31:14.102   02 Jun 2027 05:33:58.577           164.475            RioGallegos          5139.844
        93   02 Jun 2027 06:25:43.625   02 Jun 2027 06:26:42.809            59.184                Novosib          1849.500
        94   02 Jun 2027 06:26:48.948   02 Jun 2027 06:27:27.618            38.670                Norilsk          1208.437
        95   02 Jun 2027 06:27:29.487   02 Jun 2027 06:28:07.203            37.716                Novosib          1178.625
        96   02 Jun 2027 06:28:22.278   02 Jun 2027 06:31:19.480           177.202                Norilsk          5537.562
        97   02 Jun 2027 06:31:20.229   02 Jun 2027 06:31:24.538             4.309                Irkutsk           134.656
        98   02 Jun 2027 06:31:39.122   02 Jun 2027 06:32:08.067            28.945              Murmansk1           904.531
        99   02 Jun 2027 06:32:08.067   02 Jun 2027 06:32:44.289            36.222              Murmansk2          1131.937
       100   02 Jun 2027 07:06:08.359   02 Jun 2027 07:07:42.503            94.144            RioGallegos          2942.000
       101   02 Jun 2027 07:41:04.366   02 Jun 2027 07:42:16.584            72.218                Sumatra          2256.812
       102   02 Jun 2027 07:43:06.643   02 Jun 2027 07:44:35.089            88.446                Sumatra          2763.937
       103   02 Jun 2027 07:52:11.278   02 Jun 2027 07:52:58.296            47.018                  Delhi          1469.312
       104   02 Jun 2027 08:02:55.592   02 Jun 2027 08:03:39.211            43.619                Novosib          1363.094
       105   02 Jun 2027 08:04:05.697   02 Jun 2027 08:04:23.401            17.704                Norilsk           553.250
       106   02 Jun 2027 08:04:35.534   02 Jun 2027 08:07:43.963           188.429              Murmansk2          5888.406
       107   02 Jun 2027 08:07:59.532   02 Jun 2027 08:08:28.350            28.818                Norilsk           900.563
       108   02 Jun 2027 08:08:50.632   02 Jun 2027 08:08:57.804             7.172                 Moscow           224.125
       109   02 Jun 2027 09:19:46.600   02 Jun 2027 09:20:19.570            32.970                Sumatra          1030.313
       110   02 Jun 2027 09:21:57.110   02 Jun 2027 09:22:45.380            48.270                Sumatra          1508.438
       111   02 Jun 2027 09:25:10.929   02 Jun 2027 09:27:14.235           123.306                  Delhi          3853.313
       112   02 Jun 2027 09:29:08.674   02 Jun 2027 09:30:02.160            53.486                  Delhi          1671.438
       113   02 Jun 2027 09:40:36.714   02 Jun 2027 09:40:37.881             1.167                Irkutsk            36.469
       114   02 Jun 2027 09:41:04.091   02 Jun 2027 09:42:38.344            94.253                 Moscow          2945.406
       115   02 Jun 2027 09:42:43.913   02 Jun 2027 09:43:54.895            70.982              Murmansk1          2218.188
       116   02 Jun 2027 09:43:55.123   02 Jun 2027 09:44:38.004            42.881                Novosib          1340.031
       117   02 Jun 2027 11:06:21.550   02 Jun 2027 11:07:08.161            46.611                  Delhi          1456.594
       118   02 Jun 2027 11:07:19.296   02 Jun 2027 11:07:21.036             1.740                  Delhi            54.375
       119   02 Jun 2027 11:14:04.208   02 Jun 2027 11:14:38.523            34.315              Murmansk1          1072.344
       120   02 Jun 2027 11:14:43.484   02 Jun 2027 11:15:30.403            46.919              Murmansk2          1466.219
       121   02 Jun 2027 11:15:32.559   02 Jun 2027 11:17:10.531            97.972                 Moscow          3061.625
       122   02 Jun 2027 11:17:16.189   02 Jun 2027 11:17:25.258             9.069              Murmansk2           283.406
       123   02 Jun 2027 11:17:43.140   02 Jun 2027 11:21:57.146           254.006                Norilsk          7937.688
       124   02 Jun 2027 11:21:59.613   02 Jun 2027 11:22:13.899            14.286                 Moscow           446.437
       125   02 Jun 2027 11:22:14.661   02 Jun 2027 11:23:22.300            67.639              Murmansk1          2113.719
       126   02 Jun 2027 11:25:06.251   02 Jun 2027 11:25:22.821            16.570              Murmansk2           517.812
       127   02 Jun 2027 12:24:51.927   02 Jun 2027 12:27:53.048           181.121               CapeTown          5660.031
       128   02 Jun 2027 12:31:49.338   02 Jun 2027 12:32:48.188            58.850               CapeTown          1839.063
       129   02 Jun 2027 12:49:47.243   02 Jun 2027 12:52:17.841           150.598              Murmansk1          4706.188
       130   02 Jun 2027 12:54:03.612   02 Jun 2027 12:54:18.042            14.430              Murmansk1           450.937
       131   02 Jun 2027 12:54:39.822   02 Jun 2027 12:54:57.316            17.494              Murmansk2           546.687
       132   02 Jun 2027 13:04:17.286   02 Jun 2027 13:10:27.995           370.709                Anadyr1         11584.656
       133   02 Jun 2027 14:29:27.417   02 Jun 2027 14:29:54.556            27.139              Murmansk2           848.094
       134   02 Jun 2027 14:31:34.444   02 Jun 2027 14:32:07.005            32.561              Murmansk2          1017.531
       135   02 Jun 2027 14:32:11.930   02 Jun 2027 14:32:55.069            43.139              Murmansk2          1348.094
       136   02 Jun 2027 14:39:40.186   02 Jun 2027 14:40:44.444            64.258                Anadyr2          2008.062
       137   02 Jun 2027 14:41:15.671   02 Jun 2027 14:41:43.897            28.226                Anadyr2           882.063
       138   02 Jun 2027 14:42:03.817   02 Jun 2027 14:43:01.161            57.344                Anadyr2          1792.000
       139   02 Jun 2027 14:43:37.358   02 Jun 2027 14:49:37.218           359.860               Magadan2         11245.625
       140   02 Jun 2027 16:15:33.306   02 Jun 2027 16:16:53.325            80.019                Anadyr1          2500.594
       141   02 Jun 2027 16:17:59.110   02 Jun 2027 16:19:10.416            71.306               Magadan2          2228.313
       142   02 Jun 2027 16:19:10.416   02 Jun 2027 16:20:12.908            62.492               Magadan1          1952.875
       143   02 Jun 2027 16:21:23.665   02 Jun 2027 16:23:01.223            97.558               Magadan1          3048.687
       144   02 Jun 2027 17:51:25.967   02 Jun 2027 17:52:48.721            82.754                Anadyr2          2586.063
       145   02 Jun 2027 17:53:06.327   02 Jun 2027 17:54:30.822            84.495                Anadyr1          2640.469
       146   02 Jun 2027 17:54:32.570   02 Jun 2027 17:58:16.240           223.670                Norilsk          6989.688
       147   02 Jun 2027 17:59:54.626   02 Jun 2027 18:02:32.558           157.932                Irkutsk          4935.375
       148   02 Jun 2027 18:03:43.898   02 Jun 2027 18:04:50.022            66.124                Irkutsk          2066.375
       149   02 Jun 2027 18:46:26.170   02 Jun 2027 18:47:17.932            51.762            RioGallegos          1617.562
       150   02 Jun 2027 19:29:18.505   02 Jun 2027 19:30:46.444            87.939                Norilsk          2748.094
       151   02 Jun 2027 19:33:46.329   02 Jun 2027 19:34:49.211            62.882                Irkutsk          1965.062
       152   02 Jun 2027 19:35:09.238   02 Jun 2027 19:41:45.229           395.991                Novosib         12374.719
       153   02 Jun 2027 19:47:01.768   02 Jun 2027 19:48:01.693            59.925                Sumatra          1872.656
       154   02 Jun 2027 19:48:26.738   02 Jun 2027 19:49:36.345            69.607                Sumatra          2175.219
       155   02 Jun 2027 21:09:38.675   02 Jun 2027 21:11:02.279            83.604                Novosib          2612.625
       156   02 Jun 2027 21:16:42.463   02 Jun 2027 21:20:25.661           223.198                  Delhi          6974.937
       157   02 Jun 2027 22:43:33.418   02 Jun 2027 22:49:55.204           381.786              Murmansk2         11930.812
       158   02 Jun 2027 22:50:12.203   02 Jun 2027 22:52:57.862           165.659                 Moscow          5176.844
       159   02 Jun 2027 22:53:31.912   02 Jun 2027 22:54:23.341            51.429                 Moscow          1607.156
       160   02 Jun 2027 23:16:21.809   02 Jun 2027 23:17:06.656            44.847               CapeTown          1401.469
       161   02 Jun 2027 23:18:19.017   02 Jun 2027 23:19:05.805            46.788               CapeTown          1462.125
       162   02 Jun 2027 23:19:53.185   02 Jun 2027 23:20:10.112            16.927               CapeTown           528.969
       163   03 Jun 2027 00:20:11.128   03 Jun 2027 00:21:15.163            64.035              Murmansk1          2001.094
       164   03 Jun 2027 00:22:40.383   03 Jun 2027 00:23:33.065            52.682                 Moscow          1646.313
       165   03 Jun 2027 00:25:49.991   03 Jun 2027 00:26:23.540            33.549                 Moscow          1048.406
       166   03 Jun 2027 00:26:54.414   03 Jun 2027 00:27:26.699            32.285                 Moscow          1008.906
       167   03 Jun 2027 00:46:42.458   03 Jun 2027 00:49:03.108           140.650               CapeTown          4395.312
       168   03 Jun 2027 01:43:45.825   03 Jun 2027 01:44:11.207            25.382                Anadyr1           793.187
       169   03 Jun 2027 01:45:06.978   03 Jun 2027 01:46:08.114            61.136               Magadan2          1910.500
       170   03 Jun 2027 01:46:38.484   03 Jun 2027 01:48:22.086           103.602               Magadan1          3237.562
       171   03 Jun 2027 01:55:21.215   03 Jun 2027 01:55:42.679            21.464              Murmansk1           670.750
       172   03 Jun 2027 01:56:19.243   03 Jun 2027 01:56:39.587            20.344              Murmansk2           635.750
       173   03 Jun 2027 01:58:10.573   03 Jun 2027 01:58:19.988             9.415              Murmansk2           294.219
       174   03 Jun 2027 01:58:38.297   03 Jun 2027 02:00:54.263           135.966                 Moscow          4248.937
       175   03 Jun 2027 02:24:01.670   03 Jun 2027 02:26:01.763           120.093               CapeTown          3752.906
       176   03 Jun 2027 03:23:45.662   03 Jun 2027 03:27:29.626           223.964                Anadyr2          6998.875
       177   03 Jun 2027 03:27:42.805   03 Jun 2027 03:29:26.161           103.356                Anadyr1          3229.875
       178   03 Jun 2027 03:29:26.161   03 Jun 2027 03:29:52.740            26.579                Anadyr2           830.594
       179   03 Jun 2027 03:30:00.360   03 Jun 2027 03:30:51.580            51.220               Magadan2          1600.625
       180   03 Jun 2027 03:30:51.580   03 Jun 2027 03:31:10.752            19.172               Magadan1           599.125
       181   03 Jun 2027 03:31:13.736   03 Jun 2027 03:31:16.616             2.880                Anadyr2            90.000
       182   03 Jun 2027 05:00:39.804   03 Jun 2027 05:01:58.212            78.408                Irkutsk          2450.250
       183   03 Jun 2027 05:01:59.873   03 Jun 2027 05:02:59.107            59.234               Magadan1          1851.062
       184   03 Jun 2027 05:03:09.049   03 Jun 2027 05:04:13.552            64.503               Magadan2          2015.719
       185   03 Jun 2027 05:04:30.149   03 Jun 2027 05:07:10.748           160.599                Anadyr2          5018.719
       186   03 Jun 2027 05:07:49.840   03 Jun 2027 05:08:39.902            50.062                Norilsk          1564.438
       187   03 Jun 2027 05:42:56.519   03 Jun 2027 05:45:16.050           139.531            RioGallegos          4360.344
       188   03 Jun 2027 05:45:57.994   03 Jun 2027 05:46:11.035            13.041            RioGallegos           407.531
       189   03 Jun 2027 06:22:30.287   03 Jun 2027 06:22:48.458            18.171                Sumatra           567.844
       190   03 Jun 2027 06:37:13.908   03 Jun 2027 06:37:54.019            40.111                Irkutsk          1253.469
       191   03 Jun 2027 06:38:20.581   03 Jun 2027 06:38:39.412            18.831                Novosib           588.469
       192   03 Jun 2027 06:38:43.521   03 Jun 2027 06:38:52.944             9.423                Norilsk           294.469
       193   03 Jun 2027 06:39:02.692   03 Jun 2027 06:39:13.098            10.406               Magadan2           325.187
       194   03 Jun 2027 06:39:22.601   03 Jun 2027 06:43:08.115           225.514                Norilsk          7047.312
       195   03 Jun 2027 06:43:26.738   03 Jun 2027 06:44:43.261            76.523                Novosib          2391.344
       196   03 Jun 2027 06:47:23.161   03 Jun 2027 06:47:58.152            34.991              Murmansk2          1093.469
       197   03 Jun 2027 07:18:16.885   03 Jun 2027 07:19:34.500            77.615            RioGallegos          2425.469
       198   03 Jun 2027 07:21:19.558   03 Jun 2027 07:22:22.882            63.324            RioGallegos          1978.875
       199   03 Jun 2027 07:53:00.577   03 Jun 2027 07:55:50.692           170.115                Sumatra          5316.094
       200   03 Jun 2027 08:03:23.580   03 Jun 2027 08:06:07.415           163.835                  Delhi          5119.844
       201   03 Jun 2027 08:14:48.034   03 Jun 2027 08:14:50.007             1.973                Norilsk            61.656
       202   03 Jun 2027 08:15:11.188   03 Jun 2027 08:16:50.396            99.208                Irkutsk          3100.250
       203   03 Jun 2027 08:17:01.150   03 Jun 2027 08:19:08.838           127.688                Irkutsk          3990.250
       204   03 Jun 2027 08:19:25.542   03 Jun 2027 08:20:34.678            69.136                Novosib          2160.500
       205   03 Jun 2027 08:20:48.816   03 Jun 2027 08:21:14.000            25.184                Norilsk           787.000
       206   03 Jun 2027 08:21:15.517   03 Jun 2027 08:21:19.624             4.107                 Moscow           128.344
       207   03 Jun 2027 08:21:29.317   03 Jun 2027 08:22:41.576            72.259              Murmansk1          2258.094
       208   03 Jun 2027 08:58:10.440   03 Jun 2027 08:59:14.889            64.449            RioGallegos          2014.031
       209   03 Jun 2027 09:37:16.708   03 Jun 2027 09:40:20.628           183.920                  Delhi          5747.500
       210   03 Jun 2027 09:40:59.447   03 Jun 2027 09:42:28.194            88.747                  Delhi          2773.344
       211   03 Jun 2027 09:52:23.449   03 Jun 2027 09:52:43.525            20.076                Norilsk           627.375
       212   03 Jun 2027 09:52:47.271   03 Jun 2027 09:53:32.258            44.987              Murmansk1          1405.844
       213   03 Jun 2027 09:53:32.258   03 Jun 2027 09:54:04.760            32.502              Murmansk2          1015.687
       214   03 Jun 2027 09:54:08.254   03 Jun 2027 09:54:32.179            23.925                Norilsk           747.656
       215   03 Jun 2027 09:54:33.132   03 Jun 2027 09:54:59.796            26.664              Murmansk2           833.250
       216   03 Jun 2027 11:24:54.610   03 Jun 2027 11:26:00.540            65.930                 Moscow          2060.312
       217   03 Jun 2027 11:26:04.932   03 Jun 2027 11:26:33.625            28.693              Murmansk2           896.656
       218   03 Jun 2027 11:26:33.625   03 Jun 2027 11:26:37.516             3.891              Murmansk1           121.594
       219   03 Jun 2027 11:26:41.547   03 Jun 2027 11:27:05.646            24.099              Murmansk2           753.094
       220   03 Jun 2027 11:27:28.986   03 Jun 2027 11:28:03.031            34.045                 Moscow          1063.906
       221   03 Jun 2027 11:28:23.613   03 Jun 2027 11:28:26.013             2.400              Murmansk2            75.000
       222   03 Jun 2027 11:28:37.699   03 Jun 2027 11:28:52.021            14.322              Murmansk1           447.562
       223   03 Jun 2027 11:28:52.021   03 Jun 2027 11:29:15.625            23.604              Murmansk2           737.625
       224   03 Jun 2027 11:29:32.130   03 Jun 2027 11:30:27.737            55.607              Murmansk2          1737.719
       225   03 Jun 2027 11:31:04.643   03 Jun 2027 11:31:11.412             6.769                 Moscow           211.531
       226   03 Jun 2027 11:31:32.025   03 Jun 2027 11:31:43.340            11.315              Murmansk2           353.594
       227   03 Jun 2027 11:31:43.340   03 Jun 2027 11:31:58.579            15.239              Murmansk1           476.219
       228   03 Jun 2027 11:32:20.063   03 Jun 2027 11:32:29.527             9.464                Norilsk           295.750
       229   03 Jun 2027 11:36:00.680   03 Jun 2027 11:36:05.101             4.421              Murmansk1           138.156
       230   03 Jun 2027 12:36:20.405   03 Jun 2027 12:38:52.889           152.484               CapeTown          4765.125
       231   03 Jun 2027 12:39:01.615   03 Jun 2027 12:41:29.857           148.242               CapeTown          4632.562
       232   03 Jun 2027 13:02:03.130   03 Jun 2027 13:04:14.768           131.638              Murmansk2          4113.687
       233   03 Jun 2027 13:16:10.134   03 Jun 2027 13:21:18.008           307.874                Anadyr1          9621.063
       234   03 Jun 2027 14:43:19.046   03 Jun 2027 14:44:04.444            45.398              Murmansk2          1418.687
       235   03 Jun 2027 14:47:13.665   03 Jun 2027 14:47:19.971             6.306              Murmansk1           197.062
       236   03 Jun 2027 14:47:38.699   03 Jun 2027 14:47:50.446            11.747              Murmansk1           367.094
       237   03 Jun 2027 14:49:03.680   03 Jun 2027 14:49:26.073            22.393              Murmansk1           699.781
       238   03 Jun 2027 14:51:40.474   03 Jun 2027 14:54:06.287           145.813                Anadyr1          4556.656
       239   03 Jun 2027 14:55:01.195   03 Jun 2027 14:57:03.175           121.980                Anadyr1          3811.875
       240   03 Jun 2027 14:57:21.589   03 Jun 2027 14:58:45.518            83.929               Magadan2          2622.781
       241   03 Jun 2027 14:58:56.133   03 Jun 2027 15:02:11.613           195.480               Magadan1          6108.750
       242   03 Jun 2027 16:29:57.230   03 Jun 2027 16:32:16.988           139.758               Magadan1          4367.437
       243   03 Jun 2027 16:33:26.396   03 Jun 2027 16:34:09.307            42.911               Magadan1          1340.969
       244   03 Jun 2027 18:03:25.846   03 Jun 2027 18:05:46.778           140.932                Anadyr1          4404.125
       245   03 Jun 2027 18:05:47.066   03 Jun 2027 18:08:58.581           191.515               Magadan2          5984.844
       246   03 Jun 2027 18:09:02.061   03 Jun 2027 18:10:38.778            96.717                Norilsk          3022.406
       247   03 Jun 2027 18:11:09.471   03 Jun 2027 18:14:18.229           188.758                Irkutsk          5898.688
       248   03 Jun 2027 18:16:02.548   03 Jun 2027 18:17:33.007            90.459                Irkutsk          2826.844
       249   03 Jun 2027 18:27:15.401   03 Jun 2027 18:29:26.610           131.209                Sumatra          4100.281
       250   03 Jun 2027 18:31:53.525   03 Jun 2027 18:32:32.085            38.560                Sumatra          1205.000
       251   03 Jun 2027 19:46:17.700   03 Jun 2027 19:51:07.672           289.972                Novosib          9061.625
       252   03 Jun 2027 19:52:02.607   03 Jun 2027 19:52:43.366            40.759                Novosib          1273.719
       253   03 Jun 2027 20:08:17.065   03 Jun 2027 20:08:35.883            18.818                Sumatra           588.063
       254   03 Jun 2027 21:20:53.507   03 Jun 2027 21:24:02.593           189.086              Murmansk2          5908.938
       255   03 Jun 2027 21:28:34.353   03 Jun 2027 21:30:09.789            95.436                  Delhi          2982.375
       256   03 Jun 2027 21:30:10.731   03 Jun 2027 21:31:28.921            78.190                  Delhi          2443.437
       257   03 Jun 2027 22:53:43.766   03 Jun 2027 22:54:35.472            51.706                Norilsk          1615.812
       258   03 Jun 2027 22:55:32.505   03 Jun 2027 22:57:14.175           101.670              Murmansk2          3177.188
       259   03 Jun 2027 22:57:22.250   03 Jun 2027 23:01:02.782           220.532              Murmansk1          6891.625
       260   03 Jun 2027 23:02:06.532   03 Jun 2027 23:02:17.945            11.413              Murmansk2           356.656
       261   03 Jun 2027 23:02:20.997   03 Jun 2027 23:04:45.475           144.478                 Moscow          4514.938
       262   03 Jun 2027 23:05:00.335   03 Jun 2027 23:05:37.832            37.497                 Moscow          1171.781
       263   03 Jun 2027 23:26:48.074   03 Jun 2027 23:28:30.017           101.943               CapeTown          3185.719
       264   03 Jun 2027 23:29:27.456   03 Jun 2027 23:31:22.965           115.509               CapeTown          3609.656
       265   04 Jun 2027 00:34:39.755   04 Jun 2027 00:36:44.113           124.358                 Moscow          3886.188
       266   04 Jun 2027 00:58:35.087   04 Jun 2027 00:59:42.651            67.564               CapeTown          2111.375
       267   04 Jun 2027 01:05:56.392   04 Jun 2027 01:06:48.289            51.897               CapeTown          1621.781
       268   04 Jun 2027 01:56:46.254   04 Jun 2027 01:57:36.784            50.530               Magadan1          1579.062
       269   04 Jun 2027 01:58:08.351   04 Jun 2027 01:58:57.383            49.032               Magadan2          1532.250
       270   04 Jun 2027 01:59:21.674   04 Jun 2027 02:00:04.842            43.168               Magadan2          1349.000
       271   04 Jun 2027 02:07:22.465   04 Jun 2027 02:08:36.468            74.003              Murmansk1          2312.594
       272   04 Jun 2027 02:10:05.340   04 Jun 2027 02:10:21.558            16.218              Murmansk1           506.813
       273   04 Jun 2027 02:10:42.245   04 Jun 2027 02:11:53.666            71.421                 Moscow          2231.906
       274   04 Jun 2027 02:17:16.296   04 Jun 2027 02:17:30.250            13.954                 Moscow           436.062
       275   04 Jun 2027 02:18:57.683   04 Jun 2027 02:19:10.707            13.024                 Moscow           407.000
       276   04 Jun 2027 02:19:54.425   04 Jun 2027 02:20:20.263            25.838                 Moscow           807.438
       277   04 Jun 2027 02:36:48.379   04 Jun 2027 02:37:46.941            58.562               CapeTown          1830.063
       278   04 Jun 2027 02:44:36.795   04 Jun 2027 02:45:22.185            45.390               CapeTown          1418.437
       279   04 Jun 2027 03:35:46.338   04 Jun 2027 03:36:33.929            47.591                Anadyr1          1487.219
       280   04 Jun 2027 03:36:35.536   04 Jun 2027 03:37:03.187            27.651               Magadan1           864.094
       281   04 Jun 2027 03:37:03.187   04 Jun 2027 03:41:00.087           236.900               Magadan2          7403.125
       282   04 Jun 2027 03:41:27.551   04 Jun 2027 03:42:13.413            45.862                Anadyr1          1433.187
       283   04 Jun 2027 03:42:31.082   04 Jun 2027 03:43:19.466            48.384               Magadan1          1512.000
       284   04 Jun 2027 05:12:17.546   04 Jun 2027 05:14:29.331           131.785                Irkutsk          4118.281
       285   04 Jun 2027 05:14:31.739   04 Jun 2027 05:15:00.807            29.068                Norilsk           908.375
       286   04 Jun 2027 05:15:02.032   04 Jun 2027 05:17:01.537           119.505               Magadan2          3734.531
       287   04 Jun 2027 05:17:01.537   04 Jun 2027 05:18:52.606           111.069               Magadan1          3470.906
       288   04 Jun 2027 05:19:10.237   04 Jun 2027 05:19:32.955            22.718               Magadan1           709.938
       289   04 Jun 2027 05:20:28.086   04 Jun 2027 05:20:41.192            13.106              Murmansk2           409.562
       290   04 Jun 2027 05:21:25.975   04 Jun 2027 05:21:37.073            11.098              Murmansk1           346.813
       291   04 Jun 2027 05:23:02.492   04 Jun 2027 05:23:26.766            24.274              Murmansk2           758.563
       292   04 Jun 2027 05:54:42.161   04 Jun 2027 05:56:34.692           112.531            RioGallegos          3516.594
       293   04 Jun 2027 05:57:21.426   04 Jun 2027 05:57:53.154            31.728            RioGallegos           991.500
       294   04 Jun 2027 06:32:28.325   04 Jun 2027 06:34:17.643           109.318                Sumatra          3416.188
       295   04 Jun 2027 06:49:07.053   04 Jun 2027 06:50:12.835            65.782                Irkutsk          2055.687
       296   04 Jun 2027 06:51:06.637   04 Jun 2027 06:51:09.259             2.622                Novosib            81.938
       297   04 Jun 2027 06:51:13.342   04 Jun 2027 06:51:42.622            29.280                Irkutsk           915.000
       298   04 Jun 2027 06:51:42.937   04 Jun 2027 06:51:48.884             5.947               Magadan1           185.844
       299   04 Jun 2027 06:52:14.973   04 Jun 2027 06:56:48.753           273.780                Novosib          8555.625
       300   04 Jun 2027 06:57:38.376   04 Jun 2027 06:57:53.482            15.106              Murmansk1           472.063
       301   04 Jun 2027 07:30:29.136   04 Jun 2027 07:31:29.673            60.537            RioGallegos          1891.781
       302   04 Jun 2027 07:33:17.339   04 Jun 2027 07:34:03.780            46.441            RioGallegos          1451.281
       303   04 Jun 2027 08:05:02.363   04 Jun 2027 08:07:18.699           136.336                Sumatra          4260.500
       304   04 Jun 2027 08:14:46.611   04 Jun 2027 08:17:28.279           161.668                  Delhi          5052.125
       305   04 Jun 2027 08:26:27.472   04 Jun 2027 08:27:09.323            41.851                Irkutsk          1307.844
       306   04 Jun 2027 08:27:14.639   04 Jun 2027 08:28:39.724            85.085              Murmansk1          2658.906
       307   04 Jun 2027 08:28:39.969   04 Jun 2027 08:29:20.478            40.509                 Moscow          1265.906
       308   04 Jun 2027 08:29:32.412   04 Jun 2027 08:30:27.475            55.063                Irkutsk          1720.719
       309   04 Jun 2027 08:30:42.315   04 Jun 2027 08:31:05.762            23.447                Norilsk           732.719
       310   04 Jun 2027 08:31:09.315   04 Jun 2027 08:31:56.608            47.293                Norilsk          1477.906
       311   04 Jun 2027 08:35:23.119   04 Jun 2027 08:35:40.759            17.640              Murmansk2           551.250
       312   04 Jun 2027 08:38:17.651   04 Jun 2027 08:38:31.280            13.629              Murmansk2           425.906
       313   04 Jun 2027 09:11:32.639   04 Jun 2027 09:12:19.644            47.005            RioGallegos          1468.906
       314   04 Jun 2027 09:13:24.095   04 Jun 2027 09:13:37.720            13.625            RioGallegos           425.781
       315   04 Jun 2027 09:49:28.200   04 Jun 2027 09:52:14.842           166.642                  Delhi          5207.562
       316   04 Jun 2027 10:02:31.036   04 Jun 2027 10:02:44.520            13.484                 Moscow           421.375
       317   04 Jun 2027 10:02:52.822   04 Jun 2027 10:03:11.838            19.016              Murmansk2           594.250
       318   04 Jun 2027 10:03:12.400   04 Jun 2027 10:03:44.386            31.986              Murmansk1           999.563
       319   04 Jun 2027 10:03:51.071   04 Jun 2027 10:04:19.408            28.337              Murmansk1           885.531
       320   04 Jun 2027 10:04:19.408   04 Jun 2027 10:04:30.543            11.135              Murmansk2           347.969
       321   04 Jun 2027 10:04:34.438   04 Jun 2027 10:05:08.999            34.561                Novosib          1080.031
       322   04 Jun 2027 10:05:12.359   04 Jun 2027 10:05:24.376            12.017                 Moscow           375.531
       323   04 Jun 2027 10:05:28.024   04 Jun 2027 10:05:58.051            30.027                Novosib           938.344
       324   04 Jun 2027 10:06:02.597   04 Jun 2027 10:06:21.733            19.136              Murmansk1           598.000
       325   04 Jun 2027 10:06:26.877   04 Jun 2027 10:06:32.424             5.547                 Moscow           173.344
       326   04 Jun 2027 10:06:41.267   04 Jun 2027 10:06:44.055             2.788                Norilsk            87.125
       327   04 Jun 2027 10:06:47.233   04 Jun 2027 10:07:17.308            30.075              Murmansk2           939.844
       328   04 Jun 2027 10:07:57.794   04 Jun 2027 10:08:07.906            10.112              Murmansk1           316.000
       329   04 Jun 2027 11:36:56.062   04 Jun 2027 11:38:09.803            73.741                 Moscow          2304.406
       330   04 Jun 2027 11:39:05.789   04 Jun 2027 11:39:46.488            40.699              Murmansk2          1271.844
       331   04 Jun 2027 11:39:53.856   04 Jun 2027 11:41:05.866            72.010                 Moscow          2250.312
       332   04 Jun 2027 11:41:37.086   04 Jun 2027 11:42:07.286            30.200                 Moscow           943.750
       333   04 Jun 2027 11:42:19.607   04 Jun 2027 11:42:44.293            24.686                 Moscow           771.438
       334   04 Jun 2027 11:44:05.147   04 Jun 2027 11:44:16.832            11.685              Murmansk1           365.156
       335   04 Jun 2027 11:45:11.790   04 Jun 2027 11:45:41.145            29.355                Norilsk           917.344
       336   04 Jun 2027 12:47:57.661   04 Jun 2027 12:51:02.607           184.946               CapeTown          5779.563
       337   04 Jun 2027 12:52:37.046   04 Jun 2027 12:54:25.599           108.553               CapeTown          3392.281
       338   04 Jun 2027 13:14:21.077   04 Jun 2027 13:15:23.615            62.538              Murmansk1          1954.313
       339   04 Jun 2027 13:15:23.615   04 Jun 2027 13:15:43.851            20.236              Murmansk2           632.375
       340   04 Jun 2027 13:16:22.965   04 Jun 2027 13:17:00.156            37.191              Murmansk2          1162.219
       341   04 Jun 2027 13:28:04.912   04 Jun 2027 13:30:27.267           142.355                Anadyr1          4448.594
       342   04 Jun 2027 13:31:10.719   04 Jun 2027 13:32:10.077            59.358                Anadyr2          1854.938
       343   04 Jun 2027 13:33:43.301   04 Jun 2027 13:34:23.571            40.270                Anadyr1          1258.438
       344   04 Jun 2027 13:36:28.841   04 Jun 2027 13:38:00.525            91.684                Anadyr1          2865.125
       345   04 Jun 2027 14:55:53.117   04 Jun 2027 14:56:00.137             7.020              Murmansk2           219.375
       346   04 Jun 2027 14:57:17.215   04 Jun 2027 14:57:33.711            16.496              Murmansk1           515.500
       347   04 Jun 2027 14:59:14.829   04 Jun 2027 14:59:21.670             6.841              Murmansk2           213.781
       348   04 Jun 2027 15:01:27.136   04 Jun 2027 15:01:34.813             7.677              Murmansk1           239.906
       349   04 Jun 2027 15:03:41.065   04 Jun 2027 15:06:04.262           143.197                Anadyr1          4474.906
       350   04 Jun 2027 15:06:54.808   04 Jun 2027 15:14:12.774           437.966               Magadan1         13686.437
       351   04 Jun 2027 16:41:56.103   04 Jun 2027 16:43:37.127           101.024               Magadan1          3157.000
       352   04 Jun 2027 16:44:16.775   04 Jun 2027 16:44:45.717            28.942               Magadan2           904.438
       353   04 Jun 2027 16:45:29.110   04 Jun 2027 16:46:09.878            40.768               Magadan2          1274.000
       354   04 Jun 2027 17:36:16.134   04 Jun 2027 17:38:43.504           147.370            RioGallegos          4605.313
       355   04 Jun 2027 18:15:32.156   04 Jun 2027 18:16:17.783            45.627                Anadyr1          1425.844
       356   04 Jun 2027 18:17:38.500   04 Jun 2027 18:21:46.045           247.545                Norilsk          7735.781
       357   04 Jun 2027 18:22:40.992   04 Jun 2027 18:26:07.454           206.462                Irkutsk          6451.937
       358   04 Jun 2027 18:27:13.392   04 Jun 2027 18:28:10.329            56.937                Irkutsk          1779.281
       359   04 Jun 2027 18:37:52.543   04 Jun 2027 18:40:05.630           133.087                Sumatra          4158.969
       360   04 Jun 2027 18:41:38.121   04 Jun 2027 18:41:55.907            17.786                Sumatra           555.813
       361   04 Jun 2027 18:43:49.224   04 Jun 2027 18:45:48.385           119.161                Sumatra          3723.781
       362   04 Jun 2027 20:00:46.085   04 Jun 2027 20:01:48.844            62.759                Novosib          1961.219
       363   04 Jun 2027 20:03:11.820   04 Jun 2027 20:05:30.286           138.466                Novosib          4327.062
       364   04 Jun 2027 20:08:42.096   04 Jun 2027 20:10:01.483            79.387                  Delhi          2480.844
       365   04 Jun 2027 21:32:27.209   04 Jun 2027 21:37:11.888           284.679              Murmansk2          8896.219
       366   04 Jun 2027 23:04:17.073   04 Jun 2027 23:06:06.715           109.642               Magadan2          3426.313
       367   04 Jun 2027 23:07:32.229   04 Jun 2027 23:09:08.006            95.777              Murmansk2          2993.031
       368   04 Jun 2027 23:09:08.423   04 Jun 2027 23:13:39.015           270.592              Murmansk1          8456.000
       369   04 Jun 2027 23:14:20.275   04 Jun 2027 23:15:15.835            55.560                 Moscow          1736.250
       370   04 Jun 2027 23:37:45.658   04 Jun 2027 23:40:00.919           135.261               CapeTown          4226.906
       371   04 Jun 2027 23:41:27.235   04 Jun 2027 23:43:27.348           120.113               CapeTown          3753.531
       372   04 Jun 2027 23:45:34.299   04 Jun 2027 23:45:58.983            24.684               CapeTown           771.375
       373   05 Jun 2027 00:46:39.890   05 Jun 2027 00:47:17.256            37.366                 Moscow          1167.688
       374   05 Jun 2027 00:49:56.505   05 Jun 2027 00:50:08.193            11.688                 Moscow           365.250
       375   05 Jun 2027 00:50:19.376   05 Jun 2027 00:50:32.919            13.543                 Moscow           423.219
       376   05 Jun 2027 00:55:09.074   05 Jun 2027 00:55:14.422             5.348                 Moscow           167.125
       377   05 Jun 2027 00:55:28.371   05 Jun 2027 00:56:15.010            46.639                 Moscow          1457.469
       378   05 Jun 2027 01:13:00.065   05 Jun 2027 01:13:02.048             1.983               CapeTown            61.969
       379   05 Jun 2027 01:13:46.314   05 Jun 2027 01:14:21.174            34.860               CapeTown          1089.375
       380   05 Jun 2027 01:19:04.384   05 Jun 2027 01:19:24.332            19.948               CapeTown           623.375
       381   05 Jun 2027 01:19:43.950   05 Jun 2027 01:20:08.815            24.865               CapeTown           777.031
       382   05 Jun 2027 02:07:17.621   05 Jun 2027 02:08:03.446            45.825                Anadyr2          1432.031
       383   05 Jun 2027 02:08:21.427   05 Jun 2027 02:08:32.984            11.557                Anadyr1           361.156
       384   05 Jun 2027 02:08:50.231   05 Jun 2027 02:09:06.292            16.061               Magadan1           501.906
       385   05 Jun 2027 02:09:16.943   05 Jun 2027 02:10:37.226            80.283               Magadan2          2508.844
       386   05 Jun 2027 02:13:03.504   05 Jun 2027 02:13:17.638            14.134               Magadan1           441.687
       387   05 Jun 2027 02:15:48.336   05 Jun 2027 02:16:58.464            70.128               Magadan1          2191.500
       388   05 Jun 2027 02:20:18.017   05 Jun 2027 02:20:36.587            18.570              Murmansk1           580.313
       389   05 Jun 2027 02:20:41.216   05 Jun 2027 02:21:09.350            28.134              Murmansk2           879.187
       390   05 Jun 2027 02:21:59.386   05 Jun 2027 02:22:41.114            41.728              Murmansk2          1304.000
       391   05 Jun 2027 02:23:25.207   05 Jun 2027 02:23:44.971            19.764                 Moscow           617.625
       392   05 Jun 2027 02:27:55.930   05 Jun 2027 02:28:46.018            50.088                 Moscow          1565.250
       393   05 Jun 2027 02:49:53.722   05 Jun 2027 02:50:29.732            36.010               CapeTown          1125.313
       394   05 Jun 2027 02:50:47.747   05 Jun 2027 02:52:40.775           113.028               CapeTown          3532.125
       395   05 Jun 2027 03:49:35.141   05 Jun 2027 03:50:31.178            56.037               Magadan1          1751.156
       396   05 Jun 2027 03:51:16.271   05 Jun 2027 03:51:20.857             4.586                Anadyr2           143.312
       397   05 Jun 2027 03:51:32.116   05 Jun 2027 03:55:49.541           257.425                Anadyr1          8044.531
       398   05 Jun 2027 03:55:49.541   05 Jun 2027 03:55:50.028             0.487                Anadyr2            15.219
       399   05 Jun 2027 05:25:04.442   05 Jun 2027 05:25:31.575            27.133                Irkutsk           847.906
       400   05 Jun 2027 05:25:40.956   05 Jun 2027 05:25:46.679             5.723               Magadan2           178.844
       401   05 Jun 2027 05:25:49.005   05 Jun 2027 05:29:08.340           199.335                Anadyr1          6229.219
       402   05 Jun 2027 05:29:14.784   05 Jun 2027 05:30:30.982            76.198                Anadyr2          2381.187
       403   05 Jun 2027 05:30:40.011   05 Jun 2027 05:31:10.023            30.012                Irkutsk           937.875
       404   05 Jun 2027 05:31:20.743   05 Jun 2027 05:32:07.242            46.499                Novosib          1453.094
       405   05 Jun 2027 05:32:43.228   05 Jun 2027 05:33:19.565            36.337              Murmansk2          1135.531
       406   05 Jun 2027 05:33:25.138   05 Jun 2027 05:34:04.096            38.958                Norilsk          1217.438
       407   05 Jun 2027 05:34:08.324   05 Jun 2027 05:34:42.009            33.685                Norilsk          1052.656
       408   05 Jun 2027 06:06:30.978   05 Jun 2027 06:08:34.075           123.097            RioGallegos          3846.781
       409   05 Jun 2027 06:10:20.017   05 Jun 2027 06:10:30.067            10.050            RioGallegos           314.063
       410   05 Jun 2027 06:43:23.627   05 Jun 2027 06:45:55.558           151.931                Sumatra          4747.844
       411   05 Jun 2027 07:02:23.737   05 Jun 2027 07:03:05.312            41.575               Magadan2          1299.219
       412   05 Jun 2027 07:03:16.262   05 Jun 2027 07:04:38.119            81.857               Magadan2          2558.031
       413   05 Jun 2027 07:04:51.417   05 Jun 2027 07:05:56.453            65.036              Murmansk2          2032.375
       414   05 Jun 2027 07:05:56.453   05 Jun 2027 07:07:17.962            81.509              Murmansk1          2547.156
       415   05 Jun 2027 07:07:21.519   05 Jun 2027 07:07:44.331            22.812                Norilsk           712.875
       416   05 Jun 2027 07:08:07.405   05 Jun 2027 07:08:13.975             6.570              Murmansk1           205.312
       417   05 Jun 2027 07:08:34.323   05 Jun 2027 07:08:42.482             8.159              Murmansk1           254.969
       418   05 Jun 2027 07:12:33.648   05 Jun 2027 07:12:56.525            22.877              Murmansk2           714.906
       419   05 Jun 2027 07:42:45.384   05 Jun 2027 07:42:46.279             0.895            RioGallegos            27.969
       420   05 Jun 2027 07:43:08.044   05 Jun 2027 07:43:28.074            20.030            RioGallegos           625.937
       421   05 Jun 2027 07:44:57.220   05 Jun 2027 07:45:13.749            16.529            RioGallegos           516.531
       422   05 Jun 2027 07:45:37.522   05 Jun 2027 07:45:47.954            10.432            RioGallegos           326.000
       423   05 Jun 2027 07:46:45.832   05 Jun 2027 07:46:52.963             7.131            RioGallegos           222.844
       424   05 Jun 2027 08:17:09.850   05 Jun 2027 08:18:55.723           105.873                Sumatra          3308.531
       425   05 Jun 2027 08:26:17.881   05 Jun 2027 08:27:07.106            49.225                  Delhi          1538.281
       426   05 Jun 2027 08:27:35.897   05 Jun 2027 08:29:42.775           126.878                  Delhi          3964.938
       427   05 Jun 2027 08:38:06.148   05 Jun 2027 08:38:14.426             8.278                Novosib           258.688
       428   05 Jun 2027 08:38:20.838   05 Jun 2027 08:39:37.377            76.539                Novosib          2391.844
       429   05 Jun 2027 08:39:46.380   05 Jun 2027 08:40:41.259            54.879              Murmansk1          1714.969
       430   05 Jun 2027 08:40:43.292   05 Jun 2027 08:41:13.109            29.817                 Moscow           931.781
       431   05 Jun 2027 08:41:32.010   05 Jun 2027 08:42:34.384            62.374              Murmansk1          1949.188
       432   05 Jun 2027 08:42:38.429   05 Jun 2027 08:43:11.166            32.737                Norilsk          1023.031
       433   05 Jun 2027 08:43:23.395   05 Jun 2027 08:43:34.262            10.867                Novosib           339.594
       434   05 Jun 2027 08:44:07.978   05 Jun 2027 08:44:21.645            13.667                 Moscow           427.094
       435   05 Jun 2027 08:50:15.978   05 Jun 2027 08:50:23.397             7.419              Murmansk2           231.844
       436   05 Jun 2027 10:01:45.994   05 Jun 2027 10:04:23.615           157.621                  Delhi          4925.656
       437   05 Jun 2027 10:05:43.819   05 Jun 2027 10:06:02.077            18.258                  Delhi           570.562
       438   05 Jun 2027 10:06:23.025   05 Jun 2027 10:06:42.784            19.759                  Delhi           617.469
       439   05 Jun 2027 10:11:05.523   05 Jun 2027 10:11:39.900            34.377                  Delhi          1074.281
       440   05 Jun 2027 10:14:34.889   05 Jun 2027 10:15:12.657            37.768              Murmansk2          1180.250
       441   05 Jun 2027 10:15:16.315   05 Jun 2027 10:15:18.976             2.661                 Moscow            83.156
       442   05 Jun 2027 10:15:20.532   05 Jun 2027 10:15:40.709            20.177              Murmansk2           630.531
       443   05 Jun 2027 10:15:52.332   05 Jun 2027 10:16:38.103            45.771                 Moscow          1430.344
       444   05 Jun 2027 10:16:59.135   05 Jun 2027 10:17:29.360            30.225              Murmansk1           944.531
       445   05 Jun 2027 10:17:50.815   05 Jun 2027 10:18:09.553            18.738                Norilsk           585.562
       446   05 Jun 2027 10:18:16.737   05 Jun 2027 10:18:56.645            39.908                Novosib          1247.125
       447   05 Jun 2027 11:49:34.732   05 Jun 2027 11:49:48.255            13.523              Murmansk2           422.594
       448   05 Jun 2027 11:51:35.091   05 Jun 2027 11:51:45.417            10.326              Murmansk2           322.688
       449   05 Jun 2027 11:52:13.834   05 Jun 2027 11:52:26.754            12.920              Murmansk1           403.750
       450   05 Jun 2027 11:52:26.754   05 Jun 2027 11:52:35.843             9.089              Murmansk2           284.031
       451   05 Jun 2027 11:53:00.201   05 Jun 2027 11:53:46.059            45.858              Murmansk2          1433.062
       452   05 Jun 2027 11:53:51.117   05 Jun 2027 11:54:45.920            54.803              Murmansk2          1712.594
       453   05 Jun 2027 11:55:44.802   05 Jun 2027 11:55:59.980            15.178                Norilsk           474.312
       454   05 Jun 2027 12:01:39.132   05 Jun 2027 12:02:02.604            23.472              Murmansk2           733.500
       455   05 Jun 2027 12:59:41.080   05 Jun 2027 13:03:15.771           214.691               CapeTown          6709.094
       456   05 Jun 2027 13:09:05.806   05 Jun 2027 13:10:54.653           108.847               CapeTown          3401.469
       457   05 Jun 2027 13:26:41.167   05 Jun 2027 13:26:47.779             6.612              Murmansk2           206.625
       458   05 Jun 2027 13:27:21.945   05 Jun 2027 13:28:24.059            62.114              Murmansk1          1941.062
       459   05 Jun 2027 13:29:37.742   05 Jun 2027 13:30:05.237            27.495              Murmansk2           859.219
       460   05 Jun 2027 13:31:49.906   05 Jun 2027 13:32:04.071            14.165              Murmansk1           442.656
       461   05 Jun 2027 13:32:35.459   05 Jun 2027 13:32:38.935             3.476              Murmansk1           108.625
       462   05 Jun 2027 13:33:21.756   05 Jun 2027 13:33:48.905            27.149              Murmansk2           848.406
       463   05 Jun 2027 13:35:14.607   05 Jun 2027 13:35:19.128             4.521              Murmansk2           141.281
       464   05 Jun 2027 13:35:19.128   05 Jun 2027 13:35:30.510            11.382              Murmansk1           355.687
       465   05 Jun 2027 13:36:15.879   05 Jun 2027 13:36:33.351            17.472              Murmansk2           546.000
       466   05 Jun 2027 13:37:08.855   05 Jun 2027 13:37:43.522            34.667              Murmansk2          1083.344
       467   05 Jun 2027 13:40:01.123   05 Jun 2027 13:42:06.654           125.531                Anadyr1          3922.844
       468   05 Jun 2027 13:43:11.989   05 Jun 2027 13:44:43.820            91.831                Anadyr2          2869.719
       469   05 Jun 2027 13:48:29.245   05 Jun 2027 13:48:35.969             6.724                Anadyr1           210.125
       470   05 Jun 2027 13:48:44.739   05 Jun 2027 13:50:30.214           105.475                Anadyr2          3296.094
       471   05 Jun 2027 15:11:36.702   05 Jun 2027 15:11:56.829            20.127              Murmansk1           628.969
       472   05 Jun 2027 15:15:41.899   05 Jun 2027 15:16:46.055            64.156                Anadyr2          2004.875
       473   05 Jun 2027 15:16:46.055   05 Jun 2027 15:17:06.975            20.920                Anadyr1           653.750
       474   05 Jun 2027 15:17:25.822   05 Jun 2027 15:18:05.540            39.718                Anadyr2          1241.188
       475   05 Jun 2027 15:18:42.221   05 Jun 2027 15:26:14.243           452.022               Magadan2         14125.688
       476   05 Jun 2027 16:53:55.623   05 Jun 2027 16:54:34.558            38.935               Magadan2          1216.719
       477   05 Jun 2027 16:57:31.782   05 Jun 2027 16:58:00.554            28.772               Magadan2           899.125
       478   05 Jun 2027 17:00:58.887   05 Jun 2027 17:01:30.464            31.577               Magadan2           986.781
       479   05 Jun 2027 17:02:27.175   05 Jun 2027 17:02:36.392             9.217               Magadan1           288.031
       480   05 Jun 2027 17:47:24.953   05 Jun 2027 17:50:28.081           183.128            RioGallegos          5722.750
       481   05 Jun 2027 17:53:40.536   05 Jun 2027 17:54:08.387            27.851            RioGallegos           870.344
       482   05 Jun 2027 18:29:35.338   05 Jun 2027 18:33:05.237           209.899                Norilsk          6559.344
