uniorb/output/strategy_1/Drop/Drop_KinoSat_111205.txt

KinoSat_111205
-------------------------
    Access    *     Start Time (UTCG)     *     Stop Time (UTCG)  *   Duration (s)        *       Station  *  Data (Mbytes)
         1   01 Jun 2027 03:34:21.627   01 Jun 2027 03:36:20.440           118.813              Murmansk2          3712.906
         2   01 Jun 2027 03:36:20.440   01 Jun 2027 03:36:41.932            21.492              Murmansk1           671.625
         3   01 Jun 2027 04:56:14.753   01 Jun 2027 05:00:11.459           236.706               Magadan1          7397.063
         4   01 Jun 2027 05:00:26.117   01 Jun 2027 05:00:53.479            27.362                Anadyr2           855.063
         5   01 Jun 2027 06:33:20.536   01 Jun 2027 06:34:15.166            54.630                Irkutsk          1707.188
         6   01 Jun 2027 06:34:20.227   01 Jun 2027 06:36:13.232           113.005               Magadan1          3531.406
         7   01 Jun 2027 06:36:33.862   01 Jun 2027 06:37:21.746            47.884                Anadyr1          1496.375
         8   01 Jun 2027 08:08:46.465   01 Jun 2027 08:08:51.503             5.038                Irkutsk           157.438
         9   01 Jun 2027 08:08:58.276   01 Jun 2027 08:09:16.662            18.386                Novosib           574.562
        10   01 Jun 2027 08:09:24.004   01 Jun 2027 08:11:38.722           134.718                Irkutsk          4209.937
        11   01 Jun 2027 08:11:51.449   01 Jun 2027 08:12:12.918            21.469                Novosib           670.906
        12   01 Jun 2027 08:12:16.761   01 Jun 2027 08:14:10.016           113.255              Murmansk1          3539.219
        13   01 Jun 2027 08:14:10.016   01 Jun 2027 08:14:11.758             1.742              Murmansk2            54.438
        14   01 Jun 2027 08:15:01.402   01 Jun 2027 08:15:22.278            20.876              Murmansk2           652.375
        15   01 Jun 2027 08:15:22.278   01 Jun 2027 08:16:05.492            43.214              Murmansk1          1350.438
        16   01 Jun 2027 08:22:10.366   01 Jun 2027 08:22:35.530            25.164              Murmansk2           786.375
        17   01 Jun 2027 08:48:25.751   01 Jun 2027 08:49:27.807            62.056            RioGallegos          1939.250
        18   01 Jun 2027 08:51:01.900   01 Jun 2027 08:51:03.607             1.707            RioGallegos            53.344
        19   01 Jun 2027 09:24:23.798   01 Jun 2027 09:25:37.718            73.920                Sumatra          2310.000
        20   01 Jun 2027 09:44:24.190   01 Jun 2027 09:47:34.275           190.085                Irkutsk          5940.156
        21   01 Jun 2027 09:48:33.629   01 Jun 2027 09:51:06.503           152.874                Novosib          4777.312
        22   01 Jun 2027 09:51:14.757   01 Jun 2027 09:53:26.620           131.863              Murmansk2          4120.719
        23   01 Jun 2027 09:56:40.810   01 Jun 2027 09:57:15.720            34.910              Murmansk2          1090.937
        24   01 Jun 2027 10:25:27.368   01 Jun 2027 10:27:50.403           143.035            RioGallegos          4469.844
        25   01 Jun 2027 10:28:22.194   01 Jun 2027 10:28:29.694             7.500            RioGallegos           234.375
        26   01 Jun 2027 10:59:42.082   01 Jun 2027 11:01:15.130            93.048                Sumatra          2907.750
        27   01 Jun 2027 11:04:05.910   01 Jun 2027 11:04:22.578            16.668                Sumatra           520.875
        28   01 Jun 2027 11:07:51.597   01 Jun 2027 11:08:45.765            54.168                  Delhi          1692.750
        29   01 Jun 2027 11:21:23.422   01 Jun 2027 11:22:06.632            43.210                Irkutsk          1350.312
        30   01 Jun 2027 11:22:43.147   01 Jun 2027 11:23:35.894            52.747                Irkutsk          1648.344
        31   01 Jun 2027 11:24:50.486   01 Jun 2027 11:25:55.461            64.975                Novosib          2030.469
        32   01 Jun 2027 11:26:06.282   01 Jun 2027 11:26:20.331            14.049                 Moscow           439.031
        33   01 Jun 2027 11:26:41.253   01 Jun 2027 11:28:51.780           130.527              Murmansk2          4078.969
        34   01 Jun 2027 12:44:37.495   01 Jun 2027 12:49:42.770           305.275                  Delhi          9539.844
        35   01 Jun 2027 12:53:02.252   01 Jun 2027 12:53:08.035             5.783                Novosib           180.719
        36   01 Jun 2027 12:53:52.599   01 Jun 2027 12:54:25.582            32.983                Novosib          1030.719
        37   01 Jun 2027 12:55:38.023   01 Jun 2027 12:55:42.972             4.949                Novosib           154.656
        38   01 Jun 2027 12:56:26.612   01 Jun 2027 12:57:52.543            85.931                Novosib          2685.344
        39   01 Jun 2027 12:59:02.138   01 Jun 2027 12:59:12.931            10.793                Norilsk           337.281
        40   01 Jun 2027 12:59:49.616   01 Jun 2027 13:00:44.960            55.344                Norilsk          1729.500
        41   01 Jun 2027 14:27:57.498   01 Jun 2027 14:29:51.742           114.244                 Moscow          3570.125
        42   01 Jun 2027 14:31:28.781   01 Jun 2027 14:33:15.689           106.908              Murmansk1          3340.875
        43   01 Jun 2027 14:33:27.475   01 Jun 2027 14:35:14.562           107.087              Murmansk2          3346.469
        44   01 Jun 2027 14:38:13.467   01 Jun 2027 14:40:45.224           151.757                Norilsk          4742.406
        45   01 Jun 2027 14:47:30.513   01 Jun 2027 14:48:19.703            49.190                Anadyr2          1537.187
        46   01 Jun 2027 14:50:10.257   01 Jun 2027 14:50:25.656            15.399                Anadyr1           481.219
        47   01 Jun 2027 15:41:29.679   01 Jun 2027 15:42:34.672            64.993               CapeTown          2031.031
        48   01 Jun 2027 16:07:24.459   01 Jun 2027 16:08:03.224            38.765                 Moscow          1211.406
        49   01 Jun 2027 16:09:16.607   01 Jun 2027 16:09:54.935            38.328                 Moscow          1197.750
        50   01 Jun 2027 16:10:32.151   01 Jun 2027 16:10:53.932            21.781              Murmansk1           680.656
        51   01 Jun 2027 16:11:07.838   01 Jun 2027 16:11:50.668            42.830                 Moscow          1338.437
        52   01 Jun 2027 16:12:35.889   01 Jun 2027 16:12:49.179            13.290              Murmansk1           415.313
        53   01 Jun 2027 16:14:19.035   01 Jun 2027 16:14:37.463            18.428              Murmansk1           575.875
        54   01 Jun 2027 16:22:02.746   01 Jun 2027 16:24:24.493           141.747                Anadyr2          4429.594
        55   01 Jun 2027 16:27:27.678   01 Jun 2027 16:28:03.198            35.520                Anadyr1          1110.000
        56   01 Jun 2027 17:17:50.870   01 Jun 2027 17:19:17.409            86.539               CapeTown          2704.344
        57   01 Jun 2027 17:50:09.105   01 Jun 2027 17:54:37.008           267.903              Murmansk2          8371.969
        58   01 Jun 2027 17:57:49.722   01 Jun 2027 17:58:34.996            45.274                Anadyr2          1414.813
        59   01 Jun 2027 18:00:33.547   01 Jun 2027 18:03:30.001           176.454               Magadan2          5514.188
        60   01 Jun 2027 19:33:45.388   01 Jun 2027 19:35:48.369           122.981                Anadyr1          3843.156
        61   01 Jun 2027 19:35:50.723   01 Jun 2027 19:36:08.377            17.654                Anadyr2           551.687
        62   01 Jun 2027 19:36:12.971   01 Jun 2027 19:39:17.149           184.178               Magadan2          5755.562
        63   01 Jun 2027 19:40:17.695   01 Jun 2027 19:40:24.032             6.337               Magadan2           198.031
        64   01 Jun 2027 19:40:39.600   01 Jun 2027 19:40:43.611             4.011               Magadan2           125.344
        65   01 Jun 2027 19:40:59.554   01 Jun 2027 19:41:16.897            17.343               Magadan2           541.969
        66   01 Jun 2027 20:28:44.351   01 Jun 2027 20:31:30.851           166.500            RioGallegos          5203.125
        67   01 Jun 2027 20:31:32.206   01 Jun 2027 20:31:55.930            23.724            RioGallegos           741.375
        68   01 Jun 2027 20:35:10.855   01 Jun 2027 20:35:18.439             7.584            RioGallegos           237.000
        69   01 Jun 2027 21:09:28.548   01 Jun 2027 21:10:04.839            36.291                Anadyr1          1134.094
        70   01 Jun 2027 21:11:37.844   01 Jun 2027 21:12:26.937            49.093                Norilsk          1534.156
        71   01 Jun 2027 21:13:02.312   01 Jun 2027 21:14:19.085            76.773               Magadan1          2399.156
        72   01 Jun 2027 21:14:19.085   01 Jun 2027 21:15:15.372            56.287               Magadan2          1758.969
        73   01 Jun 2027 21:16:04.190   01 Jun 2027 21:19:32.896           208.706                Irkutsk          6522.062
        74   01 Jun 2027 21:30:09.724   01 Jun 2027 21:33:15.342           185.618                Sumatra          5800.562
        75   01 Jun 2027 22:45:05.752   01 Jun 2027 22:45:18.912            13.160                Anadyr2           411.250
        76   01 Jun 2027 22:45:32.036   01 Jun 2027 22:47:07.556            95.520                Anadyr2          2985.000
        77   01 Jun 2027 22:47:30.953   01 Jun 2027 22:48:24.164            53.211                Norilsk          1662.844
        78   01 Jun 2027 22:49:27.174   01 Jun 2027 22:50:12.109            44.935               Magadan1          1404.219
        79   01 Jun 2027 22:51:22.695   01 Jun 2027 22:51:51.815            29.120                Irkutsk           910.000
        80   01 Jun 2027 22:52:08.906   01 Jun 2027 22:54:36.091           147.185                Novosib          4599.531
        81   01 Jun 2027 23:00:07.819   01 Jun 2027 23:02:50.991           163.172                  Delhi          5099.125
        82   02 Jun 2027 00:18:16.001   02 Jun 2027 00:18:22.730             6.729                Anadyr2           210.281
        83   02 Jun 2027 00:19:18.987   02 Jun 2027 00:20:37.682            78.695                Anadyr1          2459.219
        84   02 Jun 2027 00:23:31.148   02 Jun 2027 00:23:47.961            16.813                Norilsk           525.406
        85   02 Jun 2027 00:23:56.061   02 Jun 2027 00:24:52.060            55.999               Magadan2          1749.969
        86   02 Jun 2027 00:26:03.531   02 Jun 2027 00:27:53.095           109.564              Murmansk1          3423.875
        87   02 Jun 2027 00:28:06.051   02 Jun 2027 00:28:24.856            18.805                Novosib           587.656
        88   02 Jun 2027 00:28:49.041   02 Jun 2027 00:29:54.215            65.174              Murmansk2          2036.688
        89   02 Jun 2027 00:31:54.486   02 Jun 2027 00:32:05.973            11.487              Murmansk1           358.969
        90   02 Jun 2027 00:33:11.788   02 Jun 2027 00:33:58.604            46.816                 Moscow          1463.000
        91   02 Jun 2027 00:35:57.961   02 Jun 2027 00:36:50.366            52.405                  Delhi          1637.656
        92   02 Jun 2027 01:17:30.232   02 Jun 2027 01:18:10.903            40.671            RioGallegos          1270.969
        93   02 Jun 2027 01:19:58.110   02 Jun 2027 01:20:56.181            58.071            RioGallegos          1814.719
        94   02 Jun 2027 01:51:34.452   02 Jun 2027 01:51:56.902            22.450                Anadyr2           701.563
        95   02 Jun 2027 01:52:07.147   02 Jun 2027 01:52:11.980             4.833                Anadyr2           151.031
        96   02 Jun 2027 01:52:49.456   02 Jun 2027 01:53:44.235            54.779                Anadyr2          1711.844
        97   02 Jun 2027 01:54:16.980   02 Jun 2027 01:54:30.047            13.067                Anadyr2           408.344
        98   02 Jun 2027 01:57:11.146   02 Jun 2027 01:58:19.548            68.402               Magadan1          2137.563
        99   02 Jun 2027 01:59:05.909   02 Jun 2027 01:59:38.676            32.767               Magadan2          1023.969
       100   02 Jun 2027 02:01:19.399   02 Jun 2027 02:01:41.570            22.171               Magadan1           692.844
       101   02 Jun 2027 02:02:37.124   02 Jun 2027 02:02:53.871            16.747              Murmansk1           523.344
       102   02 Jun 2027 02:03:22.077   02 Jun 2027 02:04:29.512            67.435              Murmansk2          2107.344
       103   02 Jun 2027 02:04:32.237   02 Jun 2027 02:06:21.611           109.374                Novosib          3417.938
       104   02 Jun 2027 02:30:07.056   02 Jun 2027 02:30:59.673            52.617               CapeTown          1644.281
       105   02 Jun 2027 02:33:01.239   02 Jun 2027 02:34:05.461            64.222               CapeTown          2006.938
       106   02 Jun 2027 03:46:23.439   02 Jun 2027 03:49:35.486           192.047              Murmansk1          6001.469
       107   02 Jun 2027 03:49:35.486   02 Jun 2027 03:50:31.489            56.003              Murmansk2          1750.094
       108   02 Jun 2027 03:52:09.001   02 Jun 2027 03:52:25.034            16.033                 Moscow           501.031
       109   02 Jun 2027 04:10:45.878   02 Jun 2027 04:11:06.291            20.413               CapeTown           637.906
       110   02 Jun 2027 04:13:51.059   02 Jun 2027 04:14:44.390            53.331               CapeTown          1666.594
       111   02 Jun 2027 05:08:17.158   02 Jun 2027 05:10:31.037           133.879               Magadan2          4183.719
       112   02 Jun 2027 05:10:31.037   02 Jun 2027 05:12:30.294           119.257               Magadan1          3726.781
       113   02 Jun 2027 06:45:21.692   02 Jun 2027 06:46:20.459            58.767                Irkutsk          1836.469
       114   02 Jun 2027 06:46:21.563   02 Jun 2027 06:46:53.089            31.526                Anadyr1           985.188
       115   02 Jun 2027 06:47:02.937   02 Jun 2027 06:47:24.594            21.657                Irkutsk           676.781
       116   02 Jun 2027 06:47:25.942   02 Jun 2027 06:48:41.212            75.270                Anadyr1          2352.188
       117   02 Jun 2027 06:49:03.415   02 Jun 2027 06:49:58.707            55.292               Magadan1          1727.875
       118   02 Jun 2027 07:28:27.444   02 Jun 2027 07:29:20.057            52.613            RioGallegos          1644.156
       119   02 Jun 2027 08:20:31.826   02 Jun 2027 08:20:41.423             9.597                Irkutsk           299.906
       120   02 Jun 2027 08:21:16.985   02 Jun 2027 08:24:13.715           176.730               Magadan1          5522.812
       121   02 Jun 2027 08:24:34.312   02 Jun 2027 08:24:58.612            24.300              Murmansk1           759.375
       122   02 Jun 2027 08:25:12.124   02 Jun 2027 08:25:21.443             9.319               Magadan1           291.219
       123   02 Jun 2027 08:25:29.216   02 Jun 2027 08:26:39.793            70.577                Novosib          2205.531
       124   02 Jun 2027 08:26:57.971   02 Jun 2027 08:29:45.949           167.978              Murmansk2          5249.312
       125   02 Jun 2027 08:30:34.628   02 Jun 2027 08:31:22.411            47.783              Murmansk2          1493.219
       126   02 Jun 2027 08:32:30.317   02 Jun 2027 08:33:24.837            54.520              Murmansk2          1703.750
       127   02 Jun 2027 09:01:36.483   02 Jun 2027 09:02:23.065            46.582            RioGallegos          1455.688
       128   02 Jun 2027 09:09:25.927   02 Jun 2027 09:09:38.737            12.810            RioGallegos           400.313
       129   02 Jun 2027 09:11:34.989   02 Jun 2027 09:12:25.497            50.508            RioGallegos          1578.375
       130   02 Jun 2027 09:35:57.822   02 Jun 2027 09:37:48.795           110.973                Sumatra          3467.906
       131   02 Jun 2027 09:56:38.022   02 Jun 2027 09:57:50.417            72.395                Irkutsk          2262.344
       132   02 Jun 2027 09:58:25.577   02 Jun 2027 09:58:57.888            32.311              Murmansk2          1009.719
       133   02 Jun 2027 09:58:57.888   02 Jun 2027 09:59:59.191            61.303              Murmansk1          1915.719
       134   02 Jun 2027 09:59:59.191   02 Jun 2027 10:00:41.936            42.745              Murmansk2          1335.781
       135   02 Jun 2027 10:00:47.736   02 Jun 2027 10:00:53.046             5.310                Novosib           165.937
       136   02 Jun 2027 10:01:03.736   02 Jun 2027 10:02:21.209            77.473                Novosib          2421.031
       137   02 Jun 2027 10:02:21.665   02 Jun 2027 10:03:55.958            94.293              Murmansk1          2946.656
       138   02 Jun 2027 10:05:14.663   02 Jun 2027 10:05:43.670            29.007              Murmansk1           906.469
       139   02 Jun 2027 10:07:56.050   02 Jun 2027 10:08:11.250            15.200              Murmansk2           475.000
       140   02 Jun 2027 10:37:56.441   02 Jun 2027 10:38:38.559            42.118            RioGallegos          1316.188
       141   02 Jun 2027 10:41:32.569   02 Jun 2027 10:42:13.907            41.338            RioGallegos          1291.812
       142   02 Jun 2027 11:12:08.589   02 Jun 2027 11:13:15.315            66.726                Sumatra          2085.188
       143   02 Jun 2027 11:15:59.176   02 Jun 2027 11:16:24.195            25.019                Sumatra           781.844
       144   02 Jun 2027 11:22:35.978   02 Jun 2027 11:22:50.673            14.695                  Delhi           459.219
       145   02 Jun 2027 11:34:31.967   02 Jun 2027 11:36:53.205           141.238                 Moscow          4413.688
       146   02 Jun 2027 11:36:55.027   02 Jun 2027 11:37:08.458            13.431                Norilsk           419.719
       147   02 Jun 2027 11:37:14.000   02 Jun 2027 11:38:15.295            61.295                Novosib          1915.469
       148   02 Jun 2027 11:38:50.916   02 Jun 2027 11:39:00.607             9.691              Murmansk2           302.844
       149   02 Jun 2027 11:39:28.054   02 Jun 2027 11:39:44.877            16.823              Murmansk2           525.719
       150   02 Jun 2027 11:40:49.237   02 Jun 2027 11:41:45.047            55.810              Murmansk1          1744.062
       151   02 Jun 2027 11:43:13.498   02 Jun 2027 11:43:26.682            13.184              Murmansk2           412.000
       152   02 Jun 2027 11:43:49.293   02 Jun 2027 11:44:17.826            28.533              Murmansk2           891.656
       153   02 Jun 2027 12:57:18.985   02 Jun 2027 12:59:42.815           143.830                  Delhi          4494.688
       154   02 Jun 2027 13:00:31.672   02 Jun 2027 13:01:24.524            52.852                  Delhi          1651.625
       155   02 Jun 2027 13:05:49.611   02 Jun 2027 13:06:34.857            45.246                Novosib          1413.937
       156   02 Jun 2027 13:06:59.684   02 Jun 2027 13:07:46.869            47.185                Novosib          1474.531
       157   02 Jun 2027 13:08:24.086   02 Jun 2027 13:10:27.925           123.839                Novosib          3869.969
       158   02 Jun 2027 13:12:43.471   02 Jun 2027 13:13:08.799            25.328                Norilsk           791.500
       159   02 Jun 2027 13:13:32.896   02 Jun 2027 13:14:26.570            53.674                Norilsk          1677.313
       160   02 Jun 2027 14:22:15.364   02 Jun 2027 14:22:54.811            39.447               CapeTown          1232.719
       161   02 Jun 2027 14:23:36.594   02 Jun 2027 14:24:21.242            44.648               CapeTown          1395.250
       162   02 Jun 2027 14:40:08.764   02 Jun 2027 14:41:50.990           102.226                 Moscow          3194.563
       163   02 Jun 2027 14:43:38.423   02 Jun 2027 14:47:14.466           216.043              Murmansk1          6751.344
       164   02 Jun 2027 14:59:06.464   02 Jun 2027 15:00:17.628            71.164                Anadyr1          2223.875
       165   02 Jun 2027 15:00:55.866   02 Jun 2027 15:02:23.576            87.710                Anadyr2          2740.938
       166   02 Jun 2027 15:04:03.567   02 Jun 2027 15:05:20.489            76.922                Anadyr1          2403.812
       167   02 Jun 2027 15:53:24.009   02 Jun 2027 15:53:51.194            27.185               CapeTown           849.531
       168   02 Jun 2027 16:20:05.628   02 Jun 2027 16:20:15.105             9.477                 Moscow           296.156
       169   02 Jun 2027 16:21:20.105   02 Jun 2027 16:21:54.654            34.549                 Moscow          1079.656
       170   02 Jun 2027 16:22:18.304   02 Jun 2027 16:22:28.485            10.181              Murmansk1           318.156
       171   02 Jun 2027 16:22:32.601   02 Jun 2027 16:22:56.007            23.406              Murmansk2           731.438
       172   02 Jun 2027 16:24:07.359   02 Jun 2027 16:25:39.554            92.195              Murmansk1          2881.094
       173   02 Jun 2027 16:34:01.609   02 Jun 2027 16:36:04.115           122.506                Anadyr2          3828.312
       174   02 Jun 2027 16:36:10.079   02 Jun 2027 16:36:19.105             9.026                Anadyr1           282.063
       175   02 Jun 2027 16:44:45.235   02 Jun 2027 16:45:34.296            49.061                Anadyr1          1533.156
       176   02 Jun 2027 17:30:11.526   02 Jun 2027 17:31:23.373            71.847               CapeTown          2245.219
       177   02 Jun 2027 17:35:28.712   02 Jun 2027 17:35:31.407             2.695               CapeTown            84.219
       178   02 Jun 2027 17:36:17.826   02 Jun 2027 17:36:31.285            13.459               CapeTown           420.594
       179   02 Jun 2027 18:03:12.931   02 Jun 2027 18:06:52.774           219.843              Murmansk1          6870.094
       180   02 Jun 2027 18:09:51.140   02 Jun 2027 18:11:51.732           120.592                Anadyr1          3768.500
       181   02 Jun 2027 18:12:27.887   02 Jun 2027 18:13:44.931            77.044               Magadan2          2407.625
       182   02 Jun 2027 18:13:44.931   02 Jun 2027 18:13:56.864            11.933               Magadan1           372.906
       183   02 Jun 2027 18:16:04.477   02 Jun 2027 18:16:27.236            22.759               Magadan2           711.219
       184   02 Jun 2027 19:45:46.384   02 Jun 2027 19:49:43.252           236.868                Anadyr1          7402.125
       185   02 Jun 2027 19:49:53.005   02 Jun 2027 19:51:37.162           104.157                Norilsk          3254.906
       186   02 Jun 2027 19:51:48.619   02 Jun 2027 19:52:31.034            42.415               Magadan2          1325.469
       187   02 Jun 2027 19:53:22.661   02 Jun 2027 19:53:47.373            24.712               Magadan2           772.250
       188   02 Jun 2027 19:55:08.031   02 Jun 2027 19:55:09.939             1.908               Magadan2            59.625
       189   02 Jun 2027 19:55:11.992   02 Jun 2027 19:55:36.860            24.868               Magadan2           777.125
       190   02 Jun 2027 19:57:22.430   02 Jun 2027 19:57:50.208            27.778               Magadan1           868.063
       191   02 Jun 2027 19:58:31.737   02 Jun 2027 19:58:39.401             7.664               Magadan2           239.500
       192   02 Jun 2027 19:58:46.686   02 Jun 2027 19:58:50.314             3.628               Magadan1           113.375
       193   02 Jun 2027 20:00:35.475   02 Jun 2027 20:00:58.342            22.867               Magadan2           714.594
       194   02 Jun 2027 20:40:26.822   02 Jun 2027 20:43:09.534           162.712            RioGallegos          5084.750
       195   02 Jun 2027 20:44:46.492   02 Jun 2027 20:44:53.187             6.695            RioGallegos           209.219
       196   02 Jun 2027 20:48:26.104   02 Jun 2027 20:49:02.849            36.745            RioGallegos          1148.281
       197   02 Jun 2027 20:50:12.664   02 Jun 2027 20:50:24.983            12.319            RioGallegos           384.969
       198   02 Jun 2027 21:21:26.200   02 Jun 2027 21:22:06.462            40.262                Anadyr1          1258.187
       199   02 Jun 2027 21:23:37.601   02 Jun 2027 21:24:28.807            51.206                Norilsk          1600.187
       200   02 Jun 2027 21:24:33.109   02 Jun 2027 21:25:52.920            79.811               Magadan2          2494.094
       201   02 Jun 2027 21:25:52.920   02 Jun 2027 21:26:19.691            26.771               Magadan1           836.594
       202   02 Jun 2027 21:27:55.111   02 Jun 2027 21:29:16.878            81.767                Irkutsk          2555.219
       203   02 Jun 2027 21:30:56.162   02 Jun 2027 21:31:27.127            30.965                Novosib           967.656
       204   02 Jun 2027 21:32:28.925   02 Jun 2027 21:32:42.801            13.876                Novosib           433.625
       205   02 Jun 2027 21:36:46.783   02 Jun 2027 21:37:24.002            37.219                Irkutsk          1163.094
       206   02 Jun 2027 21:37:50.237   02 Jun 2027 21:38:26.288            36.051                Irkutsk          1126.594
       207   02 Jun 2027 21:42:32.211   02 Jun 2027 21:44:00.039            87.828                Sumatra          2744.625
       208   02 Jun 2027 21:49:11.508   02 Jun 2027 21:51:10.050           118.542                Sumatra          3704.437
       209   02 Jun 2027 22:57:32.802   02 Jun 2027 22:57:53.711            20.909                Anadyr2           653.406
       210   02 Jun 2027 22:59:32.973   02 Jun 2027 23:00:24.881            51.908                Norilsk          1622.125
       211   02 Jun 2027 23:00:57.263   02 Jun 2027 23:01:33.645            36.382                Norilsk          1136.938
       212   02 Jun 2027 23:01:42.735   02 Jun 2027 23:01:49.554             6.819               Magadan2           213.094
       213   02 Jun 2027 23:02:02.876   02 Jun 2027 23:02:14.052            11.176               Magadan1           349.250
       214   02 Jun 2027 23:02:22.522   02 Jun 2027 23:02:58.066            35.544               Magadan2          1110.750
       215   02 Jun 2027 23:03:24.545   02 Jun 2027 23:04:05.697            41.152                Irkutsk          1286.000
       216   02 Jun 2027 23:04:19.713   02 Jun 2027 23:04:44.958            25.245                Novosib           788.906
       217   02 Jun 2027 23:05:39.118   02 Jun 2027 23:06:46.239            67.121                Novosib          2097.531
       218   02 Jun 2027 23:10:02.894   02 Jun 2027 23:10:39.207            36.313                Novosib          1134.781
       219   02 Jun 2027 23:11:40.696   02 Jun 2027 23:12:29.563            48.867                  Delhi          1527.094
       220   02 Jun 2027 23:12:54.971   02 Jun 2027 23:13:02.419             7.448                  Delhi           232.750
       221   02 Jun 2027 23:15:57.084   02 Jun 2027 23:16:57.868            60.784                  Delhi          1899.500
       222   02 Jun 2027 23:19:14.791   02 Jun 2027 23:19:46.166            31.375                  Delhi           980.469
       223   02 Jun 2027 23:20:59.032   02 Jun 2027 23:21:35.448            36.416                  Delhi          1138.000
       224   03 Jun 2027 00:00:06.063   03 Jun 2027 00:00:16.833            10.770            RioGallegos           336.562
       225   03 Jun 2027 00:00:27.278   03 Jun 2027 00:01:25.790            58.512            RioGallegos          1828.500
       226   03 Jun 2027 00:31:01.584   03 Jun 2027 00:31:11.033             9.449                Anadyr1           295.281
       227   03 Jun 2027 00:31:17.604   03 Jun 2027 00:31:46.940            29.336                Anadyr1           916.750
       228   03 Jun 2027 00:32:25.591   03 Jun 2027 00:32:43.235            17.644                Anadyr1           551.375
       229   03 Jun 2027 00:34:07.459   03 Jun 2027 00:35:11.762            64.303                Anadyr2          2009.469
       230   03 Jun 2027 00:35:32.800   03 Jun 2027 00:35:50.038            17.238                Norilsk           538.687
       231   03 Jun 2027 00:35:50.330   03 Jun 2027 00:36:29.740            39.410               Magadan2          1231.562
       232   03 Jun 2027 00:36:48.509   03 Jun 2027 00:37:04.334            15.825               Magadan2           494.531
       233   03 Jun 2027 00:37:25.664   03 Jun 2027 00:37:45.774            20.110               Magadan2           628.438
       234   03 Jun 2027 00:37:58.963   03 Jun 2027 00:40:15.479           136.516              Murmansk2          4266.125
       235   03 Jun 2027 00:41:29.544   03 Jun 2027 00:41:35.297             5.753              Murmansk1           179.781
       236   03 Jun 2027 00:43:24.152   03 Jun 2027 00:43:50.241            26.089                 Moscow           815.281
       237   03 Jun 2027 00:45:19.188   03 Jun 2027 00:45:39.935            20.747                 Moscow           648.344
       238   03 Jun 2027 00:47:27.429   03 Jun 2027 00:48:22.701            55.272                 Moscow          1727.250
       239   03 Jun 2027 00:54:34.378   03 Jun 2027 00:55:36.539            62.161                  Delhi          1942.531
       240   03 Jun 2027 00:57:16.642   03 Jun 2027 00:58:17.540            60.898                  Delhi          1903.063
       241   03 Jun 2027 02:03:18.518   03 Jun 2027 02:04:49.817            91.299                Anadyr1          2853.094
       242   03 Jun 2027 02:05:59.534   03 Jun 2027 02:06:20.345            20.811                Anadyr2           650.344
       243   03 Jun 2027 02:08:14.649   03 Jun 2027 02:08:49.111            34.462                Anadyr1          1076.938
       244   03 Jun 2027 02:09:05.560   03 Jun 2027 02:09:40.827            35.267               Magadan2          1102.094
       245   03 Jun 2027 02:09:40.827   03 Jun 2027 02:09:49.811             8.984               Magadan1           280.750
       246   03 Jun 2027 02:11:22.423   03 Jun 2027 02:11:36.528            14.105                Norilsk           440.781
       247   03 Jun 2027 02:12:26.647   03 Jun 2027 02:12:44.364            17.717               Magadan2           553.656
       248   03 Jun 2027 02:13:40.539   03 Jun 2027 02:14:31.502            50.963              Murmansk1          1592.594
       249   03 Jun 2027 02:15:38.473   03 Jun 2027 02:16:35.014            56.541                Novosib          1766.906
       250   03 Jun 2027 02:17:10.904   03 Jun 2027 02:17:31.452            20.548              Murmansk1           642.125
       251   03 Jun 2027 02:19:01.419   03 Jun 2027 02:19:43.650            42.231                Novosib          1319.719
       252   03 Jun 2027 02:23:10.516   03 Jun 2027 02:24:01.043            50.527                Novosib          1578.969
       253   03 Jun 2027 02:27:58.348   03 Jun 2027 02:28:10.349            12.001                 Moscow           375.031
       254   03 Jun 2027 02:29:06.892   03 Jun 2027 02:29:16.018             9.126                 Moscow           285.188
       255   03 Jun 2027 02:44:33.397   03 Jun 2027 02:44:49.523            16.126               CapeTown           503.938
       256   03 Jun 2027 02:47:47.212   03 Jun 2027 02:48:16.396            29.184               CapeTown           912.000
       257   03 Jun 2027 02:51:45.942   03 Jun 2027 02:52:04.199            18.257               CapeTown           570.531
       258   03 Jun 2027 02:52:58.055   03 Jun 2027 02:53:19.144            21.089               CapeTown           659.031
       259   03 Jun 2027 03:56:45.863   03 Jun 2027 03:57:19.859            33.996                Norilsk          1062.375
       260   03 Jun 2027 03:57:36.543   03 Jun 2027 03:58:01.301            24.758                Norilsk           773.687
       261   03 Jun 2027 03:58:39.310   03 Jun 2027 04:00:02.992            83.682              Murmansk2          2615.062
       262   03 Jun 2027 04:00:09.859   03 Jun 2027 04:01:09.911            60.052              Murmansk1          1876.625
       263   03 Jun 2027 04:04:21.728   03 Jun 2027 04:04:28.910             7.182                 Moscow           224.437
       264   03 Jun 2027 05:20:56.921   03 Jun 2027 05:22:36.246            99.325                Anadyr1          3103.906
       265   03 Jun 2027 05:22:36.246   03 Jun 2027 05:22:58.930            22.684                Anadyr2           708.875
       266   03 Jun 2027 05:23:35.449   03 Jun 2027 05:23:45.368             9.919                Anadyr2           309.969
       267   03 Jun 2027 05:24:12.036   03 Jun 2027 05:24:14.844             2.808               Magadan1            87.750
       268   03 Jun 2027 05:24:14.844   03 Jun 2027 05:24:26.609            11.765               Magadan2           367.656
       269   03 Jun 2027 05:24:51.866   03 Jun 2027 05:25:02.370            10.504               Magadan1           328.250
       270   03 Jun 2027 06:56:01.929   03 Jun 2027 06:57:21.946            80.017                Irkutsk          2500.531
       271   03 Jun 2027 06:58:54.907   03 Jun 2027 06:59:33.436            38.529                Anadyr1          1204.031
       272   03 Jun 2027 06:59:44.681   03 Jun 2027 07:00:37.239            52.558                Irkutsk          1642.438
       273   03 Jun 2027 07:00:43.019   03 Jun 2027 07:01:53.880            70.861                Anadyr1          2214.406
       274   03 Jun 2027 07:02:34.137   03 Jun 2027 07:02:56.641            22.504                Norilsk           703.250
       275   03 Jun 2027 08:32:29.378   03 Jun 2027 08:37:12.038           282.660               Magadan2          8833.125
       276   03 Jun 2027 08:37:40.981   03 Jun 2027 08:38:46.550            65.569                Norilsk          2049.031
       277   03 Jun 2027 08:39:09.778   03 Jun 2027 08:39:21.631            11.853              Murmansk2           370.406
       278   03 Jun 2027 08:39:44.135   03 Jun 2027 08:39:57.328            13.193              Murmansk2           412.281
       279   03 Jun 2027 08:40:12.551   03 Jun 2027 08:40:21.637             9.086              Murmansk2           283.938
       280   03 Jun 2027 08:41:08.141   03 Jun 2027 08:41:37.772            29.631              Murmansk1           925.969
       281   03 Jun 2027 08:43:49.584   03 Jun 2027 08:43:59.831            10.247              Murmansk2           320.219
       282   03 Jun 2027 09:12:23.546   03 Jun 2027 09:13:16.166            52.620            RioGallegos          1644.375
       283   03 Jun 2027 09:18:06.305   03 Jun 2027 09:18:14.755             8.450            RioGallegos           264.063
       284   03 Jun 2027 09:47:39.684   03 Jun 2027 09:49:44.928           125.244                Sumatra          3913.875
       285   03 Jun 2027 10:00:50.099   03 Jun 2027 10:01:19.602            29.503                  Delhi           921.969
       286   03 Jun 2027 10:08:41.393   03 Jun 2027 10:08:50.658             9.265                Norilsk           289.531
       287   03 Jun 2027 10:08:57.057   03 Jun 2027 10:09:05.265             8.208                Norilsk           256.500
       288   03 Jun 2027 10:09:11.798   03 Jun 2027 10:09:30.822            19.024                Novosib           594.500
       289   03 Jun 2027 10:09:36.836   03 Jun 2027 10:11:08.138            91.302                Norilsk          2853.187
       290   03 Jun 2027 10:11:11.180   03 Jun 2027 10:11:41.450            30.270                Novosib           945.938
       291   03 Jun 2027 10:11:46.789   03 Jun 2027 10:12:56.704            69.915                Norilsk          2184.844
       292   03 Jun 2027 10:13:04.789   03 Jun 2027 10:13:18.125            13.336                Norilsk           416.750
       293   03 Jun 2027 10:13:23.280   03 Jun 2027 10:14:12.606            49.326              Murmansk2          1541.437
       294   03 Jun 2027 10:14:21.254   03 Jun 2027 10:15:07.564            46.310              Murmansk2          1447.188
       295   03 Jun 2027 10:50:31.806   03 Jun 2027 10:50:53.644            21.838            RioGallegos           682.437
       296   03 Jun 2027 10:51:38.992   03 Jun 2027 10:52:28.631            49.639            RioGallegos          1551.219
       297   03 Jun 2027 11:24:46.271   03 Jun 2027 11:25:21.189            34.918                Sumatra          1091.187
       298   03 Jun 2027 11:27:42.194   03 Jun 2027 11:28:20.174            37.980                Sumatra          1186.875
       299   03 Jun 2027 11:39:58.733   03 Jun 2027 11:40:02.225             3.492                  Delhi           109.125
       300   03 Jun 2027 11:40:29.908   03 Jun 2027 11:40:49.778            19.870                Irkutsk           620.938
       301   03 Jun 2027 11:44:10.176   03 Jun 2027 11:45:01.529            51.353                Irkutsk          1604.781
       302   03 Jun 2027 11:45:20.128   03 Jun 2027 11:45:36.858            16.730                Irkutsk           522.813
       303   03 Jun 2027 11:45:55.276   03 Jun 2027 11:46:15.359            20.083                Novosib           627.594
       304   03 Jun 2027 11:46:23.738   03 Jun 2027 11:47:05.847            42.109                Norilsk          1315.906
       305   03 Jun 2027 11:47:09.912   03 Jun 2027 11:48:18.136            68.224                 Moscow          2132.000
       306   03 Jun 2027 11:48:27.297   03 Jun 2027 11:48:43.292            15.995                Novosib           499.844
       307   03 Jun 2027 11:48:52.404   03 Jun 2027 11:49:10.337            17.933                Norilsk           560.406
       308   03 Jun 2027 11:49:45.678   03 Jun 2027 11:50:29.567            43.889              Murmansk2          1371.531
       309   03 Jun 2027 13:10:16.664   03 Jun 2027 13:14:16.012           239.348                  Delhi          7479.625
       310   03 Jun 2027 13:18:20.388   03 Jun 2027 13:18:22.653             2.265                 Moscow            70.781
       311   03 Jun 2027 13:18:48.478   03 Jun 2027 13:19:50.258            61.780                Novosib          1930.625
       312   03 Jun 2027 13:19:50.628   03 Jun 2027 13:21:52.428           121.800              Murmansk1          3806.250
       313   03 Jun 2027 13:21:57.165   03 Jun 2027 13:22:48.215            51.050                Norilsk          1595.312
       314   03 Jun 2027 13:24:40.823   03 Jun 2027 13:25:11.038            30.215                Norilsk           944.219
       315   03 Jun 2027 14:32:19.604   03 Jun 2027 14:34:24.821           125.217               CapeTown          3913.031
       316   03 Jun 2027 14:35:59.733   03 Jun 2027 14:37:25.061            85.328               CapeTown          2666.500
       317   03 Jun 2027 14:53:26.126   03 Jun 2027 14:53:53.131            27.005                 Moscow           843.906
       318   03 Jun 2027 14:55:49.884   03 Jun 2027 14:56:49.097            59.213              Murmansk2          1850.406
       319   03 Jun 2027 14:56:49.097   03 Jun 2027 14:56:55.652             6.555              Murmansk1           204.844
       320   03 Jun 2027 14:57:11.890   03 Jun 2027 14:58:10.356            58.466              Murmansk2          1827.063
       321   03 Jun 2027 15:04:44.987   03 Jun 2027 15:04:55.864            10.877              Murmansk2           339.906
       322   03 Jun 2027 15:06:24.362   03 Jun 2027 15:06:31.408             7.046              Murmansk2           220.188
       323   03 Jun 2027 15:06:45.383   03 Jun 2027 15:07:02.635            17.252              Murmansk2           539.125
       324   03 Jun 2027 15:07:44.618   03 Jun 2027 15:08:15.411            30.793              Murmansk2           962.281
       325   03 Jun 2027 15:10:51.017   03 Jun 2027 15:13:15.357           144.340                Anadyr1          4510.625
       326   03 Jun 2027 16:11:17.453   03 Jun 2027 16:12:13.125            55.672               CapeTown          1739.750
       327   03 Jun 2027 16:33:19.628   03 Jun 2027 16:33:57.303            37.675                 Moscow          1177.344
       328   03 Jun 2027 16:34:19.835   03 Jun 2027 16:35:01.484            41.649              Murmansk2          1301.531
       329   03 Jun 2027 16:35:53.489   03 Jun 2027 16:35:56.238             2.749              Murmansk1            85.906
       330   03 Jun 2027 16:36:39.018   03 Jun 2027 16:37:27.742            48.724              Murmansk1          1522.625
       331   03 Jun 2027 16:38:45.011   03 Jun 2027 16:40:23.065            98.054              Murmansk2          3064.188
       332   03 Jun 2027 16:46:01.078   03 Jun 2027 16:46:45.748            44.670                Anadyr1          1395.938
       333   03 Jun 2027 16:47:12.653   03 Jun 2027 16:47:55.289            42.636                Anadyr1          1332.375
       334   03 Jun 2027 16:51:01.851   03 Jun 2027 16:53:16.074           134.223               Magadan1          4194.469
       335   03 Jun 2027 18:16:51.850   03 Jun 2027 18:18:03.283            71.433              Murmansk2          2232.281
       336   03 Jun 2027 18:21:52.638   03 Jun 2027 18:24:41.195           168.557                Anadyr2          5267.406
       337   03 Jun 2027 18:25:13.043   03 Jun 2027 18:26:58.604           105.561               Magadan1          3298.781
       338   03 Jun 2027 18:29:20.642   03 Jun 2027 18:29:36.029            15.387               Magadan1           480.844
       339   03 Jun 2027 18:29:36.029   03 Jun 2027 18:30:21.365            45.336               Magadan2          1416.750
       340   03 Jun 2027 19:57:47.161   03 Jun 2027 20:01:34.529           227.368                Anadyr1          7105.250
       341   03 Jun 2027 20:01:35.468   03 Jun 2027 20:03:49.727           134.259                Norilsk          4195.594
       342   03 Jun 2027 20:04:40.900   03 Jun 2027 20:05:08.644            27.744               Magadan1           867.000
       343   03 Jun 2027 20:07:05.640   03 Jun 2027 20:07:47.167            41.527               Magadan1          1297.719
       344   03 Jun 2027 20:52:13.794   03 Jun 2027 20:54:23.430           129.636            RioGallegos          4051.125
       345   03 Jun 2027 20:55:12.861   03 Jun 2027 20:55:41.089            28.228            RioGallegos           882.125
       346   03 Jun 2027 21:00:59.151   03 Jun 2027 21:01:20.477            21.326            RioGallegos           666.438
       347   03 Jun 2027 21:02:25.293   03 Jun 2027 21:02:58.347            33.054            RioGallegos          1032.937
       348   03 Jun 2027 21:34:59.080   03 Jun 2027 21:35:40.137            41.057                Anadyr1          1283.031
       349   03 Jun 2027 21:36:07.451   03 Jun 2027 21:39:03.728           176.277               Magadan1          5508.656
       350   03 Jun 2027 21:39:48.365   03 Jun 2027 21:40:05.654            17.289                Irkutsk           540.281
       351   03 Jun 2027 21:40:53.223   03 Jun 2027 21:41:37.004            43.781                Irkutsk          1368.156
       352   03 Jun 2027 21:41:43.245   03 Jun 2027 21:43:06.918            83.673                Novosib          2614.781
       353   03 Jun 2027 21:53:33.147   03 Jun 2027 21:56:16.858           163.711                Sumatra          5115.969
       354   03 Jun 2027 23:09:21.587   03 Jun 2027 23:10:18.888            57.301                Anadyr1          1790.656
       355   03 Jun 2027 23:10:29.216   03 Jun 2027 23:10:41.190            11.974                Anadyr1           374.188
       356   03 Jun 2027 23:10:53.355   03 Jun 2027 23:10:54.929             1.574                Anadyr1            49.187
       357   03 Jun 2027 23:11:35.044   03 Jun 2027 23:11:58.626            23.582                Norilsk           736.938
       358   03 Jun 2027 23:12:13.274   03 Jun 2027 23:13:11.320            58.046               Magadan1          1813.938
       359   03 Jun 2027 23:13:11.320   03 Jun 2027 23:13:39.417            28.097               Magadan2           878.031
       360   03 Jun 2027 23:14:57.755   03 Jun 2027 23:15:18.262            20.507               Magadan1           640.844
       361   03 Jun 2027 23:15:34.845   03 Jun 2027 23:15:58.226            23.381                Novosib           730.656
       362   03 Jun 2027 23:16:51.124   03 Jun 2027 23:17:31.987            40.863                Novosib          1276.969
       363   03 Jun 2027 23:20:47.727   03 Jun 2027 23:20:54.425             6.698                Novosib           209.312
       364   03 Jun 2027 23:21:04.363   03 Jun 2027 23:21:39.046            34.683                Novosib          1083.844
       365   03 Jun 2027 23:23:21.123   03 Jun 2027 23:25:02.762           101.639                  Delhi          3176.219
       366   03 Jun 2027 23:27:46.911   03 Jun 2027 23:27:49.048             2.137                  Delhi            66.781
       367   03 Jun 2027 23:29:48.055   03 Jun 2027 23:30:29.800            41.745                  Delhi          1304.531
       368   03 Jun 2027 23:32:35.743   03 Jun 2027 23:32:44.084             8.341                  Delhi           260.656
       369   03 Jun 2027 23:34:08.235   03 Jun 2027 23:34:46.135            37.900                  Delhi          1184.375
       370   04 Jun 2027 00:41:38.528   04 Jun 2027 00:41:56.033            17.505                Anadyr2           547.031
       371   04 Jun 2027 00:42:16.634   04 Jun 2027 00:42:56.520            39.886                Anadyr2          1246.437
       372   04 Jun 2027 00:44:25.153   04 Jun 2027 00:44:38.499            13.346                Anadyr2           417.063
       373   04 Jun 2027 00:46:08.687   04 Jun 2027 00:47:12.544            63.857                Anadyr1          1995.531
       374   04 Jun 2027 00:47:34.301   04 Jun 2027 00:47:52.242            17.941                Norilsk           560.656
       375   04 Jun 2027 00:48:03.712   04 Jun 2027 00:48:30.230            26.518               Magadan1           828.687
       376   04 Jun 2027 00:48:48.197   04 Jun 2027 00:49:06.459            18.262                Norilsk           570.687
       377   04 Jun 2027 00:49:24.450   04 Jun 2027 00:49:48.011            23.561               Magadan2           736.281
       378   04 Jun 2027 00:49:55.997   04 Jun 2027 00:51:55.089           119.092              Murmansk1          3721.625
       379   04 Jun 2027 00:52:08.543   04 Jun 2027 00:53:05.801            57.258              Murmansk2          1789.313
       380   04 Jun 2027 00:54:44.456   04 Jun 2027 00:54:59.646            15.190                 Moscow           474.688
       381   04 Jun 2027 00:57:14.865   04 Jun 2027 00:57:40.679            25.814                 Moscow           806.688
       382   04 Jun 2027 01:03:27.719   04 Jun 2027 01:03:31.673             3.954                Novosib           123.563
       383   04 Jun 2027 01:03:53.805   04 Jun 2027 01:03:57.040             3.235                Novosib           101.094
       384   04 Jun 2027 01:04:34.291   04 Jun 2027 01:05:12.499            38.208                  Delhi          1194.000
       385   04 Jun 2027 01:10:18.797   04 Jun 2027 01:10:33.502            14.705                  Delhi           459.531
       386   04 Jun 2027 02:15:03.605   04 Jun 2027 02:17:42.954           159.349                Anadyr2          4979.656
       387   04 Jun 2027 02:17:42.954   04 Jun 2027 02:17:46.816             3.862                Anadyr1           120.688
       388   04 Jun 2027 02:18:11.934   04 Jun 2027 02:18:16.873             4.939                Anadyr1           154.344
       389   04 Jun 2027 02:20:07.452   04 Jun 2027 02:21:32.193            84.741               Magadan2          2648.156
       390   04 Jun 2027 02:22:50.555   04 Jun 2027 02:22:55.145             4.590               Magadan2           143.437
       391   04 Jun 2027 02:23:23.384   04 Jun 2027 02:23:25.799             2.415                Norilsk            75.469
       392   04 Jun 2027 02:23:55.550   04 Jun 2027 02:24:08.672            13.122               Magadan1           410.062
       393   04 Jun 2027 02:24:55.751   04 Jun 2027 02:25:01.290             5.539                Norilsk           173.094
       394   04 Jun 2027 02:25:42.019   04 Jun 2027 02:26:24.650            42.631              Murmansk1          1332.219
       395   04 Jun 2027 02:26:29.101   04 Jun 2027 02:26:33.154             4.053              Murmansk2           126.656
       396   04 Jun 2027 02:27:45.362   04 Jun 2027 02:29:30.569           105.207                Novosib          3287.719
       397   04 Jun 2027 02:34:14.888   04 Jun 2027 02:34:30.434            15.546                 Moscow           485.812
       398   04 Jun 2027 02:36:04.169   04 Jun 2027 02:36:15.639            11.470                Novosib           358.437
       399   04 Jun 2027 02:37:49.469   04 Jun 2027 02:38:36.555            47.086                 Moscow          1471.437
       400   04 Jun 2027 02:56:19.385   04 Jun 2027 02:56:33.144            13.759               CapeTown           429.969
       401   04 Jun 2027 02:59:52.458   04 Jun 2027 03:00:39.499            47.041               CapeTown          1470.031
       402   04 Jun 2027 03:56:41.464   04 Jun 2027 03:57:59.160            77.696               Magadan2          2428.000
       403   04 Jun 2027 04:08:57.485   04 Jun 2027 04:09:00.644             3.159              Murmansk1            98.719
       404   04 Jun 2027 04:09:19.891   04 Jun 2027 04:09:49.743            29.852                Norilsk           932.875
       405   04 Jun 2027 04:10:01.204   04 Jun 2027 04:12:57.767           176.563              Murmansk2          5517.594
       406   04 Jun 2027 04:13:31.806   04 Jun 2027 04:14:37.766            65.960              Murmansk2          2061.250
       407   04 Jun 2027 05:32:21.386   04 Jun 2027 05:32:57.261            35.875               Magadan2          1121.094
       408   04 Jun 2027 05:32:57.261   04 Jun 2027 05:33:12.158            14.897               Magadan1           465.531
       409   04 Jun 2027 05:33:22.793   04 Jun 2027 05:35:50.129           147.336                Anadyr2          4604.250
       410   04 Jun 2027 05:35:50.129   04 Jun 2027 05:36:22.529            32.400                Anadyr1          1012.500
       411   04 Jun 2027 05:37:11.587   04 Jun 2027 05:37:17.194             5.607               Magadan2           175.219
       412   04 Jun 2027 05:37:52.619   04 Jun 2027 05:38:05.363            12.744               Magadan1           398.250
       413   04 Jun 2027 05:38:15.836   04 Jun 2027 05:38:22.947             7.111                Anadyr2           222.219
       414   04 Jun 2027 06:18:58.823   04 Jun 2027 06:19:54.192            55.369            RioGallegos          1730.281
       415   04 Jun 2027 06:20:33.367   04 Jun 2027 06:21:54.892            81.525            RioGallegos          2547.656
       416   04 Jun 2027 07:08:31.915   04 Jun 2027 07:10:03.885            91.970                Norilsk          2874.063
       417   04 Jun 2027 07:10:14.599   04 Jun 2027 07:11:50.847            96.248               Magadan2          3007.750
       418   04 Jun 2027 07:11:55.482   04 Jun 2027 07:13:58.560           123.078               Magadan1          3846.187
       419   04 Jun 2027 07:15:21.780   04 Jun 2027 07:15:42.025            20.245              Murmansk1           632.656
       420   04 Jun 2027 07:49:42.479   04 Jun 2027 07:50:06.199            23.720            RioGallegos           741.250
       421   04 Jun 2027 08:42:37.417   04 Jun 2027 08:43:14.140            36.723               Magadan2          1147.594
       422   04 Jun 2027 08:43:14.140   04 Jun 2027 08:44:29.632            75.492               Magadan1          2359.125
       423   04 Jun 2027 08:45:09.047   04 Jun 2027 08:45:47.228            38.181                Norilsk          1193.156
       424   04 Jun 2027 08:45:47.861   04 Jun 2027 08:46:46.992            59.131                Novosib          1847.844
       425   04 Jun 2027 08:47:09.033   04 Jun 2027 08:48:59.334           110.301               Magadan1          3446.906
       426   04 Jun 2027 08:49:22.459   04 Jun 2027 08:49:24.461             2.002                Novosib            62.562
       427   04 Jun 2027 08:49:24.636   04 Jun 2027 08:49:44.155            19.519                Irkutsk           609.969
       428   04 Jun 2027 08:49:45.055   04 Jun 2027 08:50:21.318            36.263                Norilsk          1133.219
       429   04 Jun 2027 08:50:27.018   04 Jun 2027 08:50:54.702            27.684                Novosib           865.125
       430   04 Jun 2027 09:24:27.452   04 Jun 2027 09:24:48.807            21.355            RioGallegos           667.344
       431   04 Jun 2027 09:25:50.411   04 Jun 2027 09:26:39.921            49.510            RioGallegos          1547.187
       432   04 Jun 2027 09:59:28.159   04 Jun 2027 09:59:59.209            31.050                Sumatra           970.313
       433   04 Jun 2027 10:02:47.903   04 Jun 2027 10:02:58.470            10.567                Sumatra           330.219
       434   04 Jun 2027 10:12:50.822   04 Jun 2027 10:12:55.817             4.995                  Delhi           156.094
       435   04 Jun 2027 10:13:47.367   04 Jun 2027 10:13:57.395            10.028                  Delhi           313.375
       436   04 Jun 2027 10:18:20.916   04 Jun 2027 10:18:42.175            21.259                  Delhi           664.344
       437   04 Jun 2027 10:20:11.288   04 Jun 2027 10:20:52.419            41.131                Irkutsk          1285.344
       438   04 Jun 2027 10:21:16.127   04 Jun 2027 10:21:36.226            20.099                Norilsk           628.094
       439   04 Jun 2027 10:21:52.000   04 Jun 2027 10:21:56.238             4.238                Irkutsk           132.438
       440   04 Jun 2027 10:21:59.919   04 Jun 2027 10:22:00.947             1.028              Murmansk2            32.125
       441   04 Jun 2027 10:22:14.033   04 Jun 2027 10:22:46.312            32.279                Novosib          1008.719
       442   04 Jun 2027 10:22:51.951   04 Jun 2027 10:22:52.582             0.631                Irkutsk            19.719
       443   04 Jun 2027 10:23:09.151   04 Jun 2027 10:23:46.937            37.786                Irkutsk          1180.813
       444   04 Jun 2027 10:23:58.614   04 Jun 2027 10:24:06.460             7.846                Novosib           245.188
       445   04 Jun 2027 10:24:11.326   04 Jun 2027 10:25:17.132            65.806                Novosib          2056.437
       446   04 Jun 2027 10:25:25.805   04 Jun 2027 10:26:40.976            75.171                Novosib          2349.094
       447   04 Jun 2027 11:03:15.008   04 Jun 2027 11:03:22.499             7.491            RioGallegos           234.094
       448   04 Jun 2027 11:05:13.944   04 Jun 2027 11:05:25.678            11.734            RioGallegos           366.688
       449   04 Jun 2027 11:07:47.077   04 Jun 2027 11:08:00.042            12.965            RioGallegos           405.156
       450   04 Jun 2027 11:37:41.972   04 Jun 2027 11:39:31.749           109.777                Sumatra          3430.531
       451   04 Jun 2027 11:57:24.237   04 Jun 2027 11:57:41.155            16.918                 Moscow           528.688
       452   04 Jun 2027 11:57:45.097   04 Jun 2027 11:58:13.729            28.632                Novosib           894.750
       453   04 Jun 2027 11:58:13.935   04 Jun 2027 11:58:29.208            15.273              Murmansk2           477.281
       454   04 Jun 2027 11:58:44.992   04 Jun 2027 11:58:53.837             8.845              Murmansk1           276.406
       455   04 Jun 2027 11:58:53.837   04 Jun 2027 11:59:15.666            21.829              Murmansk2           682.156
       456   04 Jun 2027 11:59:22.599   04 Jun 2027 11:59:36.246            13.647                Novosib           426.469
       457   04 Jun 2027 11:59:36.796   04 Jun 2027 12:00:04.830            28.034              Murmansk1           876.062
       458   04 Jun 2027 12:00:04.830   04 Jun 2027 12:00:55.747            50.917              Murmansk2          1591.156
       459   04 Jun 2027 12:02:02.024   04 Jun 2027 12:03:01.102            59.078                Novosib          1846.188
       460   04 Jun 2027 12:04:49.792   04 Jun 2027 12:05:04.887            15.095                Norilsk           471.719
       461   04 Jun 2027 12:05:15.059   04 Jun 2027 12:05:36.446            21.387              Murmansk1           668.344
       462   04 Jun 2027 12:05:44.012   04 Jun 2027 12:05:54.756            10.744                Norilsk           335.750
       463   04 Jun 2027 12:06:06.176   04 Jun 2027 12:06:14.050             7.874              Murmansk1           246.062
       464   04 Jun 2027 12:07:05.651   04 Jun 2027 12:07:47.325            41.674              Murmansk2          1302.313
       465   04 Jun 2027 13:23:47.620   04 Jun 2027 13:26:49.177           181.557                  Delhi          5673.656
       466   04 Jun 2027 13:30:54.923   04 Jun 2027 13:31:12.920            17.997                 Moscow           562.406
       467   04 Jun 2027 13:31:15.764   04 Jun 2027 13:31:26.455            10.691                 Moscow           334.094
       468   04 Jun 2027 13:31:38.538   04 Jun 2027 13:33:38.326           119.788              Murmansk1          3743.375
       469   04 Jun 2027 13:34:08.478   04 Jun 2027 13:34:29.731            21.253                Novosib           664.156
       470   04 Jun 2027 13:35:19.549   04 Jun 2027 13:35:45.014            25.465                Norilsk           795.781
       471   04 Jun 2027 13:37:13.191   04 Jun 2027 13:37:38.930            25.739                Norilsk           804.344
       472   04 Jun 2027 13:39:12.508   04 Jun 2027 13:39:16.484             3.976                Norilsk           124.250
       473   04 Jun 2027 13:40:00.379   04 Jun 2027 13:40:32.808            32.429                Norilsk          1013.406
       474   04 Jun 2027 14:43:26.011   04 Jun 2027 14:46:03.159           157.148               CapeTown          4910.875
       475   04 Jun 2027 14:47:21.073   04 Jun 2027 14:47:43.776            22.703               CapeTown           709.469
       476   04 Jun 2027 14:49:22.501   04 Jun 2027 14:50:42.399            79.898               CapeTown          2496.813
       477   04 Jun 2027 15:10:41.337   04 Jun 2027 15:11:02.431            21.094              Murmansk2           659.188
       478   04 Jun 2027 15:13:41.688   04 Jun 2027 15:14:19.067            37.379              Murmansk2          1168.094
       479   04 Jun 2027 15:16:42.530   04 Jun 2027 15:16:50.637             8.107              Murmansk2           253.344
       480   04 Jun 2027 15:18:25.057   04 Jun 2027 15:18:33.283             8.226              Murmansk1           257.062
       481   04 Jun 2027 15:18:44.877   04 Jun 2027 15:19:10.299            25.422              Murmansk1           794.437
       482   04 Jun 2027 15:22:40.297   04 Jun 2027 15:24:15.624            95.327                Anadyr1          2978.969
