uniorb/output/strategy_1/Drop/Drop_KinoSat_111008.txt

KinoSat_111008
-------------------------
    Access    *     Start Time (UTCG)     *     Stop Time (UTCG)  *   Duration (s)        *       Station  *  Data (Mbytes)
         1   01 Jun 2027 03:00:38.155   01 Jun 2027 03:01:28.763            50.608                Anadyr1          1581.500
         2   01 Jun 2027 03:01:28.763   01 Jun 2027 03:02:40.007            71.244                Anadyr2          2226.375
         3   01 Jun 2027 03:11:58.720   01 Jun 2027 03:12:10.684            11.964              Murmansk1           373.875
         4   01 Jun 2027 03:12:13.803   01 Jun 2027 03:12:48.451            34.648                Norilsk          1082.750
         5   01 Jun 2027 03:12:53.762   01 Jun 2027 03:13:15.174            21.412                 Moscow           669.125
         6   01 Jun 2027 03:13:30.123   01 Jun 2027 03:15:36.266           126.143              Murmansk2          3941.969
         7   01 Jun 2027 03:15:46.102   01 Jun 2027 03:15:56.727            10.625              Murmansk2           332.031
         8   01 Jun 2027 03:18:32.837   01 Jun 2027 03:19:37.018            64.181                 Moscow          2005.656
         9   01 Jun 2027 03:32:47.829   01 Jun 2027 03:33:29.735            41.906               CapeTown          1309.562
        10   01 Jun 2027 04:34:25.139   01 Jun 2027 04:36:01.518            96.379                Anadyr1          3011.844
        11   01 Jun 2027 04:36:10.886   01 Jun 2027 04:36:29.467            18.581               Magadan2           580.656
        12   01 Jun 2027 04:36:29.467   01 Jun 2027 04:37:01.722            32.255               Magadan1          1007.969
        13   01 Jun 2027 04:37:04.579   01 Jun 2027 04:37:23.983            19.404                Norilsk           606.375
        14   01 Jun 2027 04:37:24.342   01 Jun 2027 04:38:39.359            75.017                Anadyr1          2344.281
        15   01 Jun 2027 04:38:39.359   01 Jun 2027 04:38:42.255             2.896                Anadyr2            90.500
        16   01 Jun 2027 04:39:22.195   01 Jun 2027 04:41:05.519           103.324                Anadyr1          3228.875
        17   01 Jun 2027 06:11:57.484   01 Jun 2027 06:13:22.381            84.897                Irkutsk          2653.031
        18   01 Jun 2027 06:13:38.934   01 Jun 2027 06:16:07.617           148.683                Anadyr2          4646.344
        19   01 Jun 2027 06:16:49.682   01 Jun 2027 06:16:53.063             3.381               Magadan1           105.656
        20   01 Jun 2027 06:52:44.009   01 Jun 2027 06:54:03.373            79.364            RioGallegos          2480.125
        21   01 Jun 2027 07:47:08.315   01 Jun 2027 07:47:50.914            42.599               Magadan2          1331.219
        22   01 Jun 2027 07:48:16.008   01 Jun 2027 07:51:58.036           222.028               Magadan1          6938.375
        23   01 Jun 2027 07:52:02.438   01 Jun 2027 07:52:54.269            51.831                Novosib          1619.719
        24   01 Jun 2027 08:28:46.572   01 Jun 2027 08:29:12.417            25.845            RioGallegos           807.656
        25   01 Jun 2027 09:02:25.946   01 Jun 2027 09:03:28.743            62.797                Sumatra          1962.406
        26   01 Jun 2027 09:04:54.291   01 Jun 2027 09:06:13.800            79.509                Sumatra          2484.656
        27   01 Jun 2027 09:14:38.853   01 Jun 2027 09:15:58.157            79.304                  Delhi          2478.250
        28   01 Jun 2027 09:24:27.785   01 Jun 2027 09:24:52.441            24.656                Norilsk           770.500
        29   01 Jun 2027 09:24:58.546   01 Jun 2027 09:28:11.046           192.500              Murmansk2          6015.625
        30   01 Jun 2027 09:28:11.046   01 Jun 2027 09:28:19.840             8.794              Murmansk1           274.812
        31   01 Jun 2027 09:28:20.231   01 Jun 2027 09:28:31.502            11.271                Irkutsk           352.219
        32   01 Jun 2027 09:28:33.839   01 Jun 2027 09:29:47.312            73.473                 Moscow          2296.031
        33   01 Jun 2027 09:29:48.966   01 Jun 2027 09:30:10.258            21.292                Novosib           665.375
        34   01 Jun 2027 09:30:10.759   01 Jun 2027 09:30:53.981            43.222              Murmansk2          1350.688
        35   01 Jun 2027 09:31:02.862   01 Jun 2027 09:31:40.223            37.361                Norilsk          1167.531
        36   01 Jun 2027 09:32:07.881   01 Jun 2027 09:32:29.118            21.237                Norilsk           663.656
        37   01 Jun 2027 10:06:18.959   01 Jun 2027 10:06:40.084            21.125            RioGallegos           660.156
        38   01 Jun 2027 10:40:14.112   01 Jun 2027 10:42:17.862           123.750                Sumatra          3867.188
        39   01 Jun 2027 11:02:24.070   01 Jun 2027 11:02:28.892             4.822                Irkutsk           150.688
        40   01 Jun 2027 11:02:36.112   01 Jun 2027 11:04:13.430            97.318                Norilsk          3041.188
        41   01 Jun 2027 11:04:20.895   01 Jun 2027 11:05:02.799            41.904              Murmansk2          1309.500
        42   01 Jun 2027 11:05:29.215   01 Jun 2027 11:05:34.072             4.857              Murmansk1           151.781
        43   01 Jun 2027 11:06:16.888   01 Jun 2027 11:06:31.606            14.718              Murmansk1           459.938
        44   01 Jun 2027 11:07:15.226   01 Jun 2027 11:07:23.878             8.652                 Moscow           270.375
        45   01 Jun 2027 12:26:04.453   01 Jun 2027 12:26:51.128            46.675                  Delhi          1458.594
        46   01 Jun 2027 12:29:15.384   01 Jun 2027 12:29:51.508            36.124                  Delhi          1128.875
        47   01 Jun 2027 12:31:06.289   01 Jun 2027 12:31:49.132            42.843                 Moscow          1338.844
        48   01 Jun 2027 12:32:35.190   01 Jun 2027 12:32:46.455            11.265                 Moscow           352.031
        49   01 Jun 2027 12:33:28.755   01 Jun 2027 12:34:08.440            39.685                 Moscow          1240.156
        50   01 Jun 2027 12:34:15.911   01 Jun 2027 12:37:33.334           197.423              Murmansk2          6169.469
        51   01 Jun 2027 12:37:36.923   01 Jun 2027 12:38:17.426            40.503              Murmansk1          1265.719
        52   01 Jun 2027 12:39:39.535   01 Jun 2027 12:39:50.262            10.727                Norilsk           335.219
        53   01 Jun 2027 12:40:01.463   01 Jun 2027 12:40:32.948            31.485                Norilsk           983.906
        54   01 Jun 2027 13:46:36.745   01 Jun 2027 13:49:08.991           152.246               CapeTown          4757.688
        55   01 Jun 2027 13:52:35.013   01 Jun 2027 13:52:56.207            21.194               CapeTown           662.312
        56   01 Jun 2027 13:54:12.188   01 Jun 2027 13:54:18.574             6.386               CapeTown           199.562
        57   01 Jun 2027 14:07:29.628   01 Jun 2027 14:08:37.328            67.700                 Moscow          2115.625
        58   01 Jun 2027 14:10:52.962   01 Jun 2027 14:12:08.200            75.238              Murmansk2          2351.188
        59   01 Jun 2027 14:12:09.902   01 Jun 2027 14:14:05.238           115.336              Murmansk1          3604.250
        60   01 Jun 2027 14:25:38.738   01 Jun 2027 14:27:40.277           121.539                Anadyr2          3798.094
        61   01 Jun 2027 14:27:58.398   01 Jun 2027 14:29:16.101            77.703                Anadyr1          2428.219
        62   01 Jun 2027 15:49:35.090   01 Jun 2027 15:50:38.740            63.650              Murmansk2          1989.062
        63   01 Jun 2027 15:51:09.427   01 Jun 2027 15:53:15.797           126.370              Murmansk2          3949.063
        64   01 Jun 2027 16:00:55.654   01 Jun 2027 16:02:28.173            92.519                Anadyr1          2891.219
        65   01 Jun 2027 16:02:34.622   01 Jun 2027 16:02:57.329            22.707                Anadyr2           709.594
        66   01 Jun 2027 16:03:03.649   01 Jun 2027 16:03:15.785            12.136                Anadyr1           379.250
        67   01 Jun 2027 16:03:31.080   01 Jun 2027 16:03:31.951             0.871                Anadyr1            27.219
        68   01 Jun 2027 16:05:17.944   01 Jun 2027 16:06:01.911            43.967               Magadan1          1373.969
        69   01 Jun 2027 16:06:23.795   01 Jun 2027 16:09:20.948           177.153               Magadan2          5536.031
        70   01 Jun 2027 17:36:48.052   01 Jun 2027 17:39:25.743           157.691                Anadyr2          4927.844
        71   01 Jun 2027 17:39:27.328   01 Jun 2027 17:40:08.513            41.185                Anadyr1          1287.031
        72   01 Jun 2027 17:40:37.333   01 Jun 2027 17:41:37.953            60.620               Magadan1          1894.375
        73   01 Jun 2027 17:43:26.995   01 Jun 2027 17:43:55.732            28.737               Magadan2           898.031
        74   01 Jun 2027 17:43:55.732   01 Jun 2027 17:45:06.735            71.003               Magadan1          2218.844
        75   01 Jun 2027 19:12:41.732   01 Jun 2027 19:14:34.573           112.841                Anadyr1          3526.281
        76   01 Jun 2027 19:14:51.165   01 Jun 2027 19:16:37.020           105.855                Anadyr2          3307.969
        77   01 Jun 2027 19:17:00.542   01 Jun 2027 19:19:03.728           123.186               Magadan2          3849.563
        78   01 Jun 2027 19:19:55.200   01 Jun 2027 19:20:52.961            57.761               Magadan2          1805.031
        79   01 Jun 2027 19:23:34.021   01 Jun 2027 19:24:43.497            69.476                Irkutsk          2171.125
        80   01 Jun 2027 20:07:01.843   01 Jun 2027 20:10:19.156           197.313            RioGallegos          6166.031
        81   01 Jun 2027 20:51:03.477   01 Jun 2027 20:51:04.559             1.082               Magadan2            33.813
        82   01 Jun 2027 20:51:06.272   01 Jun 2027 20:52:46.511           100.239               Magadan1          3132.469
        83   01 Jun 2027 20:54:00.359   01 Jun 2027 20:54:32.151            31.792                Norilsk           993.500
        84   01 Jun 2027 20:55:57.089   01 Jun 2027 20:56:08.065            10.976                Norilsk           343.000
        85   01 Jun 2027 20:56:11.688   01 Jun 2027 20:57:16.489            64.801                Irkutsk          2025.031
        86   01 Jun 2027 20:57:57.474   01 Jun 2027 21:00:45.999           168.525                Novosib          5266.406
        87   01 Jun 2027 21:08:21.383   01 Jun 2027 21:11:18.613           177.230                Sumatra          5538.438
        88   01 Jun 2027 22:26:30.975   01 Jun 2027 22:26:39.353             8.378                Norilsk           261.812
        89   01 Jun 2027 22:27:08.197   01 Jun 2027 22:27:08.649             0.452               Magadan2            14.125
        90   01 Jun 2027 22:30:15.325   01 Jun 2027 22:30:21.465             6.140                Norilsk           191.875
        91   01 Jun 2027 22:30:23.658   01 Jun 2027 22:31:05.250            41.592                Irkutsk          1299.750
        92   01 Jun 2027 22:31:14.495   01 Jun 2027 22:33:42.167           147.672                Novosib          4614.750
        93   01 Jun 2027 22:38:06.058   01 Jun 2027 22:40:14.927           128.869                  Delhi          4027.156
        94   01 Jun 2027 23:56:27.759   01 Jun 2027 23:56:30.882             3.123                Anadyr2            97.594
        95   01 Jun 2027 23:57:44.025   01 Jun 2027 23:58:41.047            57.022                Anadyr1          1781.938
        96   02 Jun 2027 00:02:26.373   02 Jun 2027 00:04:15.130           108.757               Magadan2          3398.656
        97   02 Jun 2027 00:04:49.663   02 Jun 2027 00:09:19.071           269.408              Murmansk2          8419.000
        98   02 Jun 2027 00:09:28.277   02 Jun 2027 00:10:16.774            48.497                 Moscow          1515.531
        99   02 Jun 2027 00:11:13.551   02 Jun 2027 00:12:35.126            81.575                 Moscow          2549.219
       100   02 Jun 2027 01:29:48.696   02 Jun 2027 01:29:52.898             4.202                Anadyr1           131.312
       101   02 Jun 2027 01:31:15.232   02 Jun 2027 01:31:44.332            29.100                Anadyr2           909.375
       102   02 Jun 2027 01:32:28.592   02 Jun 2027 01:32:50.490            21.898                Anadyr1           684.313
       103   02 Jun 2027 01:34:39.995   02 Jun 2027 01:36:04.509            84.514               Magadan1          2641.063
       104   02 Jun 2027 01:36:38.813   02 Jun 2027 01:37:11.156            32.343               Magadan2          1010.719
       105   02 Jun 2027 01:37:52.141   02 Jun 2027 01:38:24.996            32.855               Magadan1          1026.719
       106   02 Jun 2027 01:40:37.684   02 Jun 2027 01:42:29.668           111.984              Murmansk2          3499.500
       107   02 Jun 2027 01:42:44.206   02 Jun 2027 01:42:58.684            14.478                Novosib           452.437
       108   02 Jun 2027 01:43:09.013   02 Jun 2027 01:43:11.655             2.642                Novosib            82.562
       109   02 Jun 2027 01:43:56.871   02 Jun 2027 01:45:37.894           101.023                 Moscow          3156.969
       110   02 Jun 2027 02:10:48.296   02 Jun 2027 02:11:26.683            38.387               CapeTown          1199.594
       111   02 Jun 2027 03:04:30.421   02 Jun 2027 03:05:05.332            34.911                Anadyr2          1090.969
       112   02 Jun 2027 03:09:04.438   02 Jun 2027 03:09:16.677            12.239               Magadan2           382.469
       113   02 Jun 2027 03:11:07.239   02 Jun 2027 03:11:09.138             1.899               Magadan2            59.344
       114   02 Jun 2027 03:11:22.358   02 Jun 2027 03:11:41.120            18.762               Magadan2           586.313
       115   02 Jun 2027 03:11:45.296   02 Jun 2027 03:13:36.728           111.432                Anadyr1          3482.250
       116   02 Jun 2027 03:13:36.728   02 Jun 2027 03:15:28.659           111.931                Anadyr2          3497.844
       117   02 Jun 2027 03:15:31.030   02 Jun 2027 03:15:48.804            17.774               Magadan2           555.437
       118   02 Jun 2027 03:15:52.792   02 Jun 2027 03:17:24.732            91.940                Anadyr2          2873.125
       119   02 Jun 2027 04:45:35.612   02 Jun 2027 04:45:54.722            19.110                Anadyr1           597.187
       120   02 Jun 2027 04:45:59.349   02 Jun 2027 04:48:00.949           121.600                Anadyr1          3800.000
       121   02 Jun 2027 04:48:03.225   02 Jun 2027 04:51:12.421           189.196                Anadyr1          5912.375
       122   02 Jun 2027 04:51:23.757   02 Jun 2027 04:51:32.227             8.470                Anadyr1           264.688
       123   02 Jun 2027 04:51:48.202   02 Jun 2027 04:51:59.442            11.240                Anadyr1           351.250
       124   02 Jun 2027 04:52:13.729   02 Jun 2027 04:52:53.785            40.056               Magadan2          1251.750
       125   02 Jun 2027 06:22:28.716   02 Jun 2027 06:23:32.376            63.660                Anadyr1          1989.375
       126   02 Jun 2027 06:23:43.962   02 Jun 2027 06:24:04.726            20.764               Magadan2           648.875
       127   02 Jun 2027 06:24:23.582   02 Jun 2027 06:28:35.032           251.450                Anadyr1          7857.813
       128   02 Jun 2027 06:30:13.719   02 Jun 2027 06:30:25.500            11.781              Murmansk2           368.156
       129   02 Jun 2027 06:30:41.345   02 Jun 2027 06:31:39.122            57.777              Murmansk2          1805.531
       130   02 Jun 2027 07:04:24.153   02 Jun 2027 07:05:10.490            46.337            RioGallegos          1448.031
       131   02 Jun 2027 07:59:03.084   02 Jun 2027 07:59:20.293            17.209                Norilsk           537.781
       132   02 Jun 2027 07:59:22.752   02 Jun 2027 08:00:15.857            53.105               Magadan2          1659.531
       133   02 Jun 2027 08:00:20.581   02 Jun 2027 08:00:26.575             5.994                Novosib           187.312
       134   02 Jun 2027 08:00:34.416   02 Jun 2027 08:03:42.213           187.797               Magadan2          5868.656
       135   02 Jun 2027 08:04:04.660   02 Jun 2027 08:04:05.697             1.037                Norilsk            32.406
       136   02 Jun 2027 08:04:23.401   02 Jun 2027 08:06:01.212            97.811                Norilsk          3056.594
       137   02 Jun 2027 08:06:09.477   02 Jun 2027 08:09:09.385           179.908              Murmansk1          5622.125
       138   02 Jun 2027 08:10:47.701   02 Jun 2027 08:10:51.835             4.134              Murmansk1           129.187
       139   02 Jun 2027 08:39:26.289   02 Jun 2027 08:41:20.033           113.744            RioGallegos          3554.500
       140   02 Jun 2027 08:42:13.390   02 Jun 2027 08:42:36.171            22.781            RioGallegos           711.906
       141   02 Jun 2027 08:43:25.835   02 Jun 2027 08:43:56.787            30.952            RioGallegos           967.250
       142   02 Jun 2027 09:14:18.278   02 Jun 2027 09:16:14.366           116.088                Sumatra          3627.750
       143   02 Jun 2027 09:17:22.552   02 Jun 2027 09:17:34.853            12.301                Sumatra           384.406
       144   02 Jun 2027 09:35:24.589   02 Jun 2027 09:35:47.084            22.495                Novosib           702.969
       145   02 Jun 2027 09:36:37.000   02 Jun 2027 09:37:37.273            60.273                Novosib          1883.531
       146   02 Jun 2027 09:37:47.161   02 Jun 2027 09:38:53.403            66.242                Irkutsk          2070.063
       147   02 Jun 2027 09:38:58.142   02 Jun 2027 09:41:32.982           154.840                Novosib          4838.750
       148   02 Jun 2027 09:41:36.729   02 Jun 2027 09:41:58.785            22.056                Norilsk           689.250
       149   02 Jun 2027 09:42:07.468   02 Jun 2027 09:42:43.913            36.445              Murmansk1          1138.906
       150   02 Jun 2027 09:44:06.684   02 Jun 2027 09:44:25.909            19.225                Norilsk           600.781
       151   02 Jun 2027 10:57:10.216   02 Jun 2027 10:57:19.011             8.795                Sumatra           274.844
       152   02 Jun 2027 10:58:38.643   02 Jun 2027 10:59:08.469            29.826                  Delhi           932.062
       153   02 Jun 2027 11:00:52.620   02 Jun 2027 11:01:38.295            45.675                  Delhi          1427.344
       154   02 Jun 2027 11:14:09.402   02 Jun 2027 11:15:23.794            74.392                Novosib          2324.750
       155   02 Jun 2027 11:15:30.403   02 Jun 2027 11:16:50.147            79.744              Murmansk2          2492.000
       156   02 Jun 2027 11:18:13.852   02 Jun 2027 11:18:47.286            33.434                 Moscow          1044.813
       157   02 Jun 2027 12:42:54.412   02 Jun 2027 12:44:34.602           100.190                 Moscow          3130.937
       158   02 Jun 2027 12:45:38.367   02 Jun 2027 12:46:51.555            73.188                 Moscow          2287.125
       159   02 Jun 2027 12:46:58.289   02 Jun 2027 12:49:38.348           160.059              Murmansk1          5001.844
       160   02 Jun 2027 12:49:38.348   02 Jun 2027 12:49:58.045            19.697              Murmansk2           615.531
       161   02 Jun 2027 12:50:09.082   02 Jun 2027 12:51:03.902            54.820                Norilsk          1713.125
       162   02 Jun 2027 12:54:23.734   02 Jun 2027 12:54:38.447            14.713                Norilsk           459.781
       163   02 Jun 2027 13:57:56.318   02 Jun 2027 14:00:52.460           176.142               CapeTown          5504.437
       164   02 Jun 2027 14:04:29.767   02 Jun 2027 14:05:06.536            36.769               CapeTown          1149.031
       165   02 Jun 2027 14:19:50.563   02 Jun 2027 14:20:43.503            52.940                 Moscow          1654.375
       166   02 Jun 2027 14:23:07.533   02 Jun 2027 14:25:36.610           149.077              Murmansk2          4658.656
       167   02 Jun 2027 14:25:36.610   02 Jun 2027 14:26:31.191            54.581              Murmansk1          1705.656
       168   02 Jun 2027 14:37:29.973   02 Jun 2027 14:41:12.377           222.404                Anadyr1          6950.125
       169   02 Jun 2027 15:36:31.522   02 Jun 2027 15:36:32.486             0.964               CapeTown            30.125
       170   02 Jun 2027 16:02:08.754   02 Jun 2027 16:03:22.835            74.081              Murmansk2          2315.031
       171   02 Jun 2027 16:03:22.835   02 Jun 2027 16:03:44.181            21.346              Murmansk1           667.062
       172   02 Jun 2027 16:04:06.285   02 Jun 2027 16:05:11.097            64.812              Murmansk2          2025.375
       173   02 Jun 2027 16:12:55.791   02 Jun 2027 16:15:17.302           141.511                Anadyr1          4422.219
       174   02 Jun 2027 16:16:43.216   02 Jun 2027 16:17:59.110            75.894               Magadan2          2371.687
       175   02 Jun 2027 16:19:10.416   02 Jun 2027 16:19:53.421            43.005               Magadan2          1343.906
       176   02 Jun 2027 16:20:12.908   02 Jun 2027 16:21:23.665            70.757               Magadan1          2211.156
       177   02 Jun 2027 17:48:49.498   02 Jun 2027 17:51:25.967           156.469                Anadyr2          4889.656
       178   02 Jun 2027 17:51:29.584   02 Jun 2027 17:55:13.508           223.924               Magadan1          6997.625
       179   02 Jun 2027 19:24:41.936   02 Jun 2027 19:26:35.845           113.909                Anadyr1          3559.656
       180   02 Jun 2027 19:26:45.999   02 Jun 2027 19:28:36.031           110.032                Anadyr2          3438.500
       181   02 Jun 2027 19:28:43.583   02 Jun 2027 19:30:13.431            89.848               Magadan2          2807.750
       182   02 Jun 2027 19:30:13.431   02 Jun 2027 19:30:47.589            34.158               Magadan1          1067.438
       183   02 Jun 2027 19:31:19.218   02 Jun 2027 19:32:04.227            45.009               Magadan1          1406.531
       184   02 Jun 2027 19:32:52.545   02 Jun 2027 19:33:46.329            53.784                Irkutsk          1680.750
       185   02 Jun 2027 19:34:49.211   02 Jun 2027 19:35:32.141            42.930                Irkutsk          1341.562
       186   02 Jun 2027 19:35:53.955   02 Jun 2027 19:36:42.061            48.106                Irkutsk          1503.312
       187   02 Jun 2027 19:37:27.268   02 Jun 2027 19:38:33.209            65.941                Irkutsk          2060.656
       188   02 Jun 2027 19:51:01.029   02 Jun 2027 19:51:22.733            21.704                Sumatra           678.250
       189   02 Jun 2027 20:18:53.690   02 Jun 2027 20:19:56.662            62.972            RioGallegos          1967.875
       190   02 Jun 2027 21:00:10.080   02 Jun 2027 21:00:49.448            39.368                Anadyr1          1230.250
       191   02 Jun 2027 21:02:12.107   02 Jun 2027 21:02:20.757             8.650                Anadyr2           270.313
       192   02 Jun 2027 21:02:34.185   02 Jun 2027 21:04:29.482           115.297                Norilsk          3603.031
       193   02 Jun 2027 21:04:40.477   02 Jun 2027 21:05:52.710            72.233               Magadan1          2257.281
       194   02 Jun 2027 21:07:46.514   02 Jun 2027 21:09:38.675           112.161                Novosib          3505.031
       195   02 Jun 2027 21:12:05.468   02 Jun 2027 21:12:27.243            21.775                Irkutsk           680.469
       196   02 Jun 2027 21:12:44.194   02 Jun 2027 21:13:05.871            21.677                Novosib           677.406
       197   02 Jun 2027 21:20:16.597   02 Jun 2027 21:21:30.808            74.211                Sumatra          2319.094
       198   02 Jun 2027 21:28:37.551   02 Jun 2027 21:29:38.849            61.298                Sumatra          1915.562
       199   02 Jun 2027 22:34:50.964   02 Jun 2027 22:35:09.263            18.299                Anadyr2           571.844
       200   02 Jun 2027 22:35:51.968   02 Jun 2027 22:36:29.355            37.387                Anadyr2          1168.344
       201   02 Jun 2027 22:38:32.965   02 Jun 2027 22:40:15.086           102.121                Norilsk          3191.281
       202   02 Jun 2027 22:42:25.836   02 Jun 2027 22:44:38.725           132.889                Novosib          4152.781
       203   02 Jun 2027 22:49:55.149   02 Jun 2027 22:53:09.733           194.584                  Delhi          6080.750
       204   03 Jun 2027 00:08:01.193   03 Jun 2027 00:08:02.860             1.667                Anadyr2            52.094
       205   03 Jun 2027 00:09:45.238   03 Jun 2027 00:10:29.942            44.704                Anadyr1          1397.000
       206   03 Jun 2027 00:10:29.942   03 Jun 2027 00:10:41.103            11.161                Anadyr2           348.781
       207   03 Jun 2027 00:14:10.657   03 Jun 2027 00:15:15.086            64.429               Magadan2          2013.406
       208   03 Jun 2027 00:15:18.696   03 Jun 2027 00:16:01.500            42.804               Magadan1          1337.625
       209   03 Jun 2027 00:16:48.340   03 Jun 2027 00:18:58.403           130.063              Murmansk2          4064.469
       210   03 Jun 2027 00:19:23.233   03 Jun 2027 00:20:11.128            47.895              Murmansk1          1496.719
       211   03 Jun 2027 00:21:01.873   03 Jun 2027 00:22:40.383            98.510                 Moscow          3078.437
       212   03 Jun 2027 00:23:33.065   03 Jun 2027 00:24:53.628            80.563                 Moscow          2517.594
       213   03 Jun 2027 00:49:03.108   03 Jun 2027 00:50:09.661            66.553               CapeTown          2079.781
       214   03 Jun 2027 00:51:54.686   03 Jun 2027 00:52:32.601            37.915               CapeTown          1184.844
       215   03 Jun 2027 01:41:35.694   03 Jun 2027 01:41:53.599            17.905                Anadyr2           559.531
       216   03 Jun 2027 01:42:43.754   03 Jun 2027 01:43:14.144            30.390                Anadyr1           949.687
       217   03 Jun 2027 01:43:56.740   03 Jun 2027 01:44:11.207            14.467                Anadyr2           452.094
       218   03 Jun 2027 01:46:08.114   03 Jun 2027 01:47:43.004            94.890               Magadan2          2965.313
       219   03 Jun 2027 01:52:12.542   03 Jun 2027 01:52:13.960             1.418                Norilsk            44.312
       220   03 Jun 2027 01:52:39.297   03 Jun 2027 01:55:20.327           161.030              Murmansk1          5032.188
       221   03 Jun 2027 01:55:55.753   03 Jun 2027 01:57:35.233            99.480                 Moscow          3108.750
       222   03 Jun 2027 02:19:55.410   03 Jun 2027 02:21:00.495            65.085               CapeTown          2033.906
       223   03 Jun 2027 03:17:04.317   03 Jun 2027 03:17:54.440            50.123                Anadyr1          1566.344
       224   03 Jun 2027 03:23:07.510   03 Jun 2027 03:28:58.629           351.119               Magadan2         10972.469
       225   03 Jun 2027 04:57:45.200   03 Jun 2027 04:58:00.390            15.190                Anadyr1           474.687
       226   03 Jun 2027 04:59:09.938   03 Jun 2027 05:03:09.049           239.111               Magadan2          7472.219
       227   03 Jun 2027 05:03:14.458   03 Jun 2027 05:03:46.393            31.935                Anadyr1           997.969
       228   03 Jun 2027 05:45:16.050   03 Jun 2027 05:45:57.994            41.944            RioGallegos          1310.750
       229   03 Jun 2027 06:32:43.694   03 Jun 2027 06:34:02.255            78.561               Magadan2          2455.031
       230   03 Jun 2027 06:34:02.255   03 Jun 2027 06:34:55.550            53.295               Magadan1          1665.469
       231   03 Jun 2027 06:35:06.031   03 Jun 2027 06:37:02.435           116.404               Magadan2          3637.625
       232   03 Jun 2027 06:37:02.435   03 Jun 2027 06:37:17.973            15.538               Magadan1           485.562
       233   03 Jun 2027 06:37:38.048   03 Jun 2027 06:37:43.559             5.511                Norilsk           172.219
       234   03 Jun 2027 06:37:44.056   03 Jun 2027 06:40:23.097           159.041                Anadyr1          4970.031
       235   03 Jun 2027 06:42:15.131   03 Jun 2027 06:42:42.887            27.756              Murmansk2           867.375
       236   03 Jun 2027 06:43:50.118   03 Jun 2027 06:44:06.453            16.335              Murmansk2           510.469
       237   03 Jun 2027 07:16:07.586   03 Jun 2027 07:18:16.885           129.299            RioGallegos          4040.594
       238   03 Jun 2027 08:11:07.673   03 Jun 2027 08:12:56.271           108.598               Magadan2          3393.688
       239   03 Jun 2027 08:13:06.682   03 Jun 2027 08:14:44.797            98.115               Magadan2          3066.094
       240   03 Jun 2027 08:14:56.727   03 Jun 2027 08:15:13.721            16.994              Murmansk1           531.063
       241   03 Jun 2027 08:15:13.721   03 Jun 2027 08:15:47.995            34.274              Murmansk2          1071.062
       242   03 Jun 2027 08:16:06.756   03 Jun 2027 08:16:33.818            27.062                Norilsk           845.687
       243   03 Jun 2027 08:16:36.867   03 Jun 2027 08:18:10.829            93.962              Murmansk1          2936.312
       244   03 Jun 2027 08:18:56.249   03 Jun 2027 08:18:59.533             3.284              Murmansk1           102.625
       245   03 Jun 2027 08:51:36.000   03 Jun 2027 08:53:15.380            99.380            RioGallegos          3105.625
       246   03 Jun 2027 09:26:16.303   03 Jun 2027 09:28:04.100           107.797                Sumatra          3368.656
       247   03 Jun 2027 09:36:26.956   03 Jun 2027 09:37:16.708            49.752                  Delhi          1554.750
       248   03 Jun 2027 09:47:51.920   03 Jun 2027 09:49:45.039           113.119                Irkutsk          3534.969
       249   03 Jun 2027 09:49:47.673   03 Jun 2027 09:50:12.234            24.561                Novosib           767.531
       250   03 Jun 2027 09:50:17.627   03 Jun 2027 09:52:32.214           134.587              Murmansk1          4205.844
       251   03 Jun 2027 09:52:32.214   03 Jun 2027 09:52:47.271            15.057              Murmansk2           470.531
       252   03 Jun 2027 09:53:08.464   03 Jun 2027 09:54:31.255            82.791                 Moscow          2587.219
       253   03 Jun 2027 11:10:35.423   03 Jun 2027 11:12:37.118           121.695                  Delhi          3802.969
       254   03 Jun 2027 11:15:22.066   03 Jun 2027 11:15:22.575             0.509                  Delhi            15.906
       255   03 Jun 2027 11:24:42.534   03 Jun 2027 11:25:30.008            47.474              Murmansk1          1483.563
       256   03 Jun 2027 11:25:47.801   03 Jun 2027 11:26:33.625            45.824              Murmansk1          1432.000
       257   03 Jun 2027 11:26:37.249   03 Jun 2027 11:27:29.322            52.073                Norilsk          1627.281
       258   03 Jun 2027 11:27:32.038   03 Jun 2027 11:28:23.613            51.575              Murmansk2          1611.719
       259   03 Jun 2027 12:54:52.571   03 Jun 2027 12:57:46.791           174.220                 Moscow          5444.375
       260   03 Jun 2027 12:58:04.365   03 Jun 2027 12:58:51.857            47.492                 Moscow          1484.125
       261   03 Jun 2027 12:59:03.363   03 Jun 2027 13:00:15.724            72.361              Murmansk1          2261.281
       262   03 Jun 2027 13:00:38.876   03 Jun 2027 13:01:54.122            75.246              Murmansk2          2351.438
       263   03 Jun 2027 13:02:18.542   03 Jun 2027 13:02:59.329            40.787              Murmansk1          1274.594
       264   03 Jun 2027 14:09:28.025   03 Jun 2027 14:12:40.654           192.629               CapeTown          6019.656
       265   03 Jun 2027 14:15:05.998   03 Jun 2027 14:15:49.229            43.231               CapeTown          1350.969
       266   03 Jun 2027 14:35:24.116   03 Jun 2027 14:37:44.386           140.270              Murmansk1          4383.438
       267   03 Jun 2027 14:38:05.832   03 Jun 2027 14:39:22.153            76.321              Murmansk1          2385.031
       268   03 Jun 2027 14:49:23.622   03 Jun 2027 14:51:40.474           136.852                Anadyr1          4276.625
       269   03 Jun 2027 15:53:33.140   03 Jun 2027 15:53:46.304            13.164               CapeTown           411.375
       270   03 Jun 2027 15:54:29.804   03 Jun 2027 15:55:48.813            79.009               CapeTown          2469.031
       271   03 Jun 2027 16:14:45.669   03 Jun 2027 16:15:09.203            23.534              Murmansk2           735.437
       272   03 Jun 2027 16:15:23.518   03 Jun 2027 16:15:46.219            22.701              Murmansk1           709.406
       273   03 Jun 2027 16:17:04.096   03 Jun 2027 16:17:27.841            23.745              Murmansk2           742.031
       274   03 Jun 2027 16:22:08.616   03 Jun 2027 16:22:54.498            45.882              Murmansk1          1433.813
       275   03 Jun 2027 16:24:56.275   03 Jun 2027 16:25:51.254            54.979                Anadyr1          1718.094
       276   03 Jun 2027 16:26:01.414   03 Jun 2027 16:26:39.569            38.155                Anadyr2          1192.344
       277   03 Jun 2027 16:28:21.196   03 Jun 2027 16:31:44.114           202.918               Magadan2          6341.187
       278   03 Jun 2027 16:34:09.307   03 Jun 2027 16:34:41.804            32.497               Magadan1          1015.531
       279   03 Jun 2027 18:00:50.918   03 Jun 2027 18:03:47.923           177.005                Anadyr2          5531.406
       280   03 Jun 2027 18:04:00.767   03 Jun 2027 18:04:05.326             4.559                Anadyr2           142.469
       281   03 Jun 2027 18:04:05.691   03 Jun 2027 18:05:47.066           101.375               Magadan2          3167.969
       282   03 Jun 2027 18:13:17.999   03 Jun 2027 18:14:09.815            51.816               Magadan1          1619.250
       283   03 Jun 2027 18:58:52.553   03 Jun 2027 19:00:04.941            72.388            RioGallegos          2262.125
       284   03 Jun 2027 19:36:41.787   03 Jun 2027 19:36:58.443            16.656                Anadyr2           520.500
       285   03 Jun 2027 19:37:10.233   03 Jun 2027 19:37:53.179            42.946                Anadyr1          1342.063
       286   03 Jun 2027 19:37:53.179   03 Jun 2027 19:37:56.528             3.349                Anadyr2           104.656
       287   03 Jun 2027 19:38:14.259   03 Jun 2027 19:38:41.762            27.503                Anadyr2           859.469
       288   03 Jun 2027 19:38:56.632   03 Jun 2027 19:42:44.631           227.999                Norilsk          7124.969
       289   03 Jun 2027 19:44:14.495   03 Jun 2027 19:47:17.400           182.905                Irkutsk          5715.781
       290   03 Jun 2027 19:48:05.250   03 Jun 2027 19:49:00.934            55.684                Irkutsk          1740.125
       291   03 Jun 2027 20:00:00.027   03 Jun 2027 20:01:33.409            93.382                Sumatra          2918.188
       292   03 Jun 2027 20:02:10.169   03 Jun 2027 20:02:20.266            10.097                Sumatra           315.531
       293   03 Jun 2027 20:04:37.441   03 Jun 2027 20:05:53.743            76.302                Sumatra          2384.438
       294   03 Jun 2027 21:15:45.293   03 Jun 2027 21:15:54.777             9.484                Norilsk           296.375
       295   03 Jun 2027 21:15:56.500   03 Jun 2027 21:16:27.047            30.547                Norilsk           954.594
       296   03 Jun 2027 21:18:33.147   03 Jun 2027 21:20:11.059            97.912                Irkutsk          3059.750
       297   03 Jun 2027 21:21:03.266   03 Jun 2027 21:22:19.173            75.907                Novosib          2372.094
       298   03 Jun 2027 21:24:53.638   03 Jun 2027 21:25:49.543            55.905                Novosib          1747.031
       299   03 Jun 2027 21:32:17.414   03 Jun 2027 21:32:29.568            12.154                Sumatra           379.813
       300   03 Jun 2027 21:36:37.629   03 Jun 2027 21:38:03.387            85.758                Sumatra          2679.938
       301   03 Jun 2027 22:50:34.938   03 Jun 2027 22:50:57.643            22.705                Norilsk           709.531
       302   03 Jun 2027 22:51:10.227   03 Jun 2027 22:52:09.686            59.459               Magadan2          1858.094
       303   03 Jun 2027 22:53:57.272   03 Jun 2027 22:57:22.250           204.978              Murmansk1          6405.563
       304   03 Jun 2027 23:01:48.341   03 Jun 2027 23:02:50.938            62.597                  Delhi          1956.156
       305   03 Jun 2027 23:07:06.789   03 Jun 2027 23:07:46.723            39.934                  Delhi          1247.937
       306   03 Jun 2027 23:10:03.694   03 Jun 2027 23:11:36.885            93.191                  Delhi          2912.219
       307   04 Jun 2027 00:21:09.779   04 Jun 2027 00:21:20.455            10.676                Anadyr1           333.625
       308   04 Jun 2027 00:21:46.524   04 Jun 2027 00:22:14.325            27.801                Anadyr2           868.781
       309   04 Jun 2027 00:22:49.976   04 Jun 2027 00:22:58.908             8.932                Anadyr2           279.125
       310   04 Jun 2027 00:25:50.548   04 Jun 2027 00:27:17.479            86.931               Magadan1          2716.594
       311   04 Jun 2027 00:27:22.983   04 Jun 2027 00:27:49.942            26.959               Magadan2           842.469
       312   04 Jun 2027 00:28:08.901   04 Jun 2027 00:28:34.051            25.150               Magadan2           785.938
       313   04 Jun 2027 00:28:47.757   04 Jun 2027 00:30:52.592           124.835              Murmansk2          3901.094
       314   04 Jun 2027 00:31:24.819   04 Jun 2027 00:31:59.785            34.966              Murmansk1          1092.687
       315   04 Jun 2027 00:32:47.205   04 Jun 2027 00:34:29.100           101.895                 Moscow          3184.219
       316   04 Jun 2027 00:59:42.651   04 Jun 2027 01:01:31.976           109.325               CapeTown          3416.406
       317   04 Jun 2027 01:05:39.402   04 Jun 2027 01:05:56.392            16.990               CapeTown           530.938
       318   04 Jun 2027 01:53:23.988   04 Jun 2027 01:53:43.083            19.095                Anadyr2           596.719
       319   04 Jun 2027 01:54:56.296   04 Jun 2027 01:55:14.917            18.621                Anadyr1           581.906
       320   04 Jun 2027 01:56:00.163   04 Jun 2027 01:56:18.978            18.815                Anadyr1           587.969
       321   04 Jun 2027 01:57:36.784   04 Jun 2027 01:58:57.383            80.599               Magadan1          2518.719
       322   04 Jun 2027 01:59:07.787   04 Jun 2027 01:59:21.674            13.887               Magadan2           433.969
       323   04 Jun 2027 02:02:11.641   04 Jun 2027 02:02:22.932            11.291                Norilsk           352.844
       324   04 Jun 2027 02:03:55.132   04 Jun 2027 02:04:05.856            10.724                Norilsk           335.125
       325   04 Jun 2027 02:04:40.999   04 Jun 2027 02:04:57.520            16.521              Murmansk1           516.281
       326   04 Jun 2027 02:05:16.188   04 Jun 2027 02:06:24.801            68.613              Murmansk2          2144.156
       327   04 Jun 2027 02:06:24.801   04 Jun 2027 02:06:30.897             6.096              Murmansk1           190.500
       328   04 Jun 2027 02:06:57.175   04 Jun 2027 02:07:28.573            31.398              Murmansk2           981.188
       329   04 Jun 2027 02:07:37.272   04 Jun 2027 02:07:41.073             3.801                Novosib           118.781
       330   04 Jun 2027 02:07:55.468   04 Jun 2027 02:09:29.820            94.352                 Moscow          2948.500
       331   04 Jun 2027 02:31:49.624   04 Jun 2027 02:32:27.780            38.156               CapeTown          1192.375
       332   04 Jun 2027 02:38:54.962   04 Jun 2027 02:39:49.283            54.321               CapeTown          1697.531
       333   04 Jun 2027 03:35:08.609   04 Jun 2027 03:36:35.536            86.927               Magadan1          2716.469
       334   04 Jun 2027 03:36:56.391   04 Jun 2027 03:41:27.551           271.160                Anadyr1          8473.750
       335   04 Jun 2027 05:12:12.622   04 Jun 2027 05:13:19.123            66.501                Anadyr1          2078.156
       336   04 Jun 2027 05:13:42.046   04 Jun 2027 05:14:06.724            24.678                Norilsk           771.187
       337   04 Jun 2027 05:14:13.076   04 Jun 2027 05:15:36.078            83.002                Anadyr2          2593.812
       338   04 Jun 2027 05:15:36.078   04 Jun 2027 05:17:16.205           100.127                Anadyr1          3128.969
       339   04 Jun 2027 06:43:32.349   04 Jun 2027 06:43:51.818            19.469                Irkutsk           608.406
       340   04 Jun 2027 06:46:02.331   04 Jun 2027 06:46:14.727            12.396               Magadan2           387.375
       341   04 Jun 2027 06:46:26.744   04 Jun 2027 06:46:40.472            13.728                Norilsk           429.000
       342   04 Jun 2027 06:46:41.961   04 Jun 2027 06:50:06.134           204.173                Anadyr1          6380.406
       343   04 Jun 2027 06:50:12.835   04 Jun 2027 06:51:13.342            60.507                Irkutsk          1890.844
       344   04 Jun 2027 06:51:16.414   04 Jun 2027 06:51:42.937            26.523               Magadan1           828.844
       345   04 Jun 2027 06:51:45.338   04 Jun 2027 06:52:05.669            20.331                Anadyr1           635.344
       346   04 Jun 2027 06:52:16.311   04 Jun 2027 06:52:19.513             3.202                Irkutsk           100.063
       347   04 Jun 2027 06:52:24.056   04 Jun 2027 06:53:04.072            40.016              Murmansk2          1250.500
       348   04 Jun 2027 06:53:10.805   04 Jun 2027 06:54:36.306            85.501              Murmansk1          2671.906
       349   04 Jun 2027 06:55:26.057   04 Jun 2027 06:55:54.470            28.413              Murmansk1           887.906
       350   04 Jun 2027 06:55:58.130   04 Jun 2027 06:56:07.289             9.159              Murmansk1           286.219
       351   04 Jun 2027 06:56:07.289   04 Jun 2027 06:56:25.971            18.682              Murmansk2           583.812
       352   04 Jun 2027 07:27:54.237   04 Jun 2027 07:29:13.426            79.189            RioGallegos          2474.656
       353   04 Jun 2027 08:22:08.026   04 Jun 2027 08:23:28.743            80.717               Magadan1          2522.406
       354   04 Jun 2027 08:23:41.056   04 Jun 2027 08:23:52.572            11.516                Norilsk           359.875
       355   04 Jun 2027 08:24:01.299   04 Jun 2027 08:24:06.401             5.102               Magadan2           159.437
       356   04 Jun 2027 08:24:09.462   04 Jun 2027 08:24:43.370            33.908                Norilsk          1059.625
       357   04 Jun 2027 08:24:48.143   04 Jun 2027 08:25:07.123            18.980                Irkutsk           593.125
       358   04 Jun 2027 08:25:17.344   04 Jun 2027 08:26:27.472            70.128                Irkutsk          2191.500
       359   04 Jun 2027 08:26:30.561   04 Jun 2027 08:26:48.651            18.090                Novosib           565.313
       360   04 Jun 2027 08:27:09.323   04 Jun 2027 08:27:56.752            47.429                Irkutsk          1482.156
       361   04 Jun 2027 08:28:05.284   04 Jun 2027 08:28:12.710             7.426                Irkutsk           232.063
       362   04 Jun 2027 08:28:18.197   04 Jun 2027 08:28:27.873             9.676                Norilsk           302.375
       363   04 Jun 2027 08:28:39.724   04 Jun 2027 08:29:22.075            42.351              Murmansk1          1323.469
       364   04 Jun 2027 08:29:37.923   04 Jun 2027 08:29:40.890             2.967                Novosib            92.719
       365   04 Jun 2027 08:30:27.003   04 Jun 2027 08:30:44.983            17.980              Murmansk1           561.875
       366   04 Jun 2027 08:30:52.076   04 Jun 2027 08:31:47.739            55.663              Murmansk2          1739.469
       367   04 Jun 2027 09:03:49.531   04 Jun 2027 09:04:16.946            27.415            RioGallegos           856.719
       368   04 Jun 2027 09:38:19.933   04 Jun 2027 09:38:36.202            16.269                Sumatra           508.406
       369   04 Jun 2027 09:41:36.372   04 Jun 2027 09:42:49.258            72.886                Sumatra          2277.688
       370   04 Jun 2027 09:48:14.767   04 Jun 2027 09:48:51.054            36.287                  Delhi          1133.969
       371   04 Jun 2027 09:58:33.766   04 Jun 2027 09:58:37.474             3.708                Norilsk           115.875
       372   04 Jun 2027 09:58:46.573   04 Jun 2027 09:58:59.534            12.961                Irkutsk           405.031
       373   04 Jun 2027 09:59:16.370   04 Jun 2027 10:00:03.118            46.748                Norilsk          1460.875
       374   04 Jun 2027 10:00:06.387   04 Jun 2027 10:00:16.360             9.973                Norilsk           311.656
       375   04 Jun 2027 10:00:39.421   04 Jun 2027 10:00:53.603            14.182                Irkutsk           443.187
       376   04 Jun 2027 10:01:15.786   04 Jun 2027 10:01:55.808            40.022                Irkutsk          1250.687
       377   04 Jun 2027 10:02:05.771   04 Jun 2027 10:02:20.487            14.716                Novosib           459.875
       378   04 Jun 2027 10:02:27.497   04 Jun 2027 10:02:28.778             1.281                Irkutsk            40.031
       379   04 Jun 2027 10:02:30.326   04 Jun 2027 10:02:49.163            18.837                Norilsk           588.656
       380   04 Jun 2027 10:02:52.822   04 Jun 2027 10:03:12.400            19.578              Murmansk1           611.812
       381   04 Jun 2027 10:03:16.958   04 Jun 2027 10:03:58.796            41.838                Norilsk          1307.438
       382   04 Jun 2027 10:04:07.199   04 Jun 2027 10:04:22.705            15.506                Norilsk           484.563
       383   04 Jun 2027 10:04:30.543   04 Jun 2027 10:04:52.369            21.826              Murmansk2           682.062
       384   04 Jun 2027 10:05:31.593   04 Jun 2027 10:06:02.597            31.004              Murmansk1           968.875
       385   04 Jun 2027 10:46:23.085   04 Jun 2027 10:47:49.229            86.144            RioGallegos          2692.000
       386   04 Jun 2027 11:22:48.877   04 Jun 2027 11:24:17.609            88.732                  Delhi          2772.875
       387   04 Jun 2027 11:36:00.120   04 Jun 2027 11:36:51.970            51.850                 Moscow          1620.312
       388   04 Jun 2027 11:36:55.543   04 Jun 2027 11:36:56.062             0.519                 Moscow            16.219
       389   04 Jun 2027 11:37:00.499   04 Jun 2027 11:38:04.231            63.732                Novosib          1991.625
       390   04 Jun 2027 11:38:09.998   04 Jun 2027 11:38:39.121            29.123                 Moscow           910.094
       391   04 Jun 2027 11:38:58.931   04 Jun 2027 11:40:14.274            75.343                Novosib          2354.469
       392   04 Jun 2027 13:06:53.577   04 Jun 2027 13:10:12.258           198.681                 Moscow          6208.781
       393   04 Jun 2027 13:10:23.152   04 Jun 2027 13:13:41.537           198.385              Murmansk1          6199.531
       394   04 Jun 2027 13:19:40.293   04 Jun 2027 13:20:00.200            19.907                Norilsk           622.094
       395   04 Jun 2027 14:21:07.507   04 Jun 2027 14:24:06.905           179.398               CapeTown          5606.187
       396   04 Jun 2027 14:24:32.700   04 Jun 2027 14:26:00.046            87.346               CapeTown          2729.563
       397   04 Jun 2027 14:47:42.783   04 Jun 2027 14:49:39.441           116.658              Murmansk1          3645.562
       398   04 Jun 2027 15:01:19.009   04 Jun 2027 15:03:41.065           142.056                Anadyr1          4439.250
       399   04 Jun 2027 15:10:17.801   04 Jun 2027 15:10:33.907            16.106                Anadyr2           503.312
       400   04 Jun 2027 15:11:16.160   04 Jun 2027 15:11:26.331            10.171                Anadyr1           317.844
       401   04 Jun 2027 15:56:29.987   04 Jun 2027 15:57:00.179            30.192               CapeTown           943.500
       402   04 Jun 2027 16:27:26.311   04 Jun 2027 16:31:08.377           222.066              Murmansk2          6939.562
       403   04 Jun 2027 16:36:57.035   04 Jun 2027 16:38:39.890           102.855                Anadyr2          3214.219
       404   04 Jun 2027 16:40:05.741   04 Jun 2027 16:42:45.309           159.568               Magadan2          4986.500
       405   04 Jun 2027 16:44:45.717   04 Jun 2027 16:45:29.110            43.393               Magadan2          1356.031
       406   04 Jun 2027 18:12:52.283   04 Jun 2027 18:15:32.156           159.873                Anadyr1          4996.031
       407   04 Jun 2027 18:15:37.732   04 Jun 2027 18:18:05.666           147.934               Magadan1          4622.938
       408   04 Jun 2027 18:21:29.033   04 Jun 2027 18:21:38.539             9.506               Magadan2           297.062
       409   04 Jun 2027 18:22:47.165   04 Jun 2027 18:23:22.547            35.382               Magadan2          1105.687
       410   04 Jun 2027 19:09:11.346   04 Jun 2027 19:11:43.297           151.951            RioGallegos          4748.469
       411   04 Jun 2027 19:48:41.222   04 Jun 2027 19:48:57.233            16.011                Anadyr1           500.344
       412   04 Jun 2027 19:49:50.135   04 Jun 2027 19:49:55.626             5.491                Anadyr2           171.594
       413   04 Jun 2027 19:50:07.186   04 Jun 2027 19:50:18.385            11.199                Anadyr2           349.969
       414   04 Jun 2027 19:50:28.740   04 Jun 2027 19:50:38.365             9.625                Anadyr2           300.781
       415   04 Jun 2027 19:50:52.492   04 Jun 2027 19:54:43.746           231.254                Norilsk          7226.687
       416   04 Jun 2027 19:55:49.319   04 Jun 2027 19:56:22.922            33.603                Irkutsk          1050.094
       417   04 Jun 2027 19:56:51.082   04 Jun 2027 19:57:03.439            12.357                Norilsk           386.156
       418   04 Jun 2027 19:57:16.348   04 Jun 2027 19:59:06.338           109.990                Irkutsk          3437.188
       419   04 Jun 2027 19:59:22.919   04 Jun 2027 20:00:07.795            44.876                Irkutsk          1402.375
       420   04 Jun 2027 20:01:06.795   04 Jun 2027 20:01:30.737            23.942                Irkutsk           748.188
       421   04 Jun 2027 20:01:58.626   04 Jun 2027 20:02:49.210            50.584                Irkutsk          1580.750
       422   04 Jun 2027 20:10:49.531   04 Jun 2027 20:13:06.214           136.683                Sumatra          4271.344
       423   04 Jun 2027 20:19:01.490   04 Jun 2027 20:19:20.987            19.497                Sumatra           609.281
       424   04 Jun 2027 21:29:20.490   04 Jun 2027 21:30:37.290            76.800                Norilsk          2400.000
       425   04 Jun 2027 21:31:13.931   04 Jun 2027 21:31:38.910            24.979                Novosib           780.594
       426   04 Jun 2027 21:32:13.091   04 Jun 2027 21:32:53.120            40.029                Novosib          1250.906
       427   04 Jun 2027 21:33:22.957   04 Jun 2027 21:34:47.303            84.346                Novosib          2635.813
       428   04 Jun 2027 21:41:21.877   04 Jun 2027 21:43:02.555           100.678                  Delhi          3146.188
       429   04 Jun 2027 23:03:10.067   04 Jun 2027 23:04:17.073            67.006               Magadan2          2093.937
       430   04 Jun 2027 23:05:36.477   04 Jun 2027 23:09:08.423           211.946              Murmansk1          6623.313
       431   04 Jun 2027 23:13:45.173   04 Jun 2027 23:13:52.710             7.537                  Delhi           235.531
       432   04 Jun 2027 23:14:40.174   04 Jun 2027 23:16:23.081           102.907                  Delhi          3215.844
       433   05 Jun 2027 00:31:24.101   05 Jun 2027 00:31:43.819            19.718                Anadyr2           616.187
       434   05 Jun 2027 00:32:00.774   05 Jun 2027 00:32:16.894            16.120                Anadyr2           503.750
       435   05 Jun 2027 00:32:44.139   05 Jun 2027 00:33:21.204            37.065                Anadyr2          1158.281
       436   05 Jun 2027 00:33:21.204   05 Jun 2027 00:33:47.857            26.653                Anadyr1           832.906
       437   05 Jun 2027 00:34:12.155   05 Jun 2027 00:34:30.877            18.722                Anadyr2           585.062
       438   05 Jun 2027 00:37:26.431   05 Jun 2027 00:39:40.512           134.081               Magadan2          4190.031
       439   05 Jun 2027 00:40:47.754   05 Jun 2027 00:43:26.473           158.719              Murmansk2          4959.969
       440   05 Jun 2027 00:43:47.901   05 Jun 2027 00:44:45.393            57.492              Murmansk1          1796.625
       441   05 Jun 2027 00:45:50.883   05 Jun 2027 00:46:02.844            11.961                 Moscow           373.781
       442   05 Jun 2027 00:50:08.193   05 Jun 2027 00:50:19.376            11.183                 Moscow           349.469
       443   05 Jun 2027 00:50:41.525   05 Jun 2027 00:50:57.916            16.391                 Moscow           512.219
       444   05 Jun 2027 01:10:45.547   05 Jun 2027 01:11:01.010            15.463               CapeTown           483.219
       445   05 Jun 2027 01:12:02.997   05 Jun 2027 01:13:00.065            57.068               CapeTown          1783.375
       446   05 Jun 2027 01:17:50.015   05 Jun 2027 01:18:25.355            35.340               CapeTown          1104.375
       447   05 Jun 2027 02:05:13.673   05 Jun 2027 02:05:30.746            17.073                Anadyr1           533.531
       448   05 Jun 2027 02:06:11.081   05 Jun 2027 02:07:11.241            60.160                Anadyr2          1880.000
       449   05 Jun 2027 02:09:06.292   05 Jun 2027 02:10:37.226            90.934               Magadan1          2841.687
       450   05 Jun 2027 02:12:52.340   05 Jun 2027 02:13:03.504            11.164               Magadan1           348.875
       451   05 Jun 2027 02:14:09.115   05 Jun 2027 02:14:39.607            30.492                Norilsk           952.875
       452   05 Jun 2027 02:16:42.755   05 Jun 2027 02:17:52.372            69.617              Murmansk1          2175.531
       453   05 Jun 2027 02:18:24.365   05 Jun 2027 02:19:19.750            55.385              Murmansk2          1730.781
       454   05 Jun 2027 02:22:46.665   05 Jun 2027 02:23:13.691            27.026                 Moscow           844.563
       455   05 Jun 2027 02:28:46.018   05 Jun 2027 02:29:39.322            53.304                 Moscow          1665.750
       456   05 Jun 2027 02:47:02.490   05 Jun 2027 02:47:39.262            36.772               CapeTown          1149.125
       457   05 Jun 2027 02:52:56.543   05 Jun 2027 02:53:22.579            26.036               CapeTown           813.625
       458   05 Jun 2027 03:47:18.807   05 Jun 2027 03:47:30.366            11.559               Magadan1           361.219
       459   05 Jun 2027 03:47:47.178   05 Jun 2027 03:49:04.324            77.146               Magadan1          2410.812
       460   05 Jun 2027 03:49:04.324   05 Jun 2027 03:52:17.393           193.069               Magadan2          6033.406
       461   05 Jun 2027 03:52:17.393   05 Jun 2027 03:52:30.312            12.919               Magadan1           403.719
       462   05 Jun 2027 03:52:58.523   05 Jun 2027 03:53:04.210             5.687               Magadan1           177.719
       463   05 Jun 2027 05:24:37.758   05 Jun 2027 05:24:47.176             9.418               Magadan2           294.312
       464   05 Jun 2027 05:25:07.185   05 Jun 2027 05:25:46.679            39.494               Magadan1          1234.188
       465   05 Jun 2027 05:25:46.679   05 Jun 2027 05:29:03.683           197.004               Magadan2          6156.375
       466   05 Jun 2027 05:29:08.340   05 Jun 2027 05:29:14.784             6.444                Anadyr2           201.375
       467   05 Jun 2027 06:58:17.192   05 Jun 2027 07:00:15.367           118.175                Norilsk          3692.969
       468   05 Jun 2027 07:00:21.499   05 Jun 2027 07:04:07.041           225.542                Irkutsk          7048.187
       469   05 Jun 2027 07:04:19.170   05 Jun 2027 07:04:46.284            27.114              Murmansk2           847.312
       470   05 Jun 2027 07:05:02.961   05 Jun 2027 07:06:13.818            70.857                Norilsk          2214.281
       471   05 Jun 2027 07:07:11.220   05 Jun 2027 07:07:11.574             0.354                Norilsk            11.063
       472   05 Jun 2027 07:07:17.962   05 Jun 2027 07:07:42.101            24.139              Murmansk1           754.344
       473   05 Jun 2027 07:08:04.420   05 Jun 2027 07:08:07.405             2.985              Murmansk1            93.281
       474   05 Jun 2027 07:08:34.323   05 Jun 2027 07:08:42.482             8.159              Murmansk2           254.969
       475   05 Jun 2027 07:12:03.975   05 Jun 2027 07:12:33.648            29.673              Murmansk1           927.281
       476   05 Jun 2027 07:39:44.069   05 Jun 2027 07:41:03.906            79.837            RioGallegos          2494.906
       477   05 Jun 2027 08:16:23.819   05 Jun 2027 08:17:09.850            46.031                Sumatra          1438.469
       478   05 Jun 2027 08:21:02.613   05 Jun 2027 08:22:28.224            85.611                Sumatra          2675.344
       479   05 Jun 2027 08:34:33.682   05 Jun 2027 08:35:10.852            37.170                Irkutsk          1161.562
       480   05 Jun 2027 08:35:24.929   05 Jun 2027 08:35:25.514             0.585                Novosib            18.281
       481   05 Jun 2027 08:35:36.069   05 Jun 2027 08:35:49.901            13.832                Norilsk           432.250
       482   05 Jun 2027 08:35:52.454   05 Jun 2027 08:36:16.213            23.759                Irkutsk           742.469
