uniorb/output/strategy_1/Drop/Drop_KinoSat_111801.txt

KinoSat_111801
-------------------------
    Access    *     Start Time (UTCG)     *     Stop Time (UTCG)  *   Duration (s)        *       Station  *  Data (Mbytes)
         1   01 Jun 2027 03:46:26.709   01 Jun 2027 03:48:35.030           128.321                Irkutsk          4010.031
         2   01 Jun 2027 03:48:49.736   01 Jun 2027 03:49:09.215            19.479                 Moscow           608.719
         3   01 Jun 2027 03:49:23.518   01 Jun 2027 03:51:22.759           119.241                Irkutsk          3726.281
         4   01 Jun 2027 03:51:24.606   01 Jun 2027 03:52:37.137            72.531                Novosib          2266.594
         5   01 Jun 2027 03:53:15.320   01 Jun 2027 03:53:46.894            31.574                 Moscow           986.688
         6   01 Jun 2027 03:53:53.513   01 Jun 2027 03:55:51.198           117.685                  Delhi          3677.656
         7   01 Jun 2027 05:24:11.648   01 Jun 2027 05:24:37.148            25.500              Murmansk1           796.875
         8   01 Jun 2027 05:24:51.436   01 Jun 2027 05:25:04.383            12.947              Murmansk2           404.594
         9   01 Jun 2027 05:25:04.383   01 Jun 2027 05:25:22.234            17.851              Murmansk1           557.844
        10   01 Jun 2027 05:25:32.079   01 Jun 2027 05:25:59.526            27.447                Norilsk           857.719
        11   01 Jun 2027 05:26:05.204   01 Jun 2027 05:28:01.717           116.513              Murmansk1          3641.031
        12   01 Jun 2027 05:28:03.373   01 Jun 2027 05:29:25.874            82.501              Murmansk1          2578.156
        13   01 Jun 2027 05:29:41.158   01 Jun 2027 05:29:44.935             3.777              Murmansk2           118.031
        14   01 Jun 2027 05:30:05.645   01 Jun 2027 05:32:51.675           166.030                 Moscow          5188.438
        15   01 Jun 2027 05:44:29.407   01 Jun 2027 05:47:05.538           156.131               CapeTown          4879.094
        16   01 Jun 2027 06:48:15.368   01 Jun 2027 06:49:50.178            94.810                Anadyr2          2962.812
        17   01 Jun 2027 06:53:13.866   01 Jun 2027 06:53:38.357            24.491              Murmansk1           765.344
        18   01 Jun 2027 07:25:14.104   01 Jun 2027 07:27:01.416           107.312               CapeTown          3353.500
        19   01 Jun 2027 08:22:40.638   01 Jun 2027 08:23:23.748            43.110                Anadyr2          1347.187
        20   01 Jun 2027 08:23:52.741   01 Jun 2027 08:25:46.128           113.387               Magadan1          3543.344
        21   01 Jun 2027 08:25:58.841   01 Jun 2027 08:27:00.153            61.312                Norilsk          1916.000
        22   01 Jun 2027 08:27:32.339   01 Jun 2027 08:29:54.116           141.777                Anadyr2          4430.531
        23   01 Jun 2027 09:57:27.283   01 Jun 2027 09:58:06.941            39.658                Irkutsk          1239.313
        24   01 Jun 2027 09:58:33.787   01 Jun 2027 10:04:59.165           385.378                Anadyr2         12043.062
        25   01 Jun 2027 11:33:46.023   01 Jun 2027 11:36:08.816           142.793               Magadan2          4462.281
        26   01 Jun 2027 11:36:08.816   01 Jun 2027 11:37:59.947           111.131               Magadan1          3472.844
        27   01 Jun 2027 11:38:06.104   01 Jun 2027 11:39:52.182           106.078               Magadan2          3314.938
        28   01 Jun 2027 13:56:42.327   01 Jun 2027 13:59:50.983           188.656            RioGallegos          5895.500
        29   01 Jun 2027 16:19:28.730   01 Jun 2027 16:21:56.808           148.078                 Moscow          4627.438
        30   01 Jun 2027 16:22:56.171   01 Jun 2027 16:24:29.617            93.446              Murmansk2          2920.188
        31   01 Jun 2027 16:27:07.998   01 Jun 2027 16:29:21.889           133.891                Norilsk          4184.094
        32   01 Jun 2027 16:30:18.921   01 Jun 2027 16:32:57.015           158.094                Norilsk          4940.438
        33   01 Jun 2027 17:33:56.398   01 Jun 2027 17:34:36.468            40.070               CapeTown          1252.187
        34   01 Jun 2027 17:38:53.875   01 Jun 2027 17:39:06.943            13.068               CapeTown           408.375
        35   01 Jun 2027 17:41:19.779   01 Jun 2027 17:42:50.053            90.274               CapeTown          2821.063
        36   01 Jun 2027 17:56:58.920   01 Jun 2027 17:57:39.169            40.249                 Moscow          1257.781
        37   01 Jun 2027 18:00:04.431   01 Jun 2027 18:00:59.970            55.539              Murmansk1          1735.594
        38   01 Jun 2027 18:01:40.819   01 Jun 2027 18:02:09.985            29.166                 Moscow           911.437
        39   01 Jun 2027 18:03:52.849   01 Jun 2027 18:05:23.309            90.460              Murmansk1          2826.875
        40   01 Jun 2027 18:19:22.743   01 Jun 2027 18:19:52.637            29.894                Anadyr1           934.188
        41   01 Jun 2027 18:20:33.394   01 Jun 2027 18:20:51.572            18.178                Anadyr1           568.062
        42   01 Jun 2027 18:22:28.073   01 Jun 2027 18:22:42.996            14.923                Anadyr2           466.344
        43   01 Jun 2027 19:09:00.825   01 Jun 2027 19:10:24.165            83.340               CapeTown          2604.375
        44   01 Jun 2027 19:13:12.054   01 Jun 2027 19:13:46.872            34.818               CapeTown          1088.063
        45   01 Jun 2027 19:17:45.198   01 Jun 2027 19:18:41.945            56.747               CapeTown          1773.344
        46   01 Jun 2027 19:20:21.990   01 Jun 2027 19:21:21.372            59.382               CapeTown          1855.687
        47   01 Jun 2027 19:39:30.113   01 Jun 2027 19:45:05.499           335.386              Murmansk2         10480.813
        48   01 Jun 2027 21:25:27.822   01 Jun 2027 21:29:15.920           228.098                Anadyr2          7128.063
        49   01 Jun 2027 21:29:30.295   01 Jun 2027 21:31:15.149           104.854               Magadan1          3276.687
        50   01 Jun 2027 21:31:24.028   01 Jun 2027 21:32:43.723            79.695               Magadan2          2490.469
        51   01 Jun 2027 21:33:42.727   01 Jun 2027 21:34:20.419            37.692               Magadan1          1177.875
        52   01 Jun 2027 21:35:50.238   01 Jun 2027 21:36:13.850            23.612               Magadan1           737.875
        53   01 Jun 2027 21:37:57.303   01 Jun 2027 21:38:03.700             6.397               Magadan2           199.906
        54   01 Jun 2027 21:38:37.184   01 Jun 2027 21:39:06.914            29.730               Magadan2           929.063
        55   01 Jun 2027 21:39:32.570   01 Jun 2027 21:39:54.231            21.661               Magadan2           676.906
        56   01 Jun 2027 22:22:34.415   01 Jun 2027 22:24:27.437           113.022            RioGallegos          3531.937
        57   01 Jun 2027 22:25:56.614   01 Jun 2027 22:25:57.154             0.540            RioGallegos            16.875
        58   01 Jun 2027 23:01:19.178   01 Jun 2027 23:03:48.436           149.258                Anadyr2          4664.313
        59   01 Jun 2027 23:03:57.992   01 Jun 2027 23:05:01.833            63.841                Norilsk          1995.031
        60   01 Jun 2027 23:05:11.181   01 Jun 2027 23:05:36.698            25.517                Norilsk           797.406
        61   01 Jun 2027 23:05:49.788   01 Jun 2027 23:05:59.698             9.910                Norilsk           309.688
        62   01 Jun 2027 23:06:01.111   01 Jun 2027 23:06:13.874            12.763               Magadan2           398.844
        63   01 Jun 2027 23:06:30.706   01 Jun 2027 23:06:43.057            12.351                Norilsk           385.969
        64   01 Jun 2027 23:07:10.736   01 Jun 2027 23:08:20.214            69.478               Magadan1          2171.188
        65   01 Jun 2027 23:10:03.932   01 Jun 2027 23:10:34.879            30.947                Irkutsk           967.094
        66   01 Jun 2027 23:11:34.612   01 Jun 2027 23:11:40.959             6.347                Irkutsk           198.344
        67   01 Jun 2027 23:11:59.235   01 Jun 2027 23:13:47.345           108.110                Irkutsk          3378.438
        68   01 Jun 2027 23:24:12.407   01 Jun 2027 23:25:49.084            96.677                Sumatra          3021.156
        69   02 Jun 2027 00:02:54.647   02 Jun 2027 00:03:13.990            19.343            RioGallegos           604.469
        70   02 Jun 2027 00:04:53.140   02 Jun 2027 00:04:58.008             4.868            RioGallegos           152.125
        71   02 Jun 2027 00:06:00.886   02 Jun 2027 00:06:30.299            29.413            RioGallegos           919.156
        72   02 Jun 2027 00:07:18.386   02 Jun 2027 00:07:35.503            17.117            RioGallegos           534.906
        73   02 Jun 2027 00:36:41.273   02 Jun 2027 00:38:07.428            86.155                Anadyr2          2692.344
        74   02 Jun 2027 00:38:26.030   02 Jun 2027 00:38:32.799             6.769                Anadyr1           211.531
        75   02 Jun 2027 00:39:10.554   02 Jun 2027 00:41:00.701           110.147                Norilsk          3442.094
        76   02 Jun 2027 00:41:48.502   02 Jun 2027 00:43:23.259            94.757               Magadan1          2961.156
        77   02 Jun 2027 00:43:57.276   02 Jun 2027 00:45:59.777           122.501                Novosib          3828.156
        78   02 Jun 2027 00:53:05.617   02 Jun 2027 00:53:19.320            13.703                Novosib           428.219
        79   02 Jun 2027 00:53:21.665   02 Jun 2027 00:53:22.870             1.205                Novosib            37.656
        80   02 Jun 2027 00:53:51.188   02 Jun 2027 00:53:53.865             2.677                Irkutsk            83.656
        81   02 Jun 2027 00:55:22.542   02 Jun 2027 00:55:51.269            28.727                Irkutsk           897.719
        82   02 Jun 2027 00:55:59.952   02 Jun 2027 00:56:32.244            32.292                  Delhi          1009.125
        83   02 Jun 2027 01:00:01.053   02 Jun 2027 01:01:10.575            69.522                Sumatra          2172.562
        84   02 Jun 2027 01:06:35.555   02 Jun 2027 01:06:54.972            19.417                Sumatra           606.781
        85   02 Jun 2027 01:08:39.856   02 Jun 2027 01:09:30.808            50.952                Sumatra          1592.250
        86   02 Jun 2027 01:37:19.899   02 Jun 2027 01:37:44.007            24.108            RioGallegos           753.375
        87   02 Jun 2027 01:40:13.767   02 Jun 2027 01:40:47.690            33.923            RioGallegos          1060.094
        88   02 Jun 2027 02:10:56.659   02 Jun 2027 02:11:40.867            44.208                Anadyr1          1381.500
        89   02 Jun 2027 02:12:55.375   02 Jun 2027 02:13:23.827            28.452                Anadyr1           889.125
        90   02 Jun 2027 02:15:11.286   02 Jun 2027 02:16:07.985            56.699                Norilsk          1771.844
        91   02 Jun 2027 02:16:21.429   02 Jun 2027 02:16:26.500             5.071                Norilsk           158.469
        92   02 Jun 2027 02:16:33.405   02 Jun 2027 02:16:35.870             2.465                Norilsk            77.031
        93   02 Jun 2027 02:16:42.107   02 Jun 2027 02:16:47.915             5.808               Magadan2           181.500
        94   02 Jun 2027 02:17:35.088   02 Jun 2027 02:17:51.115            16.027               Magadan2           500.844
        95   02 Jun 2027 02:18:15.117   02 Jun 2027 02:18:22.527             7.410                Norilsk           231.562
        96   02 Jun 2027 02:18:25.059   02 Jun 2027 02:19:13.225            48.166              Murmansk1          1505.187
        97   02 Jun 2027 02:19:37.954   02 Jun 2027 02:20:34.635            56.681                Irkutsk          1771.281
        98   02 Jun 2027 02:20:36.885   02 Jun 2027 02:20:49.417            12.532                Irkutsk           391.625
        99   02 Jun 2027 02:23:23.743   02 Jun 2027 02:23:52.385            28.642                Irkutsk           895.063
       100   02 Jun 2027 02:25:01.798   02 Jun 2027 02:26:03.015            61.217                Irkutsk          1913.031
       101   02 Jun 2027 02:33:17.048   02 Jun 2027 02:34:50.454            93.406                  Delhi          2918.937
       102   02 Jun 2027 03:08:03.549   02 Jun 2027 03:10:49.934           166.385            RioGallegos          5199.531
       103   02 Jun 2027 03:12:13.696   02 Jun 2027 03:12:41.525            27.829            RioGallegos           869.656
       104   02 Jun 2027 03:15:24.187   02 Jun 2027 03:15:54.309            30.122            RioGallegos           941.312
       105   02 Jun 2027 03:58:02.146   02 Jun 2027 03:58:07.986             5.840                Irkutsk           182.500
       106   02 Jun 2027 03:59:39.140   02 Jun 2027 04:02:35.918           176.778                Irkutsk          5524.313
       107   02 Jun 2027 04:02:36.200   02 Jun 2027 04:03:50.069            73.869              Murmansk1          2308.406
       108   02 Jun 2027 04:04:04.562   02 Jun 2027 04:05:41.562            97.000                Novosib          3031.250
       109   02 Jun 2027 04:08:45.743   02 Jun 2027 04:09:56.719            70.976                  Delhi          2218.000
       110   02 Jun 2027 05:36:53.383   02 Jun 2027 05:41:15.898           262.515              Murmansk2          8203.594
       111   02 Jun 2027 07:00:48.458   02 Jun 2027 07:04:14.914           206.456               Magadan1          6451.750
       112   02 Jun 2027 07:04:39.118   02 Jun 2027 07:05:26.785            47.667                Anadyr1          1489.594
       113   02 Jun 2027 07:05:47.838   02 Jun 2027 07:06:04.452            16.614                Anadyr1           519.187
       114   02 Jun 2027 08:37:21.096   02 Jun 2027 08:41:41.714           260.618               Magadan1          8144.313
       115   02 Jun 2027 08:46:21.967   02 Jun 2027 08:46:39.701            17.734                 Moscow           554.188
       116   02 Jun 2027 10:09:50.172   02 Jun 2027 10:10:27.173            37.001               Magadan1          1156.281
       117   02 Jun 2027 10:10:57.109   02 Jun 2027 10:16:19.560           322.451               Magadan1         10076.594
       118   02 Jun 2027 10:16:19.560   02 Jun 2027 10:17:24.876            65.316               Magadan2          2041.125
       119   02 Jun 2027 11:47:04.298   02 Jun 2027 11:51:11.781           247.483               Magadan2          7733.844
       120   02 Jun 2027 11:52:02.954   02 Jun 2027 11:52:36.221            33.267                Irkutsk          1039.594
       121   02 Jun 2027 11:53:22.741   02 Jun 2027 11:54:42.493            79.752                Novosib          2492.250
       122   02 Jun 2027 11:54:45.185   02 Jun 2027 11:55:16.151            30.966              Murmansk1           967.688
       123   02 Jun 2027 12:28:30.089   02 Jun 2027 12:31:08.578           158.489            RioGallegos          4952.781
       124   02 Jun 2027 12:37:55.201   02 Jun 2027 12:38:15.411            20.210            RioGallegos           631.563
       125   02 Jun 2027 13:02:58.524   02 Jun 2027 13:05:10.196           131.672                Sumatra          4114.750
       126   02 Jun 2027 13:08:39.315   02 Jun 2027 13:09:49.918            70.603                Sumatra          2206.344
       127   02 Jun 2027 13:14:33.345   02 Jun 2027 13:15:26.052            52.707                Sumatra          1647.094
       128   02 Jun 2027 13:17:37.053   02 Jun 2027 13:18:04.314            27.261                Irkutsk           851.906
       129   02 Jun 2027 13:19:10.735   02 Jun 2027 13:20:02.617            51.882                Novosib          1621.313
       130   02 Jun 2027 13:20:14.828   02 Jun 2027 13:20:35.286            20.458                Novosib           639.312
       131   02 Jun 2027 13:21:31.573   02 Jun 2027 13:22:40.668            69.095                Irkutsk          2159.219
       132   02 Jun 2027 13:25:40.495   02 Jun 2027 13:27:33.669           113.174                Irkutsk          3536.688
       133   02 Jun 2027 13:28:03.872   02 Jun 2027 13:28:29.709            25.837                Irkutsk           807.406
       134   02 Jun 2027 14:10:36.632   02 Jun 2027 14:13:03.352           146.720            RioGallegos          4585.000
       135   02 Jun 2027 14:55:27.066   02 Jun 2027 14:56:00.102            33.036                  Delhi          1032.375
       136   02 Jun 2027 14:56:01.826   02 Jun 2027 14:56:22.004            20.178                Novosib           630.562
       137   02 Jun 2027 14:57:21.654   02 Jun 2027 14:58:30.641            68.987                  Delhi          2155.844
       138   02 Jun 2027 14:58:57.967   02 Jun 2027 15:00:49.015           111.048                Novosib          3470.250
       139   02 Jun 2027 15:02:31.377   02 Jun 2027 15:02:58.565            27.188                Norilsk           849.625
       140   02 Jun 2027 15:04:40.959   02 Jun 2027 15:05:45.403            64.444                Norilsk          2013.875
       141   02 Jun 2027 15:05:47.253   02 Jun 2027 15:06:15.472            28.219                Novosib           881.844
       142   02 Jun 2027 15:09:23.479   02 Jun 2027 15:09:26.850             3.371                Norilsk           105.344
       143   02 Jun 2027 15:09:55.955   02 Jun 2027 15:10:19.633            23.678                Norilsk           739.937
       144   02 Jun 2027 16:31:30.762   02 Jun 2027 16:34:49.093           198.331                 Moscow          6197.844
       145   02 Jun 2027 16:35:00.825   02 Jun 2027 16:35:50.954            50.129              Murmansk2          1566.531
       146   02 Jun 2027 16:39:26.466   02 Jun 2027 16:40:33.036            66.570                 Moscow          2080.313
       147   02 Jun 2027 16:41:19.588   02 Jun 2027 16:45:50.469           270.881                Norilsk          8465.031
       148   02 Jun 2027 17:49:25.206   02 Jun 2027 17:50:07.097            41.891               CapeTown          1309.094
       149   02 Jun 2027 17:50:47.815   02 Jun 2027 17:51:48.782            60.967               CapeTown          1905.219
       150   02 Jun 2027 17:53:04.027   02 Jun 2027 17:55:01.613           117.586               CapeTown          3674.563
       151   02 Jun 2027 18:09:43.489   02 Jun 2027 18:10:51.178            67.689                 Moscow          2115.281
       152   02 Jun 2027 18:13:25.451   02 Jun 2027 18:14:27.244            61.793                 Moscow          1931.031
       153   02 Jun 2027 18:15:57.749   02 Jun 2027 18:19:31.185           213.436                 Moscow          6669.875
       154   02 Jun 2027 18:36:05.236   02 Jun 2027 18:36:12.644             7.408                Anadyr1           231.500
       155   02 Jun 2027 19:23:44.150   02 Jun 2027 19:25:29.987           105.837               CapeTown          3307.406
       156   02 Jun 2027 19:27:17.868   02 Jun 2027 19:28:46.420            88.552               CapeTown          2767.250
       157   02 Jun 2027 19:30:20.694   02 Jun 2027 19:30:53.523            32.829               CapeTown          1025.906
       158   02 Jun 2027 19:32:21.229   02 Jun 2027 19:33:04.944            43.715               CapeTown          1366.094
       159   02 Jun 2027 19:52:11.965   02 Jun 2027 19:54:11.064           119.099              Murmansk2          3721.844
       160   02 Jun 2027 19:54:16.526   02 Jun 2027 19:57:58.912           222.386              Murmansk1          6949.563
       161   02 Jun 2027 19:59:04.387   02 Jun 2027 19:59:28.208            23.821              Murmansk2           744.406
       162   02 Jun 2027 21:37:29.578   02 Jun 2027 21:39:08.700            99.122                Anadyr2          3097.562
       163   02 Jun 2027 21:39:17.779   02 Jun 2027 21:41:17.314           119.535                Anadyr1          3735.469
       164   02 Jun 2027 21:41:28.015   02 Jun 2027 21:43:23.017           115.002               Magadan1          3593.812
       165   02 Jun 2027 21:44:40.571   02 Jun 2027 21:44:52.728            12.157               Magadan1           379.906
       166   02 Jun 2027 21:44:56.145   02 Jun 2027 21:45:26.852            30.707                Anadyr2           959.594
       167   02 Jun 2027 21:46:50.395   02 Jun 2027 21:47:53.316            62.921               Magadan1          1966.281
       168   02 Jun 2027 21:50:37.720   02 Jun 2027 21:51:05.260            27.540               Magadan1           860.625
       169   02 Jun 2027 21:51:19.087   02 Jun 2027 21:51:32.919            13.832               Magadan1           432.250
       170   02 Jun 2027 21:52:08.314   02 Jun 2027 21:52:28.678            20.364               Magadan2           636.375
       171   02 Jun 2027 22:34:40.273   02 Jun 2027 22:35:22.471            42.198            RioGallegos          1318.687
       172   02 Jun 2027 22:36:06.562   02 Jun 2027 22:36:47.920            41.358            RioGallegos          1292.438
       173   02 Jun 2027 22:38:28.659   02 Jun 2027 22:39:19.090            50.431            RioGallegos          1575.969
       174   02 Jun 2027 23:13:18.891   02 Jun 2027 23:16:31.357           192.466                Anadyr2          6014.562
       175   02 Jun 2027 23:16:52.887   02 Jun 2027 23:18:03.426            70.539               Magadan1          2204.344
       176   02 Jun 2027 23:18:40.249   02 Jun 2027 23:18:50.617            10.368               Magadan2           324.000
       177   02 Jun 2027 23:20:15.619   02 Jun 2027 23:20:55.339            39.720                Norilsk          1241.250
       178   02 Jun 2027 23:21:13.079   02 Jun 2027 23:21:29.297            16.218               Magadan1           506.813
       179   02 Jun 2027 23:22:47.188   02 Jun 2027 23:23:09.308            22.120                Irkutsk           691.250
       180   02 Jun 2027 23:23:50.535   02 Jun 2027 23:24:34.874            44.339                Irkutsk          1385.594
       181   02 Jun 2027 23:26:06.147   02 Jun 2027 23:26:26.418            20.271               Magadan2           633.469
       182   02 Jun 2027 23:27:58.668   02 Jun 2027 23:28:07.449             8.781               Magadan2           274.406
       183   02 Jun 2027 23:29:01.716   02 Jun 2027 23:29:17.883            16.167                Irkutsk           505.219
       184   02 Jun 2027 23:35:10.115   02 Jun 2027 23:37:08.443           118.328                Sumatra          3697.750
       185   02 Jun 2027 23:43:38.451   02 Jun 2027 23:44:07.560            29.109                Sumatra           909.656
       186   03 Jun 2027 00:15:17.971   03 Jun 2027 00:16:05.352            47.381            RioGallegos          1480.656
       187   03 Jun 2027 00:16:46.365   03 Jun 2027 00:18:01.234            74.869            RioGallegos          2339.656
       188   03 Jun 2027 00:48:34.661   03 Jun 2027 00:48:42.055             7.394                Anadyr1           231.063
       189   03 Jun 2027 00:49:30.318   03 Jun 2027 00:50:03.373            33.055                Anadyr2          1032.969
       190   03 Jun 2027 00:50:51.840   03 Jun 2027 00:50:56.462             4.622                Anadyr2           144.437
       191   03 Jun 2027 00:51:09.348   03 Jun 2027 00:51:17.805             8.457                Anadyr2           264.281
       192   03 Jun 2027 00:51:22.827   03 Jun 2027 00:51:56.756            33.929                Anadyr2          1060.281
       193   03 Jun 2027 00:52:00.596   03 Jun 2027 00:52:59.969            59.373                Norilsk          1855.406
       194   03 Jun 2027 00:53:16.183   03 Jun 2027 00:53:33.399            17.216               Magadan1           538.000
       195   03 Jun 2027 00:53:33.399   03 Jun 2027 00:53:50.229            16.830               Magadan2           525.938
       196   03 Jun 2027 00:53:50.956   03 Jun 2027 00:53:59.677             8.721               Magadan1           272.531
       197   03 Jun 2027 00:55:07.747   03 Jun 2027 00:55:42.110            34.363                Irkutsk          1073.844
       198   03 Jun 2027 00:55:56.829   03 Jun 2027 00:56:50.929            54.100                Novosib          1690.625
       199   03 Jun 2027 01:00:25.554   03 Jun 2027 01:00:28.030             2.476                Novosib            77.375
       200   03 Jun 2027 01:00:56.804   03 Jun 2027 01:01:04.800             7.996                Novosib           249.875
       201   03 Jun 2027 01:02:25.642   03 Jun 2027 01:02:41.072            15.430                Irkutsk           482.188
       202   03 Jun 2027 01:03:47.435   03 Jun 2027 01:04:42.266            54.831                Irkutsk          1713.469
       203   03 Jun 2027 01:06:43.048   03 Jun 2027 01:07:56.220            73.172                Irkutsk          2286.625
       204   03 Jun 2027 01:11:54.754   03 Jun 2027 01:13:36.380           101.626                Sumatra          3175.813
       205   03 Jun 2027 01:18:49.156   03 Jun 2027 01:19:13.740            24.584                Sumatra           768.250
       206   03 Jun 2027 01:49:01.600   03 Jun 2027 01:50:05.267            63.667            RioGallegos          1989.594
       207   03 Jun 2027 01:52:53.341   03 Jun 2027 01:53:41.917            48.576            RioGallegos          1518.000
       208   03 Jun 2027 02:25:15.197   03 Jun 2027 02:25:16.148             0.951                Anadyr1            29.719
       209   03 Jun 2027 02:25:38.624   03 Jun 2027 02:26:16.261            37.637                Anadyr1          1176.156
       210   03 Jun 2027 02:27:13.592   03 Jun 2027 02:27:56.440            42.848                Norilsk          1339.000
       211   03 Jun 2027 02:29:39.259   03 Jun 2027 02:30:06.988            27.729                Norilsk           866.531
       212   03 Jun 2027 02:31:16.706   03 Jun 2027 02:31:52.602            35.896                Irkutsk          1121.750
       213   03 Jun 2027 02:33:44.327   03 Jun 2027 02:33:49.468             5.141                Novosib           160.656
       214   03 Jun 2027 02:33:55.167   03 Jun 2027 02:35:19.169            84.002                Irkutsk          2625.062
       215   03 Jun 2027 02:39:50.899   03 Jun 2027 02:40:14.447            23.548                Novosib           735.875
       216   03 Jun 2027 02:42:17.692   03 Jun 2027 02:42:41.635            23.943                Irkutsk           748.219
       217   03 Jun 2027 02:44:13.233   03 Jun 2027 02:45:10.223            56.990                  Delhi          1780.937
       218   03 Jun 2027 02:50:13.341   03 Jun 2027 02:50:39.131            25.790                  Delhi           805.937
       219   03 Jun 2027 03:20:21.830   03 Jun 2027 03:21:11.164            49.334            RioGallegos          1541.687
       220   03 Jun 2027 03:21:47.387   03 Jun 2027 03:22:27.225            39.838            RioGallegos          1244.937
       221   03 Jun 2027 03:23:42.386   03 Jun 2027 03:24:59.213            76.827            RioGallegos          2400.844
       222   03 Jun 2027 03:25:03.033   03 Jun 2027 03:25:27.096            24.063            RioGallegos           751.969
       223   03 Jun 2027 04:11:28.927   03 Jun 2027 04:12:38.838            69.911                 Moscow          2184.719
       224   03 Jun 2027 04:12:44.014   03 Jun 2027 04:15:47.301           183.287                Norilsk          5727.719
       225   03 Jun 2027 04:15:58.940   03 Jun 2027 04:16:15.813            16.873              Murmansk2           527.281
       226   03 Jun 2027 04:16:20.149   03 Jun 2027 04:23:17.115           416.966                  Delhi         13030.188
       227   03 Jun 2027 05:49:24.277   03 Jun 2027 05:50:15.562            51.285                Novosib          1602.656
       228   03 Jun 2027 05:50:31.608   03 Jun 2027 05:54:05.216           213.608              Murmansk2          6675.250
       229   03 Jun 2027 05:56:04.850   03 Jun 2027 05:56:08.072             3.222                 Moscow           100.688
       230   03 Jun 2027 05:57:05.019   03 Jun 2027 05:57:27.000            21.981                 Moscow           686.906
       231   03 Jun 2027 06:13:49.397   03 Jun 2027 06:14:14.579            25.182               CapeTown           786.937
       232   03 Jun 2027 07:13:02.567   03 Jun 2027 07:17:40.506           277.939               Magadan2          8685.594
       233   03 Jun 2027 07:17:53.129   03 Jun 2027 07:18:06.141            13.012                Anadyr2           406.625
       234   03 Jun 2027 07:51:59.219   03 Jun 2027 07:52:21.837            22.618               CapeTown           706.812
       235   03 Jun 2027 08:49:27.221   03 Jun 2027 08:51:38.139           130.918               Magadan2          4091.188
       236   03 Jun 2027 08:52:43.777   03 Jun 2027 08:53:10.357            26.580                Anadyr1           830.625
       237   03 Jun 2027 08:53:10.357   03 Jun 2027 08:53:52.489            42.132                Anadyr2          1316.625
       238   03 Jun 2027 10:21:50.878   03 Jun 2027 10:24:01.414           130.536               Magadan1          4079.250
       239   03 Jun 2027 10:24:15.089   03 Jun 2027 10:28:10.104           235.015                Anadyr1          7344.219
       240   03 Jun 2027 10:29:04.595   03 Jun 2027 10:29:09.380             4.785                Norilsk           149.531
       241   03 Jun 2027 10:29:21.160   03 Jun 2027 10:30:18.896            57.736                Norilsk          1804.250
       242   03 Jun 2027 10:36:15.473   03 Jun 2027 10:36:17.580             2.107              Murmansk1            65.844
       243   03 Jun 2027 11:04:18.600   03 Jun 2027 11:05:27.498            68.898            RioGallegos          2153.062
       244   03 Jun 2027 11:10:22.878   03 Jun 2027 11:10:35.310            12.432            RioGallegos           388.500
       245   03 Jun 2027 11:40:46.900   03 Jun 2027 11:42:37.501           110.601                Sumatra          3456.281
       246   03 Jun 2027 11:59:05.992   03 Jun 2027 11:59:35.088            29.096                Novosib           909.250
       247   03 Jun 2027 11:59:37.075   03 Jun 2027 12:04:23.536           286.461                Irkutsk          8951.906
       248   03 Jun 2027 12:08:22.200   03 Jun 2027 12:09:58.008            95.808                Norilsk          2994.000
       249   03 Jun 2027 12:46:06.604   03 Jun 2027 12:46:30.833            24.229            RioGallegos           757.156
       250   03 Jun 2027 12:48:57.538   03 Jun 2027 12:49:36.655            39.117            RioGallegos          1222.406
       251   03 Jun 2027 12:50:42.022   03 Jun 2027 12:51:30.664            48.642            RioGallegos          1520.063
       252   03 Jun 2027 13:15:10.246   03 Jun 2027 13:15:17.782             7.536                Sumatra           235.500
       253   03 Jun 2027 13:16:56.884   03 Jun 2027 13:17:49.358            52.474                Sumatra          1639.812
       254   03 Jun 2027 13:20:41.151   03 Jun 2027 13:22:32.129           110.978                Sumatra          3468.063
       255   03 Jun 2027 13:24:58.560   03 Jun 2027 13:26:01.835            63.275                Sumatra          1977.344
       256   03 Jun 2027 13:30:05.877   03 Jun 2027 13:30:32.132            26.255                Irkutsk           820.469
       257   03 Jun 2027 13:34:29.301   03 Jun 2027 13:35:07.537            38.236                Irkutsk          1194.875
       258   03 Jun 2027 13:35:26.390   03 Jun 2027 13:37:04.422            98.032                Irkutsk          3063.500
       259   03 Jun 2027 13:40:07.170   03 Jun 2027 13:40:17.187            10.017                Irkutsk           313.031
       260   03 Jun 2027 14:59:52.710   03 Jun 2027 15:01:18.984            86.274                  Delhi          2696.063
       261   03 Jun 2027 15:04:41.673   03 Jun 2027 15:05:06.044            24.371                  Delhi           761.594
       262   03 Jun 2027 15:06:13.290   03 Jun 2027 15:07:55.247           101.957                  Delhi          3186.156
       263   03 Jun 2027 15:08:07.772   03 Jun 2027 15:09:39.590            91.818                Novosib          2869.313
       264   03 Jun 2027 15:13:02.360   03 Jun 2027 15:13:40.214            37.854                Novosib          1182.937
       265   03 Jun 2027 15:17:03.111   03 Jun 2027 15:17:15.058            11.947                Norilsk           373.344
       266   03 Jun 2027 15:18:04.722   03 Jun 2027 15:18:05.446             0.724                Novosib            22.625
       267   03 Jun 2027 15:20:11.663   03 Jun 2027 15:21:02.182            50.519                Norilsk          1578.719
       268   03 Jun 2027 15:21:37.863   03 Jun 2027 15:21:54.535            16.672                Norilsk           521.000
       269   03 Jun 2027 16:43:35.799   03 Jun 2027 16:45:00.710            84.911                 Moscow          2653.469
       270   03 Jun 2027 16:48:06.282   03 Jun 2027 16:48:37.585            31.303                 Moscow           978.219
       271   03 Jun 2027 16:49:20.946   03 Jun 2027 16:49:37.086            16.140              Murmansk1           504.375
       272   03 Jun 2027 16:51:22.103   03 Jun 2027 16:52:05.907            43.804              Murmansk1          1368.875
       273   03 Jun 2027 16:52:48.619   03 Jun 2027 16:57:09.446           260.827                Norilsk          8150.844
       274   03 Jun 2027 18:07:38.216   03 Jun 2027 18:07:47.519             9.303               CapeTown           290.719
       275   03 Jun 2027 18:08:35.194   03 Jun 2027 18:08:52.643            17.449               CapeTown           545.281
       276   03 Jun 2027 18:22:08.707   03 Jun 2027 18:25:04.000           175.293                 Moscow          5477.906
       277   03 Jun 2027 18:26:25.181   03 Jun 2027 18:26:55.645            30.464                 Moscow           952.000
       278   03 Jun 2027 18:28:07.542   03 Jun 2027 18:29:34.984            87.442              Murmansk2          2732.562
       279   03 Jun 2027 19:33:22.122   03 Jun 2027 19:34:47.222            85.100               CapeTown          2659.375
       280   03 Jun 2027 19:38:01.012   03 Jun 2027 19:38:50.543            49.531               CapeTown          1547.844
       281   03 Jun 2027 19:41:40.024   03 Jun 2027 19:43:08.861            88.837               CapeTown          2776.156
       282   03 Jun 2027 20:04:58.440   03 Jun 2027 20:11:13.163           374.723              Murmansk2         11710.094
       283   03 Jun 2027 21:49:31.229   03 Jun 2027 21:52:25.333           174.104                Anadyr1          5440.750
       284   03 Jun 2027 21:52:49.926   03 Jun 2027 21:53:18.499            28.573                Anadyr1           892.906
       285   03 Jun 2027 21:53:21.463   03 Jun 2027 21:53:50.072            28.609                Anadyr2           894.031
       286   03 Jun 2027 21:53:53.620   03 Jun 2027 21:54:56.360            62.740               Magadan1          1960.625
       287   03 Jun 2027 21:54:56.360   03 Jun 2027 21:55:47.297            50.937               Magadan2          1591.781
       288   03 Jun 2027 21:56:53.150   03 Jun 2027 21:56:59.001             5.851               Magadan1           182.844
       289   03 Jun 2027 21:57:49.400   03 Jun 2027 21:58:20.837            31.437               Magadan1           982.406
       290   03 Jun 2027 22:02:11.704   03 Jun 2027 22:02:21.219             9.515               Magadan2           297.344
       291   03 Jun 2027 22:02:35.845   03 Jun 2027 22:03:03.560            27.715               Magadan2           866.094
       292   03 Jun 2027 22:44:53.421   03 Jun 2027 22:46:42.799           109.378            RioGallegos          3418.063
       293   03 Jun 2027 22:47:08.565   03 Jun 2027 22:47:43.298            34.733            RioGallegos          1085.406
       294   03 Jun 2027 23:25:18.104   03 Jun 2027 23:26:57.126            99.022                Anadyr2          3094.437
       295   03 Jun 2027 23:27:14.542   03 Jun 2027 23:28:32.501            77.959                Anadyr2          2436.219
       296   03 Jun 2027 23:28:51.756   03 Jun 2027 23:29:22.979            31.223               Magadan2           975.719
       297   03 Jun 2027 23:29:31.565   03 Jun 2027 23:29:34.116             2.551               Magadan1            79.719
       298   03 Jun 2027 23:29:57.550   03 Jun 2027 23:30:19.689            22.139               Magadan1           691.844
       299   03 Jun 2027 23:30:40.269   03 Jun 2027 23:30:47.224             6.955                Norilsk           217.344
       300   03 Jun 2027 23:31:29.195   03 Jun 2027 23:32:50.216            81.021               Magadan2          2531.906
       301   03 Jun 2027 23:34:04.757   03 Jun 2027 23:35:22.648            77.891                Irkutsk          2434.094
       302   03 Jun 2027 23:46:27.314   03 Jun 2027 23:47:58.563            91.249                Sumatra          2851.531
       303   03 Jun 2027 23:51:02.648   03 Jun 2027 23:51:38.390            35.742                Sumatra          1116.938
       304   04 Jun 2027 00:20:38.496   04 Jun 2027 00:21:00.877            22.381            RioGallegos           699.406
       305   04 Jun 2027 00:24:54.696   04 Jun 2027 00:25:07.397            12.701            RioGallegos           396.906
       306   04 Jun 2027 00:26:48.238   04 Jun 2027 00:27:02.107            13.869            RioGallegos           433.406
       307   04 Jun 2027 00:27:40.367   04 Jun 2027 00:27:46.212             5.845            RioGallegos           182.656
       308   04 Jun 2027 00:28:33.294   04 Jun 2027 00:28:50.061            16.767            RioGallegos           523.969
       309   04 Jun 2027 01:00:26.847   04 Jun 2027 01:01:39.782            72.935                Anadyr1          2279.219
       310   04 Jun 2027 01:01:39.782   04 Jun 2027 01:02:01.072            21.290                Anadyr2           665.313
       311   04 Jun 2027 01:02:25.269   04 Jun 2027 01:02:48.587            23.318                Anadyr1           728.688
       312   04 Jun 2027 01:03:04.072   04 Jun 2027 01:03:09.084             5.012                Anadyr1           156.625
       313   04 Jun 2027 01:03:14.715   04 Jun 2027 01:05:02.159           107.444                Norilsk          3357.625
       314   04 Jun 2027 01:05:36.751   04 Jun 2027 01:05:45.660             8.909               Magadan1           278.406
       315   04 Jun 2027 01:05:52.177   04 Jun 2027 01:06:12.719            20.542               Magadan1           641.938
       316   04 Jun 2027 01:07:08.179   04 Jun 2027 01:09:01.129           112.950                Irkutsk          3529.687
       317   04 Jun 2027 01:12:02.944   04 Jun 2027 01:12:41.845            38.901                Novosib          1215.656
       318   04 Jun 2027 01:16:32.147   04 Jun 2027 01:16:54.426            22.279                  Delhi           696.219
       319   04 Jun 2027 01:20:15.216   04 Jun 2027 01:21:51.001            95.785                  Delhi          2993.281
       320   04 Jun 2027 01:29:46.771   04 Jun 2027 01:31:09.930            83.159                Sumatra          2598.719
       321   04 Jun 2027 02:04:49.243   04 Jun 2027 02:04:59.947            10.704            RioGallegos           334.500
       322   04 Jun 2027 02:06:34.335   04 Jun 2027 02:07:03.083            28.748            RioGallegos           898.375
       323   04 Jun 2027 02:36:11.018   04 Jun 2027 02:36:27.306            16.288                Anadyr1           509.000
       324   04 Jun 2027 02:36:57.646   04 Jun 2027 02:37:05.354             7.708                Anadyr2           240.875
       325   04 Jun 2027 02:39:15.809   04 Jun 2027 02:40:58.445           102.636                Norilsk          3207.375
       326   04 Jun 2027 02:41:53.857   04 Jun 2027 02:42:45.261            51.404              Murmansk2          1606.375
       327   04 Jun 2027 02:43:02.397   04 Jun 2027 02:43:44.284            41.887                Novosib          1308.969
       328   04 Jun 2027 02:44:04.694   04 Jun 2027 02:44:16.294            11.600                Irkutsk           362.500
       329   04 Jun 2027 02:44:40.000   04 Jun 2027 02:44:55.923            15.923                Irkutsk           497.594
       330   04 Jun 2027 02:46:19.347   04 Jun 2027 02:46:51.853            32.506                Novosib          1015.813
       331   04 Jun 2027 02:50:12.391   04 Jun 2027 02:50:36.159            23.768                Irkutsk           742.750
       332   04 Jun 2027 02:52:40.238   04 Jun 2027 02:53:04.274            24.036                Irkutsk           751.125
       333   04 Jun 2027 02:56:57.860   04 Jun 2027 02:58:47.177           109.317                  Delhi          3416.156
       334   04 Jun 2027 03:33:44.567   04 Jun 2027 03:34:00.884            16.317            RioGallegos           509.906
       335   04 Jun 2027 03:35:21.961   04 Jun 2027 03:36:15.677            53.716            RioGallegos          1678.625
       336   04 Jun 2027 03:36:25.993   04 Jun 2027 03:37:56.448            90.455            RioGallegos          2826.719
       337   04 Jun 2027 04:21:23.885   04 Jun 2027 04:22:13.141            49.256                Irkutsk          1539.250
       338   04 Jun 2027 04:23:11.214   04 Jun 2027 04:24:28.050            76.836                Irkutsk          2401.125
       339   04 Jun 2027 04:25:23.848   04 Jun 2027 04:27:34.675           130.827                Norilsk          4088.344
       340   04 Jun 2027 04:27:41.358   04 Jun 2027 04:28:34.132            52.774              Murmansk2          1649.187
       341   04 Jun 2027 04:29:29.764   04 Jun 2027 04:32:39.160           189.396                  Delhi          5918.625
       342   04 Jun 2027 04:32:53.220   04 Jun 2027 04:33:45.808            52.588                  Delhi          1643.375
       343   04 Jun 2027 06:01:56.249   04 Jun 2027 06:02:41.681            45.432              Murmansk2          1419.750
       344   04 Jun 2027 06:02:41.681   04 Jun 2027 06:03:24.757            43.076              Murmansk1          1346.125
       345   04 Jun 2027 06:03:47.585   04 Jun 2027 06:06:12.684           145.099              Murmansk2          4534.344
       346   04 Jun 2027 06:07:45.481   04 Jun 2027 06:08:07.988            22.507                 Moscow           703.344
       347   04 Jun 2027 06:20:32.044   04 Jun 2027 06:22:37.724           125.680               CapeTown          3927.500
       348   04 Jun 2027 06:30:08.358   04 Jun 2027 06:30:14.880             6.522               CapeTown           203.812
       349   04 Jun 2027 07:24:35.233   04 Jun 2027 07:25:33.526            58.293               Magadan2          1821.656
       350   04 Jun 2027 07:25:33.526   04 Jun 2027 07:26:23.665            50.139               Magadan1          1566.844
       351   04 Jun 2027 07:27:13.275   04 Jun 2027 07:27:17.995             4.720               Magadan2           147.500
       352   04 Jun 2027 07:27:41.450   04 Jun 2027 07:29:23.890           102.440               Magadan2          3201.250
       353   04 Jun 2027 08:59:54.497   04 Jun 2027 09:00:17.066            22.569                Anadyr2           705.281
       354   04 Jun 2027 09:00:17.066   04 Jun 2027 09:02:06.934           109.868                Anadyr1          3433.375
       355   04 Jun 2027 09:02:28.131   04 Jun 2027 09:04:23.431           115.300               Magadan1          3603.125
       356   04 Jun 2027 09:05:12.808   04 Jun 2027 09:05:46.555            33.747                Anadyr2          1054.594
       357   04 Jun 2027 10:35:14.612   04 Jun 2027 10:35:36.100            21.488               Magadan1           671.500
       358   04 Jun 2027 10:35:36.100   04 Jun 2027 10:35:37.743             1.643               Magadan2            51.344
       359   04 Jun 2027 10:36:18.787   04 Jun 2027 10:36:29.673            10.886                Novosib           340.188
       360   04 Jun 2027 10:36:30.549   04 Jun 2027 10:37:00.509            29.960                Norilsk           936.250
       361   04 Jun 2027 10:37:04.939   04 Jun 2027 10:37:26.483            21.544                Novosib           673.250
       362   04 Jun 2027 10:37:33.904   04 Jun 2027 10:40:29.568           175.664               Magadan1          5489.500
       363   04 Jun 2027 10:40:44.628   04 Jun 2027 10:41:09.728            25.100                Norilsk           784.375
       364   04 Jun 2027 10:41:10.486   04 Jun 2027 10:41:29.267            18.781              Murmansk2           586.906
       365   04 Jun 2027 10:49:06.255   04 Jun 2027 10:49:08.656             2.401              Murmansk2            75.031
       366   04 Jun 2027 11:16:12.694   04 Jun 2027 11:17:21.187            68.493            RioGallegos          2140.406
       367   04 Jun 2027 11:52:10.710   04 Jun 2027 11:52:20.313             9.603                Sumatra           300.094
       368   04 Jun 2027 11:52:51.598   04 Jun 2027 11:55:05.634           134.036                Sumatra          4188.625
       369   04 Jun 2027 12:09:54.273   04 Jun 2027 12:10:23.120            28.847                Novosib           901.469
       370   04 Jun 2027 12:12:26.641   04 Jun 2027 12:12:38.505            11.864                Irkutsk           370.750
       371   04 Jun 2027 12:13:08.990   04 Jun 2027 12:13:14.427             5.437                Novosib           169.906
       372   04 Jun 2027 12:14:26.048   04 Jun 2027 12:14:34.322             8.274                Norilsk           258.563
       373   04 Jun 2027 12:14:36.504   04 Jun 2027 12:15:34.579            58.075              Murmansk1          1814.844
       374   04 Jun 2027 12:21:37.123   04 Jun 2027 12:21:49.998            12.875              Murmansk1           402.344
       375   04 Jun 2027 12:23:50.659   04 Jun 2027 12:23:53.109             2.450              Murmansk1            76.563
       376   04 Jun 2027 12:24:04.661   04 Jun 2027 12:24:12.329             7.668              Murmansk2           239.625
       377   04 Jun 2027 12:24:12.329   04 Jun 2027 12:25:03.464            51.135              Murmansk1          1597.969
       378   04 Jun 2027 12:54:58.827   04 Jun 2027 12:57:08.389           129.562            RioGallegos          4048.813
       379   04 Jun 2027 13:27:28.788   04 Jun 2027 13:28:49.777            80.989                Sumatra          2530.906
       380   04 Jun 2027 13:42:06.720   04 Jun 2027 13:43:06.013            59.293                Novosib          1852.906
       381   04 Jun 2027 13:45:19.656   04 Jun 2027 13:46:17.524            57.868                Novosib          1808.375
       382   04 Jun 2027 13:47:32.848   04 Jun 2027 13:47:55.635            22.787                Irkutsk           712.094
       383   04 Jun 2027 13:52:38.263   04 Jun 2027 13:54:16.755            98.492                Norilsk          3077.875
       384   04 Jun 2027 15:12:23.523   04 Jun 2027 15:17:23.804           300.281                  Delhi          9383.781
       385   04 Jun 2027 15:22:54.272   04 Jun 2027 15:25:31.825           157.553                Novosib          4923.531
       386   04 Jun 2027 16:55:43.954   04 Jun 2027 16:56:30.665            46.711                 Moscow          1459.719
       387   04 Jun 2027 16:57:26.323   04 Jun 2027 16:58:50.345            84.022                 Moscow          2625.688
       388   04 Jun 2027 17:04:49.787   04 Jun 2027 17:05:38.010            48.223              Murmansk1          1506.969
       389   04 Jun 2027 17:05:52.114   04 Jun 2027 17:08:57.346           185.232                Norilsk          5788.500
       390   04 Jun 2027 18:11:58.653   04 Jun 2027 18:12:24.895            26.242               CapeTown           820.062
       391   04 Jun 2027 18:18:19.377   04 Jun 2027 18:18:45.876            26.499               CapeTown           828.094
       392   04 Jun 2027 18:34:54.123   04 Jun 2027 18:39:29.393           275.270                 Moscow          8602.187
       393   04 Jun 2027 18:47:19.705   04 Jun 2027 18:47:26.551             6.846              Murmansk2           213.937
       394   04 Jun 2027 18:58:27.007   04 Jun 2027 18:58:58.373            31.366                Anadyr2           980.187
       395   04 Jun 2027 19:45:38.348   04 Jun 2027 19:46:40.531            62.183               CapeTown          1943.219
       396   04 Jun 2027 19:50:00.301   04 Jun 2027 19:50:25.220            24.919               CapeTown           778.719
       397   04 Jun 2027 19:53:26.154   04 Jun 2027 19:54:11.192            45.038               CapeTown          1407.438
       398   04 Jun 2027 20:17:51.051   04 Jun 2027 20:23:09.848           318.797              Murmansk1          9962.406
       399   04 Jun 2027 22:01:32.737   04 Jun 2027 22:05:19.445           226.708                Anadyr2          7084.625
       400   04 Jun 2027 22:05:25.737   04 Jun 2027 22:09:37.753           252.016               Magadan2          7875.500
       401   04 Jun 2027 22:56:29.578   04 Jun 2027 22:59:40.043           190.465            RioGallegos          5952.031
       402   04 Jun 2027 23:02:45.010   04 Jun 2027 23:03:02.294            17.284            RioGallegos           540.125
       403   04 Jun 2027 23:37:16.729   04 Jun 2027 23:38:38.425            81.696                Anadyr2          2553.000
       404   04 Jun 2027 23:39:22.704   04 Jun 2027 23:41:00.250            97.546                Norilsk          3048.313
       405   04 Jun 2027 23:41:03.246   04 Jun 2027 23:43:17.399           134.153               Magadan1          4192.281
       406   04 Jun 2027 23:44:04.938   04 Jun 2027 23:44:37.607            32.669                Irkutsk          1020.906
       407   04 Jun 2027 23:53:50.111   04 Jun 2027 23:54:32.446            42.335                Irkutsk          1322.969
       408   04 Jun 2027 23:57:56.626   04 Jun 2027 23:59:21.336            84.710                Sumatra          2647.187
       409   05 Jun 2027 00:03:52.890   05 Jun 2027 00:04:36.386            43.496                Sumatra          1359.250
       410   05 Jun 2027 00:36:45.846   05 Jun 2027 00:37:01.903            16.057            RioGallegos           501.781
       411   05 Jun 2027 00:38:42.942   05 Jun 2027 00:38:52.018             9.076            RioGallegos           283.625
       412   05 Jun 2027 00:40:50.281   05 Jun 2027 00:40:53.430             3.149            RioGallegos            98.406
       413   05 Jun 2027 00:41:05.233   05 Jun 2027 00:41:26.315            21.082            RioGallegos           658.813
       414   05 Jun 2027 01:12:17.761   05 Jun 2027 01:13:03.508            45.747                Anadyr2          1429.594
       415   05 Jun 2027 01:13:03.508   05 Jun 2027 01:13:51.510            48.002                Anadyr1          1500.063
       416   05 Jun 2027 01:14:25.446   05 Jun 2027 01:14:45.134            19.688                Anadyr2           615.250
       417   05 Jun 2027 01:15:16.996   05 Jun 2027 01:17:04.113           107.117                Norilsk          3347.406
       418   05 Jun 2027 01:17:43.404   05 Jun 2027 01:17:53.875            10.471               Magadan1           327.219
       419   05 Jun 2027 01:19:09.536   05 Jun 2027 01:21:06.601           117.065                Irkutsk          3658.281
       420   05 Jun 2027 01:21:52.103   05 Jun 2027 01:21:55.435             3.332                Novosib           104.125
       421   05 Jun 2027 01:22:27.785   05 Jun 2027 01:23:00.137            32.352                Irkutsk          1011.000
       422   05 Jun 2027 01:25:39.347   05 Jun 2027 01:25:46.726             7.379                Novosib           230.594
       423   05 Jun 2027 01:26:53.817   05 Jun 2027 01:27:51.764            57.947                Novosib          1810.844
       424   05 Jun 2027 01:32:44.005   05 Jun 2027 01:34:07.185            83.180                  Delhi          2599.375
       425   05 Jun 2027 01:37:42.256   05 Jun 2027 01:38:54.888            72.632                Sumatra          2269.750
       426   05 Jun 2027 02:14:42.380   05 Jun 2027 02:15:04.489            22.109            RioGallegos           690.906
       427   05 Jun 2027 02:46:04.837   05 Jun 2027 02:46:19.712            14.875                Anadyr2           464.844
       428   05 Jun 2027 02:46:34.846   05 Jun 2027 02:46:40.932             6.086                Anadyr1           190.188
       429   05 Jun 2027 02:46:40.932   05 Jun 2027 02:46:45.690             4.758                Anadyr2           148.687
       430   05 Jun 2027 02:48:11.639   05 Jun 2027 02:48:41.826            30.187                Anadyr1           943.344
       431   05 Jun 2027 02:51:17.908   05 Jun 2027 02:52:26.515            68.607                Norilsk          2143.969
       432   05 Jun 2027 02:52:32.672   05 Jun 2027 02:52:59.112            26.440                Norilsk           826.250
       433   05 Jun 2027 02:53:47.654   05 Jun 2027 02:55:07.926            80.272              Murmansk2          2508.500
       434   05 Jun 2027 02:55:12.005   05 Jun 2027 02:55:50.329            38.324                Novosib          1197.625
       435   05 Jun 2027 02:56:14.925   05 Jun 2027 02:58:42.450           147.525                Irkutsk          4610.156
       436   05 Jun 2027 03:00:45.896   05 Jun 2027 03:01:19.707            33.811              Murmansk1          1056.594
       437   05 Jun 2027 03:01:22.525   05 Jun 2027 03:03:03.400           100.875                Irkutsk          3152.344
       438   05 Jun 2027 03:04:03.019   05 Jun 2027 03:05:29.436            86.417                  Delhi          2700.531
       439   05 Jun 2027 03:45:21.902   05 Jun 2027 03:45:44.994            23.092            RioGallegos           721.625
       440   05 Jun 2027 03:48:38.252   05 Jun 2027 03:49:08.046            29.794            RioGallegos           931.062
       441   05 Jun 2027 04:34:18.028   05 Jun 2027 04:35:17.534            59.506                Novosib          1859.563
       442   05 Jun 2027 04:35:37.801   05 Jun 2027 04:36:02.511            24.710                Norilsk           772.188
       443   05 Jun 2027 04:36:06.790   05 Jun 2027 04:36:57.767            50.977                Novosib          1593.031
       444   05 Jun 2027 04:37:12.321   05 Jun 2027 04:37:31.257            18.936                Norilsk           591.750
       445   05 Jun 2027 04:37:34.376   05 Jun 2027 04:38:05.793            31.417              Murmansk2           981.781
       446   05 Jun 2027 04:38:15.746   05 Jun 2027 04:39:30.362            74.616                Norilsk          2331.750
       447   05 Jun 2027 04:39:40.640   05 Jun 2027 04:39:52.883            12.243              Murmansk1           382.594
       448   05 Jun 2027 04:40:34.885   05 Jun 2027 04:40:59.748            24.863                Novosib           776.969
       449   05 Jun 2027 04:57:54.709   05 Jun 2027 04:58:17.294            22.585               CapeTown           705.781
       450   05 Jun 2027 06:13:29.654   05 Jun 2027 06:13:59.067            29.413                Norilsk           919.156
       451   05 Jun 2027 06:14:14.049   05 Jun 2027 06:15:44.175            90.126              Murmansk2          2816.437
       452   05 Jun 2027 06:15:44.175   05 Jun 2027 06:17:15.451            91.276              Murmansk1          2852.375
       453   05 Jun 2027 06:19:25.539   05 Jun 2027 06:19:50.377            24.838                 Moscow           776.187
       454   05 Jun 2027 06:32:43.468   05 Jun 2027 06:34:27.254           103.786               CapeTown          3243.312
       455   05 Jun 2027 06:41:39.459   05 Jun 2027 06:42:30.946            51.487               CapeTown          1608.969
       456   05 Jun 2027 07:36:20.406   05 Jun 2027 07:38:05.121           104.715                Anadyr2          3272.344
       457   05 Jun 2027 07:38:05.121   05 Jun 2027 07:38:18.282            13.161                Anadyr1           411.281
       458   05 Jun 2027 07:40:02.873   05 Jun 2027 07:42:09.063           126.190                Anadyr1          3943.438
       459   05 Jun 2027 09:12:44.144   05 Jun 2027 09:14:06.170            82.026                Anadyr1          2563.312
       460   05 Jun 2027 09:14:06.170   05 Jun 2027 09:16:25.649           139.479                Anadyr2          4358.719
       461   05 Jun 2027 10:43:02.113   05 Jun 2027 10:43:14.913            12.800               Magadan2           400.000
       462   05 Jun 2027 10:47:03.807   05 Jun 2027 10:49:59.357           175.550               Magadan1          5485.937
       463   05 Jun 2027 10:49:59.357   05 Jun 2027 10:53:03.403           184.046               Magadan2          5751.437
       464   05 Jun 2027 11:28:10.045   05 Jun 2027 11:29:19.897            69.852            RioGallegos          2182.875
       465   05 Jun 2027 12:03:44.748   05 Jun 2027 12:04:11.086            26.338                Sumatra           823.062
       466   05 Jun 2027 12:16:38.380   05 Jun 2027 12:18:37.973           119.593                Irkutsk          3737.281
       467   05 Jun 2027 12:19:52.924   05 Jun 2027 12:20:47.342            54.418                Irkutsk          1700.562
       468   05 Jun 2027 12:21:28.842   05 Jun 2027 12:22:28.607            59.765                Norilsk          1867.656
       469   05 Jun 2027 12:28:35.086   05 Jun 2027 12:28:47.597            12.511              Murmansk2           390.969
       470   05 Jun 2027 13:05:42.371   05 Jun 2027 13:06:54.123            71.752            RioGallegos          2242.250
       471   05 Jun 2027 13:09:07.624   05 Jun 2027 13:10:43.590            95.966            RioGallegos          2998.937
       472   05 Jun 2027 13:39:55.649   05 Jun 2027 13:40:48.461            52.812                Sumatra          1650.375
       473   05 Jun 2027 13:43:13.665   05 Jun 2027 13:45:02.656           108.991                Sumatra          3405.969
       474   05 Jun 2027 13:57:19.748   05 Jun 2027 13:58:10.500            50.752                Novosib          1586.000
       475   05 Jun 2027 14:00:08.178   05 Jun 2027 14:00:22.739            14.561                Norilsk           455.031
       476   05 Jun 2027 14:01:00.113   05 Jun 2027 14:01:41.111            40.998                Irkutsk          1281.187
       477   05 Jun 2027 14:06:34.270   05 Jun 2027 14:07:18.779            44.509                Norilsk          1390.906
       478   05 Jun 2027 15:25:05.157   05 Jun 2027 15:29:48.867           283.710                  Delhi          8865.937
       479   05 Jun 2027 15:34:50.571   05 Jun 2027 15:37:15.309           144.738                Novosib          4523.062
       480   05 Jun 2027 15:41:41.948   05 Jun 2027 15:42:05.973            24.025                Norilsk           750.781
       481   05 Jun 2027 16:49:58.565   05 Jun 2027 16:50:39.410            40.845               CapeTown          1276.406
       482   05 Jun 2027 17:07:55.382   05 Jun 2027 17:08:27.750            32.368                 Moscow          1011.500
