uniorb/output/strategy_1/Drop/Drop_KinoSat_111204.txt

KinoSat_111204
-------------------------
    Access    *     Start Time (UTCG)     *     Stop Time (UTCG)  *   Duration (s)        *       Station  *  Data (Mbytes)
         1   01 Jun 2027 03:44:03.912   01 Jun 2027 03:44:46.906            42.994              Murmansk2          1343.562
         2   01 Jun 2027 03:45:07.387   01 Jun 2027 03:48:04.921           177.534              Murmansk2          5547.938
         3   01 Jun 2027 03:48:31.055   01 Jun 2027 03:48:49.736            18.681                 Moscow           583.781
         4   01 Jun 2027 03:49:09.215   01 Jun 2027 03:49:41.255            32.040                 Moscow          1001.250
         5   01 Jun 2027 04:02:28.493   01 Jun 2027 04:03:26.008            57.515               CapeTown          1797.344
         6   01 Jun 2027 04:05:38.464   01 Jun 2027 04:07:07.007            88.543               CapeTown          2766.969
         7   01 Jun 2027 05:06:09.064   01 Jun 2027 05:10:00.197           231.133                Anadyr2          7222.906
         8   01 Jun 2027 05:10:00.899   01 Jun 2027 05:10:29.353            28.454               Magadan2           889.187
         9   01 Jun 2027 05:10:43.198   01 Jun 2027 05:11:34.294            51.096               Magadan2          1596.750
        10   01 Jun 2027 06:43:13.593   01 Jun 2027 06:47:27.745           254.152                Anadyr2          7942.250
        11   01 Jun 2027 07:24:10.229   01 Jun 2027 07:24:15.721             5.492            RioGallegos           171.625
        12   01 Jun 2027 07:26:02.421   01 Jun 2027 07:26:58.401            55.980            RioGallegos          1749.375
        13   01 Jun 2027 08:18:28.059   01 Jun 2027 08:20:23.483           115.424                Novosib          3607.000
        14   01 Jun 2027 08:20:32.879   01 Jun 2027 08:22:47.912           135.033               Magadan1          4219.781
        15   01 Jun 2027 08:23:05.457   01 Jun 2027 08:23:51.786            46.329                Norilsk          1447.781
        16   01 Jun 2027 08:24:33.005   01 Jun 2027 08:25:15.417            42.412              Murmansk1          1325.375
        17   01 Jun 2027 08:25:15.417   01 Jun 2027 08:25:31.640            16.223              Murmansk2           506.969
        18   01 Jun 2027 08:27:22.908   01 Jun 2027 08:27:47.776            24.868              Murmansk1           777.125
        19   01 Jun 2027 08:57:57.736   01 Jun 2027 08:59:09.139            71.403            RioGallegos          2231.344
        20   01 Jun 2027 08:59:17.500   01 Jun 2027 08:59:49.504            32.004            RioGallegos          1000.125
        21   01 Jun 2027 09:33:36.856   01 Jun 2027 09:34:09.194            32.338                Sumatra          1010.562
        22   01 Jun 2027 09:35:18.025   01 Jun 2027 09:35:25.853             7.828                Sumatra           244.625
        23   01 Jun 2027 09:54:18.374   01 Jun 2027 09:55:16.842            58.468                Irkutsk          1827.125
        24   01 Jun 2027 09:55:31.488   01 Jun 2027 09:56:57.180            85.692                Irkutsk          2677.875
        25   01 Jun 2027 09:57:19.607   01 Jun 2027 09:58:27.776            68.169                Novosib          2130.281
        26   01 Jun 2027 09:58:36.528   01 Jun 2027 09:58:58.690            22.162                Novosib           692.563
        27   01 Jun 2027 09:59:11.580   01 Jun 2027 09:59:57.985            46.405              Murmansk2          1450.156
        28   01 Jun 2027 09:59:57.985   01 Jun 2027 10:01:30.343            92.358              Murmansk1          2886.188
        29   01 Jun 2027 10:02:07.723   01 Jun 2027 10:02:24.679            16.956                Norilsk           529.875
        30   01 Jun 2027 10:35:24.473   01 Jun 2027 10:36:10.329            45.856            RioGallegos          1433.000
        31   01 Jun 2027 10:36:38.896   01 Jun 2027 10:37:02.835            23.939            RioGallegos           748.094
        32   01 Jun 2027 10:39:52.365   01 Jun 2027 10:40:32.522            40.157            RioGallegos          1254.906
        33   01 Jun 2027 11:09:36.835   01 Jun 2027 11:10:49.190            72.355                Sumatra          2261.094
        34   01 Jun 2027 11:20:08.808   01 Jun 2027 11:20:18.304             9.496                  Delhi           296.750
        35   01 Jun 2027 11:24:05.607   01 Jun 2027 11:24:09.847             4.240                  Delhi           132.500
        36   01 Jun 2027 11:30:51.051   01 Jun 2027 11:31:22.737            31.686                Irkutsk           990.187
        37   01 Jun 2027 11:31:33.044   01 Jun 2027 11:31:44.147            11.103                Irkutsk           346.969
        38   01 Jun 2027 11:32:17.024   01 Jun 2027 11:33:16.345            59.321                Irkutsk          1853.781
        39   01 Jun 2027 11:34:16.759   01 Jun 2027 11:35:29.015            72.256                Novosib          2258.000
        40   01 Jun 2027 11:35:39.690   01 Jun 2027 11:36:48.138            68.448              Murmansk1          2139.000
        41   01 Jun 2027 12:54:43.885   01 Jun 2027 12:56:59.644           135.759                  Delhi          4242.469
        42   01 Jun 2027 12:57:18.998   01 Jun 2027 12:58:07.208            48.210                  Delhi          1506.562
        43   01 Jun 2027 12:59:13.708   01 Jun 2027 12:59:36.786            23.078                  Delhi           721.187
        44   01 Jun 2027 13:01:54.805   01 Jun 2027 13:02:54.941            60.136                 Moscow          1879.250
        45   01 Jun 2027 13:04:06.986   01 Jun 2027 13:04:43.704            36.718                Novosib          1147.438
        46   01 Jun 2027 13:04:57.983   01 Jun 2027 13:07:39.244           161.261              Murmansk2          5039.406
        47   01 Jun 2027 13:07:39.244   01 Jun 2027 13:08:07.843            28.599              Murmansk1           893.719
        48   01 Jun 2027 13:08:37.937   01 Jun 2027 13:08:48.807            10.870                Norilsk           339.687
        49   01 Jun 2027 13:09:29.433   01 Jun 2027 13:10:18.315            48.882                Norilsk          1527.563
        50   01 Jun 2027 14:37:40.624   01 Jun 2027 14:39:25.283           104.659                 Moscow          3270.594
        51   01 Jun 2027 14:41:10.741   01 Jun 2027 14:42:52.361           101.620              Murmansk1          3175.625
        52   01 Jun 2027 14:44:11.787   01 Jun 2027 14:46:12.935           121.148              Murmansk1          3785.875
        53   01 Jun 2027 14:48:19.022   01 Jun 2027 14:48:44.148            25.126              Murmansk1           785.187
        54   01 Jun 2027 14:49:07.892   01 Jun 2027 14:50:17.119            69.227                Norilsk          2163.344
        55   01 Jun 2027 14:56:44.889   01 Jun 2027 14:57:52.478            67.589                Anadyr2          2112.156
        56   01 Jun 2027 14:58:21.304   01 Jun 2027 14:59:44.658            83.354                Anadyr1          2604.812
        57   01 Jun 2027 15:00:40.693   01 Jun 2027 15:01:41.052            60.359                Anadyr1          1886.219
        58   01 Jun 2027 15:53:35.253   01 Jun 2027 15:53:56.591            21.338               CapeTown           666.812
        59   01 Jun 2027 16:17:27.545   01 Jun 2027 16:17:46.680            19.135                 Moscow           597.969
        60   01 Jun 2027 16:19:19.704   01 Jun 2027 16:19:44.556            24.852              Murmansk2           776.625
        61   01 Jun 2027 16:20:29.856   01 Jun 2027 16:21:16.443            46.587              Murmansk1          1455.844
        62   01 Jun 2027 16:22:24.747   01 Jun 2027 16:22:42.229            17.482              Murmansk2           546.313
        63   01 Jun 2027 16:28:02.416   01 Jun 2027 16:28:38.963            36.547              Murmansk1          1142.094
        64   01 Jun 2027 16:31:36.215   01 Jun 2027 16:33:38.368           122.153                Anadyr1          3817.281
        65   01 Jun 2027 16:33:47.091   01 Jun 2027 16:35:00.600            73.509                Anadyr2          2297.156
        66   01 Jun 2027 17:27:41.277   01 Jun 2027 17:28:56.285            75.008               CapeTown          2344.000
        67   01 Jun 2027 17:32:51.827   01 Jun 2027 17:33:02.752            10.925               CapeTown           341.406
        68   01 Jun 2027 17:34:36.468   01 Jun 2027 17:34:42.536             6.068               CapeTown           189.625
        69   01 Jun 2027 18:00:33.039   01 Jun 2027 18:04:20.020           226.981              Murmansk2          7093.156
        70   01 Jun 2027 18:07:25.273   01 Jun 2027 18:08:09.280            44.007                Anadyr1          1375.219
        71   01 Jun 2027 18:08:47.304   01 Jun 2027 18:10:00.520            73.216                Anadyr2          2288.000
        72   01 Jun 2027 18:10:03.338   01 Jun 2027 18:10:14.257            10.919               Magadan2           341.219
        73   01 Jun 2027 18:10:40.999   01 Jun 2027 18:11:06.574            25.575               Magadan2           799.219
        74   01 Jun 2027 18:11:25.839   01 Jun 2027 18:12:49.750            83.911               Magadan2          2622.219
        75   01 Jun 2027 19:43:20.632   01 Jun 2027 19:45:24.026           123.394                Anadyr1          3856.062
        76   01 Jun 2027 19:45:37.226   01 Jun 2027 19:49:28.836           231.610               Magadan2          7237.813
        77   01 Jun 2027 19:49:28.836   01 Jun 2027 19:50:06.278            37.442               Magadan1          1170.062
        78   01 Jun 2027 19:52:44.866   01 Jun 2027 19:52:49.396             4.530               Magadan2           141.562
        79   01 Jun 2027 19:54:39.009   01 Jun 2027 19:55:12.647            33.638               Magadan2          1051.187
        80   01 Jun 2027 20:38:04.403   01 Jun 2027 20:40:52.585           168.182            RioGallegos          5255.687
        81   01 Jun 2027 20:41:23.373   01 Jun 2027 20:41:49.309            25.936            RioGallegos           810.500
        82   01 Jun 2027 20:42:07.679   01 Jun 2027 20:42:27.364            19.685            RioGallegos           615.156
        83   01 Jun 2027 20:47:17.296   01 Jun 2027 20:47:27.507            10.211            RioGallegos           319.094
        84   01 Jun 2027 21:19:01.172   01 Jun 2027 21:19:40.420            39.248                Anadyr1          1226.500
        85   01 Jun 2027 21:21:12.023   01 Jun 2027 21:22:02.962            50.939                Norilsk          1591.844
        86   01 Jun 2027 21:22:13.862   01 Jun 2027 21:23:32.823            78.961               Magadan1          2467.531
        87   01 Jun 2027 21:23:32.823   01 Jun 2027 21:23:56.158            23.335               Magadan2           729.219
        88   01 Jun 2027 21:25:31.178   01 Jun 2027 21:27:11.244           100.066                Irkutsk          3127.063
        89   01 Jun 2027 21:29:13.349   01 Jun 2027 21:30:04.705            51.356                Novosib          1604.875
        90   01 Jun 2027 21:34:22.798   01 Jun 2027 21:34:33.097            10.299                Irkutsk           321.844
        91   01 Jun 2027 21:39:26.132   01 Jun 2027 21:40:02.954            36.822                Sumatra          1150.688
        92   01 Jun 2027 21:41:30.132   01 Jun 2027 21:42:44.729            74.597                Sumatra          2331.156
        93   01 Jun 2027 21:43:29.616   01 Jun 2027 21:44:19.658            50.042                Sumatra          1563.812
        94   01 Jun 2027 21:51:00.701   01 Jun 2027 21:51:19.705            19.004                Sumatra           593.875
        95   01 Jun 2027 22:53:54.895   01 Jun 2027 22:54:08.536            13.641                Anadyr1           426.281
        96   01 Jun 2027 22:54:26.819   01 Jun 2027 22:54:54.519            27.700                Anadyr1           865.625
        97   01 Jun 2027 22:57:06.985   01 Jun 2027 22:57:58.432            51.447                Norilsk          1607.719
        98   01 Jun 2027 22:58:30.265   01 Jun 2027 22:59:07.675            37.410                Norilsk          1169.063
        99   01 Jun 2027 22:59:13.711   01 Jun 2027 23:00:03.256            49.545               Magadan2          1548.281
       100   01 Jun 2027 23:00:36.962   01 Jun 2027 23:01:05.583            28.621               Magadan2           894.406
       101   01 Jun 2027 23:01:13.878   01 Jun 2027 23:02:12.863            58.985                Novosib          1843.281
       102   01 Jun 2027 23:02:18.250   01 Jun 2027 23:03:03.915            45.665                Novosib          1427.031
       103   01 Jun 2027 23:03:56.399   01 Jun 2027 23:04:23.564            27.165                Novosib           848.906
       104   01 Jun 2027 23:09:19.958   01 Jun 2027 23:10:28.318            68.360                  Delhi          2136.250
       105   01 Jun 2027 23:11:06.395   01 Jun 2027 23:12:25.716            79.321                  Delhi          2478.781
       106   01 Jun 2027 23:54:59.234   01 Jun 2027 23:55:21.633            22.399            RioGallegos           699.969
       107   01 Jun 2027 23:56:53.406   01 Jun 2027 23:57:17.206            23.800            RioGallegos           743.750
       108   02 Jun 2027 00:27:35.666   02 Jun 2027 00:27:47.092            11.426                Anadyr2           357.062
       109   02 Jun 2027 00:28:37.340   02 Jun 2027 00:30:02.334            84.994                Anadyr1          2656.062
       110   02 Jun 2027 00:32:46.369   02 Jun 2027 00:33:08.295            21.926                Anadyr2           685.188
       111   02 Jun 2027 00:33:23.876   02 Jun 2027 00:33:39.013            15.137                Norilsk           473.031
       112   02 Jun 2027 00:33:57.316   02 Jun 2027 00:35:07.788            70.472                Norilsk          2202.250
       113   02 Jun 2027 00:35:19.835   02 Jun 2027 00:35:37.363            17.528               Magadan2           547.750
       114   02 Jun 2027 00:36:09.049   02 Jun 2027 00:37:28.258            79.209              Murmansk2          2475.281
       115   02 Jun 2027 00:37:34.806   02 Jun 2027 00:38:28.763            53.957                Novosib          1686.156
       116   02 Jun 2027 00:38:59.211   02 Jun 2027 00:40:08.393            69.182                Novosib          2161.938
       117   02 Jun 2027 00:41:45.010   02 Jun 2027 00:41:50.224             5.214                 Moscow           162.937
       118   02 Jun 2027 00:42:36.766   02 Jun 2027 00:43:31.810            55.044                 Moscow          1720.125
       119   02 Jun 2027 00:48:43.743   02 Jun 2027 00:49:20.444            36.701                  Delhi          1146.906
       120   02 Jun 2027 00:53:54.165   02 Jun 2027 00:54:04.469            10.304                  Delhi           322.000
       121   02 Jun 2027 00:54:37.389   02 Jun 2027 00:55:52.425            75.036                  Delhi          2344.875
       122   02 Jun 2027 01:27:59.027   02 Jun 2027 01:28:53.965            54.938            RioGallegos          1716.812
       123   02 Jun 2027 02:00:56.119   02 Jun 2027 02:01:16.191            20.072                Anadyr1           627.250
       124   02 Jun 2027 02:01:18.829   02 Jun 2027 02:01:34.679            15.850                Anadyr2           495.312
       125   02 Jun 2027 02:01:38.114   02 Jun 2027 02:01:41.686             3.572                Anadyr2           111.625
       126   02 Jun 2027 02:02:24.308   02 Jun 2027 02:03:19.821            55.513                Anadyr2          1734.781
       127   02 Jun 2027 02:03:56.531   02 Jun 2027 02:04:13.194            16.663                Anadyr1           520.719
       128   02 Jun 2027 02:06:20.513   02 Jun 2027 02:07:24.852            64.339               Magadan2          2010.594
       129   02 Jun 2027 02:07:29.699   02 Jun 2027 02:07:35.188             5.489               Magadan1           171.531
       130   02 Jun 2027 02:08:14.448   02 Jun 2027 02:08:23.938             9.490               Magadan2           296.563
       131   02 Jun 2027 02:08:56.957   02 Jun 2027 02:09:09.780            12.823                Norilsk           400.719
       132   02 Jun 2027 02:11:14.683   02 Jun 2027 02:12:06.495            51.812              Murmansk2          1619.125
       133   02 Jun 2027 02:12:18.679   02 Jun 2027 02:12:21.063             2.384              Murmansk1            74.500
       134   02 Jun 2027 02:13:11.589   02 Jun 2027 02:16:11.450           179.861                Novosib          5620.656
       135   02 Jun 2027 02:40:42.471   02 Jun 2027 02:40:46.216             3.745               CapeTown           117.031
       136   02 Jun 2027 02:41:05.257   02 Jun 2027 02:41:54.931            49.674               CapeTown          1552.313
       137   02 Jun 2027 02:46:23.547   02 Jun 2027 02:47:07.055            43.508               CapeTown          1359.625
       138   02 Jun 2027 03:55:22.503   02 Jun 2027 03:55:48.822            26.319              Murmansk2           822.469
       139   02 Jun 2027 03:56:06.548   02 Jun 2027 03:57:08.519            61.971              Murmansk1          1936.594
       140   02 Jun 2027 03:57:41.224   02 Jun 2027 03:58:13.634            32.410              Murmansk2          1012.813
       141   02 Jun 2027 03:58:39.918   02 Jun 2027 03:58:46.826             6.908              Murmansk2           215.875
       142   02 Jun 2027 03:58:48.238   02 Jun 2027 04:00:09.167            80.929              Murmansk2          2529.031
       143   02 Jun 2027 04:02:21.863   02 Jun 2027 04:02:34.170            12.307                 Moscow           384.594
       144   02 Jun 2027 05:17:57.314   02 Jun 2027 05:18:29.369            32.055               Magadan1          1001.719
       145   02 Jun 2027 05:18:30.890   02 Jun 2027 05:18:55.914            25.024                Anadyr2           782.000
       146   02 Jun 2027 05:19:39.423   02 Jun 2027 05:23:36.881           237.458               Magadan1          7420.563
       147   02 Jun 2027 05:23:56.105   02 Jun 2027 05:24:37.473            41.368                Norilsk          1292.750
       148   02 Jun 2027 05:24:48.635   02 Jun 2027 05:25:11.735            23.100              Murmansk1           721.875
       149   02 Jun 2027 05:25:53.077   02 Jun 2027 05:26:36.331            43.254                Norilsk          1351.687
       150   02 Jun 2027 05:26:39.195   02 Jun 2027 05:26:53.149            13.954              Murmansk1           436.062
       151   02 Jun 2027 05:26:53.149   02 Jun 2027 05:27:00.238             7.089              Murmansk2           221.531
       152   02 Jun 2027 05:28:30.602   02 Jun 2027 05:28:56.217            25.615              Murmansk1           800.469
       153   02 Jun 2027 05:34:49.885   02 Jun 2027 05:35:00.491            10.606              Murmansk1           331.438
       154   02 Jun 2027 06:06:38.008   02 Jun 2027 06:07:37.590            59.582            RioGallegos          1861.937
       155   02 Jun 2027 06:54:44.169   02 Jun 2027 06:56:29.984           105.815               Magadan1          3306.719
       156   02 Jun 2027 06:56:39.089   02 Jun 2027 06:57:03.276            24.187                Norilsk           755.844
       157   02 Jun 2027 06:57:05.985   02 Jun 2027 06:58:09.345            63.360                Anadyr2          1980.000
       158   02 Jun 2027 07:05:05.921   02 Jun 2027 07:05:17.346            11.425                 Moscow           357.031
       159   02 Jun 2027 07:37:33.615   02 Jun 2027 07:37:59.680            26.065            RioGallegos           814.531
       160   02 Jun 2027 08:30:16.109   02 Jun 2027 08:34:48.619           272.510               Magadan2          8515.937
       161   02 Jun 2027 08:35:15.355   02 Jun 2027 08:37:22.630           127.275                Norilsk          3977.344
       162   02 Jun 2027 09:09:57.600   02 Jun 2027 09:10:59.817            62.217            RioGallegos          1944.281
       163   02 Jun 2027 09:12:25.497   02 Jun 2027 09:12:49.552            24.055            RioGallegos           751.719
       164   02 Jun 2027 09:45:17.244   02 Jun 2027 09:46:04.783            47.539                Sumatra          1485.594
       165   02 Jun 2027 09:47:40.194   02 Jun 2027 09:48:43.396            63.202                Sumatra          1975.063
       166   02 Jun 2027 09:57:59.410   02 Jun 2027 09:58:21.516            22.106                  Delhi           690.812
       167   02 Jun 2027 10:06:32.041   02 Jun 2027 10:08:51.463           139.422                Norilsk          4356.938
       168   02 Jun 2027 10:08:54.239   02 Jun 2027 10:09:34.622            40.383                Novosib          1261.969
       169   02 Jun 2027 10:09:44.260   02 Jun 2027 10:11:13.442            89.182                Irkutsk          2786.937
       170   02 Jun 2027 10:14:43.448   02 Jun 2027 10:14:47.380             3.932              Murmansk1           122.875
       171   02 Jun 2027 10:15:12.186   02 Jun 2027 10:15:44.061            31.875              Murmansk2           996.094
       172   02 Jun 2027 10:47:58.451   02 Jun 2027 10:49:32.464            94.013            RioGallegos          2937.906
       173   02 Jun 2027 10:51:05.077   02 Jun 2027 10:51:24.061            18.984            RioGallegos           593.250
       174   02 Jun 2027 10:52:32.290   02 Jun 2027 10:52:57.268            24.978            RioGallegos           780.562
       175   02 Jun 2027 11:22:11.880   02 Jun 2027 11:22:33.615            21.735                Sumatra           679.219
       176   02 Jun 2027 11:25:19.452   02 Jun 2027 11:27:11.369           111.917                Sumatra          3497.406
       177   02 Jun 2027 11:44:29.304   02 Jun 2027 11:46:28.235           118.931              Murmansk1          3716.594
       178   02 Jun 2027 11:46:30.851   02 Jun 2027 11:46:41.917            11.066                Norilsk           345.813
       179   02 Jun 2027 11:47:02.407   02 Jun 2027 11:47:59.121            56.714                 Moscow          1772.312
       180   02 Jun 2027 13:08:17.781   02 Jun 2027 13:09:12.100            54.319                  Delhi          1697.469
       181   02 Jun 2027 13:09:59.982   02 Jun 2027 13:12:09.333           129.351                  Delhi          4042.219
       182   02 Jun 2027 13:14:39.975   02 Jun 2027 13:14:56.062            16.087                 Moscow           502.719
       183   02 Jun 2027 13:16:56.274   02 Jun 2027 13:19:19.098           142.824              Murmansk2          4463.250
       184   02 Jun 2027 13:20:02.617   02 Jun 2027 13:20:14.828            12.211                Novosib           381.594
       185   02 Jun 2027 13:20:39.541   02 Jun 2027 13:22:15.936            96.395                Norilsk          3012.344
       186   02 Jun 2027 14:30:09.025   02 Jun 2027 14:32:04.588           115.563               CapeTown          3611.344
       187   02 Jun 2027 14:35:08.234   02 Jun 2027 14:35:51.494            43.260               CapeTown          1351.875
       188   02 Jun 2027 14:49:54.617   02 Jun 2027 14:51:26.823            92.206                 Moscow          2881.438
       189   02 Jun 2027 14:53:21.824   02 Jun 2027 14:55:32.840           131.016              Murmansk1          4094.250
       190   02 Jun 2027 14:56:13.628   02 Jun 2027 14:56:35.228            21.600              Murmansk1           675.000
       191   02 Jun 2027 14:56:45.867   02 Jun 2027 14:57:44.470            58.603              Murmansk1          1831.344
       192   02 Jun 2027 15:08:28.128   02 Jun 2027 15:09:51.028            82.900                Anadyr2          2590.625
       193   02 Jun 2027 15:10:50.156   02 Jun 2027 15:11:03.449            13.293                Anadyr1           415.406
       194   02 Jun 2027 15:11:03.449   02 Jun 2027 15:11:26.371            22.922                Anadyr2           716.312
       195   02 Jun 2027 15:11:44.154   02 Jun 2027 15:11:52.553             8.399                Anadyr1           262.469
       196   02 Jun 2027 15:12:02.341   02 Jun 2027 15:12:41.901            39.560                Anadyr2          1236.250
       197   02 Jun 2027 15:15:33.120   02 Jun 2027 15:15:37.075             3.955                Anadyr2           123.594
       198   02 Jun 2027 16:05:00.085   02 Jun 2027 16:05:37.239            37.154               CapeTown          1161.062
       199   02 Jun 2027 16:08:35.833   02 Jun 2027 16:08:53.133            17.300               CapeTown           540.625
       200   02 Jun 2027 16:09:52.570   02 Jun 2027 16:10:01.189             8.619               CapeTown           269.344
       201   02 Jun 2027 16:13:10.088   02 Jun 2027 16:15:00.156           110.068               CapeTown          3439.625
       202   02 Jun 2027 16:31:48.136   02 Jun 2027 16:32:31.968            43.832              Murmansk2          1369.750
       203   02 Jun 2027 16:34:26.581   02 Jun 2027 16:35:00.825            34.244              Murmansk2          1070.125
       204   02 Jun 2027 16:36:18.905   02 Jun 2027 16:36:54.046            35.141              Murmansk1          1098.156
       205   02 Jun 2027 16:40:40.983   02 Jun 2027 16:41:41.132            60.149              Murmansk1          1879.656
       206   02 Jun 2027 16:43:35.571   02 Jun 2027 16:44:20.030            44.459                Anadyr2          1389.344
       207   02 Jun 2027 16:46:46.819   02 Jun 2027 16:47:02.463            15.644                Anadyr2           488.875
       208   02 Jun 2027 16:47:02.463   02 Jun 2027 16:47:28.442            25.979                Anadyr1           811.844
       209   02 Jun 2027 16:48:57.101   02 Jun 2027 16:50:55.259           118.158               Magadan2          3692.437
       210   02 Jun 2027 16:54:26.661   02 Jun 2027 16:54:47.324            20.663                Anadyr1           645.719
       211   02 Jun 2027 16:54:57.734   02 Jun 2027 16:55:15.204            17.470                Anadyr1           545.937
       212   02 Jun 2027 17:46:11.600   02 Jun 2027 17:46:35.698            24.098               CapeTown           753.063
       213   02 Jun 2027 18:13:57.515   02 Jun 2027 18:15:57.159           119.644              Murmansk2          3738.875
       214   02 Jun 2027 18:19:26.759   02 Jun 2027 18:21:34.706           127.947                Anadyr2          3998.344
       215   02 Jun 2027 18:21:45.008   02 Jun 2027 18:22:47.563            62.555                Anadyr1          1954.844
       216   02 Jun 2027 18:22:53.760   02 Jun 2027 18:24:35.396           101.636               Magadan2          3176.125
       217   02 Jun 2027 18:26:54.652   02 Jun 2027 18:27:09.765            15.113               Magadan1           472.281
       218   02 Jun 2027 18:28:38.426   02 Jun 2027 18:28:40.824             2.398               Magadan1            74.937
       219   02 Jun 2027 18:29:12.578   02 Jun 2027 18:29:20.841             8.263               Magadan2           258.219
       220   02 Jun 2027 18:29:20.841   02 Jun 2027 18:29:29.342             8.501               Magadan1           265.656
       221   02 Jun 2027 18:30:11.777   02 Jun 2027 18:30:34.462            22.685                Anadyr1           708.906
       222   02 Jun 2027 18:31:40.642   02 Jun 2027 18:32:02.969            22.327               Magadan1           697.719
       223   02 Jun 2027 18:33:26.963   02 Jun 2027 18:33:27.542             0.579               Magadan2            18.094
       224   02 Jun 2027 19:55:21.452   02 Jun 2027 19:59:09.026           227.574                Anadyr1          7111.688
       225   02 Jun 2027 19:59:11.673   02 Jun 2027 20:01:32.416           140.743               Magadan1          4398.219
       226   02 Jun 2027 20:02:04.531   02 Jun 2027 20:02:40.590            36.059               Magadan1          1126.844
       227   02 Jun 2027 20:03:35.812   02 Jun 2027 20:03:42.802             6.990               Magadan1           218.437
       228   02 Jun 2027 20:04:01.039   02 Jun 2027 20:04:32.957            31.918               Magadan1           997.438
       229   02 Jun 2027 20:06:43.158   02 Jun 2027 20:07:14.178            31.020               Magadan2           969.375
       230   02 Jun 2027 20:07:53.159   02 Jun 2027 20:08:01.074             7.915               Magadan1           247.344
       231   02 Jun 2027 20:08:11.998   02 Jun 2027 20:08:26.952            14.954               Magadan1           467.313
       232   02 Jun 2027 20:08:51.069   02 Jun 2027 20:09:29.038            37.969               Magadan2          1186.531
       233   02 Jun 2027 20:09:49.112   02 Jun 2027 20:10:16.829            27.717               Magadan1           866.156
       234   02 Jun 2027 20:49:53.076   02 Jun 2027 20:50:03.880            10.804            RioGallegos           337.625
       235   02 Jun 2027 20:51:17.966   02 Jun 2027 20:52:07.805            49.839            RioGallegos          1557.469
       236   02 Jun 2027 20:52:49.774   02 Jun 2027 20:53:16.664            26.890            RioGallegos           840.313
       237   02 Jun 2027 20:55:08.173   02 Jun 2027 20:55:23.349            15.176            RioGallegos           474.250
       238   02 Jun 2027 20:56:05.133   02 Jun 2027 20:56:58.265            53.132            RioGallegos          1660.375
       239   02 Jun 2027 20:58:34.674   02 Jun 2027 20:59:01.904            27.230            RioGallegos           850.938
       240   02 Jun 2027 20:59:16.534   02 Jun 2027 20:59:29.136            12.602            RioGallegos           393.813
       241   02 Jun 2027 20:59:42.347   02 Jun 2027 20:59:57.522            15.175            RioGallegos           474.219
       242   02 Jun 2027 21:32:49.578   02 Jun 2027 21:33:14.660            25.082                Anadyr2           783.812
       243   02 Jun 2027 21:33:22.076   02 Jun 2027 21:35:23.277           121.201                Norilsk          3787.531
       244   02 Jun 2027 21:36:30.839   02 Jun 2027 21:37:01.768            30.929                Norilsk           966.531
       245   02 Jun 2027 21:38:40.784   02 Jun 2027 21:39:00.603            19.819                Irkutsk           619.344
       246   02 Jun 2027 21:39:27.632   02 Jun 2027 21:39:53.944            26.312                Novosib           822.250
       247   02 Jun 2027 21:40:06.507   02 Jun 2027 21:40:30.817            24.310                Novosib           759.688
       248   02 Jun 2027 21:41:23.062   02 Jun 2027 21:41:43.718            20.656                Novosib           645.500
       249   02 Jun 2027 21:43:23.411   02 Jun 2027 21:43:26.915             3.504                Irkutsk           109.500
       250   02 Jun 2027 21:43:31.083   02 Jun 2027 21:44:26.869            55.786                Novosib          1743.312
       251   02 Jun 2027 21:47:22.049   02 Jun 2027 21:47:40.585            18.536                Irkutsk           579.250
       252   02 Jun 2027 21:48:05.526   02 Jun 2027 21:48:49.036            43.510                Irkutsk          1359.688
       253   02 Jun 2027 21:57:53.001   02 Jun 2027 21:59:05.598            72.597                Sumatra          2268.656
       254   02 Jun 2027 22:01:24.699   02 Jun 2027 22:03:04.931           100.232                Sumatra          3132.250
       255   02 Jun 2027 23:06:55.846   02 Jun 2027 23:07:08.093            12.247                Anadyr1           382.719
       256   02 Jun 2027 23:07:53.564   02 Jun 2027 23:08:03.984            10.420                Anadyr1           325.625
       257   02 Jun 2027 23:08:28.220   02 Jun 2027 23:08:30.809             2.589                Anadyr1            80.906
       258   02 Jun 2027 23:09:09.048   02 Jun 2027 23:10:36.937            87.889                Norilsk          2746.531
       259   02 Jun 2027 23:10:40.970   02 Jun 2027 23:11:12.842            31.872               Magadan2           996.000
       260   02 Jun 2027 23:11:16.296   02 Jun 2027 23:11:26.023             9.727               Magadan1           303.969
       261   02 Jun 2027 23:11:37.761   02 Jun 2027 23:11:50.034            12.273               Magadan1           383.531
       262   02 Jun 2027 23:12:14.223   02 Jun 2027 23:12:34.479            20.256               Magadan2           633.000
       263   02 Jun 2027 23:12:54.562   02 Jun 2027 23:13:21.243            26.681               Magadan2           833.781
       264   02 Jun 2027 23:14:32.910   02 Jun 2027 23:15:23.601            50.691                Irkutsk          1584.094
       265   02 Jun 2027 23:17:29.572   02 Jun 2027 23:17:31.387             1.815               Magadan2            56.719
       266   02 Jun 2027 23:17:45.817   02 Jun 2027 23:18:13.987            28.170                Irkutsk           880.312
       267   02 Jun 2027 23:18:35.779   02 Jun 2027 23:19:18.705            42.926                Novosib          1341.437
       268   02 Jun 2027 23:21:40.587   02 Jun 2027 23:22:31.718            51.131                  Delhi          1597.844
       269   02 Jun 2027 23:27:10.866   02 Jun 2027 23:28:27.994            77.128                  Delhi          2410.250
       270   02 Jun 2027 23:31:23.599   02 Jun 2027 23:32:18.148            54.549                  Delhi          1704.656
       271   03 Jun 2027 00:10:04.516   03 Jun 2027 00:10:12.710             8.194            RioGallegos           256.063
       272   03 Jun 2027 00:10:19.668   03 Jun 2027 00:10:59.956            40.288            RioGallegos          1259.000
       273   03 Jun 2027 00:39:26.010   03 Jun 2027 00:39:33.365             7.355                Anadyr2           229.844
       274   03 Jun 2027 00:39:49.788   03 Jun 2027 00:40:31.940            42.152                Anadyr1          1317.250
       275   03 Jun 2027 00:41:51.282   03 Jun 2027 00:42:03.194            11.912                Anadyr2           372.250
       276   03 Jun 2027 00:43:42.972   03 Jun 2027 00:44:46.772            63.800                Anadyr1          1993.750
       277   03 Jun 2027 00:45:08.440   03 Jun 2027 00:45:26.058            17.618                Norilsk           550.563
       278   03 Jun 2027 00:45:43.521   03 Jun 2027 00:46:35.062            51.541               Magadan2          1610.656
       279   03 Jun 2027 00:47:05.341   03 Jun 2027 00:48:19.797            74.456               Magadan1          2326.750
       280   03 Jun 2027 00:48:26.608   03 Jun 2027 00:48:42.178            15.570              Murmansk1           486.563
       281   03 Jun 2027 00:48:42.178   03 Jun 2027 00:49:29.343            47.165              Murmansk2          1473.906
       282   03 Jun 2027 00:52:25.409   03 Jun 2027 00:52:56.097            30.688                 Moscow           959.000
       283   03 Jun 2027 00:55:18.625   03 Jun 2027 00:55:52.175            33.550                 Moscow          1048.437
       284   03 Jun 2027 00:56:48.466   03 Jun 2027 00:57:14.883            26.417                Irkutsk           825.531
       285   03 Jun 2027 00:59:19.928   03 Jun 2027 00:59:53.946            34.018                Novosib          1063.062
       286   03 Jun 2027 01:02:40.852   03 Jun 2027 01:03:17.952            37.100                  Delhi          1159.375
       287   03 Jun 2027 01:05:30.874   03 Jun 2027 01:06:18.860            47.986                  Delhi          1499.563
       288   03 Jun 2027 02:12:40.988   03 Jun 2027 02:14:13.901            92.913                Anadyr1          2903.531
       289   03 Jun 2027 02:14:13.901   03 Jun 2027 02:14:24.398            10.497                Anadyr2           328.031
       290   03 Jun 2027 02:14:36.267   03 Jun 2027 02:15:20.553            44.286                Anadyr2          1383.937
       291   03 Jun 2027 02:17:44.218   03 Jun 2027 02:18:23.974            39.756                Anadyr1          1242.375
       292   03 Jun 2027 02:18:41.045   03 Jun 2027 02:19:10.156            29.111               Magadan2           909.719
       293   03 Jun 2027 02:19:55.015   03 Jun 2027 02:20:17.146            22.131               Magadan1           691.594
       294   03 Jun 2027 02:21:42.708   03 Jun 2027 02:22:25.466            42.758               Magadan1          1336.188
       295   03 Jun 2027 02:23:16.130   03 Jun 2027 02:24:00.117            43.987              Murmansk1          1374.594
       296   03 Jun 2027 02:26:02.128   03 Jun 2027 02:27:03.935            61.807                Novosib          1931.469
       297   03 Jun 2027 02:31:01.164   03 Jun 2027 02:31:11.114             9.950                Novosib           310.938
       298   03 Jun 2027 02:31:51.099   03 Jun 2027 02:31:56.559             5.460              Murmansk2           170.625
       299   03 Jun 2027 02:32:07.794   03 Jun 2027 02:32:50.579            42.785                Novosib          1337.031
       300   03 Jun 2027 02:34:54.802   03 Jun 2027 02:35:16.596            21.794              Murmansk2           681.063
       301   03 Jun 2027 02:36:51.033   03 Jun 2027 02:37:05.239            14.206                 Moscow           443.937
       302   03 Jun 2027 02:38:35.003   03 Jun 2027 02:38:44.723             9.720                 Moscow           303.750
       303   03 Jun 2027 02:57:26.077   03 Jun 2027 02:58:12.292            46.215               CapeTown          1444.219
       304   03 Jun 2027 03:00:47.680   03 Jun 2027 03:01:19.110            31.430               CapeTown           982.188
       305   03 Jun 2027 03:54:18.455   03 Jun 2027 03:54:40.312            21.857                Anadyr2           683.031
       306   03 Jun 2027 03:54:59.295   03 Jun 2027 03:55:13.783            14.488                Anadyr2           452.750
       307   03 Jun 2027 03:55:14.905   03 Jun 2027 03:56:10.626            55.721               Magadan2          1741.281
       308   03 Jun 2027 03:56:10.626   03 Jun 2027 03:57:07.827            57.201               Magadan1          1787.531
       309   03 Jun 2027 04:06:33.122   03 Jun 2027 04:07:19.743            46.621              Murmansk1          1456.906
       310   03 Jun 2027 04:07:37.864   03 Jun 2027 04:12:11.836           273.972              Murmansk1          8561.625
       311   03 Jun 2027 04:14:04.362   03 Jun 2027 04:14:08.848             4.486                 Moscow           140.188
       312   03 Jun 2027 04:14:37.298   03 Jun 2027 04:14:56.765            19.467                 Moscow           608.344
       313   03 Jun 2027 04:35:10.163   03 Jun 2027 04:37:04.499           114.336               CapeTown          3573.000
       314   03 Jun 2027 05:29:36.802   03 Jun 2027 05:29:55.453            18.651               Magadan2           582.844
       315   03 Jun 2027 05:29:55.453   03 Jun 2027 05:30:00.370             4.917               Magadan1           153.656
       316   03 Jun 2027 05:30:09.735   03 Jun 2027 05:32:54.573           164.838                Anadyr2          5151.187
       317   03 Jun 2027 05:32:54.573   03 Jun 2027 05:33:14.994            20.421                Anadyr1           638.156
       318   03 Jun 2027 05:33:36.805   03 Jun 2027 05:34:43.999            67.194               Magadan1          2099.812
       319   03 Jun 2027 07:05:48.315   03 Jun 2027 07:06:56.000            67.685                Irkutsk          2115.156
       320   03 Jun 2027 07:07:48.850   03 Jun 2027 07:08:10.295            21.445               Magadan1           670.156
       321   03 Jun 2027 07:08:10.295   03 Jun 2027 07:08:41.651            31.356               Magadan2           979.875
       322   03 Jun 2027 07:08:52.442   03 Jun 2027 07:10:02.128            69.686                Irkutsk          2177.687
       323   03 Jun 2027 07:10:09.446   03 Jun 2027 07:11:23.104            73.658                Anadyr1          2301.812
       324   03 Jun 2027 07:47:21.132   03 Jun 2027 07:47:41.405            20.273            RioGallegos           633.531
       325   03 Jun 2027 07:49:00.897   03 Jun 2027 07:49:20.323            19.426            RioGallegos           607.062
       326   03 Jun 2027 07:50:08.834   03 Jun 2027 07:50:26.023            17.189            RioGallegos           537.156
       327   03 Jun 2027 08:41:37.909   03 Jun 2027 08:42:18.466            40.557                Novosib          1267.406
       328   03 Jun 2027 08:42:45.147   03 Jun 2027 08:45:18.554           153.407                Norilsk          4793.969
       329   03 Jun 2027 08:45:26.687   03 Jun 2027 08:49:21.626           234.939              Murmansk2          7341.844
       330   03 Jun 2027 08:49:45.939   03 Jun 2027 08:49:48.436             2.497              Murmansk1            78.031
       331   03 Jun 2027 08:50:13.867   03 Jun 2027 08:50:52.317            38.450              Murmansk2          1201.563
       332   03 Jun 2027 09:22:00.807   03 Jun 2027 09:23:09.823            69.016            RioGallegos          2156.750
       333   03 Jun 2027 09:57:04.440   03 Jun 2027 09:57:06.212             1.772                Sumatra            55.375
       334   03 Jun 2027 09:57:54.552   03 Jun 2027 09:59:54.968           120.416                Sumatra          3763.000
       335   03 Jun 2027 10:10:29.428   03 Jun 2027 10:10:31.852             2.424                  Delhi            75.750
       336   03 Jun 2027 10:18:27.888   03 Jun 2027 10:19:24.354            56.466                Irkutsk          1764.562
       337   03 Jun 2027 10:19:30.670   03 Jun 2027 10:20:18.738            48.068                Irkutsk          1502.125
       338   03 Jun 2027 10:20:19.941   03 Jun 2027 10:21:05.910            45.969              Murmansk2          1436.531
       339   03 Jun 2027 10:21:05.910   03 Jun 2027 10:21:16.063            10.153              Murmansk1           317.281
       340   03 Jun 2027 10:21:24.848   03 Jun 2027 10:22:03.796            38.948                Irkutsk          1217.125
       341   03 Jun 2027 10:22:12.458   03 Jun 2027 10:23:13.240            60.782              Murmansk2          1899.437
       342   03 Jun 2027 10:23:21.286   03 Jun 2027 10:23:40.192            18.906                Norilsk           590.812
       343   03 Jun 2027 10:24:42.176   03 Jun 2027 10:24:53.825            11.649              Murmansk1           364.031
       344   03 Jun 2027 10:26:28.658   03 Jun 2027 10:26:35.143             6.485                Norilsk           202.656
       345   03 Jun 2027 11:00:39.881   03 Jun 2027 11:00:43.025             3.144            RioGallegos            98.250
       346   03 Jun 2027 11:00:59.900   03 Jun 2027 11:01:35.592            35.692            RioGallegos          1115.375
       347   03 Jun 2027 11:35:02.933   03 Jun 2027 11:35:34.239            31.306                Sumatra           978.312
       348   03 Jun 2027 11:37:07.721   03 Jun 2027 11:37:47.192            39.471                Sumatra          1233.469
       349   03 Jun 2027 11:41:55.094   03 Jun 2027 11:43:55.840           120.746                  Delhi          3773.313
       350   03 Jun 2027 11:55:09.239   03 Jun 2027 11:55:10.549             1.310              Murmansk2            40.938
       351   03 Jun 2027 11:55:11.131   03 Jun 2027 11:55:50.196            39.065                Irkutsk          1220.781
       352   03 Jun 2027 11:55:57.235   03 Jun 2027 11:56:52.222            54.987              Murmansk2          1718.344
       353   03 Jun 2027 11:56:56.998   03 Jun 2027 11:57:08.363            11.365                Norilsk           355.156
       354   03 Jun 2027 11:57:09.377   03 Jun 2027 11:58:08.843            59.466                Novosib          1858.313
       355   03 Jun 2027 11:58:16.088   03 Jun 2027 11:58:23.422             7.334                Novosib           229.188
       356   03 Jun 2027 11:58:24.974   03 Jun 2027 11:58:36.245            11.271                Novosib           352.219
       357   03 Jun 2027 11:58:39.341   03 Jun 2027 11:58:42.884             3.543              Murmansk1           110.719
       358   03 Jun 2027 11:58:42.884   03 Jun 2027 11:59:39.074            56.190              Murmansk2          1755.938
       359   03 Jun 2027 12:00:46.654   03 Jun 2027 12:01:17.123            30.469                 Moscow           952.156
       360   03 Jun 2027 12:02:25.738   03 Jun 2027 12:02:32.108             6.370                Norilsk           199.062
       361   03 Jun 2027 12:02:39.001   03 Jun 2027 12:03:15.346            36.345                Norilsk          1135.781
       362   03 Jun 2027 12:04:06.977   03 Jun 2027 12:04:40.678            33.701              Murmansk2          1053.156
       363   03 Jun 2027 12:05:22.192   03 Jun 2027 12:05:52.735            30.543              Murmansk1           954.469
       364   03 Jun 2027 13:20:58.568   03 Jun 2027 13:23:56.667           178.099                  Delhi          5565.594
       365   03 Jun 2027 13:24:40.592   03 Jun 2027 13:24:53.416            12.824                  Delhi           400.750
       366   03 Jun 2027 13:25:29.500   03 Jun 2027 13:25:58.986            29.486                  Delhi           921.437
       367   03 Jun 2027 13:28:27.194   03 Jun 2027 13:29:19.887            52.693                 Moscow          1646.656
       368   03 Jun 2027 13:29:23.803   03 Jun 2027 13:31:08.948           105.145                Novosib          3285.781
       369   03 Jun 2027 13:31:46.785   03 Jun 2027 13:32:05.538            18.753                Novosib           586.031
       370   03 Jun 2027 13:34:12.033   03 Jun 2027 13:34:47.072            35.039                Norilsk          1094.969
       371   03 Jun 2027 13:36:24.094   03 Jun 2027 13:36:46.263            22.169                Norilsk           692.781
       372   03 Jun 2027 13:37:06.994   03 Jun 2027 13:37:38.442            31.448                Norilsk           982.750
       373   03 Jun 2027 13:38:53.995   03 Jun 2027 13:39:19.054            25.059                Norilsk           783.094
       374   03 Jun 2027 14:41:09.443   03 Jun 2027 14:43:41.478           152.035               CapeTown          4751.094
       375   03 Jun 2027 14:45:17.066   03 Jun 2027 14:45:24.942             7.876               CapeTown           246.125
       376   03 Jun 2027 14:46:58.499   03 Jun 2027 14:48:18.612            80.113               CapeTown          2503.531
       377   03 Jun 2027 15:06:31.408   03 Jun 2027 15:06:45.383            13.975              Murmansk2           436.719
       378   03 Jun 2027 15:07:44.618   03 Jun 2027 15:08:15.411            30.793              Murmansk1           962.281
       379   03 Jun 2027 15:10:01.774   03 Jun 2027 15:10:02.364             0.590              Murmansk1            18.438
       380   03 Jun 2027 15:10:16.695   03 Jun 2027 15:10:35.907            19.212              Murmansk2           600.375
       381   03 Jun 2027 15:12:07.161   03 Jun 2027 15:12:22.072            14.911              Murmansk1           465.969
       382   03 Jun 2027 15:14:17.638   03 Jun 2027 15:14:49.330            31.692              Murmansk1           990.375
       383   03 Jun 2027 15:17:13.358   03 Jun 2027 15:17:51.207            37.849              Murmansk1          1182.781
       384   03 Jun 2027 15:20:16.621   03 Jun 2027 15:21:50.219            93.598                Anadyr1          2924.937
       385   03 Jun 2027 15:23:35.489   03 Jun 2027 15:23:52.938            17.449                Anadyr2           545.281
       386   03 Jun 2027 15:24:03.363   03 Jun 2027 15:25:09.795            66.432                Anadyr2          2076.000
       387   03 Jun 2027 16:24:32.031   03 Jun 2027 16:24:39.601             7.570               CapeTown           236.562
       388   03 Jun 2027 16:24:47.252   03 Jun 2027 16:25:26.879            39.627               CapeTown          1238.344
       389   03 Jun 2027 16:44:19.308   03 Jun 2027 16:46:14.402           115.094              Murmansk2          3596.688
       390   03 Jun 2027 16:48:47.488   03 Jun 2027 16:49:20.946            33.458              Murmansk2          1045.563
       391   03 Jun 2027 16:52:05.907   03 Jun 2027 16:52:44.573            38.666              Murmansk2          1208.312
       392   03 Jun 2027 16:55:35.440   03 Jun 2027 16:56:21.206            45.766                Anadyr2          1430.187
       393   03 Jun 2027 16:56:53.728   03 Jun 2027 16:57:20.286            26.558                Anadyr2           829.938
       394   03 Jun 2027 16:59:50.482   03 Jun 2027 17:00:52.231            61.749               Magadan1          1929.656
       395   03 Jun 2027 17:00:52.231   03 Jun 2027 17:01:45.038            52.807               Magadan2          1650.219
       396   03 Jun 2027 17:02:31.559   03 Jun 2027 17:04:54.135           142.576               Magadan1          4455.500
       397   03 Jun 2027 18:31:28.285   03 Jun 2027 18:33:34.688           126.403                Anadyr2          3950.094
       398   03 Jun 2027 18:33:55.718   03 Jun 2027 18:34:21.991            26.273               Magadan1           821.031
       399   03 Jun 2027 18:34:21.991   03 Jun 2027 18:35:03.648            41.657               Magadan2          1301.781
       400   03 Jun 2027 18:35:57.608   03 Jun 2027 18:36:08.185            10.577               Magadan1           330.531
       401   03 Jun 2027 18:36:24.888   03 Jun 2027 18:37:10.588            45.700               Magadan1          1428.125
       402   03 Jun 2027 18:43:05.932   03 Jun 2027 18:43:08.420             2.488               Magadan1            77.750
       403   03 Jun 2027 18:43:26.332   03 Jun 2027 18:43:31.076             4.744               Magadan1           148.250
       404   03 Jun 2027 18:44:13.745   03 Jun 2027 18:44:44.042            30.297               Magadan1           946.781
       405   03 Jun 2027 20:07:22.013   03 Jun 2027 20:09:27.025           125.012                Anadyr2          3906.625
       406   03 Jun 2027 20:09:39.325   03 Jun 2027 20:11:08.669            89.344                Anadyr1          2792.000
       407   03 Jun 2027 20:11:23.435   03 Jun 2027 20:12:58.623            95.188               Magadan1          2974.625
       408   03 Jun 2027 20:12:58.623   03 Jun 2027 20:13:49.672            51.049               Magadan2          1595.281
       409   03 Jun 2027 20:14:12.583   03 Jun 2027 20:14:51.272            38.689               Magadan2          1209.031
       410   03 Jun 2027 20:16:30.024   03 Jun 2027 20:17:30.672            60.648                Irkutsk          1895.250
       411   03 Jun 2027 20:18:00.115   03 Jun 2027 20:18:24.622            24.507                Irkutsk           765.844
       412   03 Jun 2027 20:19:17.288   03 Jun 2027 20:19:28.578            11.290                Irkutsk           352.812
       413   03 Jun 2027 21:01:40.234   03 Jun 2027 21:02:25.293            45.059            RioGallegos          1408.094
       414   03 Jun 2027 21:02:58.347   03 Jun 2027 21:04:36.661            98.314            RioGallegos          3072.312
       415   03 Jun 2027 21:11:08.342   03 Jun 2027 21:11:43.418            35.076            RioGallegos          1096.125
       416   03 Jun 2027 21:43:57.187   03 Jun 2027 21:45:13.734            76.547                Anadyr2          2392.094
       417   03 Jun 2027 21:45:44.185   03 Jun 2027 21:46:35.155            50.970               Magadan1          1592.813
       418   03 Jun 2027 21:46:50.531   03 Jun 2027 21:47:05.295            14.764               Magadan1           461.375
       419   03 Jun 2027 21:47:18.213   03 Jun 2027 21:47:22.338             4.125               Magadan2           128.906
       420   03 Jun 2027 21:47:32.667   03 Jun 2027 21:47:41.857             9.190               Magadan1           287.188
       421   03 Jun 2027 21:49:18.782   03 Jun 2027 21:50:09.330            50.548                Irkutsk          1579.625
       422   03 Jun 2027 21:50:48.043   03 Jun 2027 21:51:26.975            38.932                Novosib          1216.625
       423   03 Jun 2027 21:51:42.661   03 Jun 2027 21:52:25.534            42.873                Novosib          1339.781
       424   03 Jun 2027 21:53:44.530   03 Jun 2027 21:54:24.191            39.661                Novosib          1239.406
       425   03 Jun 2027 22:03:47.086   03 Jun 2027 22:04:44.037            56.951                Sumatra          1779.719
       426   03 Jun 2027 22:10:52.217   03 Jun 2027 22:11:18.504            26.287                Sumatra           821.469
       427   03 Jun 2027 22:11:28.707   03 Jun 2027 22:12:31.205            62.498                Sumatra          1953.062
       428   03 Jun 2027 23:17:30.304   03 Jun 2027 23:17:39.561             9.257                Anadyr1           289.281
       429   03 Jun 2027 23:17:55.664   03 Jun 2027 23:18:57.082            61.418                Anadyr1          1919.313
       430   03 Jun 2027 23:19:49.092   03 Jun 2027 23:20:06.844            17.752                Anadyr2           554.750
       431   03 Jun 2027 23:20:14.413   03 Jun 2027 23:20:22.997             8.584                Anadyr2           268.250
       432   03 Jun 2027 23:21:11.136   03 Jun 2027 23:21:35.199            24.063                Norilsk           751.969
       433   03 Jun 2027 23:21:49.170   03 Jun 2027 23:23:15.597            86.427               Magadan2          2700.844
       434   03 Jun 2027 23:23:15.597   03 Jun 2027 23:23:28.364            12.767               Magadan1           398.969
       435   03 Jun 2027 23:24:21.871   03 Jun 2027 23:24:47.009            25.138               Magadan2           785.562
       436   03 Jun 2027 23:25:04.282   03 Jun 2027 23:25:08.539             4.257                Irkutsk           133.031
       437   03 Jun 2027 23:25:39.873   03 Jun 2027 23:26:28.079            48.206                Novosib          1506.438
       438   03 Jun 2027 23:27:51.060   03 Jun 2027 23:28:23.597            32.537                Novosib          1016.781
       439   03 Jun 2027 23:32:44.084   03 Jun 2027 23:34:08.235            84.151                  Delhi          2629.719
       440   03 Jun 2027 23:34:46.135   03 Jun 2027 23:34:58.264            12.129                  Delhi           379.031
       441   03 Jun 2027 23:35:56.835   03 Jun 2027 23:36:12.992            16.157                  Delhi           504.906
       442   03 Jun 2027 23:37:09.284   03 Jun 2027 23:39:01.185           111.901                  Delhi          3496.906
       443   04 Jun 2027 00:50:57.846   04 Jun 2027 00:51:06.648             8.802                Anadyr2           275.062
       444   04 Jun 2027 00:51:57.513   04 Jun 2027 00:52:28.231            30.718                Anadyr2           959.938
       445   04 Jun 2027 00:52:50.877   04 Jun 2027 00:53:17.016            26.139                Anadyr2           816.844
       446   04 Jun 2027 00:53:41.542   04 Jun 2027 00:53:58.231            16.689                Anadyr2           521.531
       447   04 Jun 2027 00:57:06.045   04 Jun 2027 00:59:42.722           156.677               Magadan1          4896.156
       448   04 Jun 2027 00:59:49.550   04 Jun 2027 01:00:28.986            39.436               Magadan1          1232.375
       449   04 Jun 2027 01:00:58.937   04 Jun 2027 01:01:35.179            36.242                Novosib          1132.563
       450   04 Jun 2027 01:01:36.793   04 Jun 2027 01:01:53.537            16.744              Murmansk1           523.250
       451   04 Jun 2027 01:03:17.241   04 Jun 2027 01:03:21.776             4.535                Irkutsk           141.719
       452   04 Jun 2027 01:03:38.447   04 Jun 2027 01:03:49.954            11.507              Murmansk1           359.594
       453   04 Jun 2027 01:04:23.535   04 Jun 2027 01:04:52.966            29.431                 Moscow           919.719
       454   04 Jun 2027 01:10:18.599   04 Jun 2027 01:10:39.403            20.804                Novosib           650.125
       455   04 Jun 2027 01:12:56.941   04 Jun 2027 01:13:30.602            33.661                  Delhi          1051.906
       456   04 Jun 2027 01:16:54.426   04 Jun 2027 01:18:38.249           103.823                  Delhi          3244.469
       457   04 Jun 2027 02:24:26.973   04 Jun 2027 02:26:24.070           117.097                Anadyr1          3659.281
       458   04 Jun 2027 02:29:16.255   04 Jun 2027 02:30:13.094            56.839               Magadan2          1776.219
       459   04 Jun 2027 02:30:41.912   04 Jun 2027 02:31:19.659            37.747               Magadan2          1179.594
       460   04 Jun 2027 02:35:17.735   04 Jun 2027 02:36:39.685            81.950              Murmansk1          2560.937
       461   04 Jun 2027 02:37:25.851   04 Jun 2027 02:37:50.563            24.712                Novosib           772.250
       462   04 Jun 2027 02:39:09.058   04 Jun 2027 02:39:33.705            24.647                Novosib           770.219
       463   04 Jun 2027 02:42:18.855   04 Jun 2027 02:42:32.410            13.555                Novosib           423.594
       464   04 Jun 2027 02:44:47.128   04 Jun 2027 02:44:55.003             7.875                Novosib           246.094
       465   04 Jun 2027 02:45:17.431   04 Jun 2027 02:45:56.350            38.919                Novosib          1216.219
       466   04 Jun 2027 03:05:20.081   04 Jun 2027 03:05:29.480             9.399               CapeTown           293.719
       467   04 Jun 2027 03:06:15.578   04 Jun 2027 03:06:28.665            13.087               CapeTown           408.969
       468   04 Jun 2027 03:09:29.117   04 Jun 2027 03:10:19.245            50.128               CapeTown          1566.500
       469   04 Jun 2027 04:06:19.895   04 Jun 2027 04:07:39.291            79.396                Anadyr1          2481.125
       470   04 Jun 2027 04:08:44.457   04 Jun 2027 04:08:49.527             5.070                Anadyr2           158.438
       471   04 Jun 2027 04:09:17.937   04 Jun 2027 04:09:27.339             9.402               Magadan1           293.812
       472   04 Jun 2027 04:10:23.571   04 Jun 2027 04:10:44.551            20.980                Anadyr1           655.625
       473   04 Jun 2027 04:10:52.386   04 Jun 2027 04:11:05.544            13.158                Anadyr1           411.187
       474   04 Jun 2027 04:11:35.159   04 Jun 2027 04:11:58.706            23.547                Anadyr1           735.844
       475   04 Jun 2027 04:18:04.038   04 Jun 2027 04:19:15.042            71.004                Norilsk          2218.875
       476   04 Jun 2027 04:21:11.607   04 Jun 2027 04:21:14.319             2.712              Murmansk2            84.750
       477   04 Jun 2027 04:22:05.568   04 Jun 2027 04:22:06.712             1.144              Murmansk1            35.750
       478   04 Jun 2027 04:22:15.224   04 Jun 2027 04:22:26.959            11.735                 Moscow           366.719
       479   04 Jun 2027 04:22:34.331   04 Jun 2027 04:23:24.123            49.792                 Moscow          1556.000
       480   04 Jun 2027 04:23:50.171   04 Jun 2027 04:23:55.436             5.265              Murmansk1           164.531
       481   04 Jun 2027 05:42:09.102   04 Jun 2027 05:44:21.033           131.931                Anadyr2          4122.844
       482   04 Jun 2027 05:44:30.938   04 Jun 2027 05:47:14.913           163.975               Magadan2          5124.219
