uniorb/output/strategy_1/Drop/Drop_KinoSat_111710.txt

KinoSat_111710
-------------------------
    Access    *     Start Time (UTCG)     *     Stop Time (UTCG)  *   Duration (s)        *       Station  *  Data (Mbytes)
         1   01 Jun 2027 04:00:20.508   01 Jun 2027 04:00:26.507             5.999                Irkutsk           187.469
         2   01 Jun 2027 04:01:16.044   01 Jun 2027 04:01:29.639            13.595                Irkutsk           424.844
         3   01 Jun 2027 04:01:34.439   01 Jun 2027 04:01:44.472            10.033              Murmansk2           313.531
         4   01 Jun 2027 04:01:46.449   01 Jun 2027 04:02:21.125            34.676                Novosib          1083.625
         5   01 Jun 2027 04:02:29.136   01 Jun 2027 04:04:58.196           149.060              Murmansk2          4658.125
         6   01 Jun 2027 04:05:20.719   01 Jun 2027 04:05:59.554            38.835              Murmansk1          1213.594
         7   01 Jun 2027 04:06:12.655   01 Jun 2027 04:07:27.578            74.923                Novosib          2341.344
         8   01 Jun 2027 04:07:41.517   01 Jun 2027 04:10:02.439           140.922                  Delhi          4403.812
         9   01 Jun 2027 05:39:53.221   01 Jun 2027 05:41:56.550           123.329              Murmansk2          3854.031
        10   01 Jun 2027 05:41:56.550   01 Jun 2027 05:42:10.189            13.639              Murmansk1           426.219
        11   01 Jun 2027 05:42:40.421   01 Jun 2027 05:42:50.103             9.682              Murmansk1           302.563
        12   01 Jun 2027 05:43:26.673   01 Jun 2027 05:43:32.300             5.627              Murmansk1           175.844
        13   01 Jun 2027 06:08:10.795   01 Jun 2027 06:09:25.595            74.800               CapeTown          2337.500
        14   01 Jun 2027 07:01:50.051   01 Jun 2027 07:02:57.300            67.249               Magadan2          2101.531
        15   01 Jun 2027 07:03:38.348   01 Jun 2027 07:04:19.687            41.339                Anadyr1          1291.844
        16   01 Jun 2027 07:04:37.057   01 Jun 2027 07:04:52.317            15.260               Magadan2           476.875
        17   01 Jun 2027 07:05:02.222   01 Jun 2027 07:05:27.894            25.672               Magadan2           802.250
        18   01 Jun 2027 07:06:01.618   01 Jun 2027 07:06:34.804            33.186                Anadyr2          1037.063
        19   01 Jun 2027 08:37:09.923   01 Jun 2027 08:37:38.887            28.964                Anadyr2           905.125
        20   01 Jun 2027 08:38:44.825   01 Jun 2027 08:39:15.559            30.734               Magadan2           960.437
        21   01 Jun 2027 08:39:28.050   01 Jun 2027 08:43:08.215           220.165                Anadyr1          6880.156
        22   01 Jun 2027 10:13:03.402   01 Jun 2027 10:13:51.714            48.312               Magadan1          1509.750
        23   01 Jun 2027 10:14:28.889   01 Jun 2027 10:14:39.412            10.523                Irkutsk           328.844
        24   01 Jun 2027 10:14:59.693   01 Jun 2027 10:15:36.553            36.860               Magadan1          1151.875
        25   01 Jun 2027 10:15:36.553   01 Jun 2027 10:17:37.753           121.200               Magadan2          3787.500
        26   01 Jun 2027 10:17:53.442   01 Jun 2027 10:18:01.180             7.738              Murmansk2           241.813
        27   01 Jun 2027 10:18:09.132   01 Jun 2027 10:19:35.321            86.189                Novosib          2693.406
        28   01 Jun 2027 10:19:51.564   01 Jun 2027 10:20:40.846            49.282              Murmansk2          1540.063
        29   01 Jun 2027 10:53:30.347   01 Jun 2027 10:55:30.820           120.473            RioGallegos          3764.781
        30   01 Jun 2027 11:29:23.628   01 Jun 2027 11:29:48.421            24.793                Sumatra           774.781
        31   01 Jun 2027 11:33:00.207   01 Jun 2027 11:34:35.772            95.565                Sumatra          2986.406
        32   01 Jun 2027 11:48:52.714   01 Jun 2027 11:49:40.557            47.843                Irkutsk          1495.094
        33   01 Jun 2027 11:50:10.816   01 Jun 2027 11:51:30.938            80.122                Irkutsk          2503.812
        34   01 Jun 2027 11:52:15.582   01 Jun 2027 11:53:17.289            61.707                Novosib          1928.344
        35   01 Jun 2027 11:53:22.599   01 Jun 2027 11:53:36.975            14.376                Novosib           449.250
        36   01 Jun 2027 11:53:38.545   01 Jun 2027 11:53:52.707            14.162              Murmansk2           442.563
        37   01 Jun 2027 11:53:54.023   01 Jun 2027 11:55:36.769           102.746                Norilsk          3210.812
        38   01 Jun 2027 12:30:36.690   01 Jun 2027 12:31:06.577            29.887            RioGallegos           933.969
        39   01 Jun 2027 12:34:33.420   01 Jun 2027 12:35:40.540            67.120            RioGallegos          2097.500
        40   01 Jun 2027 12:38:14.979   01 Jun 2027 12:40:15.982           121.003            RioGallegos          3781.344
        41   01 Jun 2027 13:04:51.485   01 Jun 2027 13:06:29.419            97.934                Sumatra          3060.437
        42   01 Jun 2027 13:09:21.580   01 Jun 2027 13:10:00.883            39.303                Sumatra          1228.219
        43   01 Jun 2027 13:13:02.475   01 Jun 2027 13:14:47.262           104.787                Sumatra          3274.594
        44   01 Jun 2027 13:20:06.561   01 Jun 2027 13:22:53.238           166.677                Irkutsk          5208.656
        45   01 Jun 2027 13:24:54.765   01 Jun 2027 13:25:35.770            41.005                Irkutsk          1281.406
        46   01 Jun 2027 13:28:39.742   01 Jun 2027 13:29:44.830            65.088                Irkutsk          2034.000
        47   01 Jun 2027 14:49:48.828   01 Jun 2027 14:54:50.934           302.106                  Delhi          9440.813
        48   01 Jun 2027 14:58:13.892   01 Jun 2027 15:00:18.239           124.347                Novosib          3885.844
        49   01 Jun 2027 15:03:18.275   01 Jun 2027 15:04:12.589            54.314                Novosib          1697.312
        50   01 Jun 2027 15:10:57.973   01 Jun 2027 15:11:40.067            42.094                Norilsk          1315.438
        51   01 Jun 2027 16:33:04.279   01 Jun 2027 16:36:08.658           184.379                 Moscow          5761.844
        52   01 Jun 2027 16:37:38.212   01 Jun 2027 16:37:40.480             2.268              Murmansk1            70.875
        53   01 Jun 2027 16:38:06.754   01 Jun 2027 16:38:41.436            34.682                 Moscow          1083.812
        54   01 Jun 2027 16:39:39.280   01 Jun 2027 16:40:29.276            49.996              Murmansk2          1562.375
        55   01 Jun 2027 16:41:55.930   01 Jun 2027 16:42:25.706            29.776                 Moscow           930.500
        56   01 Jun 2027 16:42:31.196   01 Jun 2027 16:42:47.809            16.613                 Moscow           519.156
        57   01 Jun 2027 16:43:25.518   01 Jun 2027 16:45:35.361           129.843                Norilsk          4057.594
        58   01 Jun 2027 16:45:50.881   01 Jun 2027 16:46:32.906            42.025                Norilsk          1313.281
        59   01 Jun 2027 16:49:15.488   01 Jun 2027 16:49:17.760             2.272              Murmansk1            71.000
        60   01 Jun 2027 16:53:32.587   01 Jun 2027 16:53:44.755            12.168                Anadyr1           380.250
        61   01 Jun 2027 16:54:07.171   01 Jun 2027 16:54:32.274            25.103                Anadyr2           784.469
        62   01 Jun 2027 16:55:30.878   01 Jun 2027 16:56:07.522            36.644                Anadyr2          1145.125
        63   01 Jun 2027 16:56:35.320   01 Jun 2027 16:57:23.755            48.435                Anadyr2          1513.594
        64   01 Jun 2027 17:53:22.542   01 Jun 2027 17:53:58.838            36.296               CapeTown          1134.250
        65   01 Jun 2027 17:54:37.252   01 Jun 2027 17:55:26.940            49.688               CapeTown          1552.750
        66   01 Jun 2027 17:56:34.758   01 Jun 2027 17:57:44.109            69.351               CapeTown          2167.219
        67   01 Jun 2027 18:12:22.290   01 Jun 2027 18:13:41.809            79.519                 Moscow          2484.969
        68   01 Jun 2027 18:16:58.958   01 Jun 2027 18:17:35.519            36.561              Murmansk2          1142.531
        69   01 Jun 2027 18:19:21.267   01 Jun 2027 18:19:44.949            23.682              Murmansk2           740.062
        70   01 Jun 2027 18:20:24.315   01 Jun 2027 18:20:26.829             2.514              Murmansk2            78.563
        71   01 Jun 2027 18:21:01.688   01 Jun 2027 18:21:26.947            25.259              Murmansk2           789.344
        72   01 Jun 2027 18:22:58.725   01 Jun 2027 18:24:28.709            89.984              Murmansk1          2812.000
        73   01 Jun 2027 18:24:58.153   01 Jun 2027 18:25:13.501            15.348              Murmansk1           479.625
        74   01 Jun 2027 18:34:30.813   01 Jun 2027 18:35:18.680            47.867                Anadyr2          1495.844
        75   01 Jun 2027 18:36:40.447   01 Jun 2027 18:36:50.405             9.958                Anadyr2           311.187
        76   01 Jun 2027 18:36:56.848   01 Jun 2027 18:37:16.268            19.420                Anadyr2           606.875
        77   01 Jun 2027 18:38:14.636   01 Jun 2027 18:38:19.120             4.484                Anadyr2           140.125
        78   01 Jun 2027 19:27:24.049   01 Jun 2027 19:27:46.586            22.537               CapeTown           704.281
        79   01 Jun 2027 19:28:25.084   01 Jun 2027 19:29:55.359            90.275               CapeTown          2821.094
        80   01 Jun 2027 19:32:51.518   01 Jun 2027 19:33:08.222            16.704               CapeTown           522.000
        81   01 Jun 2027 19:55:20.816   01 Jun 2027 19:59:46.956           266.140              Murmansk2          8316.875
        82   01 Jun 2027 20:11:05.451   01 Jun 2027 20:11:36.403            30.952               Magadan2           967.250
        83   01 Jun 2027 20:12:22.687   01 Jun 2027 20:13:26.197            63.510               Magadan1          1984.687
        84   01 Jun 2027 20:16:07.910   01 Jun 2027 20:16:17.576             9.666               Magadan2           302.063
        85   01 Jun 2027 21:38:51.326   01 Jun 2027 21:44:32.783           341.457                Anadyr1         10670.531
        86   01 Jun 2027 21:44:33.519   01 Jun 2027 21:45:39.238            65.719               Magadan1          2053.719
        87   01 Jun 2027 21:45:39.527   01 Jun 2027 21:47:06.400            86.873               Magadan2          2714.781
        88   01 Jun 2027 21:51:17.690   01 Jun 2027 21:51:24.932             7.242               Magadan2           226.312
        89   01 Jun 2027 21:51:46.323   01 Jun 2027 21:52:00.856            14.533               Magadan2           454.156
        90   01 Jun 2027 21:52:01.949   01 Jun 2027 21:52:04.061             2.112               Magadan2            66.000
        91   01 Jun 2027 21:52:44.763   01 Jun 2027 21:53:03.363            18.600               Magadan1           581.250
        92   01 Jun 2027 22:33:44.631   01 Jun 2027 22:34:22.712            38.081            RioGallegos          1190.031
        93   01 Jun 2027 22:34:47.155   01 Jun 2027 22:35:31.495            44.340            RioGallegos          1385.625
        94   01 Jun 2027 22:38:02.826   01 Jun 2027 22:38:49.025            46.199            RioGallegos          1443.719
        95   01 Jun 2027 22:42:24.664   01 Jun 2027 22:42:58.115            33.451            RioGallegos          1045.344
        96   01 Jun 2027 23:14:34.609   01 Jun 2027 23:16:40.488           125.879                Anadyr2          3933.719
        97   01 Jun 2027 23:16:41.379   01 Jun 2027 23:17:09.028            27.649                Norilsk           864.031
        98   01 Jun 2027 23:17:36.454   01 Jun 2027 23:18:22.148            45.694               Magadan2          1427.938
        99   01 Jun 2027 23:18:23.168   01 Jun 2027 23:18:26.938             3.770               Magadan1           117.813
       100   01 Jun 2027 23:18:43.192   01 Jun 2027 23:18:47.384             4.192               Magadan1           131.000
       101   01 Jun 2027 23:19:08.751   01 Jun 2027 23:19:35.923            27.172               Magadan1           849.125
       102   01 Jun 2027 23:20:11.313   01 Jun 2027 23:20:46.674            35.361               Magadan2          1105.031
       103   01 Jun 2027 23:23:16.975   01 Jun 2027 23:24:32.843            75.868                Irkutsk          2370.875
       104   01 Jun 2027 23:27:22.052   01 Jun 2027 23:29:14.431           112.379                Irkutsk          3511.844
       105   01 Jun 2027 23:44:27.930   01 Jun 2027 23:44:59.898            31.968                Sumatra           999.000
       106   01 Jun 2027 23:46:02.495   01 Jun 2027 23:46:38.870            36.375                Sumatra          1136.719
       107   02 Jun 2027 00:15:56.309   02 Jun 2027 00:16:07.741            11.432            RioGallegos           357.250
       108   02 Jun 2027 00:16:43.738   02 Jun 2027 00:17:21.272            37.534            RioGallegos          1172.937
       109   02 Jun 2027 00:20:17.467   02 Jun 2027 00:20:58.852            41.385            RioGallegos          1293.281
       110   02 Jun 2027 00:49:34.022   02 Jun 2027 00:49:36.303             2.281                Anadyr1            71.281
       111   02 Jun 2027 00:49:52.774   02 Jun 2027 00:50:52.806            60.032                Anadyr2          1876.000
       112   02 Jun 2027 00:51:52.421   02 Jun 2027 00:52:03.825            11.404                Anadyr2           356.375
       113   02 Jun 2027 00:52:17.191   02 Jun 2027 00:52:19.718             2.527                Anadyr2            78.969
       114   02 Jun 2027 00:52:35.947   02 Jun 2027 00:54:19.829           103.882                Norilsk          3246.312
       115   02 Jun 2027 00:54:31.780   02 Jun 2027 00:54:53.427            21.647               Magadan1           676.469
       116   02 Jun 2027 00:55:10.805   02 Jun 2027 00:55:37.171            26.366               Magadan2           823.937
       117   02 Jun 2027 00:56:28.278   02 Jun 2027 00:57:13.670            45.392                Irkutsk          1418.500
       118   02 Jun 2027 00:57:57.294   02 Jun 2027 00:58:25.691            28.397                Novosib           887.406
       119   02 Jun 2027 01:00:15.394   02 Jun 2027 01:00:16.954             1.560                Irkutsk            48.750
       120   02 Jun 2027 01:01:24.551   02 Jun 2027 01:01:50.798            26.247                Novosib           820.219
       121   02 Jun 2027 01:02:43.702   02 Jun 2027 01:02:58.004            14.302                Novosib           446.938
       122   02 Jun 2027 01:04:02.825   02 Jun 2027 01:05:07.331            64.506                Novosib          2015.813
       123   02 Jun 2027 01:12:01.639   02 Jun 2027 01:13:38.522            96.883                  Delhi          3027.594
       124   02 Jun 2027 01:20:54.197   02 Jun 2027 01:21:48.869            54.672                Sumatra          1708.500
       125   02 Jun 2027 01:49:59.819   02 Jun 2027 01:50:26.346            26.527            RioGallegos           828.969
       126   02 Jun 2027 01:51:53.661   02 Jun 2027 01:52:05.154            11.493            RioGallegos           359.156
       127   02 Jun 2027 01:52:51.005   02 Jun 2027 01:52:58.791             7.786            RioGallegos           243.312
       128   02 Jun 2027 01:54:37.347   02 Jun 2027 01:55:11.839            34.492            RioGallegos          1077.875
       129   02 Jun 2027 02:23:50.482   02 Jun 2027 02:23:56.212             5.730                Anadyr1           179.062
       130   02 Jun 2027 02:24:29.662   02 Jun 2027 02:25:10.111            40.449                Anadyr1          1264.031
       131   02 Jun 2027 02:28:36.694   02 Jun 2027 02:30:30.433           113.739                Norilsk          3554.344
       132   02 Jun 2027 02:31:05.569   02 Jun 2027 02:31:45.443            39.874              Murmansk1          1246.062
       133   02 Jun 2027 02:32:23.060   02 Jun 2027 02:32:50.549            27.489                Novosib           859.031
       134   02 Jun 2027 02:33:29.390   02 Jun 2027 02:33:38.765             9.375                Irkutsk           292.969
       135   02 Jun 2027 02:36:10.835   02 Jun 2027 02:36:15.353             4.518                Novosib           141.188
       136   02 Jun 2027 02:36:26.086   02 Jun 2027 02:36:40.212            14.126                Novosib           441.438
       137   02 Jun 2027 02:36:57.882   02 Jun 2027 02:37:10.637            12.755                Irkutsk           398.594
       138   02 Jun 2027 02:37:35.811   02 Jun 2027 02:38:42.147            66.336                Irkutsk          2073.000
       139   02 Jun 2027 02:45:30.398   02 Jun 2027 02:45:52.973            22.575                  Delhi           705.469
       140   02 Jun 2027 02:48:22.164   02 Jun 2027 02:48:42.975            20.811                  Delhi           650.344
       141   02 Jun 2027 02:49:28.862   02 Jun 2027 02:49:45.031            16.169                  Delhi           505.281
       142   02 Jun 2027 02:51:18.884   02 Jun 2027 02:52:12.247            53.363                  Delhi          1667.594
       143   02 Jun 2027 03:22:48.894   02 Jun 2027 03:24:14.104            85.210            RioGallegos          2662.812
       144   02 Jun 2027 03:24:53.293   02 Jun 2027 03:26:11.617            78.324            RioGallegos          2447.625
       145   02 Jun 2027 04:12:57.590   02 Jun 2027 04:13:31.152            33.562              Murmansk1          1048.813
       146   02 Jun 2027 04:13:33.714   02 Jun 2027 04:14:15.848            42.134              Murmansk1          1316.687
       147   02 Jun 2027 04:14:27.131   02 Jun 2027 04:15:04.227            37.096              Murmansk1          1159.250
       148   02 Jun 2027 04:15:16.314   02 Jun 2027 04:16:51.712            95.398                Norilsk          2981.187
       149   02 Jun 2027 04:16:56.439   02 Jun 2027 04:17:11.223            14.784                 Moscow           462.000
       150   02 Jun 2027 04:17:16.561   02 Jun 2027 04:18:22.179            65.618              Murmansk2          2050.562
       151   02 Jun 2027 04:18:35.069   02 Jun 2027 04:19:04.089            29.020                Novosib           906.875
       152   02 Jun 2027 04:19:45.410   02 Jun 2027 04:20:44.819            59.409                 Moscow          1856.531
       153   02 Jun 2027 04:21:59.241   02 Jun 2027 04:22:06.906             7.665                 Moscow           239.531
       154   02 Jun 2027 04:41:23.968   02 Jun 2027 04:41:35.476            11.508               CapeTown           359.625
       155   02 Jun 2027 04:41:52.240   02 Jun 2027 04:42:14.351            22.111               CapeTown           690.969
       156   02 Jun 2027 05:50:35.599   02 Jun 2027 05:50:47.786            12.187                Norilsk           380.844
       157   02 Jun 2027 05:50:58.056   02 Jun 2027 05:51:42.082            44.026                 Moscow          1375.813
       158   02 Jun 2027 05:51:46.997   02 Jun 2027 05:52:13.848            26.851                 Moscow           839.094
       159   02 Jun 2027 05:52:18.354   02 Jun 2027 05:54:32.171           133.817              Murmansk1          4181.781
       160   02 Jun 2027 05:54:32.171   02 Jun 2027 05:55:37.721            65.550              Murmansk2          2048.437
       161   02 Jun 2027 05:56:23.531   02 Jun 2027 05:57:26.986            63.455                 Moscow          1982.969
       162   02 Jun 2027 07:13:47.129   02 Jun 2027 07:15:14.092            86.963               Magadan1          2717.594
       163   02 Jun 2027 07:15:22.972   02 Jun 2027 07:17:17.961           114.989                Anadyr1          3593.406
       164   02 Jun 2027 08:50:12.411   02 Jun 2027 08:50:19.077             6.666                Anadyr2           208.312
       165   02 Jun 2027 08:50:19.077   02 Jun 2027 08:51:27.051            67.974                Anadyr1          2124.188
       166   02 Jun 2027 08:51:27.051   02 Jun 2027 08:55:04.867           217.816                Anadyr2          6806.750
       167   02 Jun 2027 10:25:45.480   02 Jun 2027 10:26:02.670            17.190               Magadan2           537.187
       168   02 Jun 2027 10:26:56.550   02 Jun 2027 10:30:26.785           210.235               Magadan1          6569.844
       169   02 Jun 2027 11:40:59.263   02 Jun 2027 11:42:22.543            83.280                Sumatra          2602.500
       170   02 Jun 2027 12:50:09.991   02 Jun 2027 12:53:09.795           179.804            RioGallegos          5618.875
       171   02 Jun 2027 13:26:59.528   02 Jun 2027 13:27:31.413            31.885                Sumatra           996.406
       172   02 Jun 2027 13:38:18.746   02 Jun 2027 13:41:26.353           187.607                Irkutsk          5862.719
       173   02 Jun 2027 15:08:49.953   02 Jun 2027 15:11:18.830           148.877                  Delhi          4652.406
       174   02 Jun 2027 15:15:42.044   02 Jun 2027 15:17:57.550           135.506                Novosib          4234.562
       175   02 Jun 2027 15:21:18.908   02 Jun 2027 15:23:28.892           129.984                Norilsk          4062.000
       176   02 Jun 2027 17:00:47.834   02 Jun 2027 17:01:19.870            32.036              Murmansk1          1001.125
       177   02 Jun 2027 18:06:19.311   02 Jun 2027 18:06:59.768            40.457               CapeTown          1264.281
       178   02 Jun 2027 18:07:47.933   02 Jun 2027 18:08:01.210            13.277               CapeTown           414.906
       179   02 Jun 2027 18:08:43.848   02 Jun 2027 18:10:21.534            97.686               CapeTown          3052.688
       180   02 Jun 2027 18:10:55.562   02 Jun 2027 18:11:12.584            17.022               CapeTown           531.938
       181   02 Jun 2027 18:25:20.542   02 Jun 2027 18:25:39.962            19.420                 Moscow           606.875
       182   02 Jun 2027 18:29:02.924   02 Jun 2027 18:31:32.007           149.083                 Moscow          4658.844
       183   02 Jun 2027 18:34:55.331   02 Jun 2027 18:37:13.822           138.491              Murmansk2          4327.844
       184   02 Jun 2027 18:50:16.079   02 Jun 2027 18:50:29.149            13.070                Anadyr1           408.437
       185   02 Jun 2027 19:38:42.374   02 Jun 2027 19:40:35.676           113.302               CapeTown          3540.687
       186   02 Jun 2027 20:08:26.103   02 Jun 2027 20:12:03.288           217.185              Murmansk2          6787.031
       187   02 Jun 2027 20:21:45.098   02 Jun 2027 20:21:58.709            13.611               Magadan1           425.344
       188   02 Jun 2027 20:22:01.483   02 Jun 2027 20:22:03.798             2.315                Anadyr1            72.344
       189   02 Jun 2027 20:22:12.395   02 Jun 2027 20:23:04.805            52.410               Magadan1          1637.813
       190   02 Jun 2027 20:25:08.877   02 Jun 2027 20:25:44.827            35.950               Magadan1          1123.437
       191   02 Jun 2027 20:26:29.092   02 Jun 2027 20:26:34.198             5.106               Magadan2           159.562
       192   02 Jun 2027 20:27:22.324   02 Jun 2027 20:27:50.782            28.458                Anadyr2           889.312
       193   02 Jun 2027 20:28:07.971   02 Jun 2027 20:28:11.608             3.637               Magadan2           113.656
       194   02 Jun 2027 20:28:27.317   02 Jun 2027 20:28:42.411            15.094               Magadan1           471.688
       195   02 Jun 2027 21:50:52.555   02 Jun 2027 21:55:42.407           289.852                Anadyr2          9057.875
       196   02 Jun 2027 21:55:57.827   02 Jun 2027 21:56:30.107            32.280                Anadyr2          1008.750
       197   02 Jun 2027 21:56:36.432   02 Jun 2027 21:56:49.824            13.392                Norilsk           418.500
       198   02 Jun 2027 21:57:02.612   02 Jun 2027 21:57:16.411            13.799               Magadan2           431.219
       199   02 Jun 2027 21:57:55.637   02 Jun 2027 21:58:35.172            39.535               Magadan1          1235.469
       200   02 Jun 2027 22:00:01.325   02 Jun 2027 22:00:10.740             9.415               Magadan1           294.219
       201   02 Jun 2027 22:01:05.118   02 Jun 2027 22:01:17.467            12.349                Anadyr2           385.906
       202   02 Jun 2027 22:01:48.371   02 Jun 2027 22:01:54.618             6.247                Anadyr2           195.219
       203   02 Jun 2027 22:02:09.670   02 Jun 2027 22:02:31.522            21.852               Magadan2           682.875
       204   02 Jun 2027 22:03:03.024   02 Jun 2027 22:03:13.633            10.609               Magadan1           331.531
       205   02 Jun 2027 22:03:32.581   02 Jun 2027 22:04:02.798            30.217               Magadan2           944.281
       206   02 Jun 2027 22:46:50.979   02 Jun 2027 22:47:29.116            38.137            RioGallegos          1191.781
       207   02 Jun 2027 22:49:27.383   02 Jun 2027 22:50:03.125            35.742            RioGallegos          1116.938
       208   02 Jun 2027 22:50:56.393   02 Jun 2027 22:51:31.844            35.451            RioGallegos          1107.844
       209   02 Jun 2027 22:53:34.082   02 Jun 2027 22:53:53.568            19.486            RioGallegos           608.937
       210   02 Jun 2027 22:55:01.812   02 Jun 2027 22:55:37.512            35.700            RioGallegos          1115.625
       211   02 Jun 2027 23:26:32.396   02 Jun 2027 23:28:37.985           125.589                Anadyr2          3924.656
       212   02 Jun 2027 23:28:40.635   02 Jun 2027 23:29:50.582            69.947                Anadyr1          2185.844
       213   02 Jun 2027 23:29:53.326   02 Jun 2027 23:30:21.737            28.411                Norilsk           887.844
       214   02 Jun 2027 23:31:52.886   02 Jun 2027 23:32:28.225            35.339               Magadan1          1104.344
       215   02 Jun 2027 23:33:42.326   02 Jun 2027 23:34:13.676            31.350                Irkutsk           979.688
       216   02 Jun 2027 23:35:19.748   02 Jun 2027 23:35:50.889            31.141               Magadan2           973.156
       217   02 Jun 2027 23:37:14.720   02 Jun 2027 23:37:33.283            18.563               Magadan1           580.094
       218   02 Jun 2027 23:38:59.234   02 Jun 2027 23:39:56.414            57.180               Magadan2          1786.875
       219   02 Jun 2027 23:42:47.550   02 Jun 2027 23:43:16.640            29.090                Irkutsk           909.063
       220   02 Jun 2027 23:51:25.017   02 Jun 2027 23:53:12.560           107.543                Sumatra          3360.719
       221   03 Jun 2027 00:29:32.306   03 Jun 2027 00:30:07.000            34.694            RioGallegos          1084.187
       222   03 Jun 2027 00:30:29.878   03 Jun 2027 00:30:55.263            25.385            RioGallegos           793.281
       223   03 Jun 2027 00:33:22.771   03 Jun 2027 00:33:28.142             5.371            RioGallegos           167.844
       224   03 Jun 2027 01:01:23.338   03 Jun 2027 01:02:54.122            90.784                Anadyr2          2837.000
       225   03 Jun 2027 01:03:38.499   03 Jun 2027 01:04:00.489            21.990                Anadyr2           687.187
       226   03 Jun 2027 01:04:38.257   03 Jun 2027 01:05:47.759            69.502                Norilsk          2171.937
       227   03 Jun 2027 01:06:31.234   03 Jun 2027 01:07:39.396            68.162               Magadan1          2130.063
       228   03 Jun 2027 01:10:30.726   03 Jun 2027 01:11:45.320            74.594                Irkutsk          2331.062
       229   03 Jun 2027 01:15:10.800   03 Jun 2027 01:15:15.352             4.552                Novosib           142.250
       230   03 Jun 2027 01:15:47.578   03 Jun 2027 01:15:59.018            11.440                Novosib           357.500
       231   03 Jun 2027 01:16:11.352   03 Jun 2027 01:17:03.438            52.086                Novosib          1627.687
       232   03 Jun 2027 01:21:13.596   03 Jun 2027 01:21:31.864            18.268                  Delhi           570.875
       233   03 Jun 2027 01:23:16.669   03 Jun 2027 01:23:19.917             3.248                  Delhi           101.500
       234   03 Jun 2027 01:23:38.585   03 Jun 2027 01:24:07.683            29.098                Sumatra           909.313
       235   03 Jun 2027 01:26:31.667   03 Jun 2027 01:27:08.722            37.055                  Delhi          1157.969
       236   03 Jun 2027 01:27:21.966   03 Jun 2027 01:28:39.200            77.234                Sumatra          2413.563
       237   03 Jun 2027 02:02:20.266   03 Jun 2027 02:02:32.746            12.480            RioGallegos           390.000
       238   03 Jun 2027 02:03:01.637   03 Jun 2027 02:03:13.775            12.138            RioGallegos           379.313
       239   03 Jun 2027 02:04:07.025   03 Jun 2027 02:04:07.861             0.836            RioGallegos            26.125
       240   03 Jun 2027 02:04:41.002   03 Jun 2027 02:04:55.174            14.172            RioGallegos           442.875
       241   03 Jun 2027 02:05:54.710   03 Jun 2027 02:06:36.413            41.703            RioGallegos          1303.219
       242   03 Jun 2027 02:35:49.243   03 Jun 2027 02:35:51.860             2.617                Anadyr1            81.781
       243   03 Jun 2027 02:35:54.751   03 Jun 2027 02:36:37.027            42.276                Anadyr1          1321.125
       244   03 Jun 2027 02:40:38.587   03 Jun 2027 02:41:44.769            66.182                Norilsk          2068.187
       245   03 Jun 2027 02:42:43.091   03 Jun 2027 02:42:56.282            13.191               Magadan2           412.219
       246   03 Jun 2027 02:43:01.807   03 Jun 2027 02:43:52.832            51.025              Murmansk2          1594.531
       247   03 Jun 2027 02:46:32.666   03 Jun 2027 02:46:49.782            17.116                Irkutsk           534.875
       248   03 Jun 2027 02:47:54.522   03 Jun 2027 02:48:46.382            51.860                Irkutsk          1620.625
       249   03 Jun 2027 02:51:20.058   03 Jun 2027 02:51:55.200            35.142                Irkutsk          1098.187
       250   03 Jun 2027 02:56:16.722   03 Jun 2027 02:56:49.509            32.787                  Delhi          1024.594
       251   03 Jun 2027 02:57:34.009   03 Jun 2027 02:57:35.530             1.521                  Delhi            47.531
       252   03 Jun 2027 02:59:35.198   03 Jun 2027 02:59:38.303             3.105                  Delhi            97.031
       253   03 Jun 2027 03:00:40.546   03 Jun 2027 03:01:14.020            33.474                  Delhi          1046.062
       254   03 Jun 2027 04:25:10.146   03 Jun 2027 04:28:15.778           185.632                Norilsk          5801.000
       255   03 Jun 2027 04:28:21.229   03 Jun 2027 04:29:21.460            60.231              Murmansk1          1882.219
       256   03 Jun 2027 04:29:21.460   03 Jun 2027 04:30:03.745            42.285              Murmansk2          1321.406
       257   03 Jun 2027 04:30:17.959   03 Jun 2027 04:30:40.602            22.643              Murmansk1           707.594
       258   03 Jun 2027 04:31:21.197   03 Jun 2027 04:34:24.676           183.479                 Moscow          5733.719
       259   03 Jun 2027 04:46:43.135   03 Jun 2027 04:52:05.780           322.645               CapeTown         10082.656
       260   03 Jun 2027 04:52:48.474   03 Jun 2027 04:53:15.980            27.506               CapeTown           859.562
       261   03 Jun 2027 06:02:17.886   03 Jun 2027 06:03:39.441            81.555              Murmansk1          2548.594
       262   03 Jun 2027 06:03:45.528   03 Jun 2027 06:05:11.315            85.787              Murmansk1          2680.844
       263   03 Jun 2027 06:09:08.878   03 Jun 2027 06:09:28.069            19.191                 Moscow           599.719
       264   03 Jun 2027 06:09:33.713   03 Jun 2027 06:09:35.896             2.183                 Moscow            68.219
       265   03 Jun 2027 06:10:20.378   03 Jun 2027 06:10:33.312            12.934                 Moscow           404.187
       266   03 Jun 2027 06:26:59.229   03 Jun 2027 06:27:18.619            19.390               CapeTown           605.937
       267   03 Jun 2027 07:26:53.583   03 Jun 2027 07:28:43.114           109.531                Anadyr1          3422.844
       268   03 Jun 2027 09:02:11.797   03 Jun 2027 09:03:18.927            67.130               Magadan1          2097.813
       269   03 Jun 2027 09:03:25.248   03 Jun 2027 09:07:00.067           214.819                Anadyr1          6713.094
       270   03 Jun 2027 10:35:13.731   03 Jun 2027 10:37:57.231           163.500               Magadan1          5109.375
       271   03 Jun 2027 10:38:52.070   03 Jun 2027 10:42:17.276           205.206               Magadan2          6412.688
       272   03 Jun 2027 12:55:55.711   03 Jun 2027 12:58:29.629           153.918            RioGallegos          4809.938
       273   03 Jun 2027 13:45:19.870   03 Jun 2027 13:46:37.019            77.149                Novosib          2410.906
       274   03 Jun 2027 13:46:43.918   03 Jun 2027 13:50:04.729           200.811                Irkutsk          6275.344
       275   03 Jun 2027 15:15:34.746   03 Jun 2027 15:19:54.782           260.036                  Delhi          8126.125
       276   03 Jun 2027 15:24:04.360   03 Jun 2027 15:27:29.345           204.985                Novosib          6405.781
       277   03 Jun 2027 16:57:31.838   03 Jun 2027 16:58:14.219            42.381                 Moscow          1324.406
       278   03 Jun 2027 17:00:57.436   03 Jun 2027 17:01:41.438            44.002              Murmansk2          1375.062
       279   03 Jun 2027 17:03:46.017   03 Jun 2027 17:04:24.075            38.058              Murmansk2          1189.312
       280   03 Jun 2027 17:09:06.172   03 Jun 2027 17:09:18.034            11.862              Murmansk1           370.688
       281   03 Jun 2027 17:09:32.815   03 Jun 2027 17:10:06.227            33.412              Murmansk2          1044.125
       282   03 Jun 2027 17:15:52.067   03 Jun 2027 17:16:53.544            61.477                Anadyr1          1921.156
       283   03 Jun 2027 17:18:27.213   03 Jun 2027 17:18:41.822            14.609                Anadyr1           456.531
       284   03 Jun 2027 17:19:46.870   03 Jun 2027 17:20:11.404            24.534                Anadyr1           766.687
       285   03 Jun 2027 17:22:06.787   03 Jun 2027 17:22:49.225            42.438                Anadyr1          1326.188
       286   03 Jun 2027 18:13:55.519   03 Jun 2027 18:14:15.746            20.227               CapeTown           632.094
       287   03 Jun 2027 18:19:11.542   03 Jun 2027 18:19:15.754             4.212               CapeTown           131.625
       288   03 Jun 2027 18:22:21.537   03 Jun 2027 18:22:43.747            22.210               CapeTown           694.062
       289   03 Jun 2027 18:38:38.822   03 Jun 2027 18:42:33.638           234.816                 Moscow          7338.000
       290   03 Jun 2027 18:43:07.225   03 Jun 2027 18:43:53.644            46.419              Murmansk2          1450.594
       291   03 Jun 2027 18:52:02.965   03 Jun 2027 18:52:42.014            39.049                Anadyr1          1220.281
       292   03 Jun 2027 18:55:48.506   03 Jun 2027 18:56:13.158            24.652               Magadan1           770.375
       293   03 Jun 2027 18:56:15.238   03 Jun 2027 18:56:25.834            10.596               Magadan1           331.125
       294   03 Jun 2027 18:57:38.051   03 Jun 2027 18:58:10.614            32.563               Magadan1          1017.594
       295   03 Jun 2027 19:47:52.043   03 Jun 2027 19:48:32.487            40.444               CapeTown          1263.875
       296   03 Jun 2027 19:51:03.727   03 Jun 2027 19:51:37.444            33.717               CapeTown          1053.656
       297   03 Jun 2027 20:22:15.166   03 Jun 2027 20:23:00.059            44.893              Murmansk1          1402.906
       298   03 Jun 2027 20:26:58.555   03 Jun 2027 20:28:37.784            99.229                Anadyr1          3100.906
       299   03 Jun 2027 20:29:27.902   03 Jun 2027 20:32:03.017           155.115               Magadan1          4847.344
       300   03 Jun 2027 20:33:13.365   03 Jun 2027 20:34:11.321            57.956               Magadan1          1811.125
       301   03 Jun 2027 22:02:53.557   03 Jun 2027 22:04:51.178           117.621                Anadyr1          3675.656
       302   03 Jun 2027 22:04:51.854   03 Jun 2027 22:06:36.542           104.688                Anadyr2          3271.500
       303   03 Jun 2027 22:07:12.033   03 Jun 2027 22:10:05.238           173.205               Magadan2          5412.656
       304   03 Jun 2027 22:14:42.931   03 Jun 2027 22:15:00.641            17.710               Magadan2           553.437
       305   03 Jun 2027 22:15:07.103   03 Jun 2027 22:15:19.420            12.317               Magadan2           384.906
       306   03 Jun 2027 22:16:04.204   03 Jun 2027 22:16:38.816            34.612               Magadan2          1081.625
       307   03 Jun 2027 22:57:16.399   03 Jun 2027 23:00:18.277           181.878            RioGallegos          5683.688
       308   03 Jun 2027 23:38:29.426   03 Jun 2027 23:39:38.683            69.257                Anadyr2          2164.281
       309   03 Jun 2027 23:40:20.107   03 Jun 2027 23:40:40.340            20.233                Anadyr2           632.281
       310   03 Jun 2027 23:40:42.131   03 Jun 2027 23:41:35.708            53.577                Anadyr1          1674.281
       311   03 Jun 2027 23:41:56.058   03 Jun 2027 23:42:23.337            27.279                Norilsk           852.469
       312   03 Jun 2027 23:42:32.331   03 Jun 2027 23:43:49.354            77.023               Magadan1          2406.969
       313   03 Jun 2027 23:44:52.293   03 Jun 2027 23:46:15.174            82.881                Irkutsk          2590.031
       314   03 Jun 2027 23:46:37.927   03 Jun 2027 23:48:12.684            94.757                Novosib          2961.156
       315   03 Jun 2027 23:58:36.676   03 Jun 2027 23:59:17.569            40.893                Sumatra          1277.906
       316   04 Jun 2027 00:04:22.250   04 Jun 2027 00:04:51.468            29.218                Sumatra           913.062
       317   04 Jun 2027 00:33:18.409   04 Jun 2027 00:34:30.419            72.010            RioGallegos          2250.313
       318   04 Jun 2027 00:41:39.640   04 Jun 2027 00:42:12.515            32.875            RioGallegos          1027.344
       319   04 Jun 2027 01:13:11.325   04 Jun 2027 01:14:14.712            63.387                Anadyr1          1980.844
       320   04 Jun 2027 01:14:55.466   04 Jun 2027 01:15:25.853            30.387                Anadyr2           949.594
       321   04 Jun 2027 01:16:40.616   04 Jun 2027 01:18:23.629           103.013                Norilsk          3219.156
       322   04 Jun 2027 01:18:30.029   04 Jun 2027 01:18:36.145             6.116               Magadan2           191.125
       323   04 Jun 2027 01:20:09.913   04 Jun 2027 01:20:32.391            22.478               Magadan2           702.437
       324   04 Jun 2027 01:20:33.683   04 Jun 2027 01:22:29.066           115.383                Irkutsk          3605.719
       325   04 Jun 2027 01:23:22.774   04 Jun 2027 01:23:31.793             9.019                Novosib           281.844
       326   04 Jun 2027 01:24:11.818   04 Jun 2027 01:24:36.608            24.790                Novosib           774.687
       327   04 Jun 2027 01:26:07.775   04 Jun 2027 01:26:11.453             3.678                Irkutsk           114.938
       328   04 Jun 2027 01:28:23.287   04 Jun 2027 01:28:54.718            31.431                  Delhi           982.219
       329   04 Jun 2027 01:32:30.415   04 Jun 2027 01:32:43.408            12.993                  Delhi           406.031
       330   04 Jun 2027 01:33:47.211   04 Jun 2027 01:34:17.455            30.244                  Delhi           945.125
       331   04 Jun 2027 01:36:27.839   04 Jun 2027 01:39:15.021           167.182                Sumatra          5224.438
       332   04 Jun 2027 02:47:53.268   04 Jun 2027 02:48:41.385            48.117                Anadyr2          1503.656
       333   04 Jun 2027 02:52:40.308   04 Jun 2027 02:53:31.549            51.241                Norilsk          1601.281
       334   04 Jun 2027 02:54:14.600   04 Jun 2027 02:54:25.207            10.607                Norilsk           331.469
       335   04 Jun 2027 02:54:35.930   04 Jun 2027 02:55:06.751            30.821                Norilsk           963.156
       336   04 Jun 2027 02:55:58.539   04 Jun 2027 02:56:31.221            32.682              Murmansk2          1021.312
       337   04 Jun 2027 02:56:32.546   04 Jun 2027 02:56:40.125             7.579              Murmansk1           236.844
       338   04 Jun 2027 02:56:48.801   04 Jun 2027 02:57:38.109            49.308                Novosib          1540.875
       339   04 Jun 2027 02:58:13.248   04 Jun 2027 02:59:14.728            61.480                Irkutsk          1921.250
       340   04 Jun 2027 03:00:14.175   04 Jun 2027 03:00:30.916            16.741                Norilsk           523.156
       341   04 Jun 2027 03:00:41.410   04 Jun 2027 03:00:58.353            16.943                Irkutsk           529.469
       342   04 Jun 2027 03:01:05.816   04 Jun 2027 03:02:09.111            63.295                Novosib          1977.969
       343   04 Jun 2027 03:02:13.968   04 Jun 2027 03:02:15.818             1.850                Norilsk            57.813
       344   04 Jun 2027 03:02:16.174   04 Jun 2027 03:02:22.639             6.465              Murmansk1           202.031
       345   04 Jun 2027 03:02:38.315   04 Jun 2027 03:02:46.071             7.756              Murmansk1           242.375
       346   04 Jun 2027 03:02:46.071   04 Jun 2027 03:03:12.566            26.495              Murmansk2           827.969
       347   04 Jun 2027 03:03:34.846   04 Jun 2027 03:04:11.697            36.851                Irkutsk          1151.594
       348   04 Jun 2027 03:04:11.737   04 Jun 2027 03:04:24.876            13.139                Novosib           410.594
       349   04 Jun 2027 03:04:38.026   04 Jun 2027 03:08:53.790           255.764                  Delhi          7992.625
       350   04 Jun 2027 04:36:56.760   04 Jun 2027 04:38:09.280            72.520                Novosib          2266.250
       351   04 Jun 2027 04:38:19.887   04 Jun 2027 04:38:25.976             6.089              Murmansk2           190.281
       352   04 Jun 2027 04:38:30.260   04 Jun 2027 04:38:52.830            22.570              Murmansk2           705.312
       353   04 Jun 2027 04:39:00.346   04 Jun 2027 04:40:05.490            65.144                Norilsk          2035.750
       354   04 Jun 2027 04:40:05.574   04 Jun 2027 04:41:04.621            59.047                Novosib          1845.219
       355   04 Jun 2027 04:41:07.596   04 Jun 2027 04:41:14.288             6.692                Novosib           209.125
       356   04 Jun 2027 04:41:28.013   04 Jun 2027 04:42:08.712            40.699                Novosib          1271.844
       357   04 Jun 2027 04:42:14.726   04 Jun 2027 04:42:30.074            15.348                 Moscow           479.625
       358   04 Jun 2027 04:42:33.609   04 Jun 2027 04:42:56.946            23.337              Murmansk1           729.281
       359   04 Jun 2027 04:43:25.762   04 Jun 2027 04:46:31.678           185.916                 Moscow          5809.875
       360   04 Jun 2027 04:58:24.541   04 Jun 2027 05:01:43.920           199.379               CapeTown          6230.594
       361   04 Jun 2027 06:02:15.907   04 Jun 2027 06:05:18.942           183.035                Anadyr2          5719.844
       362   04 Jun 2027 06:06:05.907   04 Jun 2027 06:06:17.859            11.952               Magadan1           373.500
       363   04 Jun 2027 06:13:19.343   04 Jun 2027 06:14:16.337            56.994              Murmansk1          1781.062
       364   04 Jun 2027 06:14:20.079   04 Jun 2027 06:15:27.027            66.948              Murmansk2          2092.125
       365   04 Jun 2027 06:15:27.027   04 Jun 2027 06:16:20.587            53.560              Murmansk1          1673.750
       366   04 Jun 2027 06:17:03.856   04 Jun 2027 06:17:33.062            29.206                 Moscow           912.688
       367   04 Jun 2027 06:18:16.829   04 Jun 2027 06:18:31.702            14.873              Murmansk2           464.781
       368   04 Jun 2027 07:38:11.265   04 Jun 2027 07:41:32.145           200.880                Anadyr2          6277.500
       369   04 Jun 2027 07:41:32.145   04 Jun 2027 07:42:00.966            28.821                Anadyr1           900.656
       370   04 Jun 2027 09:11:29.444   04 Jun 2027 09:11:34.760             5.316               Magadan2           166.125
       371   04 Jun 2027 09:11:40.620   04 Jun 2027 09:12:44.152            63.532                Anadyr1          1985.375
       372   04 Jun 2027 09:12:50.921   04 Jun 2027 09:13:27.077            36.156                Irkutsk          1129.875
       373   04 Jun 2027 09:13:32.132   04 Jun 2027 09:13:57.446            25.314                Norilsk           791.063
       374   04 Jun 2027 09:13:59.223   04 Jun 2027 09:15:20.040            80.817               Magadan2          2525.531
       375   04 Jun 2027 09:15:24.945   04 Jun 2027 09:15:58.125            33.180                Anadyr1          1036.875
       376   04 Jun 2027 09:16:05.517   04 Jun 2027 09:16:07.000             1.483                Norilsk            46.344
       377   04 Jun 2027 09:16:17.993   04 Jun 2027 09:16:44.477            26.484               Magadan2           827.625
       378   04 Jun 2027 09:16:44.477   04 Jun 2027 09:19:04.673           140.196               Magadan1          4381.125
       379   04 Jun 2027 10:47:36.717   04 Jun 2027 10:47:56.322            19.605                Novosib           612.656
       380   04 Jun 2027 10:48:06.664   04 Jun 2027 10:48:11.591             4.927                Norilsk           153.969
       381   04 Jun 2027 10:48:21.593   04 Jun 2027 10:48:26.216             4.623                Novosib           144.469
       382   04 Jun 2027 10:48:46.018   04 Jun 2027 10:49:04.062            18.044                Irkutsk           563.875
       383   04 Jun 2027 10:50:19.164   04 Jun 2027 10:50:24.471             5.307                Norilsk           165.844
       384   04 Jun 2027 10:50:30.847   04 Jun 2027 10:54:04.291           213.444               Magadan1          6670.125
       385   04 Jun 2027 10:54:26.204   04 Jun 2027 10:54:52.244            26.040                Norilsk           813.750
       386   04 Jun 2027 10:55:12.749   04 Jun 2027 10:55:32.717            19.968              Murmansk1           624.000
       387   04 Jun 2027 11:29:34.235   04 Jun 2027 11:30:27.684            53.449            RioGallegos          1670.281
       388   04 Jun 2027 11:36:54.749   04 Jun 2027 11:37:40.117            45.368            RioGallegos          1417.750
       389   04 Jun 2027 12:04:32.345   04 Jun 2027 12:05:11.702            39.357                Sumatra          1229.906
       390   04 Jun 2027 12:17:07.319   04 Jun 2027 12:17:09.125             1.806                Sumatra            56.437
       391   04 Jun 2027 12:18:18.632   04 Jun 2027 12:19:54.149            95.517                Irkutsk          2984.906
       392   04 Jun 2027 12:20:24.310   04 Jun 2027 12:20:32.434             8.124                Novosib           253.875
       393   04 Jun 2027 12:21:48.024   04 Jun 2027 12:22:44.999            56.975                Irkutsk          1780.469
       394   04 Jun 2027 12:22:54.327   04 Jun 2027 12:23:21.807            27.480                Norilsk           858.750
       395   04 Jun 2027 12:24:10.451   04 Jun 2027 12:24:32.980            22.529                Norilsk           704.031
       396   04 Jun 2027 12:29:44.060   04 Jun 2027 12:29:48.823             4.763                Norilsk           148.844
       397   04 Jun 2027 12:30:26.219   04 Jun 2027 12:30:59.815            33.596              Murmansk2          1049.875
       398   04 Jun 2027 13:08:28.751   04 Jun 2027 13:10:15.010           106.259            RioGallegos          3320.594
       399   04 Jun 2027 13:43:01.981   04 Jun 2027 13:47:24.754           262.773                Sumatra          8211.656
       400   04 Jun 2027 13:58:56.691   04 Jun 2027 14:01:50.523           173.832                Irkutsk          5432.250
       401   04 Jun 2027 15:29:17.508   04 Jun 2027 15:31:59.958           162.450                  Delhi          5076.562
       402   04 Jun 2027 15:37:29.917   04 Jun 2027 15:40:20.332           170.415                Novosib          5325.469
       403   04 Jun 2027 15:42:56.120   04 Jun 2027 15:43:27.596            31.476                Norilsk           983.625
       404   04 Jun 2027 15:43:56.394   04 Jun 2027 15:44:20.974            24.580                Norilsk           768.125
       405   04 Jun 2027 16:49:04.244   04 Jun 2027 16:50:34.759            90.515               CapeTown          2828.594
       406   04 Jun 2027 17:12:03.206   04 Jun 2027 17:13:13.315            70.109                 Moscow          2190.906
       407   04 Jun 2027 17:14:11.562   04 Jun 2027 17:14:35.540            23.978                 Moscow           749.312
       408   04 Jun 2027 17:15:48.053   04 Jun 2027 17:16:54.568            66.515              Murmansk1          2078.594
       409   04 Jun 2027 17:27:42.509   04 Jun 2027 17:28:52.120            69.611                Anadyr1          2175.344
       410   04 Jun 2027 17:30:32.050   04 Jun 2027 17:30:35.455             3.405                Anadyr1           106.406
       411   04 Jun 2027 17:30:49.843   04 Jun 2027 17:31:09.788            19.945                Anadyr2           623.281
       412   04 Jun 2027 18:22:27.913   04 Jun 2027 18:24:45.061           137.148               CapeTown          4285.875
       413   04 Jun 2027 18:52:02.315   04 Jun 2027 18:55:16.036           193.721              Murmansk2          6053.781
       414   04 Jun 2027 18:56:52.927   04 Jun 2027 18:57:15.343            22.416              Murmansk1           700.500
       415   04 Jun 2027 19:07:04.345   04 Jun 2027 19:07:17.355            13.010               Magadan2           406.562
       416   04 Jun 2027 19:07:51.443   04 Jun 2027 19:08:34.264            42.821               Magadan2          1338.156
       417   04 Jun 2027 19:09:09.427   04 Jun 2027 19:09:39.795            30.368               Magadan2           949.000
       418   04 Jun 2027 20:00:34.318   04 Jun 2027 20:00:45.282            10.964               CapeTown           342.625
       419   04 Jun 2027 20:02:45.487   04 Jun 2027 20:04:12.934            87.447               CapeTown          2732.719
       420   04 Jun 2027 20:39:00.360   04 Jun 2027 20:40:38.793            98.433                Anadyr2          3076.031
       421   04 Jun 2027 20:40:40.511   04 Jun 2027 20:42:14.372            93.861                Anadyr1          2933.156
       422   04 Jun 2027 20:42:21.517   04 Jun 2027 20:43:25.265            63.748               Magadan1          1992.125
       423   04 Jun 2027 20:43:37.635   04 Jun 2027 20:43:44.188             6.553               Magadan1           204.781
       424   04 Jun 2027 20:43:57.229   04 Jun 2027 20:44:17.740            20.511               Magadan1           640.969
       425   04 Jun 2027 20:44:42.248   04 Jun 2027 20:45:00.590            18.342               Magadan1           573.188
       426   04 Jun 2027 20:46:01.327   04 Jun 2027 20:46:14.325            12.998               Magadan1           406.188
       427   04 Jun 2027 22:14:54.274   04 Jun 2027 22:18:36.330           222.056                Anadyr2          6939.250
       428   04 Jun 2027 22:18:37.524   04 Jun 2027 22:21:44.344           186.820                Norilsk          5838.125
       429   04 Jun 2027 22:21:58.058   04 Jun 2027 22:22:36.885            38.827                Norilsk          1213.344
       430   04 Jun 2027 22:23:18.526   04 Jun 2027 22:23:28.153             9.627               Magadan1           300.844
       431   04 Jun 2027 22:23:50.564   04 Jun 2027 22:24:05.137            14.573               Magadan2           455.406
       432   04 Jun 2027 22:24:07.840   04 Jun 2027 22:25:13.242            65.402                Irkutsk          2043.813
       433   04 Jun 2027 23:09:07.488   04 Jun 2027 23:11:18.934           131.446            RioGallegos          4107.687
       434   04 Jun 2027 23:18:02.223   04 Jun 2027 23:18:36.435            34.212            RioGallegos          1069.125
       435   04 Jun 2027 23:50:25.600   04 Jun 2027 23:51:42.710            77.110                Anadyr1          2409.688
       436   04 Jun 2027 23:52:18.244   04 Jun 2027 23:52:39.534            21.290                Anadyr1           665.312
       437   04 Jun 2027 23:52:43.600   04 Jun 2027 23:54:44.213           120.613                Norilsk          3769.156
       438   04 Jun 2027 23:56:48.044   04 Jun 2027 23:57:49.560            61.516                Irkutsk          1922.375
       439   04 Jun 2027 23:58:06.194   04 Jun 2027 23:59:26.473            80.279                Novosib          2508.719
       440   05 Jun 2027 00:02:41.114   05 Jun 2027 00:03:21.283            40.169                Novosib          1255.281
       441   05 Jun 2027 00:10:29.489   05 Jun 2027 00:11:04.216            34.727                Sumatra          1085.219
       442   05 Jun 2027 00:15:05.276   05 Jun 2027 00:16:34.059            88.783                Sumatra          2774.469
       443   05 Jun 2027 00:47:59.659   05 Jun 2027 00:48:29.938            30.279            RioGallegos           946.219
       444   05 Jun 2027 00:56:11.379   05 Jun 2027 00:56:24.540            13.161            RioGallegos           411.281
       445   05 Jun 2027 01:24:58.009   05 Jun 2027 01:25:44.153            46.144                Anadyr2          1442.000
       446   05 Jun 2027 01:25:54.774   05 Jun 2027 01:26:15.124            20.350                Anadyr2           635.938
       447   05 Jun 2027 01:26:56.796   05 Jun 2027 01:27:33.380            36.584                Anadyr2          1143.250
       448   05 Jun 2027 01:27:33.380   05 Jun 2027 01:27:38.699             5.319                Anadyr1           166.219
       449   05 Jun 2027 01:28:42.975   05 Jun 2027 01:30:25.320           102.345                Norilsk          3198.281
       450   05 Jun 2027 01:30:28.027   05 Jun 2027 01:30:58.596            30.569               Magadan2           955.281
       451   05 Jun 2027 01:32:25.556   05 Jun 2027 01:32:28.139             2.583               Magadan2            80.719
       452   05 Jun 2027 01:32:37.447   05 Jun 2027 01:34:35.122           117.675                Novosib          3677.344
       453   05 Jun 2027 01:34:42.307   05 Jun 2027 01:35:26.170            43.863                Novosib          1370.719
       454   05 Jun 2027 01:40:10.572   05 Jun 2027 01:40:57.881            47.309                  Delhi          1478.406
       455   05 Jun 2027 01:46:49.227   05 Jun 2027 01:47:05.561            16.334                  Delhi           510.438
       456   05 Jun 2027 01:49:37.985   05 Jun 2027 01:50:28.338            50.353                  Delhi          1573.531
       457   05 Jun 2027 01:51:01.909   05 Jun 2027 01:53:43.288           161.379                Sumatra          5043.094
       458   05 Jun 2027 02:58:23.042   05 Jun 2027 02:58:32.236             9.194                Anadyr1           287.312
       459   05 Jun 2027 03:10:15.203   05 Jun 2027 03:10:22.656             7.453              Murmansk2           232.906
       460   05 Jun 2027 03:10:23.971   05 Jun 2027 03:10:33.714             9.743                Novosib           304.469
       461   05 Jun 2027 03:10:38.054   05 Jun 2027 03:12:08.228            90.174                Norilsk          2817.937
       462   05 Jun 2027 03:12:15.929   05 Jun 2027 03:12:24.124             8.195                Novosib           256.094
       463   05 Jun 2027 03:12:43.817   05 Jun 2027 03:14:47.013           123.196                Irkutsk          3849.875
       464   05 Jun 2027 03:14:59.446   05 Jun 2027 03:15:34.990            35.544                 Moscow          1110.750
       465   05 Jun 2027 03:15:37.448   05 Jun 2027 03:16:17.388            39.940                Irkutsk          1248.125
       466   05 Jun 2027 03:16:27.463   05 Jun 2027 03:17:05.806            38.343                  Delhi          1198.219
       467   05 Jun 2027 03:17:54.863   05 Jun 2027 03:20:10.599           135.736                  Delhi          4241.750
       468   05 Jun 2027 04:31:53.798   05 Jun 2027 04:32:00.162             6.364                Anadyr1           198.875
       469   05 Jun 2027 04:32:00.162   05 Jun 2027 04:32:24.448            24.286                Anadyr2           758.938
       470   05 Jun 2027 04:49:37.325   05 Jun 2027 04:50:21.893            44.568              Murmansk2          1392.750
       471   05 Jun 2027 04:50:21.893   05 Jun 2027 04:50:26.393             4.500              Murmansk1           140.625
       472   05 Jun 2027 04:50:32.017   05 Jun 2027 04:51:37.991            65.974              Murmansk1          2061.688
       473   05 Jun 2027 04:51:50.914   05 Jun 2027 04:52:21.028            30.114              Murmansk2           941.063
       474   05 Jun 2027 04:52:21.028   05 Jun 2027 04:54:27.924           126.896              Murmansk1          3965.500
       475   05 Jun 2027 04:54:34.057   05 Jun 2027 04:55:41.194            67.137                 Moscow          2098.031
       476   05 Jun 2027 05:10:11.428   05 Jun 2027 05:12:15.300           123.872               CapeTown          3871.000
       477   05 Jun 2027 06:13:27.273   05 Jun 2027 06:15:48.587           141.314                Anadyr2          4416.062
       478   05 Jun 2027 06:25:46.688   05 Jun 2027 06:25:58.717            12.029                 Moscow           375.906
       479   05 Jun 2027 06:26:05.193   05 Jun 2027 06:26:07.135             1.942                Norilsk            60.688
       480   05 Jun 2027 06:26:17.183   05 Jun 2027 06:26:19.120             1.937              Murmansk2            60.531
       481   05 Jun 2027 06:26:41.506   05 Jun 2027 06:27:16.561            35.055                 Moscow          1095.469
       482   05 Jun 2027 06:27:46.121   05 Jun 2027 06:28:23.936            37.815              Murmansk2          1181.719
