uniorb/output/strategy_1/Drop/Drop_KinoSat_110803.txt

KinoSat_110803
-------------------------
    Access    *     Start Time (UTCG)     *     Stop Time (UTCG)  *   Duration (s)        *       Station  *  Data (Mbytes)
         1   01 Jun 2027 03:55:41.456   01 Jun 2027 03:57:31.173           109.717                Anadyr2          3428.656
         2   01 Jun 2027 03:57:50.818   01 Jun 2027 04:01:21.256           210.438                Anadyr2          6576.187
         3   01 Jun 2027 05:29:26.431   01 Jun 2027 05:29:44.999            18.568               Magadan1           580.250
         4   01 Jun 2027 05:29:53.416   01 Jun 2027 05:30:23.870            30.454                Anadyr2           951.688
         5   01 Jun 2027 05:30:45.352   01 Jun 2027 05:31:32.511            47.159               Magadan2          1473.719
         6   01 Jun 2027 05:31:32.511   01 Jun 2027 05:32:28.012            55.501               Magadan1          1734.406
         7   01 Jun 2027 05:32:44.561   01 Jun 2027 05:36:55.582           251.021               Magadan2          7844.406
         8   01 Jun 2027 06:13:40.639   01 Jun 2027 06:14:34.960            54.321            RioGallegos          1697.531
         9   01 Jun 2027 06:52:48.758   01 Jun 2027 06:53:43.673            54.915                Sumatra          1716.094
        10   01 Jun 2027 07:07:21.406   01 Jun 2027 07:09:41.309           139.903                Irkutsk          4371.969
        11   01 Jun 2027 07:09:47.460   01 Jun 2027 07:10:06.574            19.114                Irkutsk           597.313
        12   01 Jun 2027 07:10:15.749   01 Jun 2027 07:12:26.159           130.410                Irkutsk          4075.313
        13   01 Jun 2027 07:12:47.818   01 Jun 2027 07:14:24.515            96.697                Norilsk          3021.781
        14   01 Jun 2027 07:16:37.185   01 Jun 2027 07:16:58.858            21.673              Murmansk1           677.281
        15   01 Jun 2027 07:47:35.122   01 Jun 2027 07:48:56.697            81.575            RioGallegos          2549.219
        16   01 Jun 2027 07:51:56.499   01 Jun 2027 07:52:13.140            16.641            RioGallegos           520.031
        17   01 Jun 2027 07:52:26.188   01 Jun 2027 07:52:28.482             2.294            RioGallegos            71.688
        18   01 Jun 2027 08:22:20.822   01 Jun 2027 08:23:08.228            47.406                Sumatra          1481.438
        19   01 Jun 2027 08:23:53.902   01 Jun 2027 08:25:18.291            84.389                Sumatra          2637.156
        20   01 Jun 2027 08:32:51.026   01 Jun 2027 08:34:01.885            70.859                  Delhi          2214.344
        21   01 Jun 2027 08:37:37.371   01 Jun 2027 08:37:50.895            13.524                  Delhi           422.625
        22   01 Jun 2027 08:44:06.887   01 Jun 2027 08:45:31.711            84.824                Irkutsk          2650.750
        23   01 Jun 2027 08:45:49.618   01 Jun 2027 08:46:44.587            54.969                 Moscow          1717.781
        24   01 Jun 2027 08:46:57.374   01 Jun 2027 08:47:24.419            27.045                Norilsk           845.156
        25   01 Jun 2027 08:47:29.031   01 Jun 2027 08:49:59.408           150.377                 Moscow          4699.281
        26   01 Jun 2027 08:50:07.002   01 Jun 2027 08:50:27.123            20.121              Murmansk2           628.781
        27   01 Jun 2027 08:50:48.260   01 Jun 2027 08:51:53.727            65.467              Murmansk1          2045.844
        28   01 Jun 2027 08:53:41.691   01 Jun 2027 08:53:59.915            18.224              Murmansk2           569.500
        29   01 Jun 2027 09:27:18.887   01 Jun 2027 09:27:50.975            32.088            RioGallegos          1002.750
        30   01 Jun 2027 09:30:45.553   01 Jun 2027 09:31:00.041            14.488            RioGallegos           452.750
        31   01 Jun 2027 10:02:54.174   01 Jun 2027 10:04:03.517            69.343                Sumatra          2166.969
        32   01 Jun 2027 10:06:35.294   01 Jun 2027 10:07:43.964            68.670                  Delhi          2145.938
        33   01 Jun 2027 10:10:56.615   01 Jun 2027 10:11:32.344            35.729                  Delhi          1116.531
        34   01 Jun 2027 10:21:52.228   01 Jun 2027 10:22:04.590            12.362              Murmansk2           386.312
        35   01 Jun 2027 10:22:13.461   01 Jun 2027 10:23:01.823            48.362                 Moscow          1511.312
        36   01 Jun 2027 10:23:17.751   01 Jun 2027 10:23:25.106             7.355                Norilsk           229.844
        37   01 Jun 2027 10:23:28.284   01 Jun 2027 10:23:38.609            10.325                Novosib           322.656
        38   01 Jun 2027 10:23:41.296   01 Jun 2027 10:24:18.564            37.268                 Moscow          1164.625
        39   01 Jun 2027 10:24:24.652   01 Jun 2027 10:26:32.931           128.279              Murmansk1          4008.719
        40   01 Jun 2027 10:26:45.366   01 Jun 2027 10:27:37.421            52.055                 Moscow          1626.719
        41   01 Jun 2027 11:51:33.689   01 Jun 2027 11:51:47.216            13.527                 Moscow           422.719
        42   01 Jun 2027 11:55:08.602   01 Jun 2027 11:57:29.808           141.206              Murmansk2          4412.688
        43   01 Jun 2027 11:57:43.359   01 Jun 2027 11:58:43.275            59.916              Murmansk1          1872.375
        44   01 Jun 2027 11:58:51.420   01 Jun 2027 12:01:03.401           131.981              Murmansk2          4124.406
        45   01 Jun 2027 12:01:03.401   01 Jun 2027 12:01:11.448             8.047              Murmansk1           251.469
        46   01 Jun 2027 12:01:18.480   01 Jun 2027 12:01:55.234            36.754              Murmansk2          1148.563
        47   01 Jun 2027 12:01:57.380   01 Jun 2027 12:02:20.857            23.477              Murmansk2           733.656
        48   01 Jun 2027 12:02:44.163   01 Jun 2027 12:03:16.310            32.147                Norilsk          1004.594
        49   01 Jun 2027 12:03:29.957   01 Jun 2027 12:04:08.507            38.550                Norilsk          1204.687
        50   01 Jun 2027 12:04:41.341   01 Jun 2027 12:05:12.837            31.496                Norilsk           984.250
        51   01 Jun 2027 12:05:50.268   01 Jun 2027 12:06:13.997            23.729              Murmansk1           741.531
        52   01 Jun 2027 12:06:48.902   01 Jun 2027 12:07:19.094            30.192              Murmansk2           943.500
        53   01 Jun 2027 13:07:20.335   01 Jun 2027 13:07:48.343            28.008               CapeTown           875.250
        54   01 Jun 2027 13:08:23.649   01 Jun 2027 13:15:39.946           436.297               CapeTown         13634.281
        55   01 Jun 2027 13:33:55.124   01 Jun 2027 13:34:45.017            49.893              Murmansk1          1559.156
        56   01 Jun 2027 13:35:31.900   01 Jun 2027 13:36:20.771            48.871                 Moscow          1527.219
        57   01 Jun 2027 13:37:14.975   01 Jun 2027 13:39:19.824           124.849                 Moscow          3901.531
        58   01 Jun 2027 13:39:47.078   01 Jun 2027 13:40:51.402            64.324              Murmansk1          2010.125
        59   01 Jun 2027 13:40:51.993   01 Jun 2027 13:42:49.118           117.125              Murmansk2          3660.156
        60   01 Jun 2027 13:43:15.201   01 Jun 2027 13:43:17.088             1.887              Murmansk2            58.969
        61   01 Jun 2027 13:45:58.132   01 Jun 2027 13:46:30.431            32.299                Anadyr2          1009.344
        62   01 Jun 2027 13:46:30.431   01 Jun 2027 13:47:54.340            83.909                Anadyr1          2622.156
        63   01 Jun 2027 13:48:21.929   01 Jun 2027 13:48:28.927             6.998                Anadyr2           218.688
        64   01 Jun 2027 13:49:26.087   01 Jun 2027 13:54:40.957           314.870                Anadyr2          9839.687
        65   01 Jun 2027 15:15:18.721   01 Jun 2027 15:15:52.892            34.171              Murmansk2          1067.844
        66   01 Jun 2027 15:16:35.093   01 Jun 2027 15:16:50.003            14.910              Murmansk1           465.938
        67   01 Jun 2027 15:17:05.661   01 Jun 2027 15:18:59.991           114.330              Murmansk2          3572.813
        68   01 Jun 2027 15:24:35.612   01 Jun 2027 15:30:54.693           379.081               Magadan1         11846.281
        69   01 Jun 2027 16:59:19.192   01 Jun 2027 16:59:35.071            15.879                Anadyr2           496.219
        70   01 Jun 2027 17:00:07.923   01 Jun 2027 17:00:51.717            43.794               Magadan2          1368.562
        71   01 Jun 2027 17:01:43.698   01 Jun 2027 17:01:58.034            14.336                Anadyr1           448.000
        72   01 Jun 2027 17:02:10.678   01 Jun 2027 17:02:19.643             8.965               Magadan2           280.156
        73   01 Jun 2027 17:02:29.074   01 Jun 2027 17:03:22.803            53.729               Magadan1          1679.031
        74   01 Jun 2027 17:05:21.168   01 Jun 2027 17:05:27.946             6.778                Anadyr2           211.812
        75   01 Jun 2027 17:05:27.946   01 Jun 2027 17:05:45.852            17.906                Anadyr1           559.563
        76   01 Jun 2027 17:06:30.017   01 Jun 2027 17:06:46.339            16.322                Anadyr2           510.063
        77   01 Jun 2027 17:07:00.919   01 Jun 2027 17:07:39.046            38.127               Magadan2          1191.469
        78   01 Jun 2027 17:08:36.929   01 Jun 2027 17:08:49.813            12.884                Anadyr1           402.625
        79   01 Jun 2027 17:08:50.931   01 Jun 2027 17:09:32.766            41.835               Magadan1          1307.344
        80   01 Jun 2027 17:10:58.633   01 Jun 2027 17:11:26.644            28.011               Magadan2           875.344
        81   01 Jun 2027 18:32:45.955   01 Jun 2027 18:34:30.813           104.858                Anadyr2          3276.813
        82   01 Jun 2027 18:35:04.312   01 Jun 2027 18:39:00.912           236.600                Norilsk          7393.750
        83   01 Jun 2027 18:39:24.480   01 Jun 2027 18:40:34.587            70.107                Norilsk          2190.844
        84   01 Jun 2027 18:40:35.508   01 Jun 2027 18:41:31.309            55.801                Irkutsk          1743.781
        85   01 Jun 2027 18:44:30.632   01 Jun 2027 18:44:55.709            25.077                Irkutsk           783.656
        86   01 Jun 2027 18:46:25.028   01 Jun 2027 18:47:14.780            49.752                Irkutsk          1554.750
        87   01 Jun 2027 18:56:56.329   01 Jun 2027 19:01:01.833           245.504                Sumatra          7672.000
        88   01 Jun 2027 20:15:40.716   01 Jun 2027 20:17:04.797            84.081                Novosib          2627.531
        89   01 Jun 2027 20:17:50.363   01 Jun 2027 20:19:11.151            80.788                Novosib          2524.625
        90   01 Jun 2027 20:22:19.696   01 Jun 2027 20:23:08.721            49.025                Novosib          1532.031
        91   01 Jun 2027 20:35:13.373   01 Jun 2027 20:36:08.964            55.591                Sumatra          1737.219
        92   01 Jun 2027 20:37:50.506   01 Jun 2027 20:37:59.353             8.847                Sumatra           276.469
        93   01 Jun 2027 20:40:14.384   01 Jun 2027 20:41:03.271            48.887                Sumatra          1527.719
        94   01 Jun 2027 21:48:28.249   01 Jun 2027 21:48:39.102            10.853               Magadan1           339.156
        95   01 Jun 2027 21:49:43.810   01 Jun 2027 21:49:56.638            12.828                Norilsk           400.875
        96   01 Jun 2027 21:50:09.455   01 Jun 2027 21:50:20.350            10.895                Norilsk           340.469
        97   01 Jun 2027 21:50:29.551   01 Jun 2027 21:52:21.725           112.174                Novosib          3505.437
        98   01 Jun 2027 21:52:35.376   01 Jun 2027 21:53:08.269            32.893              Murmansk2          1027.906
        99   01 Jun 2027 21:57:55.458   01 Jun 2027 21:59:25.148            89.690                  Delhi          2802.812
       100   01 Jun 2027 22:00:46.725   01 Jun 2027 22:01:57.821            71.096                  Delhi          2221.750
       101   01 Jun 2027 22:05:08.019   01 Jun 2027 22:05:39.750            31.731                  Delhi           991.594
       102   01 Jun 2027 22:10:08.311   01 Jun 2027 22:10:11.190             2.879                  Delhi            89.969
       103   01 Jun 2027 23:20:25.495   01 Jun 2027 23:20:27.017             1.522                Anadyr1            47.563
       104   01 Jun 2027 23:20:46.447   01 Jun 2027 23:21:14.334            27.887                Anadyr2           871.469
       105   01 Jun 2027 23:22:03.896   01 Jun 2027 23:23:46.031           102.135               Magadan2          3191.719
       106   01 Jun 2027 23:24:08.453   01 Jun 2027 23:24:09.663             1.210                Norilsk            37.813
       107   01 Jun 2027 23:24:22.132   01 Jun 2027 23:24:33.523            11.391               Magadan1           355.969
       108   01 Jun 2027 23:24:52.507   01 Jun 2027 23:28:06.726           194.219              Murmansk2          6069.344
       109   01 Jun 2027 23:28:58.354   01 Jun 2027 23:29:33.479            35.125                 Moscow          1097.656
       110   01 Jun 2027 23:30:23.814   01 Jun 2027 23:30:59.501            35.687              Murmansk1          1115.219
       111   01 Jun 2027 23:32:27.106   01 Jun 2027 23:33:17.141            50.035              Murmansk1          1563.594
       112   01 Jun 2027 23:35:52.018   01 Jun 2027 23:36:37.527            45.509                 Moscow          1422.156
       113   01 Jun 2027 23:56:21.299   01 Jun 2027 23:57:54.723            93.424               CapeTown          2919.500
       114   01 Jun 2027 23:58:19.885   01 Jun 2027 23:59:11.480            51.595               CapeTown          1612.344
       115   02 Jun 2027 00:00:02.006   02 Jun 2027 00:00:51.498            49.492               CapeTown          1546.625
       116   02 Jun 2027 00:54:50.713   02 Jun 2027 00:55:10.805            20.092               Magadan2           627.875
       117   02 Jun 2027 01:00:05.975   02 Jun 2027 01:00:43.766            37.791               Magadan1          1180.969
       118   02 Jun 2027 01:00:44.499   02 Jun 2027 01:02:07.736            83.237              Murmansk2          2601.156
       119   02 Jun 2027 01:03:44.959   02 Jun 2027 01:04:04.131            19.172              Murmansk2           599.125
       120   02 Jun 2027 01:06:17.038   02 Jun 2027 01:06:33.557            16.519              Murmansk2           516.219
       121   02 Jun 2027 01:07:23.358   02 Jun 2027 01:07:37.588            14.230              Murmansk1           444.688
       122   02 Jun 2027 01:08:17.951   02 Jun 2027 01:08:19.546             1.595                Novosib            49.844
       123   02 Jun 2027 01:08:26.491   02 Jun 2027 01:08:36.863            10.372                Novosib           324.125
       124   02 Jun 2027 01:09:15.190   02 Jun 2027 01:10:04.839            49.649              Murmansk1          1551.531
       125   02 Jun 2027 01:12:57.435   02 Jun 2027 01:13:34.274            36.839                 Moscow          1151.219
       126   02 Jun 2027 01:32:08.029   02 Jun 2027 01:32:43.406            35.377               CapeTown          1105.531
       127   02 Jun 2027 01:36:32.774   02 Jun 2027 01:37:19.916            47.142               CapeTown          1473.188
       128   02 Jun 2027 01:40:28.309   02 Jun 2027 01:40:40.146            11.837               CapeTown           369.906
       129   02 Jun 2027 02:24:34.653   02 Jun 2027 02:26:17.284           102.631                Anadyr2          3207.219
       130   02 Jun 2027 02:26:27.803   02 Jun 2027 02:27:00.219            32.416               Magadan1          1013.000
       131   02 Jun 2027 02:27:37.716   02 Jun 2027 02:28:26.377            48.661               Magadan1          1520.656
       132   02 Jun 2027 02:32:11.693   02 Jun 2027 02:32:27.611            15.918               Magadan1           497.437
       133   02 Jun 2027 02:33:22.941   02 Jun 2027 02:33:36.737            13.796               Magadan1           431.125
       134   02 Jun 2027 02:35:39.329   02 Jun 2027 02:36:09.185            29.856                Norilsk           933.000
       135   02 Jun 2027 02:36:42.267   02 Jun 2027 02:37:58.321            76.054              Murmansk2          2376.687
       136   02 Jun 2027 02:40:01.573   02 Jun 2027 02:40:45.807            44.234                 Moscow          1382.312
       137   02 Jun 2027 02:44:06.612   02 Jun 2027 02:44:23.041            16.429                 Moscow           513.406
       138   02 Jun 2027 02:46:55.678   02 Jun 2027 02:47:06.335            10.657                 Moscow           333.031
       139   02 Jun 2027 02:48:33.516   02 Jun 2027 02:49:39.535            66.019                 Moscow          2063.094
       140   02 Jun 2027 03:10:15.936   02 Jun 2027 03:10:57.822            41.886               CapeTown          1308.938
       141   02 Jun 2027 04:05:21.155   02 Jun 2027 04:08:40.500           199.345               Magadan2          6229.531
       142   02 Jun 2027 04:08:40.500   02 Jun 2027 04:10:26.280           105.780               Magadan1          3305.625
       143   02 Jun 2027 04:11:03.810   02 Jun 2027 04:11:49.503            45.693                Anadyr1          1427.906
       144   02 Jun 2027 04:11:49.503   02 Jun 2027 04:11:54.330             4.827                Anadyr2           150.844
       145   02 Jun 2027 04:12:15.655   02 Jun 2027 04:12:56.703            41.048                Anadyr2          1282.750
       146   02 Jun 2027 05:41:00.520   02 Jun 2027 05:41:59.483            58.963               Magadan1          1842.594
       147   02 Jun 2027 05:42:49.529   02 Jun 2027 05:44:56.346           126.817               Magadan1          3963.031
       148   02 Jun 2027 05:44:59.216   02 Jun 2027 05:45:36.507            37.291                Irkutsk          1165.344
       149   02 Jun 2027 05:45:42.986   02 Jun 2027 05:46:41.271            58.285               Magadan1          1821.406
       150   02 Jun 2027 05:46:45.840   02 Jun 2027 05:46:47.644             1.804               Magadan1            56.375
       151   02 Jun 2027 05:46:52.070   02 Jun 2027 05:48:18.540            86.470                Anadyr1          2702.187
       152   02 Jun 2027 05:48:21.354   02 Jun 2027 05:48:42.889            21.535               Magadan1           672.969
       153   02 Jun 2027 05:48:47.709   02 Jun 2027 05:48:53.480             5.771               Magadan2           180.344
       154   02 Jun 2027 05:57:07.648   02 Jun 2027 05:57:40.532            32.884              Murmansk1          1027.625
       155   02 Jun 2027 06:24:04.449   02 Jun 2027 06:25:00.360            55.911            RioGallegos          1747.219
       156   02 Jun 2027 06:26:40.523   02 Jun 2027 06:27:16.456            35.933            RioGallegos          1122.906
       157   02 Jun 2027 06:29:57.245   02 Jun 2027 06:30:11.272            14.027            RioGallegos           438.344
       158   02 Jun 2027 06:32:01.586   02 Jun 2027 06:32:03.343             1.757            RioGallegos            54.906
       159   02 Jun 2027 07:02:02.984   02 Jun 2027 07:03:40.250            97.266                Sumatra          3039.563
       160   02 Jun 2027 07:05:24.967   02 Jun 2027 07:07:00.356            95.389                Sumatra          2980.906
       161   02 Jun 2027 07:19:45.848   02 Jun 2027 07:21:13.321            87.473               Magadan2          2733.531
       162   02 Jun 2027 07:21:20.868   02 Jun 2027 07:21:51.286            30.418                Norilsk           950.562
       163   02 Jun 2027 07:21:57.218   02 Jun 2027 07:22:00.475             3.257                Irkutsk           101.781
       164   02 Jun 2027 07:22:06.971   02 Jun 2027 07:26:07.772           240.801                Novosib          7525.031
       165   02 Jun 2027 07:26:19.041   02 Jun 2027 07:26:31.920            12.879                Norilsk           402.469
       166   02 Jun 2027 07:59:46.719   02 Jun 2027 08:01:00.707            73.988            RioGallegos          2312.125
       167   02 Jun 2027 08:34:21.657   02 Jun 2027 08:35:08.995            47.338                Sumatra          1479.313
       168   02 Jun 2027 08:38:11.190   02 Jun 2027 08:39:06.499            55.309                Sumatra          1728.406
       169   02 Jun 2027 08:44:12.408   02 Jun 2027 08:47:10.235           177.827                  Delhi          5557.094
       170   02 Jun 2027 08:56:35.412   02 Jun 2027 08:58:10.884            95.472                Irkutsk          2983.500
       171   02 Jun 2027 08:58:18.252   02 Jun 2027 08:58:55.104            36.852                Norilsk          1151.625
       172   02 Jun 2027 08:58:57.716   02 Jun 2027 08:59:23.968            26.252              Murmansk1           820.375
       173   02 Jun 2027 08:59:31.818   02 Jun 2027 09:00:22.323            50.505                Norilsk          1578.281
       174   02 Jun 2027 09:00:22.566   02 Jun 2027 09:00:48.343            25.777              Murmansk2           805.531
       175   02 Jun 2027 09:00:54.051   02 Jun 2027 09:02:09.604            75.553                 Moscow          2361.031
       176   02 Jun 2027 09:02:17.622   02 Jun 2027 09:02:52.596            34.974                 Moscow          1092.937
       177   02 Jun 2027 09:40:35.336   02 Jun 2027 09:40:50.950            15.614            RioGallegos           487.938
       178   02 Jun 2027 09:41:58.524   02 Jun 2027 09:43:04.896            66.372            RioGallegos          2074.125
       179   02 Jun 2027 10:18:45.780   02 Jun 2027 10:20:21.874            96.094                  Delhi          3002.938
       180   02 Jun 2027 10:33:52.087   02 Jun 2027 10:34:10.651            18.564              Murmansk2           580.125
       181   02 Jun 2027 10:34:19.807   02 Jun 2027 10:34:46.220            26.413              Murmansk1           825.406
       182   02 Jun 2027 10:34:46.220   02 Jun 2027 10:35:49.091            62.871              Murmansk2          1964.719
       183   02 Jun 2027 10:35:52.194   02 Jun 2027 10:36:42.869            50.675                Novosib          1583.594
       184   02 Jun 2027 10:36:57.730   02 Jun 2027 10:37:29.320            31.590                 Moscow           987.187
       185   02 Jun 2027 12:09:00.230   02 Jun 2027 12:09:16.998            16.768                 Moscow           524.000
       186   02 Jun 2027 12:10:03.245   02 Jun 2027 12:10:54.198            50.953                 Moscow          1592.281
       187   02 Jun 2027 12:11:24.970   02 Jun 2027 12:14:59.692           214.722                Norilsk          6710.063
       188   02 Jun 2027 12:15:15.290   02 Jun 2027 12:15:23.026             7.736              Murmansk2           241.750
       189   02 Jun 2027 13:19:56.054   02 Jun 2027 13:22:00.940           124.886               CapeTown          3902.687
       190   02 Jun 2027 13:22:19.372   02 Jun 2027 13:22:36.035            16.663               CapeTown           520.719
       191   02 Jun 2027 13:23:35.420   02 Jun 2027 13:23:52.604            17.184               CapeTown           537.000
       192   02 Jun 2027 13:26:39.441   02 Jun 2027 13:26:41.166             1.725               CapeTown            53.906
       193   02 Jun 2027 13:49:33.946   02 Jun 2027 13:50:24.603            50.657              Murmansk2          1583.031
       194   02 Jun 2027 13:51:05.511   02 Jun 2027 13:51:13.402             7.891              Murmansk2           246.594
       195   02 Jun 2027 13:51:43.882   02 Jun 2027 13:52:35.438            51.556              Murmansk1          1611.125
       196   02 Jun 2027 13:53:09.663   02 Jun 2027 13:53:15.339             5.676              Murmansk2           177.375
       197   02 Jun 2027 13:53:15.339   02 Jun 2027 13:53:50.914            35.575              Murmansk1          1111.719
       198   02 Jun 2027 13:58:04.927   02 Jun 2027 13:59:54.748           109.821                Anadyr1          3431.906
       199   02 Jun 2027 14:02:11.363   02 Jun 2027 14:03:13.599            62.236                Anadyr1          1944.875
       200   02 Jun 2027 14:04:53.419   02 Jun 2027 14:05:24.317            30.898                Anadyr1           965.562
       201   02 Jun 2027 15:27:14.189   02 Jun 2027 15:27:19.280             5.091              Murmansk1           159.094
       202   02 Jun 2027 15:27:29.249   02 Jun 2027 15:27:54.535            25.286              Murmansk1           790.187
       203   02 Jun 2027 15:28:05.486   02 Jun 2027 15:28:51.163            45.677              Murmansk2          1427.406
       204   02 Jun 2027 15:30:48.863   02 Jun 2027 15:30:55.897             7.034              Murmansk1           219.812
       205   02 Jun 2027 15:35:26.508   02 Jun 2027 15:35:43.711            17.203                Anadyr2           537.594
       206   02 Jun 2027 15:36:12.457   02 Jun 2027 15:36:49.152            36.695                Anadyr1          1146.719
       207   02 Jun 2027 15:37:11.007   02 Jun 2027 15:37:49.743            38.736                Anadyr1          1210.500
       208   02 Jun 2027 15:38:08.617   02 Jun 2027 15:39:54.257           105.640               Magadan2          3301.250
       209   02 Jun 2027 15:39:56.329   02 Jun 2027 15:42:57.151           180.822               Magadan1          5650.688
       210   02 Jun 2027 17:13:56.260   02 Jun 2027 17:13:58.551             2.291               Magadan1            71.594
       211   02 Jun 2027 17:14:03.400   02 Jun 2027 17:14:31.167            27.767               Magadan2           867.719
       212   02 Jun 2027 17:14:44.146   02 Jun 2027 17:14:46.922             2.776                Anadyr1            86.750
       213   02 Jun 2027 17:15:23.237   02 Jun 2027 17:15:53.004            29.767               Magadan2           930.219
       214   02 Jun 2027 17:16:08.113   02 Jun 2027 17:16:26.682            18.569                Anadyr2           580.281
       215   02 Jun 2027 17:16:52.827   02 Jun 2027 17:17:31.083            38.256               Magadan1          1195.500
       216   02 Jun 2027 17:19:02.467   02 Jun 2027 17:19:40.577            38.110               Magadan2          1190.937
       217   02 Jun 2027 17:20:50.242   02 Jun 2027 17:21:18.772            28.530               Magadan2           891.563
       218   02 Jun 2027 17:22:57.684   02 Jun 2027 17:23:08.125            10.441               Magadan1           326.281
       219   02 Jun 2027 18:05:49.167   02 Jun 2027 18:08:03.168           134.001            RioGallegos          4187.531
       220   02 Jun 2027 18:46:59.030   02 Jun 2027 18:49:40.196           161.166                Norilsk          5036.437
       221   02 Jun 2027 18:50:02.720   02 Jun 2027 18:50:10.243             7.523                Norilsk           235.094
       222   02 Jun 2027 18:51:09.330   02 Jun 2027 18:52:44.551            95.221                Norilsk          2975.656
       223   02 Jun 2027 18:53:35.279   02 Jun 2027 18:55:24.209           108.930                Irkutsk          3404.062
       224   02 Jun 2027 18:56:16.411   02 Jun 2027 18:57:05.794            49.383                Irkutsk          1543.219
       225   02 Jun 2027 18:58:26.834   02 Jun 2027 18:59:00.012            33.178                Irkutsk          1036.812
       226   02 Jun 2027 19:07:24.002   02 Jun 2027 19:09:26.852           122.850                Sumatra          3839.063
       227   02 Jun 2027 19:12:57.538   02 Jun 2027 19:13:35.542            38.004                Sumatra          1187.625
       228   02 Jun 2027 20:27:24.652   02 Jun 2027 20:28:02.357            37.705                Novosib          1178.281
       229   02 Jun 2027 20:29:50.193   02 Jun 2027 20:29:58.876             8.683                Novosib           271.344
       230   02 Jun 2027 20:30:28.539   02 Jun 2027 20:30:43.855            15.316                Irkutsk           478.625
       231   02 Jun 2027 20:31:04.265   02 Jun 2027 20:32:11.378            67.113                Novosib          2097.281
       232   02 Jun 2027 20:32:40.050   02 Jun 2027 20:33:04.929            24.879                Novosib           777.469
       233   02 Jun 2027 20:35:06.343   02 Jun 2027 20:35:48.913            42.570                Novosib          1330.313
       234   02 Jun 2027 20:38:29.033   02 Jun 2027 20:39:24.484            55.451                  Delhi          1732.844
       235   02 Jun 2027 20:40:21.459   02 Jun 2027 20:41:28.553            67.094                  Delhi          2096.687
       236   02 Jun 2027 21:59:44.040   02 Jun 2027 22:00:08.735            24.695                Norilsk           771.719
       237   02 Jun 2027 22:01:23.619   02 Jun 2027 22:02:09.670            46.051               Magadan2          1439.094
       238   02 Jun 2027 22:02:28.970   02 Jun 2027 22:04:25.005           116.035                Novosib          3626.094
       239   02 Jun 2027 22:05:03.278   02 Jun 2027 22:06:21.514            78.236              Murmansk2          2444.875
       240   02 Jun 2027 22:13:32.573   02 Jun 2027 22:14:02.785            30.212                  Delhi           944.125
       241   02 Jun 2027 22:16:31.996   02 Jun 2027 22:17:02.141            30.145                  Delhi           942.031
       242   02 Jun 2027 22:20:21.197   02 Jun 2027 22:21:46.222            85.025                  Delhi          2657.031
       243   02 Jun 2027 23:30:23.126   02 Jun 2027 23:30:43.019            19.893                Anadyr1           621.656
       244   02 Jun 2027 23:32:24.172   02 Jun 2027 23:32:34.964            10.792                Anadyr1           337.250
       245   02 Jun 2027 23:33:08.092   02 Jun 2027 23:33:31.026            22.934                Anadyr1           716.688
       246   02 Jun 2027 23:33:41.686   02 Jun 2027 23:35:19.748            98.062               Magadan1          3064.438
       247   02 Jun 2027 23:35:50.889   02 Jun 2027 23:36:00.682             9.793               Magadan2           306.031
       248   02 Jun 2027 23:36:52.159   02 Jun 2027 23:38:38.546           106.387              Murmansk1          3324.594
       249   02 Jun 2027 23:39:39.254   02 Jun 2027 23:40:35.692            56.438              Murmansk2          1763.687
       250   02 Jun 2027 23:40:45.656   02 Jun 2027 23:41:30.723            45.067                 Moscow          1408.344
       251   02 Jun 2027 23:41:51.316   02 Jun 2027 23:42:46.287            54.971                 Moscow          1717.844
       252   02 Jun 2027 23:46:30.223   02 Jun 2027 23:47:54.424            84.201                 Moscow          2631.281
       253   03 Jun 2027 00:07:15.288   03 Jun 2027 00:08:47.054            91.766               CapeTown          2867.687
       254   03 Jun 2027 00:10:27.824   03 Jun 2027 00:12:20.340           112.516               CapeTown          3516.125
       255   03 Jun 2027 01:12:46.167   03 Jun 2027 01:13:59.332            73.165              Murmansk1          2286.406
       256   03 Jun 2027 01:15:31.718   03 Jun 2027 01:15:43.065            11.347              Murmansk1           354.594
       257   03 Jun 2027 01:16:08.263   03 Jun 2027 01:16:17.307             9.044              Murmansk2           282.625
       258   03 Jun 2027 01:17:31.875   03 Jun 2027 01:17:47.233            15.358                Novosib           479.937
       259   03 Jun 2027 01:18:16.217   03 Jun 2027 01:18:27.527            11.310              Murmansk2           353.438
       260   03 Jun 2027 01:19:52.953   03 Jun 2027 01:19:58.619             5.666                 Moscow           177.063
       261   03 Jun 2027 01:20:14.521   03 Jun 2027 01:20:33.844            19.323              Murmansk2           603.844
       262   03 Jun 2027 01:21:14.652   03 Jun 2027 01:22:07.227            52.575              Murmansk2          1642.969
       263   03 Jun 2027 01:44:01.191   03 Jun 2027 01:44:20.048            18.857               CapeTown           589.281
       264   03 Jun 2027 01:47:39.842   03 Jun 2027 01:48:30.115            50.273               CapeTown          1571.031
       265   03 Jun 2027 01:49:54.157   03 Jun 2027 01:50:38.148            43.991               CapeTown          1374.719
       266   03 Jun 2027 02:36:37.027   03 Jun 2027 02:37:40.595            63.568                Anadyr1          1986.500
       267   03 Jun 2027 02:37:41.087   03 Jun 2027 02:38:15.910            34.823                Anadyr2          1088.219
       268   03 Jun 2027 02:38:24.165   03 Jun 2027 02:38:58.321            34.156               Magadan2          1067.375
       269   03 Jun 2027 02:39:36.715   03 Jun 2027 02:39:54.211            17.496               Magadan2           546.750
       270   03 Jun 2027 02:42:21.640   03 Jun 2027 02:42:48.700            27.060               Magadan1           845.625
       271   03 Jun 2027 02:42:56.282   03 Jun 2027 02:43:25.258            28.976               Magadan2           905.500
       272   03 Jun 2027 02:47:21.483   03 Jun 2027 02:47:26.025             4.542                Norilsk           141.938
       273   03 Jun 2027 02:47:36.547   03 Jun 2027 02:47:42.097             5.550                Norilsk           173.438
       274   03 Jun 2027 02:48:37.394   03 Jun 2027 02:48:39.531             2.137                Norilsk            66.781
       275   03 Jun 2027 02:48:43.397   03 Jun 2027 02:48:58.410            15.013              Murmansk2           469.156
       276   03 Jun 2027 02:49:22.155   03 Jun 2027 02:49:48.078            25.923              Murmansk2           810.094
       277   03 Jun 2027 02:49:48.078   03 Jun 2027 02:50:14.508            26.430              Murmansk1           825.938
       278   03 Jun 2027 02:51:25.438   03 Jun 2027 02:51:48.246            22.808              Murmansk2           712.750
       279   03 Jun 2027 02:53:13.449   03 Jun 2027 02:53:27.314            13.865                 Moscow           433.281
       280   03 Jun 2027 02:54:51.507   03 Jun 2027 02:55:18.826            27.319                 Moscow           853.719
       281   03 Jun 2027 02:58:28.465   03 Jun 2027 02:59:07.496            39.031                 Moscow          1219.719
       282   03 Jun 2027 04:19:14.734   03 Jun 2027 04:19:26.131            11.397                Anadyr1           356.156
       283   03 Jun 2027 04:19:40.978   03 Jun 2027 04:21:46.623           125.645                Anadyr2          3926.406
       284   03 Jun 2027 04:21:50.167   03 Jun 2027 04:23:57.454           127.287               Magadan1          3977.719
       285   03 Jun 2027 05:03:15.970   03 Jun 2027 05:05:40.405           144.435            RioGallegos          4513.594
       286   03 Jun 2027 05:54:38.581   03 Jun 2027 05:59:06.697           268.116                Irkutsk          8378.625
       287   03 Jun 2027 05:59:13.403   03 Jun 2027 06:00:14.014            60.611                Novosib          1894.094
       288   03 Jun 2027 06:00:22.779   03 Jun 2027 06:00:28.511             5.732                Irkutsk           179.125
       289   03 Jun 2027 06:00:31.235   03 Jun 2027 06:01:22.876            51.641              Murmansk2          1613.781
       290   03 Jun 2027 06:01:52.075   03 Jun 2027 06:02:17.886            25.811              Murmansk1           806.594
       291   03 Jun 2027 06:04:32.227   03 Jun 2027 06:04:55.907            23.680              Murmansk2           740.000
       292   03 Jun 2027 06:35:52.726   03 Jun 2027 06:37:41.433           108.707            RioGallegos          3397.094
       293   03 Jun 2027 06:41:48.845   03 Jun 2027 06:41:53.005             4.160            RioGallegos           130.000
       294   03 Jun 2027 07:12:53.008   03 Jun 2027 07:13:55.795            62.787                Sumatra          1962.094
       295   03 Jun 2027 07:16:40.057   03 Jun 2027 07:17:13.597            33.540                Sumatra          1048.125
       296   03 Jun 2027 07:32:07.072   03 Jun 2027 07:33:15.137            68.065                Novosib          2127.031
       297   03 Jun 2027 07:33:34.719   03 Jun 2027 07:35:45.427           130.708                Irkutsk          4084.625
       298   03 Jun 2027 07:35:54.981   03 Jun 2027 07:37:44.013           109.032              Murmansk2          3407.250
       299   03 Jun 2027 07:39:02.480   03 Jun 2027 07:39:21.813            19.333              Murmansk1           604.156
       300   03 Jun 2027 07:40:02.106   03 Jun 2027 07:40:06.241             4.135                Norilsk           129.219
       301   03 Jun 2027 07:40:12.716   03 Jun 2027 07:41:10.306            57.590              Murmansk1          1799.688
       302   03 Jun 2027 07:41:17.256   03 Jun 2027 07:41:34.290            17.034              Murmansk2           532.312
       303   03 Jun 2027 08:12:02.270   03 Jun 2027 08:12:59.451            57.181            RioGallegos          1786.906
       304   03 Jun 2027 08:13:19.502   03 Jun 2027 08:13:39.177            19.675            RioGallegos           614.844
       305   03 Jun 2027 08:17:08.317   03 Jun 2027 08:17:22.775            14.458            RioGallegos           451.813
       306   03 Jun 2027 08:21:39.482   03 Jun 2027 08:21:41.613             2.131            RioGallegos            66.594
       307   03 Jun 2027 08:21:44.132   03 Jun 2027 08:21:52.263             8.131            RioGallegos           254.094
       308   03 Jun 2027 08:46:28.162   03 Jun 2027 08:48:18.627           110.465                Sumatra          3452.031
       309   03 Jun 2027 08:55:42.366   03 Jun 2027 08:58:36.423           174.057                  Delhi          5439.281
       310   03 Jun 2027 09:09:00.610   03 Jun 2027 09:09:17.828            17.218                 Moscow           538.062
       311   03 Jun 2027 09:09:25.623   03 Jun 2027 09:09:35.431             9.808                Novosib           306.500
       312   03 Jun 2027 09:09:40.955   03 Jun 2027 09:09:50.873             9.918                Norilsk           309.938
       313   03 Jun 2027 09:09:59.312   03 Jun 2027 09:14:34.547           275.235                 Moscow          8601.094
       314   03 Jun 2027 09:14:41.792   03 Jun 2027 09:15:22.023            40.231                Norilsk          1257.219
       315   03 Jun 2027 09:15:57.501   03 Jun 2027 09:16:47.822            50.321              Murmansk2          1572.531
       316   03 Jun 2027 10:31:02.447   03 Jun 2027 10:33:27.178           144.731                  Delhi          4522.844
       317   03 Jun 2027 10:44:38.501   03 Jun 2027 10:45:11.129            32.628                Novosib          1019.625
       318   03 Jun 2027 10:45:19.697   03 Jun 2027 10:45:56.981            37.284                Novosib          1165.125
       319   03 Jun 2027 10:45:59.770   03 Jun 2027 10:47:52.373           112.603                Novosib          3518.844
       320   03 Jun 2027 10:48:11.945   03 Jun 2027 10:49:08.605            56.660              Murmansk2          1770.625
       321   03 Jun 2027 10:49:28.736   03 Jun 2027 10:50:01.235            32.499                 Moscow          1015.594
       322   03 Jun 2027 12:14:59.385   03 Jun 2027 12:17:23.570           144.185                 Moscow          4505.781
       323   03 Jun 2027 12:18:02.075   03 Jun 2027 12:19:31.823            89.748                 Moscow          2804.625
       324   03 Jun 2027 12:19:59.122   03 Jun 2027 12:20:41.314            42.192              Murmansk1          1318.500
       325   03 Jun 2027 12:20:41.314   03 Jun 2027 12:22:39.080           117.766              Murmansk2          3680.188
       326   03 Jun 2027 13:29:03.556   03 Jun 2027 13:32:06.906           183.350               CapeTown          5729.688
       327   03 Jun 2027 13:32:44.409   03 Jun 2027 13:33:41.900            57.491               CapeTown          1796.594
       328   03 Jun 2027 13:55:57.512   03 Jun 2027 13:58:19.612           142.100              Murmansk2          4440.625
       329   03 Jun 2027 13:59:23.265   03 Jun 2027 13:59:48.847            25.582              Murmansk1           799.437
       330   03 Jun 2027 14:03:14.930   03 Jun 2027 14:03:41.304            26.374              Murmansk1           824.188
       331   03 Jun 2027 14:09:21.615   03 Jun 2027 14:11:36.013           134.398                Anadyr2          4199.937
       332   03 Jun 2027 14:11:54.841   03 Jun 2027 14:13:57.918           123.077                Anadyr1          3846.156
       333   03 Jun 2027 15:35:53.508   03 Jun 2027 15:36:55.684            62.176              Murmansk2          1943.000
       334   03 Jun 2027 15:37:22.961   03 Jun 2027 15:39:01.348            98.387              Murmansk2          3074.594
       335   03 Jun 2027 15:45:01.743   03 Jun 2027 15:45:48.786            47.043                Anadyr1          1470.094
       336   03 Jun 2027 15:47:47.741   03 Jun 2027 15:48:07.034            19.293                Anadyr1           602.906
       337   03 Jun 2027 15:48:36.270   03 Jun 2027 15:54:59.713           383.443               Magadan2         11982.594
       338   03 Jun 2027 17:23:15.662   03 Jun 2027 17:24:49.573            93.911               Magadan1          2934.719
       339   03 Jun 2027 17:30:43.237   03 Jun 2027 17:30:56.159            12.922               Magadan1           403.812
       340   03 Jun 2027 17:35:57.372   03 Jun 2027 17:35:57.790             0.418               Magadan1            13.062
       341   03 Jun 2027 18:16:51.660   03 Jun 2027 18:19:46.196           174.536            RioGallegos          5454.250
       342   03 Jun 2027 18:20:35.919   03 Jun 2027 18:22:32.412           116.493            RioGallegos          3640.406
       343   03 Jun 2027 18:58:55.644   03 Jun 2027 19:02:59.397           243.753                Norilsk          7617.281
       344   03 Jun 2027 19:04:06.540   03 Jun 2027 19:05:02.094            55.554                Irkutsk          1736.063
       345   03 Jun 2027 19:05:56.813   03 Jun 2027 19:07:15.312            78.499                Irkutsk          2453.094
       346   03 Jun 2027 19:08:07.605   03 Jun 2027 19:08:46.882            39.277                Irkutsk          1227.406
       347   03 Jun 2027 19:18:27.420   03 Jun 2027 19:22:33.528           246.108                Sumatra          7690.875
       348   03 Jun 2027 19:26:24.429   03 Jun 2027 19:26:32.418             7.989                Sumatra           249.656
       349   03 Jun 2027 20:39:31.447   03 Jun 2027 20:39:59.027            27.580                Novosib           861.875
       350   03 Jun 2027 20:40:23.317   03 Jun 2027 20:41:08.751            45.434                Novosib          1419.812
       351   03 Jun 2027 20:48:45.463   03 Jun 2027 20:50:58.538           133.075                  Delhi          4158.594
       352   03 Jun 2027 20:52:22.903   03 Jun 2027 20:54:05.305           102.402                  Delhi          3200.063
       353   03 Jun 2027 22:13:34.362   03 Jun 2027 22:17:20.533           226.171              Murmansk1          7067.844
       354   03 Jun 2027 22:17:28.645   03 Jun 2027 22:19:18.775           110.130              Murmansk2          3441.562
       355   03 Jun 2027 23:45:15.864   03 Jun 2027 23:46:55.631            99.767               Magadan1          3117.719
       356   03 Jun 2027 23:47:53.431   03 Jun 2027 23:48:21.667            28.236               Magadan1           882.375
       357   03 Jun 2027 23:48:52.321   03 Jun 2027 23:52:10.038           197.717              Murmansk2          6178.656
       358   03 Jun 2027 23:52:36.095   03 Jun 2027 23:53:25.214            49.119                 Moscow          1534.969
       359   03 Jun 2027 23:53:29.607   03 Jun 2027 23:54:03.424            33.817                 Moscow          1056.781
       360   03 Jun 2027 23:55:07.330   03 Jun 2027 23:55:40.590            33.260                 Moscow          1039.375
       361   04 Jun 2027 00:18:25.550   04 Jun 2027 00:19:18.881            53.331               CapeTown          1666.594
       362   04 Jun 2027 00:20:14.956   04 Jun 2027 00:20:58.606            43.650               CapeTown          1364.063
       363   04 Jun 2027 00:22:57.442   04 Jun 2027 00:24:30.921            93.479               CapeTown          2921.219
       364   04 Jun 2027 01:20:32.391   04 Jun 2027 01:20:58.442            26.051               Magadan1           814.094
       365   04 Jun 2027 01:24:47.867   04 Jun 2027 01:25:55.888            68.021              Murmansk1          2125.656
       366   04 Jun 2027 01:25:55.888   04 Jun 2027 01:26:59.491            63.603              Murmansk2          1987.594
       367   04 Jun 2027 01:28:00.540   04 Jun 2027 01:28:57.243            56.703                 Moscow          1771.969
       368   04 Jun 2027 01:38:16.037   04 Jun 2027 01:38:26.265            10.228                 Moscow           319.625
       369   04 Jun 2027 01:51:54.437   04 Jun 2027 01:52:27.766            33.329               CapeTown          1041.531
       370   04 Jun 2027 01:54:51.954   04 Jun 2027 01:55:06.512            14.558               CapeTown           454.937
       371   04 Jun 2027 01:56:17.298   04 Jun 2027 01:56:24.604             7.306               CapeTown           228.312
       372   04 Jun 2027 01:56:38.033   04 Jun 2027 01:57:29.558            51.525               CapeTown          1610.156
       373   04 Jun 2027 02:48:41.385   04 Jun 2027 02:49:26.576            45.191                Anadyr2          1412.219
       374   04 Jun 2027 02:49:33.286   04 Jun 2027 02:51:33.247           119.961               Magadan2          3748.781
       375   04 Jun 2027 02:53:50.110   04 Jun 2027 02:54:16.441            26.331               Magadan2           822.844
       376   04 Jun 2027 02:56:50.946   04 Jun 2027 02:57:01.069            10.123               Magadan1           316.344
       377   04 Jun 2027 02:57:12.035   04 Jun 2027 02:57:45.914            33.879                Norilsk          1058.719
       378   04 Jun 2027 04:32:06.331   04 Jun 2027 04:33:09.546            63.215                Norilsk          1975.469
       379   04 Jun 2027 04:33:12.841   04 Jun 2027 04:33:33.219            20.378               Magadan2           636.813
       380   04 Jun 2027 04:33:37.722   04 Jun 2027 04:34:18.668            40.946                Norilsk          1279.563
       381   04 Jun 2027 04:34:43.400   04 Jun 2027 04:34:47.807             4.407               Magadan1           137.719
       382   04 Jun 2027 04:35:06.312   04 Jun 2027 04:36:18.648            72.336                Anadyr1          2260.500
       383   04 Jun 2027 05:14:39.190   04 Jun 2027 05:15:01.698            22.508            RioGallegos           703.375
       384   04 Jun 2027 06:06:37.911   04 Jun 2027 06:07:47.321            69.410                Novosib          2169.062
       385   04 Jun 2027 06:08:03.156   04 Jun 2027 06:12:27.301           264.145                Novosib          8254.531
       386   04 Jun 2027 06:12:33.370   04 Jun 2027 06:12:49.142            15.772              Murmansk2           492.875
       387   04 Jun 2027 06:12:49.142   04 Jun 2027 06:13:19.343            30.201              Murmansk1           943.781
       388   04 Jun 2027 06:13:34.876   04 Jun 2027 06:14:07.342            32.466                Norilsk          1014.562
       389   04 Jun 2027 06:17:09.773   04 Jun 2027 06:17:51.197            41.424              Murmansk2          1294.500
       390   04 Jun 2027 06:47:44.170   04 Jun 2027 06:49:40.260           116.090            RioGallegos          3627.812
       391   04 Jun 2027 06:50:48.998   04 Jun 2027 06:51:44.686            55.688            RioGallegos          1740.250
       392   04 Jun 2027 07:24:05.896   04 Jun 2027 07:26:12.185           126.289                Sumatra          3946.531
       393   04 Jun 2027 07:44:07.486   04 Jun 2027 07:44:51.105            43.619                Novosib          1363.094
       394   04 Jun 2027 07:44:59.240   04 Jun 2027 07:45:50.339            51.099                Norilsk          1596.844
       395   04 Jun 2027 07:46:01.513   04 Jun 2027 07:47:09.535            68.022              Murmansk1          2125.688
       396   04 Jun 2027 07:47:15.583   04 Jun 2027 07:48:48.150            92.567                Novosib          2892.719
       397   04 Jun 2027 07:50:19.020   04 Jun 2027 07:50:56.319            37.299              Murmansk1          1165.594
       398   04 Jun 2027 08:24:22.123   04 Jun 2027 08:25:01.490            39.367            RioGallegos          1230.219
       399   04 Jun 2027 08:26:07.177   04 Jun 2027 08:26:29.652            22.475            RioGallegos           702.344
       400   04 Jun 2027 08:33:08.587   04 Jun 2027 08:33:13.967             5.380            RioGallegos           168.125
       401   04 Jun 2027 08:34:35.267   04 Jun 2027 08:34:40.039             4.772            RioGallegos           149.125
       402   04 Jun 2027 08:58:40.728   04 Jun 2027 09:00:10.151            89.423                Sumatra          2794.469
       403   04 Jun 2027 09:08:41.012   04 Jun 2027 09:09:30.718            49.706                  Delhi          1553.312
       404   04 Jun 2027 09:12:24.605   04 Jun 2027 09:13:46.547            81.942                  Delhi          2560.687
       405   04 Jun 2027 09:19:16.855   04 Jun 2027 09:19:43.367            26.512                Novosib           828.500
       406   04 Jun 2027 09:19:47.649   04 Jun 2027 09:20:13.392            25.743                Norilsk           804.469
       407   04 Jun 2027 09:20:21.743   04 Jun 2027 09:20:35.661            13.918              Murmansk2           434.937
       408   04 Jun 2027 09:20:38.504   04 Jun 2027 09:21:18.876            40.372                 Moscow          1261.625
       409   04 Jun 2027 09:21:20.368   04 Jun 2027 09:21:40.474            20.106                Irkutsk           628.313
       410   04 Jun 2027 09:22:01.602   04 Jun 2027 09:22:13.793            12.191              Murmansk1           380.969
       411   04 Jun 2027 09:22:16.237   04 Jun 2027 09:22:37.418            21.181              Murmansk1           661.906
       412   04 Jun 2027 09:22:38.045   04 Jun 2027 09:23:02.715            24.670                 Moscow           770.937
       413   04 Jun 2027 09:23:08.618   04 Jun 2027 09:23:20.014            11.396                Novosib           356.125
       414   04 Jun 2027 09:23:21.277   04 Jun 2027 09:23:25.186             3.909                Irkutsk           122.156
       415   04 Jun 2027 09:23:41.306   04 Jun 2027 09:24:10.092            28.786              Murmansk1           899.562
       416   04 Jun 2027 09:25:14.277   04 Jun 2027 09:25:56.072            41.795              Murmansk2          1306.094
       417   04 Jun 2027 10:43:26.197   04 Jun 2027 10:45:13.738           107.541                  Delhi          3360.656
       418   04 Jun 2027 10:47:01.212   04 Jun 2027 10:47:52.909            51.697                  Delhi          1615.531
       419   04 Jun 2027 10:55:53.450   04 Jun 2027 10:56:07.170            13.720              Murmansk2           428.750
       420   04 Jun 2027 10:56:38.898   04 Jun 2027 10:57:38.088            59.190                 Moscow          1849.688
       421   04 Jun 2027 10:57:51.981   04 Jun 2027 10:58:03.564            11.583                Novosib           361.969
       422   04 Jun 2027 10:58:04.711   04 Jun 2027 10:59:32.473            87.762                 Moscow          2742.563
       423   04 Jun 2027 10:59:37.223   04 Jun 2027 10:59:48.105            10.882                 Moscow           340.063
       424   04 Jun 2027 10:59:52.743   04 Jun 2027 10:59:58.277             5.534                Novosib           172.937
       425   04 Jun 2027 11:00:00.223   04 Jun 2027 11:00:34.118            33.895              Murmansk1          1059.219
       426   04 Jun 2027 11:01:10.263   04 Jun 2027 11:01:35.460            25.197              Murmansk1           787.406
       427   04 Jun 2027 12:27:04.829   04 Jun 2027 12:30:36.869           212.040                 Moscow          6626.250
       428   04 Jun 2027 12:30:59.815   04 Jun 2027 12:33:27.186           147.371              Murmansk1          4605.344
       429   04 Jun 2027 12:34:32.834   04 Jun 2027 12:35:18.756            45.922              Murmansk2          1435.062
       430   04 Jun 2027 12:47:22.427   04 Jun 2027 12:50:11.379           168.952                Anadyr1          5279.750
       431   04 Jun 2027 13:43:10.970   04 Jun 2027 13:44:21.410            70.440               CapeTown          2201.250
       432   04 Jun 2027 14:08:19.470   04 Jun 2027 14:08:32.505            13.035              Murmansk1           407.344
       433   04 Jun 2027 14:09:17.993   04 Jun 2027 14:10:45.282            87.289              Murmansk1          2727.781
       434   04 Jun 2027 14:10:45.282   04 Jun 2027 14:11:16.752            31.470              Murmansk2           983.438
       435   04 Jun 2027 14:13:06.020   04 Jun 2027 14:13:27.768            21.748              Murmansk2           679.625
       436   04 Jun 2027 14:21:18.793   04 Jun 2027 14:24:55.027           216.234                Anadyr2          6757.312
       437   04 Jun 2027 15:48:41.406   04 Jun 2027 15:49:03.866            22.460              Murmansk2           701.875
       438   04 Jun 2027 15:49:03.866   04 Jun 2027 15:50:58.492           114.626              Murmansk1          3582.062
       439   04 Jun 2027 15:57:02.756   04 Jun 2027 15:59:05.782           123.026                Anadyr2          3844.563
       440   04 Jun 2027 15:59:54.212   04 Jun 2027 16:03:09.386           195.174               Magadan1          6099.187
       441   04 Jun 2027 16:03:15.984   04 Jun 2027 16:03:55.867            39.883               Magadan2          1246.344
       442   04 Jun 2027 16:09:03.822   04 Jun 2027 16:09:54.771            50.949               Magadan1          1592.156
       443   04 Jun 2027 17:32:58.162   04 Jun 2027 17:34:15.471            77.309                Anadyr2          2415.906
       444   04 Jun 2027 17:35:15.665   04 Jun 2027 17:36:17.795            62.130               Magadan2          1941.562
       445   04 Jun 2027 17:38:18.717   04 Jun 2027 17:41:11.235           172.518               Magadan1          5391.187
       446   04 Jun 2027 18:28:18.211   04 Jun 2027 18:31:33.507           195.296            RioGallegos          6103.000
       447   04 Jun 2027 19:10:53.594   04 Jun 2027 19:12:16.020            82.426                Norilsk          2575.813
       448   04 Jun 2027 19:13:43.866   04 Jun 2027 19:14:59.589            75.723                Norilsk          2366.344
       449   04 Jun 2027 19:15:28.308   04 Jun 2027 19:17:45.562           137.254                Irkutsk          4289.187
       450   04 Jun 2027 19:18:50.759   04 Jun 2027 19:19:08.672            17.913                Irkutsk           559.781
       451   04 Jun 2027 19:21:41.743   04 Jun 2027 19:24:53.257           191.514                Irkutsk          5984.812
       452   04 Jun 2027 19:32:23.180   04 Jun 2027 19:32:52.255            29.075                Sumatra           908.594
       453   04 Jun 2027 19:33:51.722   04 Jun 2027 19:35:39.599           107.877                Sumatra          3371.156
       454   04 Jun 2027 20:50:35.797   04 Jun 2027 20:51:21.585            45.788                Irkutsk          1430.875
       455   04 Jun 2027 20:51:52.958   04 Jun 2027 20:52:34.184            41.226                Novosib          1288.313
       456   04 Jun 2027 20:53:37.498   04 Jun 2027 20:54:55.465            77.967                Novosib          2436.469
       457   04 Jun 2027 20:59:52.046   04 Jun 2027 21:02:39.749           167.703                  Delhi          5240.719
       458   04 Jun 2027 21:06:22.304   04 Jun 2027 21:07:50.375            88.071                  Delhi          2752.219
       459   04 Jun 2027 22:25:24.329   04 Jun 2027 22:29:17.490           233.161              Murmansk1          7286.281
       460   04 Jun 2027 22:29:51.621   04 Jun 2027 22:32:08.093           136.472              Murmansk2          4264.750
       461   05 Jun 2027 00:00:02.233   05 Jun 2027 00:00:23.987            21.754               Magadan2           679.813
       462   05 Jun 2027 00:00:52.896   05 Jun 2027 00:02:35.879           102.983              Murmansk1          3218.219
       463   05 Jun 2027 00:03:37.381   05 Jun 2027 00:04:51.561            74.180              Murmansk1          2318.125
       464   05 Jun 2027 00:05:17.009   05 Jun 2027 00:07:08.785           111.776                 Moscow          3493.000
       465   05 Jun 2027 00:29:46.361   05 Jun 2027 00:32:39.790           173.429               CapeTown          5419.656
       466   05 Jun 2027 00:36:28.112   05 Jun 2027 00:36:49.934            21.822               CapeTown           681.937
       467   05 Jun 2027 01:29:36.008   05 Jun 2027 01:30:28.027            52.019               Magadan2          1625.594
       468   05 Jun 2027 01:36:49.568   05 Jun 2027 01:38:53.617           124.049              Murmansk1          3876.531
       469   05 Jun 2027 01:40:01.881   05 Jun 2027 01:40:38.238            36.357                 Moscow          1136.156
       470   05 Jun 2027 01:43:40.555   05 Jun 2027 01:43:50.271             9.716                 Moscow           303.625
       471   05 Jun 2027 01:48:41.726   05 Jun 2027 01:48:49.038             7.312                 Moscow           228.500
       472   05 Jun 2027 01:50:45.915   05 Jun 2027 01:51:12.650            26.735                 Moscow           835.469
       473   05 Jun 2027 02:04:01.241   05 Jun 2027 02:05:16.288            75.047               CapeTown          2345.219
       474   05 Jun 2027 03:00:47.800   05 Jun 2027 03:02:09.910            82.110                Anadyr2          2565.938
       475   05 Jun 2027 03:02:09.910   05 Jun 2027 03:02:12.802             2.892                Anadyr1            90.375
       476   05 Jun 2027 03:02:49.026   05 Jun 2027 03:02:58.319             9.293               Magadan2           290.406
       477   05 Jun 2027 03:03:18.603   05 Jun 2027 03:03:35.903            17.300               Magadan2           540.625
       478   05 Jun 2027 03:06:46.349   05 Jun 2027 03:06:58.397            12.048               Magadan2           376.500
       479   05 Jun 2027 03:07:01.962   05 Jun 2027 03:08:06.302            64.340                Anadyr1          2010.625
       480   05 Jun 2027 03:08:06.302   05 Jun 2027 03:09:27.784            81.482                Anadyr2          2546.312
       481   05 Jun 2027 03:10:32.690   05 Jun 2027 03:10:47.069            14.379               Magadan2           449.344
       482   05 Jun 2027 03:11:20.957   05 Jun 2027 03:12:27.288            66.331               Magadan1          2072.844
