uniorb/output/strategy_1/Drop/Drop_KinoSat_110103.txt

KinoSat_110103
-------------------------
    Access    *     Start Time (UTCG)     *     Stop Time (UTCG)  *   Duration (s)        *       Station  *  Data (Mbytes)
         1   01 Jun 2027 04:28:23.880   01 Jun 2027 04:29:25.420            61.540                Novosib          7692.500
         2   01 Jun 2027 04:29:33.469   01 Jun 2027 04:30:44.770            71.301                Novosib          8912.625
         3   01 Jun 2027 04:31:08.628   01 Jun 2027 04:31:33.565            24.937              Murmansk1          3117.125
         4   01 Jun 2027 04:31:48.406   01 Jun 2027 04:32:11.206            22.800                Norilsk          2850.000
         5   01 Jun 2027 04:32:15.393   01 Jun 2027 04:33:41.088            85.695                Novosib         10711.875
         6   01 Jun 2027 04:33:41.856   01 Jun 2027 04:33:54.845            12.989                Novosib          1623.625
         7   01 Jun 2027 05:47:24.563   01 Jun 2027 05:47:54.018            29.455                Sumatra          3681.875
         8   01 Jun 2027 05:50:28.472   01 Jun 2027 05:53:33.153           184.681                  Delhi         23085.125
         9   01 Jun 2027 05:58:17.042   01 Jun 2027 05:59:03.074            46.032                  Delhi          5754.000
        10   01 Jun 2027 06:07:22.898   01 Jun 2027 06:07:53.337            30.439                 Moscow          3804.875
        11   01 Jun 2027 06:08:03.823   01 Jun 2027 06:08:48.233            44.410                Novosib          5551.250
        12   01 Jun 2027 06:09:03.900   01 Jun 2027 06:09:11.145             7.245              Murmansk1           905.625
        13   01 Jun 2027 06:09:18.574   01 Jun 2027 06:09:45.724            27.150                Novosib          3393.750
        14   01 Jun 2027 07:40:37.021   01 Jun 2027 07:42:18.725           101.704              Murmansk2         12713.000
        15   01 Jun 2027 07:42:22.897   01 Jun 2027 07:42:41.061            18.164              Murmansk2          2270.500
        16   01 Jun 2027 07:42:43.000   01 Jun 2027 07:42:47.130             4.130                 Moscow           516.250
        17   01 Jun 2027 07:42:55.664   01 Jun 2027 07:44:00.167            64.503                Norilsk          8062.875
        18   01 Jun 2027 07:44:15.322   01 Jun 2027 07:44:55.886            40.564              Murmansk1          5070.500
        19   01 Jun 2027 07:44:55.886   01 Jun 2027 07:45:11.503            15.617              Murmansk2          1952.125
        20   01 Jun 2027 07:47:20.890   01 Jun 2027 07:47:24.209             3.319                 Moscow           414.875
        21   01 Jun 2027 08:49:34.063   01 Jun 2027 08:57:21.110           467.047               CapeTown         58380.875
        22   01 Jun 2027 12:43:09.483   01 Jun 2027 12:45:42.261           152.778               Magadan2         19097.250
        23   01 Jun 2027 15:10:46.283   01 Jun 2027 15:13:17.495           151.212            RioGallegos         18901.500
        24   01 Jun 2027 15:17:58.779   01 Jun 2027 15:20:16.747           137.968            RioGallegos         17246.000
        25   01 Jun 2027 16:01:20.874   01 Jun 2027 16:03:33.763           132.889                Irkutsk         16611.125
        26   01 Jun 2027 16:12:12.954   01 Jun 2027 16:14:54.320           161.366                Sumatra         20170.750
        27   01 Jun 2027 17:37:02.331   01 Jun 2027 17:39:17.715           135.384                Novosib         16923.000
        28   01 Jun 2027 17:41:46.950   01 Jun 2027 17:44:40.482           173.532                  Delhi         21044.625
        29   02 Jun 2027 03:06:38.322   02 Jun 2027 03:06:55.241            16.919               Magadan2          2114.875
        30   02 Jun 2027 03:07:12.403   02 Jun 2027 03:08:07.615            55.212                Irkutsk          6901.500
        31   02 Jun 2027 03:43:40.569   02 Jun 2027 03:44:35.170            54.601            RioGallegos          6825.125
        32   02 Jun 2027 03:46:12.195   02 Jun 2027 03:47:42.204            90.009            RioGallegos         11251.125
        33   02 Jun 2027 03:47:47.455   02 Jun 2027 03:48:01.203            13.748            RioGallegos          1718.500
        34   02 Jun 2027 04:18:14.401   02 Jun 2027 04:20:26.101           131.700                Sumatra         16462.500
        35   02 Jun 2027 04:40:21.397   02 Jun 2027 04:40:32.127            10.730              Murmansk2          1341.250
        36   02 Jun 2027 04:40:42.394   02 Jun 2027 04:41:43.842            61.448                Novosib          7681.000
        37   02 Jun 2027 04:41:59.673   02 Jun 2027 04:42:32.179            32.506                 Moscow          4063.250
        38   02 Jun 2027 04:42:36.120   02 Jun 2027 04:42:53.722            17.602                Irkutsk          2200.250
        39   02 Jun 2027 04:43:01.667   02 Jun 2027 04:43:32.820            31.153              Murmansk2          3894.125
        40   02 Jun 2027 04:43:32.820   02 Jun 2027 04:43:33.346             0.526              Murmansk1            65.750
        41   02 Jun 2027 04:43:56.828   02 Jun 2027 04:44:03.046             6.218                Novosib           777.250
        42   02 Jun 2027 04:44:16.439   02 Jun 2027 04:45:55.091            98.652                 Moscow         12331.500
        43   02 Jun 2027 06:02:39.653   02 Jun 2027 06:05:04.250           144.597                  Delhi         18074.625
        44   02 Jun 2027 06:08:45.671   02 Jun 2027 06:10:04.231            78.560                  Delhi          9820.000
        45   02 Jun 2027 06:18:21.842   02 Jun 2027 06:18:34.464            12.622              Murmansk1          1577.750
        46   02 Jun 2027 06:18:38.488   02 Jun 2027 06:19:56.457            77.969                 Moscow          9746.125
        47   02 Jun 2027 06:20:10.195   02 Jun 2027 06:20:58.424            48.229                Novosib          6028.625
        48   02 Jun 2027 07:52:34.357   02 Jun 2027 07:53:11.075            36.718              Murmansk2          4589.750
        49   02 Jun 2027 07:53:28.760   02 Jun 2027 07:55:01.003            92.243              Murmansk1         11530.375
        50   02 Jun 2027 07:55:23.922   02 Jun 2027 07:56:25.858            61.936                 Moscow          7742.000
        51   02 Jun 2027 07:57:14.750   02 Jun 2027 07:58:24.234            69.484                 Moscow          8685.500
        52   02 Jun 2027 09:01:10.946   02 Jun 2027 09:07:48.199           397.253               CapeTown         49656.625
        53   02 Jun 2027 12:55:08.367   02 Jun 2027 12:55:47.294            38.927               Magadan1          4865.875
        54   02 Jun 2027 12:57:30.190   02 Jun 2027 13:00:03.058           152.868               Magadan2         19108.500
        55   02 Jun 2027 14:51:31.546   02 Jun 2027 14:52:10.118            38.572                Sumatra          4821.500
        56   02 Jun 2027 15:22:41.392   02 Jun 2027 15:24:28.309           106.917            RioGallegos         13364.625
        57   02 Jun 2027 16:13:32.696   02 Jun 2027 16:15:27.208           114.512                Irkutsk         14314.000
        58   02 Jun 2027 16:24:17.276   02 Jun 2027 16:26:02.563           105.287                Sumatra         13160.875
        59   02 Jun 2027 16:31:58.723   02 Jun 2027 16:33:59.410           120.687                Sumatra         15085.875
        60   02 Jun 2027 17:53:42.429   02 Jun 2027 17:56:16.336           153.907                  Delhi         19238.375
        61   02 Jun 2027 19:31:08.815   02 Jun 2027 19:31:10.795             1.980                  Delhi           247.500
        62   02 Jun 2027 20:59:52.150   02 Jun 2027 21:00:20.006            27.856                 Moscow          3482.000
        63   02 Jun 2027 21:01:22.750   02 Jun 2027 21:03:08.564           105.814                 Moscow         13226.750
        64   02 Jun 2027 21:26:58.545   02 Jun 2027 21:28:58.087           119.542               CapeTown         14942.750
        65   03 Jun 2027 02:57:07.138   03 Jun 2027 02:58:40.983            93.845                Sumatra         11730.625
        66   03 Jun 2027 03:55:56.607   03 Jun 2027 03:57:43.611           107.004            RioGallegos         13375.500
        67   03 Jun 2027 04:30:21.606   03 Jun 2027 04:33:15.896           174.290                Sumatra         21786.250
        68   03 Jun 2027 04:53:19.724   03 Jun 2027 04:54:08.488            48.764              Murmansk2          6095.500
        69   03 Jun 2027 04:54:08.488   03 Jun 2027 04:54:24.086            15.598              Murmansk1          1949.750
        70   03 Jun 2027 04:54:34.365   03 Jun 2027 04:54:42.052             7.687                Norilsk           960.875
        71   03 Jun 2027 04:54:51.908   03 Jun 2027 04:55:56.862            64.954                Irkutsk          8119.250
        72   03 Jun 2027 04:56:20.580   03 Jun 2027 04:56:41.581            21.001                 Moscow          2625.125
        73   03 Jun 2027 04:56:46.687   03 Jun 2027 04:57:26.488            39.801                Norilsk          4975.125
        74   03 Jun 2027 04:58:00.906   03 Jun 2027 04:58:12.980            12.074                Novosib          1509.250
        75   03 Jun 2027 04:59:42.262   03 Jun 2027 05:00:22.426            40.164                Norilsk          5020.500
        76   03 Jun 2027 06:14:57.105   03 Jun 2027 06:17:18.226           141.121                  Delhi         17640.125
        77   03 Jun 2027 06:17:19.719   03 Jun 2027 06:19:11.166           111.447                  Delhi         13930.875
        78   03 Jun 2027 06:29:44.574   03 Jun 2027 06:30:17.425            32.851              Murmansk1          4106.375
        79   03 Jun 2027 06:30:32.408   03 Jun 2027 06:31:05.796            33.388              Murmansk2          4173.500
        80   03 Jun 2027 06:31:10.810   03 Jun 2027 06:31:56.631            45.821                 Moscow          5727.625
        81   03 Jun 2027 06:32:15.452   03 Jun 2027 06:32:59.600            44.148                 Moscow          5518.500
        82   03 Jun 2027 08:06:46.626   03 Jun 2027 08:08:31.054           104.428                 Moscow         13053.500
        83   03 Jun 2027 08:09:31.378   03 Jun 2027 08:10:08.377            36.999                Norilsk          4624.875
        84   03 Jun 2027 08:10:29.544   03 Jun 2027 08:11:08.655            39.111                 Moscow          4888.875
        85   03 Jun 2027 09:12:54.107   03 Jun 2027 09:18:58.769           364.662               CapeTown         45582.750
        86   03 Jun 2027 13:07:07.904   03 Jun 2027 13:07:38.082            30.178               Magadan1          3772.250
        87   03 Jun 2027 13:07:46.377   03 Jun 2027 13:12:00.115           253.738               Magadan2         31717.250
        88   03 Jun 2027 15:02:37.635   03 Jun 2027 15:05:21.264           163.629                Sumatra         20453.625
        89   03 Jun 2027 15:11:08.493   03 Jun 2027 15:11:17.352             8.859                Sumatra          1107.375
        90   03 Jun 2027 15:44:10.907   03 Jun 2027 15:44:13.205             2.298            RioGallegos           287.250
        91   03 Jun 2027 15:44:37.809   03 Jun 2027 15:45:14.908            37.099            RioGallegos          4637.375
        92   03 Jun 2027 16:26:00.414   03 Jun 2027 16:27:22.464            82.050                Irkutsk         10256.250
        93   03 Jun 2027 16:36:27.467   03 Jun 2027 16:37:11.713            44.246                Sumatra          5530.750
        94   03 Jun 2027 16:37:43.759   03 Jun 2027 16:39:27.500           103.741                  Delhi         12967.625
        95   03 Jun 2027 17:58:21.516   03 Jun 2027 17:59:58.255            96.739                Novosib         12092.375
        96   03 Jun 2027 18:01:38.739   03 Jun 2027 18:02:00.024            21.285                Novosib          2660.625
        97   03 Jun 2027 18:05:41.364   03 Jun 2027 18:07:28.197           106.833                  Delhi         13354.125
        98   03 Jun 2027 18:13:11.255   03 Jun 2027 18:15:17.376           126.121                  Delhi         15765.125
        99   03 Jun 2027 19:41:40.965   03 Jun 2027 19:41:55.944            14.979                 Moscow          1872.375
       100   03 Jun 2027 21:13:16.225   03 Jun 2027 21:13:23.609             7.384              Murmansk1           923.000
       101   03 Jun 2027 21:13:51.128   03 Jun 2027 21:15:11.860            80.732                 Moscow         10091.500
       102   03 Jun 2027 21:38:58.716   03 Jun 2027 21:40:44.817           106.101               CapeTown         13262.625
       103   04 Jun 2027 03:08:00.808   04 Jun 2027 03:12:21.307           260.499                Sumatra         32562.375
       104   04 Jun 2027 03:16:05.396   04 Jun 2027 03:17:01.361            55.965                Sumatra          6995.625
       105   04 Jun 2027 04:42:34.957   04 Jun 2027 04:44:33.084           118.127                Sumatra         14765.875
       106   04 Jun 2027 04:46:59.837   04 Jun 2027 04:47:01.488             1.651                Sumatra           206.375
       107   04 Jun 2027 04:50:09.981   04 Jun 2027 04:50:15.368             5.387                Sumatra           673.375
       108   04 Jun 2027 04:52:25.136   04 Jun 2027 04:52:27.220             2.084                Sumatra           260.500
       109   04 Jun 2027 05:05:03.564   04 Jun 2027 05:05:58.444            54.880              Murmansk1          6860.000
       110   04 Jun 2027 05:06:05.743   04 Jun 2027 05:06:32.901            27.158              Murmansk1          3394.750
       111   04 Jun 2027 05:06:39.976   04 Jun 2027 05:07:08.146            28.170                Norilsk          3521.250
       112   04 Jun 2027 05:07:08.646   04 Jun 2027 05:07:56.039            47.393                Irkutsk          5924.125
       113   04 Jun 2027 05:10:08.640   04 Jun 2027 05:10:13.238             4.598                Novosib           574.750
       114   04 Jun 2027 06:27:21.783   04 Jun 2027 06:29:30.906           129.123                  Delhi         16140.375
       115   04 Jun 2027 06:41:56.804   04 Jun 2027 06:42:29.026            32.222              Murmansk2          4027.750
       116   04 Jun 2027 06:42:35.147   04 Jun 2027 06:42:40.746             5.599                Norilsk           699.875
       117   04 Jun 2027 06:42:46.488   04 Jun 2027 06:43:08.843            22.355                Norilsk          2794.375
       118   04 Jun 2027 06:43:23.699   04 Jun 2027 06:43:29.806             6.107                Novosib           763.375
       119   04 Jun 2027 06:43:39.865   04 Jun 2027 06:45:57.428           137.563              Murmansk1         17195.375
       120   04 Jun 2027 09:24:42.056   04 Jun 2027 09:30:25.437           343.381               CapeTown         42922.625
       121   04 Jun 2027 10:14:42.566   04 Jun 2027 10:14:43.738             1.172                Anadyr1           146.500
       122   04 Jun 2027 11:40:55.187   04 Jun 2027 11:41:02.304             7.117                Anadyr1           889.625
       123   04 Jun 2027 11:41:25.269   04 Jun 2027 11:42:08.991            43.722                Anadyr2          5465.250
       124   04 Jun 2027 11:42:34.221   04 Jun 2027 11:44:08.378            94.157                Anadyr1         11769.625
       125   04 Jun 2027 13:19:07.991   04 Jun 2027 13:19:31.151            23.160               Magadan2          2895.000
       126   04 Jun 2027 13:20:20.003   04 Jun 2027 13:23:31.431           191.428               Magadan1         23928.500
       127   04 Jun 2027 15:13:36.074   04 Jun 2027 15:21:35.615           479.541                Sumatra         59942.625
       128   04 Jun 2027 16:38:22.728   04 Jun 2027 16:41:08.944           166.216                Novosib         20777.000
       129   04 Jun 2027 16:48:33.114   04 Jun 2027 16:52:29.938           236.824                  Delhi         29603.000
       130   04 Jun 2027 18:25:27.556   04 Jun 2027 18:26:18.743            51.187                  Delhi          6398.375
       131   04 Jun 2027 19:52:53.548   04 Jun 2027 19:54:20.011            86.463                 Moscow         10807.875
       132   04 Jun 2027 21:27:12.248   04 Jun 2027 21:28:40.468            88.220                 Moscow         11027.500
       133   04 Jun 2027 21:47:54.706   04 Jun 2027 21:48:54.567            59.861               CapeTown          7482.625
       134   04 Jun 2027 21:54:11.257   04 Jun 2027 21:55:38.736            87.479               CapeTown         10934.875
       135   04 Jun 2027 22:00:11.544   04 Jun 2027 22:00:26.240            14.696               CapeTown          1837.000
       136   05 Jun 2027 03:19:21.091   05 Jun 2027 03:20:36.016            74.925                Sumatra          9365.625
       137   05 Jun 2027 03:21:54.806   05 Jun 2027 03:26:42.715           287.909                Sumatra         35988.625
       138   05 Jun 2027 03:44:36.268   05 Jun 2027 03:44:46.276            10.008                Irkutsk          1251.000
       139   05 Jun 2027 04:23:24.590   05 Jun 2027 04:24:27.548            62.958            RioGallegos          7869.750
       140   05 Jun 2027 04:56:45.882   05 Jun 2027 04:59:02.387           136.505                Sumatra         17063.125
       141   05 Jun 2027 05:18:10.188   05 Jun 2027 05:18:26.586            16.398                Irkutsk          2049.750
       142   05 Jun 2027 05:18:59.756   05 Jun 2027 05:19:22.784            23.028                Norilsk          2878.500
       143   05 Jun 2027 05:19:35.890   05 Jun 2027 05:19:54.913            19.023                Norilsk          2377.875
       144   05 Jun 2027 05:20:07.023   05 Jun 2027 05:21:11.035            64.012              Murmansk1          8001.500
       145   05 Jun 2027 05:21:40.462   05 Jun 2027 05:22:11.568            31.106                Novosib          3888.250
       146   05 Jun 2027 05:23:59.925   05 Jun 2027 05:24:20.594            20.669                Norilsk          2583.625
       147   05 Jun 2027 06:39:55.350   05 Jun 2027 06:43:26.615           211.265                  Delhi         26408.125
       148   05 Jun 2027 06:54:34.857   05 Jun 2027 06:57:02.878           148.021                Novosib         18502.625
       149   05 Jun 2027 09:36:33.903   05 Jun 2027 09:39:22.887           168.984               CapeTown         21123.000
       150   05 Jun 2027 10:17:08.935   05 Jun 2027 10:17:25.051            16.116                Anadyr1          2014.500
       151   05 Jun 2027 11:52:56.393   05 Jun 2027 11:53:01.237             4.844                Anadyr2           605.500
       152   05 Jun 2027 11:56:14.224   05 Jun 2027 11:57:41.609            87.385                Anadyr1         10923.125
       153   05 Jun 2027 12:01:54.320   05 Jun 2027 12:04:58.513           184.193               Magadan1         23024.125
       154   05 Jun 2027 13:31:08.547   05 Jun 2027 13:31:25.958            17.411               Magadan1          2176.375
       155   05 Jun 2027 13:32:48.950   05 Jun 2027 13:33:23.068            34.118               Magadan2          4264.750
       156   05 Jun 2027 15:12:35.087   05 Jun 2027 15:16:00.067           204.980                Irkutsk         25622.500
       157   05 Jun 2027 15:26:50.282   05 Jun 2027 15:32:03.954           313.672                Sumatra         39209.000
       158   05 Jun 2027 16:51:32.116   05 Jun 2027 16:53:13.811           101.695                Novosib         12711.875
       159   05 Jun 2027 16:55:05.007   05 Jun 2027 17:03:07.732           482.725                  Delhi         60340.625
       160   05 Jun 2027 20:07:54.706   05 Jun 2027 20:09:46.708           112.002                 Moscow         14000.250
       161   05 Jun 2027 21:42:44.107   05 Jun 2027 21:42:46.859             2.752              Murmansk1           344.000
       162   05 Jun 2027 21:45:37.139   05 Jun 2027 21:45:56.178            19.039                 Moscow          2379.875
       163   05 Jun 2027 22:00:07.635   05 Jun 2027 22:00:31.528            23.893               CapeTown          2986.625
       164   05 Jun 2027 22:02:39.730   05 Jun 2027 22:04:33.417           113.687               CapeTown         14210.875
       165   06 Jun 2027 03:30:57.659   06 Jun 2027 03:33:02.232           124.573                Sumatra         15571.625
       166   06 Jun 2027 03:35:44.732   06 Jun 2027 03:37:33.087           108.355                Sumatra         13544.375
       167   06 Jun 2027 04:33:13.040   06 Jun 2027 04:34:05.006            51.966            RioGallegos          6495.750
       168   06 Jun 2027 04:34:41.056   06 Jun 2027 04:34:54.458            13.402            RioGallegos          1675.250
       169   06 Jun 2027 04:36:07.000   06 Jun 2027 04:36:27.929            20.929            RioGallegos          2616.125
       170   06 Jun 2027 05:07:24.761   06 Jun 2027 05:08:19.763            55.002                Sumatra          6875.250
       171   06 Jun 2027 05:09:15.247   06 Jun 2027 05:11:08.948           113.701                Sumatra         14212.625
       172   06 Jun 2027 05:21:54.945   06 Jun 2027 05:24:12.931           137.986                  Delhi         17248.250
       173   06 Jun 2027 05:31:48.191   06 Jun 2027 05:33:32.116           103.925                Norilsk         12990.625
       174   06 Jun 2027 06:52:40.915   06 Jun 2027 06:55:43.343           182.428                  Delhi         22803.500
       175   06 Jun 2027 07:06:08.501   06 Jun 2027 07:06:56.969            48.468                Novosib          6058.500
       176   06 Jun 2027 07:07:02.849   06 Jun 2027 07:07:40.211            37.362                 Moscow          4670.250
       177   06 Jun 2027 07:08:08.095   06 Jun 2027 07:09:46.188            98.093                 Moscow         12261.625
       178   06 Jun 2027 08:16:29.903   06 Jun 2027 08:16:43.738            13.835               CapeTown          1729.375
       179   06 Jun 2027 09:48:29.082   06 Jun 2027 09:50:54.055           144.973               CapeTown         18121.625
       180   06 Jun 2027 10:29:07.849   06 Jun 2027 10:29:46.722            38.873                Anadyr2          4859.125
       181   06 Jun 2027 10:34:49.299   06 Jun 2027 10:35:47.489            58.190                Anadyr2          7273.750
       182   06 Jun 2027 12:04:57.707   06 Jun 2027 12:05:00.732             3.025                Anadyr2           378.125
       183   06 Jun 2027 12:05:50.858   06 Jun 2027 12:07:16.314            85.456                Anadyr2         10682.000
       184   06 Jun 2027 12:07:32.986   06 Jun 2027 12:12:44.577           311.591               Magadan1         38948.875
       185   06 Jun 2027 12:13:46.113   06 Jun 2027 12:15:43.848           117.735               Magadan1         14716.875
       186   06 Jun 2027 14:38:15.862   06 Jun 2027 14:38:31.079            15.217            RioGallegos          1902.125
       187   06 Jun 2027 15:27:30.494   06 Jun 2027 15:29:54.043           143.549                Irkutsk         17943.625
       188   06 Jun 2027 15:36:48.776   06 Jun 2027 15:39:12.151           143.375                Sumatra         17921.875
       189   06 Jun 2027 15:42:16.758   06 Jun 2027 15:43:07.601            50.843                Sumatra          6355.375
       190   06 Jun 2027 17:00:58.073   06 Jun 2027 17:03:53.243           175.170                Novosib         21896.250
       191   06 Jun 2027 17:06:40.364   06 Jun 2027 17:13:25.407           405.043                  Delhi         50630.375
       192   06 Jun 2027 20:12:11.561   06 Jun 2027 20:13:33.251            81.690                 Moscow         10211.250
       193   06 Jun 2027 20:14:39.054   06 Jun 2027 20:17:16.674           157.620                 Moscow         19702.500
       194   06 Jun 2027 20:20:58.964   06 Jun 2027 20:21:43.985            45.021                 Moscow          5627.625
       195   06 Jun 2027 22:12:26.645   06 Jun 2027 22:14:41.116           134.471               CapeTown         16808.875
       196   07 Jun 2027 03:42:41.574   07 Jun 2027 03:45:20.256           158.682                Sumatra         19835.250
       197   07 Jun 2027 03:48:42.371   07 Jun 2027 03:48:46.155             3.784                Sumatra           473.000
       198   07 Jun 2027 04:08:14.791   07 Jun 2027 04:08:20.753             5.962                Novosib           745.250
       199   07 Jun 2027 04:08:56.378   07 Jun 2027 04:09:14.823            18.445                Novosib          2305.625
       200   07 Jun 2027 04:12:48.412   07 Jun 2027 04:13:04.770            16.358              Murmansk1          2044.750
       201   07 Jun 2027 04:13:18.989   07 Jun 2027 04:13:43.127            24.138                Norilsk          3017.250
       202   07 Jun 2027 04:45:50.524   07 Jun 2027 04:46:41.021            50.497            RioGallegos          6312.125
       203   07 Jun 2027 04:47:31.937   07 Jun 2027 04:48:23.900            51.963            RioGallegos          6495.375
       204   07 Jun 2027 05:20:06.700   07 Jun 2027 05:21:25.760            79.060                Sumatra          9882.500
       205   07 Jun 2027 05:26:37.825   07 Jun 2027 05:27:20.940            43.115                  Delhi          5389.375
       206   07 Jun 2027 05:31:59.869   07 Jun 2027 05:34:11.543           131.674                  Delhi         16459.250
       207   07 Jun 2027 05:44:06.052   07 Jun 2027 05:44:54.064            48.012                Novosib          6001.500
       208   07 Jun 2027 05:44:54.101   07 Jun 2027 05:45:03.313             9.212                Norilsk          1151.500
       209   07 Jun 2027 05:45:39.161   07 Jun 2027 05:46:09.046            29.885                Novosib          3735.625
       210   07 Jun 2027 07:05:45.708   07 Jun 2027 07:07:43.615           117.907                  Delhi         14738.375
       211   07 Jun 2027 07:15:40.528   07 Jun 2027 07:16:25.697            45.169                Novosib          5646.125
       212   07 Jun 2027 07:17:32.615   07 Jun 2027 07:18:11.723            39.108                Novosib          4888.500
       213   07 Jun 2027 07:18:19.041   07 Jun 2027 07:19:21.456            62.415                Norilsk          7801.875
       214   07 Jun 2027 07:19:33.475   07 Jun 2027 07:20:42.618            69.143                 Moscow          8642.875
       215   07 Jun 2027 07:21:02.526   07 Jun 2027 07:21:36.898            34.372                Norilsk          4296.500
       216   07 Jun 2027 07:22:18.428   07 Jun 2027 07:22:26.471             8.043                 Moscow          1005.375
       217   07 Jun 2027 08:27:07.068   07 Jun 2027 08:27:35.190            28.122               CapeTown          3515.250
       218   07 Jun 2027 10:00:27.250   07 Jun 2027 10:02:09.529           102.279               CapeTown         12784.875
       219   07 Jun 2027 10:03:40.114   07 Jun 2027 10:05:31.536           111.422               CapeTown         13927.750
       220   07 Jun 2027 10:42:27.679   07 Jun 2027 10:43:20.940            53.261                Anadyr1          6657.625
       221   07 Jun 2027 10:44:07.840   07 Jun 2027 10:46:57.582           169.742                Anadyr1         21217.750
       222   07 Jun 2027 12:17:32.519   07 Jun 2027 12:17:45.295            12.776                Anadyr1          1597.000
       223   07 Jun 2027 12:19:29.071   07 Jun 2027 12:24:33.110           304.039               Magadan1         38004.875
       224   07 Jun 2027 12:27:02.826   07 Jun 2027 12:28:45.349           102.523               Magadan2         12815.375
       225   07 Jun 2027 14:50:37.369   07 Jun 2027 14:51:44.918            67.549            RioGallegos          8443.625
       226   07 Jun 2027 15:34:52.987   07 Jun 2027 15:37:00.812           127.825                Irkutsk         15978.125
       227   07 Jun 2027 15:42:17.602   07 Jun 2027 15:44:23.761           126.159                Irkutsk         15769.875
       228   07 Jun 2027 15:48:35.949   07 Jun 2027 15:51:26.683           170.734                Sumatra         21341.750
       229   07 Jun 2027 17:10:40.200   07 Jun 2027 17:13:11.975           151.775                Novosib         18971.875
       230   07 Jun 2027 17:18:22.553   07 Jun 2027 17:24:32.254           369.701                  Delhi         46212.625
       231   07 Jun 2027 20:24:09.065   07 Jun 2027 20:25:11.262            62.197                 Moscow          7774.625
       232   07 Jun 2027 22:00:01.980   07 Jun 2027 22:01:05.396            63.416                 Moscow          7927.000
       233   07 Jun 2027 22:24:52.668   07 Jun 2027 22:26:27.802            95.134               CapeTown         11891.750
       234   08 Jun 2027 03:54:31.819   08 Jun 2027 03:59:35.107           303.288                Sumatra         37911.000
       235   08 Jun 2027 05:33:10.698   08 Jun 2027 05:33:13.178             2.480                Sumatra           310.000
       236   08 Jun 2027 05:38:38.023   08 Jun 2027 05:40:40.848           122.825                  Delhi         15353.125
       237   08 Jun 2027 05:41:50.126   08 Jun 2027 05:43:43.150           113.024                  Delhi         14128.000
       238   08 Jun 2027 05:55:41.720   08 Jun 2027 05:56:10.310            28.590                Norilsk          3573.750
       239   08 Jun 2027 05:56:21.821   08 Jun 2027 05:57:10.722            48.901                Novosib          6112.625
       240   08 Jun 2027 07:19:40.571   08 Jun 2027 07:20:39.660            59.089                  Delhi          7386.125
       241   08 Jun 2027 07:21:35.273   08 Jun 2027 07:22:40.190            64.917                  Delhi          8114.625
       242   08 Jun 2027 07:28:21.551   08 Jun 2027 07:29:49.349            87.798              Murmansk1         10974.750
       243   08 Jun 2027 07:29:52.673   08 Jun 2027 07:30:03.655            10.982              Murmansk1          1372.750
       244   08 Jun 2027 07:30:14.467   08 Jun 2027 07:31:10.371            55.904                Novosib          6988.000
       245   08 Jun 2027 07:31:16.699   08 Jun 2027 07:32:04.770            48.071              Murmansk2          6008.875
       246   08 Jun 2027 07:32:25.921   08 Jun 2027 07:33:22.576            56.655              Murmansk2          7081.875
       247   08 Jun 2027 07:34:04.755   08 Jun 2027 07:34:17.362            12.607                 Moscow          1575.875
       248   08 Jun 2027 08:38:20.345   08 Jun 2027 08:40:59.397           159.052               CapeTown         19881.500
       249   08 Jun 2027 08:46:08.096   08 Jun 2027 08:47:07.796            59.700               CapeTown          7462.500
       250   08 Jun 2027 10:53:07.282   08 Jun 2027 10:53:30.125            22.843                Anadyr1          2855.375
       251   08 Jun 2027 10:55:33.884   08 Jun 2027 10:58:58.116           204.232                Anadyr2         25529.000
       252   08 Jun 2027 11:02:07.314   08 Jun 2027 11:02:42.018            34.704                Anadyr1          4338.000
       253   08 Jun 2027 12:31:26.289   08 Jun 2027 12:32:31.012            64.723               Magadan2          8090.375
       254   08 Jun 2027 12:33:39.448   08 Jun 2027 12:36:27.416           167.968               Magadan2         20996.000
       255   08 Jun 2027 12:40:00.789   08 Jun 2027 12:41:51.634           110.845               Magadan2         13855.625
       256   08 Jun 2027 14:59:16.070   08 Jun 2027 15:00:44.201            88.131            RioGallegos         11016.375
       257   08 Jun 2027 15:03:35.449   08 Jun 2027 15:04:35.675            60.226            RioGallegos          7528.250
       258   08 Jun 2027 15:46:48.472   08 Jun 2027 15:48:27.281            98.809                Irkutsk         12351.125
       259   08 Jun 2027 15:55:31.427   08 Jun 2027 15:56:20.431            49.004                Irkutsk          6125.500
       260   08 Jun 2027 16:00:29.132   08 Jun 2027 16:04:27.474           238.342                Sumatra         29792.750
       261   08 Jun 2027 17:22:54.079   08 Jun 2027 17:23:36.796            42.717                Novosib          5339.625
       262   08 Jun 2027 17:25:27.464   08 Jun 2027 17:27:37.477           130.013                Novosib         16251.625
       263   08 Jun 2027 17:30:10.007   08 Jun 2027 17:32:40.201           150.194                  Delhi         18774.250
       264   08 Jun 2027 17:35:48.634   08 Jun 2027 17:39:37.640           229.006                  Delhi         28625.750
       265   08 Jun 2027 20:36:07.585   08 Jun 2027 20:36:24.066            16.481                 Moscow          2060.125
       266   08 Jun 2027 20:38:29.921   08 Jun 2027 20:39:08.012            38.091                 Moscow          4761.375
       267   08 Jun 2027 22:14:20.918   08 Jun 2027 22:15:53.599            92.681              Murmansk2         11585.125
       268   08 Jun 2027 22:37:27.316   08 Jun 2027 22:38:45.445            78.129               CapeTown          9766.125
       269   09 Jun 2027 04:06:27.854   09 Jun 2027 04:09:36.897           189.043                Sumatra         23630.375
       270   09 Jun 2027 04:34:09.623   09 Jun 2027 04:34:25.537            15.914                Novosib          1989.250
       271   09 Jun 2027 05:47:52.636   09 Jun 2027 05:48:09.416            16.780                Sumatra          2097.500
       272   09 Jun 2027 05:50:43.628   09 Jun 2027 05:52:58.496           134.868                  Delhi         16858.500
       273   09 Jun 2027 05:53:48.064   09 Jun 2027 05:55:32.096           104.032                  Delhi         13004.000
       274   09 Jun 2027 06:07:19.446   09 Jun 2027 06:07:29.167             9.721              Murmansk1          1215.125
       275   09 Jun 2027 06:07:30.149   09 Jun 2027 06:07:58.837            28.688                Norilsk          3586.000
       276   09 Jun 2027 06:08:18.259   09 Jun 2027 06:09:37.345            79.086                Novosib          9885.750
       277   09 Jun 2027 07:39:44.799   09 Jun 2027 07:41:03.113            78.314                 Moscow          9789.250
       278   09 Jun 2027 07:41:27.875   09 Jun 2027 07:42:57.514            89.639              Murmansk1         11204.875
       279   09 Jun 2027 07:42:59.158   09 Jun 2027 07:43:02.008             2.850                 Moscow           356.250
       280   09 Jun 2027 07:43:11.739   09 Jun 2027 07:43:28.021            16.282                Norilsk          2035.250
       281   09 Jun 2027 07:43:29.670   09 Jun 2027 07:44:38.630            68.960                 Moscow          8620.000
       282   09 Jun 2027 07:45:01.785   09 Jun 2027 07:45:06.144             4.359                Norilsk           544.875
       283   09 Jun 2027 07:45:11.810   09 Jun 2027 07:45:26.728            14.918              Murmansk1          1864.750
       284   09 Jun 2027 07:45:30.797   09 Jun 2027 07:45:54.279            23.482                 Moscow          2935.250
       285   09 Jun 2027 08:49:48.466   09 Jun 2027 08:57:33.274           464.808               CapeTown         58101.000
       286   09 Jun 2027 12:43:24.426   09 Jun 2027 12:44:14.134            49.708               Magadan1          6213.500
       287   09 Jun 2027 12:47:59.906   09 Jun 2027 12:49:37.862            97.956               Magadan2         12244.500
       288   09 Jun 2027 12:52:48.409   09 Jun 2027 12:53:38.564            50.155               Magadan2          6269.375
       289   09 Jun 2027 14:19:14.291   09 Jun 2027 14:20:13.893            59.602               Magadan1          7450.250
       290   09 Jun 2027 14:23:29.504   09 Jun 2027 14:23:57.716            28.212               Magadan2          3526.500
       291   09 Jun 2027 15:11:01.134   09 Jun 2027 15:13:31.230           150.096            RioGallegos         18762.000
       292   09 Jun 2027 15:18:14.912   09 Jun 2027 15:20:31.629           136.717            RioGallegos         17089.625
       293   09 Jun 2027 15:58:45.420   09 Jun 2027 15:59:59.640            74.220                Irkutsk          9277.500
       294   09 Jun 2027 16:12:27.966   09 Jun 2027 16:15:08.142           160.176                Sumatra         20022.000
       295   09 Jun 2027 16:19:58.538   09 Jun 2027 16:22:05.555           127.017                Sumatra         15877.125
       296   09 Jun 2027 17:42:01.796   09 Jun 2027 17:45:52.556           230.760                  Delhi         28845.000
       297   09 Jun 2027 19:18:52.353   09 Jun 2027 19:19:20.457            28.104                  Delhi          3513.000
       298   09 Jun 2027 20:44:51.925   09 Jun 2027 20:45:30.023            38.098              Murmansk2          4762.250
       299   09 Jun 2027 20:48:06.980   09 Jun 2027 20:51:17.404           190.424                 Moscow         23803.000
       300   10 Jun 2027 03:05:07.117   10 Jun 2027 03:05:15.516             8.399               Magadan1          1049.875
       301   10 Jun 2027 03:05:32.170   10 Jun 2027 03:06:52.907            80.737               Magadan1         10092.125
       302   10 Jun 2027 03:07:07.115   10 Jun 2027 03:07:09.476             2.361               Magadan2           295.125
       303   10 Jun 2027 03:07:50.119   10 Jun 2027 03:08:22.844            32.725                Irkutsk          4090.625
       304   10 Jun 2027 03:08:26.878   10 Jun 2027 03:08:36.542             9.664              Murmansk2          1208.000
       305   10 Jun 2027 03:08:47.772   10 Jun 2027 03:09:08.239            20.467                Norilsk          2558.375
       306   10 Jun 2027 03:10:10.071   10 Jun 2027 03:11:00.732            50.661                Norilsk          6332.625
       307   10 Jun 2027 03:43:55.842   10 Jun 2027 03:46:26.445           150.603            RioGallegos         18825.375
       308   10 Jun 2027 03:47:57.039   10 Jun 2027 03:48:09.340            12.301            RioGallegos          1537.625
       309   10 Jun 2027 04:18:29.481   10 Jun 2027 04:20:40.081           130.600                Sumatra         16325.000
       310   10 Jun 2027 04:40:48.650   10 Jun 2027 04:41:35.505            46.855              Murmansk1          5856.875
       311   10 Jun 2027 04:41:58.167   10 Jun 2027 04:42:48.064            49.897                 Moscow          6237.125
       312   10 Jun 2027 04:42:51.652   10 Jun 2027 04:43:08.109            16.457                Irkutsk          2057.125
       313   10 Jun 2027 04:43:08.113   10 Jun 2027 04:43:35.918            27.805                Novosib          3475.625
       314   10 Jun 2027 04:44:11.295   10 Jun 2027 04:44:18.477             7.182                Novosib           897.750
       315   10 Jun 2027 04:44:26.499   10 Jun 2027 04:45:13.943            47.444                Norilsk          5930.500
       316   10 Jun 2027 04:45:24.074   10 Jun 2027 04:46:00.281            36.207              Murmansk2          4525.875
       317   10 Jun 2027 06:02:54.934   10 Jun 2027 06:05:19.209           144.275                  Delhi         18034.375
       318   10 Jun 2027 06:05:42.473   10 Jun 2027 06:07:26.420           103.947                  Delhi         12993.375
       319   10 Jun 2027 06:18:39.164   10 Jun 2027 06:18:55.682            16.518                 Moscow          2064.750
       320   10 Jun 2027 06:19:16.341   10 Jun 2027 06:19:47.085            30.744              Murmansk2          3843.000
       321   10 Jun 2027 06:19:47.435   10 Jun 2027 06:20:59.773            72.338                Norilsk          9042.250
       322   10 Jun 2027 07:52:51.754   10 Jun 2027 07:55:15.823           144.069              Murmansk2         18008.625
       323   10 Jun 2027 07:55:27.963   10 Jun 2027 07:56:04.960            36.997                Norilsk          4624.625
       324   10 Jun 2027 07:57:12.227   10 Jun 2027 07:57:28.422            16.195                 Moscow          2024.375
       325   10 Jun 2027 09:01:25.505   10 Jun 2027 09:08:01.946           396.441               CapeTown         49555.125
       326   10 Jun 2027 11:17:08.241   10 Jun 2027 11:17:55.131            46.890                Anadyr1          5861.250
       327   10 Jun 2027 11:21:14.103   10 Jun 2027 11:21:55.736            41.633                Anadyr2          5204.125
       328   10 Jun 2027 12:55:23.326   10 Jun 2027 12:56:01.843            38.517               Magadan1          4814.625
       329   10 Jun 2027 12:57:45.819   10 Jun 2027 13:00:17.815           151.996               Magadan2         18999.500
       330   10 Jun 2027 13:04:57.424   10 Jun 2027 13:05:28.844            31.420               Magadan2          3927.500
       331   10 Jun 2027 14:31:16.375   10 Jun 2027 14:32:06.428            50.053               Magadan2          6256.625
       332   10 Jun 2027 14:51:45.214   10 Jun 2027 14:52:33.259            48.045                Sumatra          6005.625
       333   10 Jun 2027 15:22:56.283   10 Jun 2027 15:24:42.478           106.195            RioGallegos         13274.375
       334   10 Jun 2027 15:28:58.741   10 Jun 2027 15:31:34.044           155.303            RioGallegos         19412.875
       335   10 Jun 2027 16:13:47.889   10 Jun 2027 16:15:41.930           114.041                Irkutsk         14255.125
       336   10 Jun 2027 16:24:32.411   10 Jun 2027 16:26:16.657           104.246                Sumatra         13030.750
       337   10 Jun 2027 16:32:13.755   10 Jun 2027 16:34:14.650           120.895                Sumatra         15111.875
       338   10 Jun 2027 17:53:57.353   10 Jun 2027 17:56:30.191           152.838                  Delhi         19104.750
       339   10 Jun 2027 18:01:03.222   10 Jun 2027 18:03:30.794           147.572                  Delhi         18446.500
       340   10 Jun 2027 21:00:07.142   10 Jun 2027 21:00:34.599            27.457                 Moscow          3432.125
       341   10 Jun 2027 21:03:23.646   10 Jun 2027 21:04:10.164            46.518                 Moscow          5814.750
       342   10 Jun 2027 21:26:28.860   10 Jun 2027 21:27:13.560            44.700               CapeTown          5587.500
       343   11 Jun 2027 02:57:19.961   11 Jun 2027 02:59:05.529           105.568                Sumatra         13196.000
       344   11 Jun 2027 03:18:33.489   11 Jun 2027 03:18:43.980            10.491                Novosib          1311.375
       345   11 Jun 2027 03:18:51.437   11 Jun 2027 03:19:17.726            26.289                Norilsk          3286.125
       346   11 Jun 2027 03:19:23.872   11 Jun 2027 03:20:06.708            42.836              Murmansk2          5354.500
       347   11 Jun 2027 03:20:33.619   11 Jun 2027 03:21:36.625            63.006                Norilsk          7875.750
       348   11 Jun 2027 03:21:40.362   11 Jun 2027 03:22:18.762            38.400                Novosib          4800.000
       349   11 Jun 2027 03:56:11.966   11 Jun 2027 03:57:57.905           105.939            RioGallegos         13242.375
       350   11 Jun 2027 04:30:36.806   11 Jun 2027 04:31:56.842            80.036                Sumatra         10004.500
       351   11 Jun 2027 04:33:30.702   11 Jun 2027 04:35:20.877           110.175                Sumatra         13771.875
       352   11 Jun 2027 04:53:14.340   11 Jun 2027 04:53:58.782            44.442                Norilsk          5555.250
       353   11 Jun 2027 04:54:13.835   11 Jun 2027 04:55:11.005            57.170                Novosib          7146.250
       354   11 Jun 2027 04:55:31.793   11 Jun 2027 04:55:49.143            17.350                Norilsk          2168.750
       355   11 Jun 2027 04:55:57.879   11 Jun 2027 04:56:21.782            23.903              Murmansk2          2987.875
       356   11 Jun 2027 04:56:36.745   11 Jun 2027 04:56:58.888            22.143                 Moscow          2767.875
       357   11 Jun 2027 04:57:01.543   11 Jun 2027 04:57:14.260            12.717                Norilsk          1589.625
       358   11 Jun 2027 04:57:17.481   11 Jun 2027 04:57:26.132             8.651              Murmansk2          1081.375
       359   11 Jun 2027 04:57:42.175   11 Jun 2027 04:58:04.588            22.413                Norilsk          2801.625
       360   11 Jun 2027 04:58:21.159   11 Jun 2027 04:58:27.978             6.819                Novosib           852.375
       361   11 Jun 2027 06:15:12.525   11 Jun 2027 06:21:17.557           365.032                  Delhi         45629.000
       362   11 Jun 2027 06:30:47.817   11 Jun 2027 06:31:00.926            13.109                 Moscow          1638.625
       363   11 Jun 2027 06:31:07.093   11 Jun 2027 06:32:04.773            57.680                Norilsk          7210.000
       364   11 Jun 2027 06:32:32.269   11 Jun 2027 06:32:46.357            14.088                 Moscow          1761.000
       365   11 Jun 2027 06:32:57.816   11 Jun 2027 06:34:19.886            82.070              Murmansk1         10258.750
       366   11 Jun 2027 08:06:10.093   11 Jun 2027 08:07:56.280           106.187                 Moscow         13273.375
       367   11 Jun 2027 09:13:08.783   11 Jun 2027 09:19:12.908           364.125               CapeTown         45515.625
       368   11 Jun 2027 11:29:09.118   11 Jun 2027 11:29:18.733             9.615                Anadyr2          1201.875
       369   11 Jun 2027 11:30:23.844   11 Jun 2027 11:30:38.391            14.547                Anadyr1          1818.375
       370   11 Jun 2027 11:33:54.379   11 Jun 2027 11:33:55.615             1.236                Anadyr2           154.500
       371   11 Jun 2027 11:35:34.955   11 Jun 2027 11:41:31.490           356.535               Magadan1         44566.875
       372   11 Jun 2027 13:10:24.539   11 Jun 2027 13:14:25.533           240.994               Magadan1         30124.250
       373   11 Jun 2027 15:02:49.305   11 Jun 2027 15:05:48.290           178.985                Sumatra         22373.125
       374   11 Jun 2027 15:11:16.709   11 Jun 2027 15:11:31.613            14.904                Sumatra          1863.000
       375   11 Jun 2027 16:36:42.732   11 Jun 2027 16:37:23.303            40.571                Sumatra          5071.375
       376   11 Jun 2027 16:37:56.572   11 Jun 2027 16:39:44.074           107.502                  Delhi         13437.750
       377   11 Jun 2027 17:58:36.511   11 Jun 2027 17:59:02.273            25.762                Novosib          3220.250
       378   11 Jun 2027 18:00:13.391   11 Jun 2027 18:01:53.813           100.422                Novosib         12552.750
       379   11 Jun 2027 18:05:56.359   11 Jun 2027 18:07:42.345           105.986                  Delhi         13248.250
       380   11 Jun 2027 18:16:44.755   11 Jun 2027 18:16:49.765             5.010                  Delhi           626.250
       381   11 Jun 2027 19:40:13.971   11 Jun 2027 19:42:49.386           155.415                 Moscow         19426.875
       382   11 Jun 2027 21:37:38.290   11 Jun 2027 21:39:13.675            95.385               CapeTown         11923.125
       383   12 Jun 2027 03:08:10.698   12 Jun 2027 03:12:55.475           284.777                Sumatra         35597.125
       384   12 Jun 2027 03:16:06.410   12 Jun 2027 03:17:15.725            69.315                Sumatra          8664.375
       385   12 Jun 2027 03:32:34.120   12 Jun 2027 03:32:37.140             3.020              Murmansk1           377.500
       386   12 Jun 2027 03:32:39.482   12 Jun 2027 03:33:03.027            23.545                Norilsk          2943.125
       387   12 Jun 2027 03:37:52.305   12 Jun 2027 03:38:10.263            17.958              Murmansk1          2244.750
       388   12 Jun 2027 04:09:32.999   12 Jun 2027 04:10:36.243            63.244            RioGallegos          7905.500
       389   12 Jun 2027 04:12:11.321   12 Jun 2027 04:12:30.903            19.582            RioGallegos          2447.750
       390   12 Jun 2027 04:42:50.294   12 Jun 2027 04:45:18.861           148.567                Sumatra         18570.875
       391   12 Jun 2027 04:47:15.824   12 Jun 2027 04:47:16.283             0.459                Sumatra            57.375
       392   12 Jun 2027 04:50:24.859   12 Jun 2027 04:50:29.121             4.262                Sumatra           532.750
       393   12 Jun 2027 05:05:32.611   12 Jun 2027 05:06:29.273            56.662                Novosib          7082.750
       394   12 Jun 2027 05:06:39.450   12 Jun 2027 05:06:56.946            17.496                Norilsk          2187.000
       395   12 Jun 2027 05:07:00.624   12 Jun 2027 05:07:06.315             5.691              Murmansk2           711.375
       396   12 Jun 2027 05:07:13.433   12 Jun 2027 05:07:24.290            10.857              Murmansk2          1357.125
       397   12 Jun 2027 05:07:42.145   12 Jun 2027 05:09:18.660            96.515                Novosib         12064.375
       398   12 Jun 2027 05:10:17.607   12 Jun 2027 05:10:28.221            10.614                Novosib          1326.750
       399   12 Jun 2027 06:27:37.369   12 Jun 2027 06:31:22.813           225.444                  Delhi         28180.500
       400   12 Jun 2027 06:42:27.360   12 Jun 2027 06:43:08.469            41.109              Murmansk1          5138.625
       401   12 Jun 2027 06:43:17.488   12 Jun 2027 06:43:54.742            37.254              Murmansk1          4656.750
       402   12 Jun 2027 06:44:01.331   12 Jun 2027 06:44:29.908            28.577                Norilsk          3572.125
       403   12 Jun 2027 06:44:40.695   12 Jun 2027 06:45:41.697            61.002                 Moscow          7625.250
       404   12 Jun 2027 08:18:27.829   12 Jun 2027 08:19:42.704            74.875              Murmansk1          9359.375
       405   12 Jun 2027 09:24:56.821   12 Jun 2027 09:30:39.777           342.956               CapeTown         42869.500
       406   12 Jun 2027 10:15:00.061   12 Jun 2027 10:15:12.949            12.888                Anadyr2          1611.000
       407   12 Jun 2027 11:41:10.191   12 Jun 2027 11:41:16.989             6.798                Anadyr1           849.750
       408   12 Jun 2027 11:41:41.800   12 Jun 2027 11:42:23.469            41.669                Anadyr2          5208.625
       409   12 Jun 2027 11:44:17.294   12 Jun 2027 11:46:10.749           113.455               Magadan2         14181.875
       410   12 Jun 2027 11:50:21.067   12 Jun 2027 11:50:32.967            11.900               Magadan1          1487.500
       411   12 Jun 2027 13:19:22.978   12 Jun 2027 13:22:33.684           190.706               Magadan2         23838.250
       412   12 Jun 2027 15:03:10.211   12 Jun 2027 15:03:14.031             3.820                Irkutsk           477.500
       413   12 Jun 2027 15:13:50.376   12 Jun 2027 15:21:48.247           477.871                Sumatra         59733.875
       414   12 Jun 2027 16:38:38.252   12 Jun 2027 16:41:33.347           175.095                Novosib         21886.875
       415   12 Jun 2027 16:48:41.436   12 Jun 2027 16:52:46.003           244.567                  Delhi         30570.875
       416   12 Jun 2027 18:25:42.605   12 Jun 2027 18:26:32.124            49.519                  Delhi          6189.875
       417   12 Jun 2027 19:53:09.167   12 Jun 2027 19:53:53.434            44.267                 Moscow          5533.375
       418   12 Jun 2027 19:54:36.588   12 Jun 2027 19:56:07.411            90.823                 Moscow         11352.875
       419   12 Jun 2027 21:48:09.902   12 Jun 2027 21:49:08.910            59.008               CapeTown          7376.000
       420   12 Jun 2027 21:54:26.401   12 Jun 2027 21:55:52.745            86.344               CapeTown         10793.000
       421   13 Jun 2027 03:19:35.495   13 Jun 2027 03:20:51.644            76.149                Sumatra          9518.625
       422   13 Jun 2027 03:22:12.856   13 Jun 2027 03:26:56.039           283.183                Sumatra         35397.875
       423   13 Jun 2027 04:22:54.833   13 Jun 2027 04:23:37.982            43.149            RioGallegos          5393.625
       424   13 Jun 2027 04:55:10.913   13 Jun 2027 04:57:00.408           109.495                Sumatra         13686.875
       425   13 Jun 2027 05:01:31.280   13 Jun 2027 05:02:25.147            53.867                Sumatra          6733.375
       426   13 Jun 2027 05:09:15.735   13 Jun 2027 05:09:47.938            32.203                  Delhi          4025.375
       427   13 Jun 2027 05:12:19.246   13 Jun 2027 05:12:33.901            14.655                  Delhi          1831.875
       428   13 Jun 2027 05:18:40.713   13 Jun 2027 05:19:55.972            75.259                Irkutsk          9407.375
       429   13 Jun 2027 05:20:21.515   13 Jun 2027 05:20:33.398            11.883              Murmansk2          1485.375
       430   13 Jun 2027 05:20:33.398   13 Jun 2027 05:21:10.884            37.486              Murmansk1          4685.750
       431   13 Jun 2027 05:21:19.495   13 Jun 2027 05:21:54.972            35.477                Norilsk          4434.625
       432   13 Jun 2027 06:40:11.148   13 Jun 2027 06:42:14.974           123.826                  Delhi         15478.250
       433   13 Jun 2027 06:54:40.914   13 Jun 2027 06:55:03.039            22.125              Murmansk2          2765.625
       434   13 Jun 2027 06:55:13.110   13 Jun 2027 06:56:02.893            49.783                 Moscow          6222.875
       435   13 Jun 2027 06:56:24.920   13 Jun 2027 06:57:14.382            49.462                Norilsk          6182.750
       436   13 Jun 2027 06:57:27.447   13 Jun 2027 06:58:06.243            38.796              Murmansk2          4849.500
       437   13 Jun 2027 09:36:48.749   13 Jun 2027 09:40:22.929           214.180               CapeTown         26772.500
       438   13 Jun 2027 10:26:55.092   13 Jun 2027 10:27:38.136            43.044                Anadyr2          5380.500
       439   13 Jun 2027 11:53:11.401   13 Jun 2027 11:53:15.932             4.531                Anadyr2           566.375
       440   13 Jun 2027 11:55:20.462   13 Jun 2027 11:57:56.443           155.981                Anadyr1         19497.625
       441   13 Jun 2027 12:02:36.366   13 Jun 2027 12:02:46.947            10.581                Anadyr2          1322.625
       442   13 Jun 2027 12:05:13.522   13 Jun 2027 12:05:23.310             9.788               Magadan2          1223.500
       443   13 Jun 2027 13:31:23.545   13 Jun 2027 13:31:40.601            17.056               Magadan1          2132.000
       444   13 Jun 2027 13:33:04.042   13 Jun 2027 13:33:37.291            33.249               Magadan2          4156.125
       445   13 Jun 2027 13:34:40.126   13 Jun 2027 13:36:31.176           111.050               Magadan1         13881.250
       446   13 Jun 2027 13:39:19.384   13 Jun 2027 13:40:58.796            99.412               Magadan1         12426.500
       447   13 Jun 2027 15:14:50.709   13 Jun 2027 15:16:25.863            95.154                Irkutsk         11894.250
       448   13 Jun 2027 15:25:22.860   13 Jun 2027 15:27:05.806           102.946                Sumatra         12868.250
       449   13 Jun 2027 15:29:18.705   13 Jun 2027 15:32:17.612           178.907                Sumatra         22363.375
       450   13 Jun 2027 16:50:06.420   13 Jun 2027 16:51:47.703           101.283                Novosib         12660.375
       451   13 Jun 2027 16:53:30.078   13 Jun 2027 16:54:58.570            88.492                Novosib         11061.500
       452   13 Jun 2027 16:55:19.378   13 Jun 2027 17:03:19.509           480.131                  Delhi         60016.375
       453   13 Jun 2027 20:05:51.002   13 Jun 2027 20:08:10.478           139.476                 Moscow         17434.500
       454   13 Jun 2027 22:00:22.952   13 Jun 2027 22:00:45.958            23.006               CapeTown          2875.750
       455   13 Jun 2027 22:02:54.623   13 Jun 2027 22:03:05.155            10.532               CapeTown          1316.500
       456   13 Jun 2027 22:04:48.231   13 Jun 2027 22:06:40.209           111.978               CapeTown         13997.250
