uniorb/output/strategy_1/Drop/Drop_KinoSat_112006.txt

KinoSat_112006
-------------------------
    Access    *     Start Time (UTCG)     *     Stop Time (UTCG)  *   Duration (s)        *       Station  *  Data (Mbytes)
         1   01 Jun 2027 04:26:20.805   01 Jun 2027 04:31:14.438           293.633                Irkutsk          9176.031
         2   01 Jun 2027 04:32:40.671   01 Jun 2027 04:33:20.533            39.862                  Delhi          1245.688
         3   01 Jun 2027 04:33:54.845   01 Jun 2027 04:34:10.522            15.677                Novosib           489.906
         4   01 Jun 2027 04:34:51.586   01 Jun 2027 04:36:00.988            69.402                  Delhi          2168.812
         5   01 Jun 2027 06:05:14.808   01 Jun 2027 06:07:14.644           119.836              Murmansk1          3744.875
         6   01 Jun 2027 06:07:14.644   01 Jun 2027 06:08:09.881            55.237              Murmansk2          1726.156
         7   01 Jun 2027 06:08:18.050   01 Jun 2027 06:09:43.925            85.875              Murmansk2          2683.594
         8   01 Jun 2027 06:09:59.453   01 Jun 2027 06:11:30.213            90.760                 Moscow          2836.250
         9   01 Jun 2027 06:24:52.501   01 Jun 2027 06:27:14.718           142.217               CapeTown          4444.281
        10   01 Jun 2027 06:28:01.537   01 Jun 2027 06:28:29.021            27.484               CapeTown           858.875
        11   01 Jun 2027 06:31:42.775   01 Jun 2027 06:32:18.737            35.962               CapeTown          1123.813
        12   01 Jun 2027 07:32:24.966   01 Jun 2027 07:33:31.445            66.479                Anadyr1          2077.469
        13   01 Jun 2027 07:40:35.179   01 Jun 2027 07:41:21.775            46.596                Norilsk          1456.125
        14   01 Jun 2027 07:41:33.132   01 Jun 2027 07:42:15.012            41.880                 Moscow          1308.750
        15   01 Jun 2027 07:42:18.725   01 Jun 2027 07:42:41.061            22.336              Murmansk1           698.000
        16   01 Jun 2027 07:42:41.061   01 Jun 2027 07:44:15.322            94.261              Murmansk2          2945.656
        17   01 Jun 2027 07:44:23.634   01 Jun 2027 07:45:18.032            54.398                 Moscow          1699.938
        18   01 Jun 2027 07:46:19.429   01 Jun 2027 07:47:20.890            61.461                 Moscow          1920.656
        19   01 Jun 2027 07:48:17.014   01 Jun 2027 07:48:48.662            31.648                 Moscow           989.000
        20   01 Jun 2027 08:01:46.814   01 Jun 2027 08:07:55.483           368.669               CapeTown         11520.906
        21   01 Jun 2027 09:02:40.535   01 Jun 2027 09:07:42.508           301.973                Anadyr2          9436.656
        22   01 Jun 2027 09:07:46.797   01 Jun 2027 09:08:07.106            20.309                Anadyr1           634.656
        23   01 Jun 2027 10:37:26.674   01 Jun 2027 10:42:28.932           302.258                Anadyr1          9445.563
        24   01 Jun 2027 10:43:54.653   01 Jun 2027 10:45:41.650           106.997               Magadan2          3343.656
        25   01 Jun 2027 12:12:55.351   01 Jun 2027 12:20:31.397           456.046               Magadan2         14251.438
        26   01 Jun 2027 14:36:08.549   01 Jun 2027 14:43:18.923           430.374            RioGallegos         13449.187
        27   01 Jun 2027 15:10:45.271   01 Jun 2027 15:15:07.499           262.228                Sumatra          8194.625
        28   01 Jun 2027 15:26:40.130   01 Jun 2027 15:30:13.610           213.480                Irkutsk          6671.250
        29   01 Jun 2027 17:06:12.463   01 Jun 2027 17:06:24.608            12.145                Novosib           379.531
        30   01 Jun 2027 20:19:01.810   01 Jun 2027 20:20:34.918            93.108              Murmansk1          2909.625
        31   01 Jun 2027 20:22:00.042   01 Jun 2027 20:24:37.734           157.692              Murmansk1          4927.875
        32   01 Jun 2027 20:25:24.453   01 Jun 2027 20:27:49.430           144.977              Murmansk2          4530.531
        33   01 Jun 2027 21:27:54.974   01 Jun 2027 21:32:34.406           279.432               CapeTown          8732.250
        34   02 Jun 2027 00:35:39.761   02 Jun 2027 00:36:45.533            65.772            RioGallegos          2055.375
        35   02 Jun 2027 00:42:15.620   02 Jun 2027 00:42:33.070            17.450            RioGallegos           545.313
        36   02 Jun 2027 00:45:58.458   02 Jun 2027 00:46:24.247            25.789            RioGallegos           805.906
        37   02 Jun 2027 01:17:00.508   02 Jun 2027 01:17:49.315            48.807                Anadyr2          1525.219
        38   02 Jun 2027 01:18:58.520   02 Jun 2027 01:19:39.606            41.086                Anadyr2          1283.937
        39   02 Jun 2027 01:19:40.695   02 Jun 2027 01:20:37.970            57.275                Norilsk          1789.844
        40   02 Jun 2027 01:20:50.276   02 Jun 2027 01:21:46.178            55.902               Magadan2          1746.937
        41   02 Jun 2027 01:22:38.975   02 Jun 2027 01:23:12.843            33.868               Magadan1          1058.375
        42   02 Jun 2027 01:23:23.023   02 Jun 2027 01:25:17.908           114.885                Irkutsk          3590.156
        43   02 Jun 2027 01:30:26.282   02 Jun 2027 01:31:02.913            36.631                Irkutsk          1144.719
        44   02 Jun 2027 01:37:05.109   02 Jun 2027 01:39:50.282           165.173                Sumatra          5161.656
        45   02 Jun 2027 02:13:33.466   02 Jun 2027 02:13:39.428             5.962            RioGallegos           186.312
        46   02 Jun 2027 02:13:50.925   02 Jun 2027 02:14:26.651            35.726            RioGallegos          1116.438
        47   02 Jun 2027 02:17:53.400   02 Jun 2027 02:18:03.224             9.824            RioGallegos           307.000
        48   02 Jun 2027 02:52:27.142   02 Jun 2027 02:52:36.750             9.608                Anadyr2           300.250
        49   02 Jun 2027 02:53:51.181   02 Jun 2027 02:54:04.688            13.507                Anadyr2           422.094
        50   02 Jun 2027 02:54:29.086   02 Jun 2027 02:54:54.357            25.271                Anadyr1           789.719
        51   02 Jun 2027 02:55:21.557   02 Jun 2027 02:56:05.115            43.558                Norilsk          1361.187
        52   02 Jun 2027 02:56:17.848   02 Jun 2027 02:56:21.540             3.692               Magadan2           115.375
        53   02 Jun 2027 02:56:22.999   02 Jun 2027 02:57:06.480            43.481               Magadan1          1358.781
        54   02 Jun 2027 02:59:03.441   02 Jun 2027 03:00:01.799            58.358              Murmansk1          1823.687
        55   02 Jun 2027 03:00:19.390   02 Jun 2027 03:01:35.754            76.364               Magadan2          2386.375
        56   02 Jun 2027 03:01:45.651   02 Jun 2027 03:02:32.596            46.945               Magadan2          1467.031
        57   02 Jun 2027 03:02:54.910   02 Jun 2027 03:04:31.450            96.540                Irkutsk          3016.875
        58   02 Jun 2027 03:04:49.105   02 Jun 2027 03:05:55.777            66.672                Novosib          2083.500
        59   02 Jun 2027 03:06:16.342   02 Jun 2027 03:07:51.752            95.410                Norilsk          2981.563
        60   02 Jun 2027 03:08:56.092   02 Jun 2027 03:09:26.938            30.846                  Delhi           963.937
        61   02 Jun 2027 03:13:21.625   02 Jun 2027 03:13:37.921            16.296                  Delhi           509.250
        62   02 Jun 2027 03:48:01.203   02 Jun 2027 03:48:03.529             2.326            RioGallegos            72.687
        63   02 Jun 2027 03:49:52.929   02 Jun 2027 03:52:37.200           164.271            RioGallegos          5133.469
        64   02 Jun 2027 04:36:27.735   02 Jun 2027 04:36:40.673            12.938                Irkutsk           404.313
        65   02 Jun 2027 04:37:33.781   02 Jun 2027 04:39:25.934           112.153                Irkutsk          3504.781
        66   02 Jun 2027 04:39:44.458   02 Jun 2027 04:39:53.697             9.239                Irkutsk           288.719
        67   02 Jun 2027 04:39:54.889   02 Jun 2027 04:40:42.394            47.505                Novosib          1484.531
        68   02 Jun 2027 04:40:46.302   02 Jun 2027 04:41:59.673            73.371                 Moscow          2292.844
        69   02 Jun 2027 04:42:09.881   02 Jun 2027 04:43:01.667            51.786              Murmansk1          1618.313
        70   02 Jun 2027 04:43:08.684   02 Jun 2027 04:43:32.820            24.136              Murmansk1           754.250
        71   02 Jun 2027 04:44:07.497   02 Jun 2027 04:51:56.083           468.586                  Delhi         14643.313
        72   02 Jun 2027 06:17:10.165   02 Jun 2027 06:19:50.196           160.031                Novosib          5000.969
        73   02 Jun 2027 06:19:56.457   02 Jun 2027 06:20:48.246            51.789                 Moscow          1618.406
        74   02 Jun 2027 06:20:59.705   02 Jun 2027 06:21:57.069            57.364              Murmansk2          1792.625
        75   02 Jun 2027 06:22:00.449   02 Jun 2027 06:22:32.211            31.762                 Moscow           992.563
        76   02 Jun 2027 06:36:42.876   02 Jun 2027 06:39:43.119           180.243               CapeTown          5632.594
        77   02 Jun 2027 07:40:35.492   02 Jun 2027 07:40:52.823            17.331                Anadyr2           541.594
        78   02 Jun 2027 07:40:57.853   02 Jun 2027 07:41:21.266            23.413               Magadan2           731.656
        79   02 Jun 2027 07:41:48.369   02 Jun 2027 07:42:06.419            18.050               Magadan2           564.062
        80   02 Jun 2027 07:42:20.066   02 Jun 2027 07:42:54.733            34.667                Anadyr1          1083.344
        81   02 Jun 2027 08:14:27.747   02 Jun 2027 08:21:56.304           448.557               CapeTown         14017.406
        82   02 Jun 2027 09:14:04.971   02 Jun 2027 09:15:05.368            60.397                Anadyr1          1887.406
        83   02 Jun 2027 09:16:22.906   02 Jun 2027 09:17:21.407            58.501                Anadyr2          1828.156
        84   02 Jun 2027 09:17:21.407   02 Jun 2027 09:18:36.118            74.711                Anadyr1          2334.719
        85   02 Jun 2027 09:19:43.907   02 Jun 2027 09:20:59.638            75.731                Anadyr2          2366.594
        86   02 Jun 2027 09:20:59.638   02 Jun 2027 09:22:07.325            67.687                Anadyr1          2115.219
        87   02 Jun 2027 10:49:18.763   02 Jun 2027 10:50:21.237            62.474               Magadan1          1952.313
        88   02 Jun 2027 10:50:32.902   02 Jun 2027 10:57:14.020           401.118                Anadyr1         12534.938
        89   02 Jun 2027 12:25:53.386   02 Jun 2027 12:32:08.252           374.866               Magadan2         11714.563
        90   02 Jun 2027 14:48:48.613   02 Jun 2027 14:54:41.511           352.898            RioGallegos         11028.062
        91   02 Jun 2027 20:31:39.613   02 Jun 2027 20:39:46.756           487.143              Murmansk1         15223.219
        92   02 Jun 2027 22:20:00.393   02 Jun 2027 22:20:57.494            57.101               Magadan2          1784.406
        93   02 Jun 2027 22:21:26.612   02 Jun 2027 22:21:44.987            18.375               Magadan2           574.219
        94   02 Jun 2027 22:23:29.009   02 Jun 2027 22:23:50.685            21.676               Magadan2           677.375
        95   02 Jun 2027 23:14:53.662   02 Jun 2027 23:16:07.990            74.328            RioGallegos          2322.750
        96   02 Jun 2027 23:53:32.428   02 Jun 2027 23:55:06.776            94.348                Anadyr2          2948.375
        97   02 Jun 2027 23:55:10.499   02 Jun 2027 23:56:28.447            77.948                Anadyr1          2435.875
        98   02 Jun 2027 23:56:32.008   02 Jun 2027 23:59:17.360           165.352               Magadan1          5167.250
        99   03 Jun 2027 00:00:53.875   03 Jun 2027 00:01:29.687            35.812                Irkutsk          1119.125
       100   03 Jun 2027 00:02:33.864   03 Jun 2027 00:03:01.715            27.851                Irkutsk           870.344
       101   03 Jun 2027 00:16:31.068   03 Jun 2027 00:18:36.831           125.763                Sumatra          3930.094
       102   03 Jun 2027 00:19:02.441   03 Jun 2027 00:21:12.042           129.601                Sumatra          4050.031
       103   03 Jun 2027 01:28:55.165   03 Jun 2027 01:28:58.807             3.642                Anadyr1           113.813
       104   03 Jun 2027 01:29:11.702   03 Jun 2027 01:29:17.407             5.705                Anadyr2           178.281
       105   03 Jun 2027 01:29:35.514   03 Jun 2027 01:29:45.688            10.174                Anadyr1           317.937
       106   03 Jun 2027 01:30:25.762   03 Jun 2027 01:31:40.920            75.158                Anadyr2          2348.687
       107   03 Jun 2027 01:32:00.963   03 Jun 2027 01:33:45.465           104.502               Magadan2          3265.687
       108   03 Jun 2027 01:34:06.599   03 Jun 2027 01:34:30.698            24.099               Magadan1           753.094
       109   03 Jun 2027 01:35:21.289   03 Jun 2027 01:38:21.190           179.901                Irkutsk          5621.906
       110   03 Jun 2027 01:49:07.565   03 Jun 2027 01:50:41.165            93.600                Sumatra          2925.000
       111   03 Jun 2027 01:52:14.296   03 Jun 2027 01:53:32.720            78.424                Sumatra          2450.750
       112   03 Jun 2027 02:28:12.906   03 Jun 2027 02:29:10.723            57.817            RioGallegos          1806.781
       113   03 Jun 2027 03:11:30.454   03 Jun 2027 03:12:00.893            30.439               Magadan1           951.219
       114   03 Jun 2027 03:12:01.487   03 Jun 2027 03:12:34.736            33.249               Magadan1          1039.031
       115   03 Jun 2027 03:12:41.863   03 Jun 2027 03:13:32.848            50.985               Magadan1          1593.281
       116   03 Jun 2027 03:13:32.848   03 Jun 2027 03:13:34.552             1.704               Magadan2            53.250
       117   03 Jun 2027 03:13:48.418   03 Jun 2027 03:14:00.086            11.668               Magadan1           364.625
       118   03 Jun 2027 03:14:41.391   03 Jun 2027 03:16:06.497            85.106                Norilsk          2659.563
       119   03 Jun 2027 03:16:15.514   03 Jun 2027 03:16:51.231            35.717                Norilsk          1116.156
       120   03 Jun 2027 03:16:56.639   03 Jun 2027 03:17:26.968            30.329                Irkutsk           947.781
       121   03 Jun 2027 03:17:34.804   03 Jun 2027 03:18:33.966            59.162                Norilsk          1848.812
       122   03 Jun 2027 03:18:36.213   03 Jun 2027 03:21:18.443           162.230                  Delhi          5069.688
       123   03 Jun 2027 03:24:20.980   03 Jun 2027 03:24:33.860            12.880                  Delhi           402.500
       124   03 Jun 2027 04:00:15.934   03 Jun 2027 04:02:26.233           130.299            RioGallegos          4071.844
       125   03 Jun 2027 04:03:16.528   03 Jun 2027 04:04:58.890           102.362            RioGallegos          3198.813
       126   03 Jun 2027 04:50:13.109   03 Jun 2027 04:50:56.727            43.618                Norilsk          1363.063
       127   03 Jun 2027 04:51:00.928   03 Jun 2027 04:51:16.463            15.535                Norilsk           485.469
       128   03 Jun 2027 04:51:40.926   03 Jun 2027 04:54:04.740           143.814              Murmansk1          4494.188
       129   03 Jun 2027 04:54:08.488   03 Jun 2027 04:55:05.670            57.182              Murmansk2          1786.938
       130   03 Jun 2027 04:55:09.294   03 Jun 2027 04:55:10.910             1.616              Murmansk2            50.500
       131   03 Jun 2027 04:55:39.037   03 Jun 2027 04:56:01.362            22.325              Murmansk2           697.656
       132   03 Jun 2027 04:56:48.462   03 Jun 2027 05:02:52.867           364.405                  Delhi         11387.656
       133   03 Jun 2027 05:04:19.236   03 Jun 2027 05:04:34.295            15.059                  Delhi           470.594
       134   03 Jun 2027 06:28:45.923   03 Jun 2027 06:28:56.251            10.328                 Moscow           322.750
       135   03 Jun 2027 06:29:07.707   03 Jun 2027 06:29:29.387            21.680                Novosib           677.500
       136   03 Jun 2027 06:29:41.144   03 Jun 2027 06:31:10.810            89.666                 Moscow          2802.062
       137   03 Jun 2027 06:31:22.343   03 Jun 2027 06:34:08.319           165.976              Murmansk1          5186.750
       138   03 Jun 2027 06:34:19.469   03 Jun 2027 06:36:20.647           121.178                 Moscow          3786.813
       139   03 Jun 2027 06:48:38.351   03 Jun 2027 06:52:20.791           222.440               CapeTown          6951.250
       140   03 Jun 2027 07:52:49.290   03 Jun 2027 07:53:41.462            52.172                Anadyr1          1630.375
       141   03 Jun 2027 07:54:38.369   03 Jun 2027 07:55:03.032            24.663               Magadan2           770.719
       142   03 Jun 2027 07:57:36.590   03 Jun 2027 07:57:55.342            18.752                Anadyr2           586.000
       143   03 Jun 2027 08:27:23.151   03 Jun 2027 08:35:07.590           464.439               CapeTown         14513.719
       144   03 Jun 2027 09:29:01.068   03 Jun 2027 09:34:06.992           305.924                Anadyr1          9560.125
       145   03 Jun 2027 10:57:53.473   03 Jun 2027 10:58:01.420             7.947               Magadan1           248.344
       146   03 Jun 2027 11:02:49.834   03 Jun 2027 11:07:16.458           266.624               Magadan1          8332.000
       147   03 Jun 2027 11:07:16.458   03 Jun 2027 11:09:38.345           141.887               Magadan2          4433.969
       148   03 Jun 2027 12:39:09.290   03 Jun 2027 12:43:30.180           260.890               Magadan2          8152.813
       149   03 Jun 2027 14:03:46.058   03 Jun 2027 14:04:53.629            67.571                Sumatra          2111.594
       150   03 Jun 2027 14:09:48.039   03 Jun 2027 14:10:42.108            54.069                Irkutsk          1689.656
       151   03 Jun 2027 14:11:36.909   03 Jun 2027 14:15:03.843           206.934                Irkutsk          6466.688
       152   03 Jun 2027 15:02:35.266   03 Jun 2027 15:05:28.493           173.227            RioGallegos          5413.344
       153   03 Jun 2027 15:47:45.334   03 Jun 2027 15:49:01.393            76.059                Novosib          2376.844
       154   03 Jun 2027 15:52:26.555   03 Jun 2027 15:52:55.231            28.676                Novosib           896.125
       155   03 Jun 2027 15:55:17.585   03 Jun 2027 15:58:29.472           191.887                Novosib          5996.469
       156   03 Jun 2027 17:32:03.796   03 Jun 2027 17:35:18.256           194.460                Norilsk          6076.875
       157   03 Jun 2027 17:35:49.001   03 Jun 2027 17:37:03.065            74.064                Norilsk          2314.500
       158   03 Jun 2027 19:01:41.105   03 Jun 2027 19:03:35.196           114.091                 Moscow          3565.344
       159   03 Jun 2027 19:04:35.341   03 Jun 2027 19:06:30.696           115.355              Murmansk2          3604.844
       160   03 Jun 2027 19:10:25.003   03 Jun 2027 19:11:52.261            87.258              Murmansk1          2726.813
       161   03 Jun 2027 20:13:51.796   03 Jun 2027 20:15:58.203           126.407               CapeTown          3950.219
       162   03 Jun 2027 20:44:21.180   03 Jun 2027 20:51:42.431           441.251              Murmansk2         13789.094
       163   03 Jun 2027 22:29:42.580   03 Jun 2027 22:32:34.326           171.746                Anadyr1          5367.063
       164   03 Jun 2027 22:32:48.921   03 Jun 2027 22:32:54.398             5.477                Anadyr1           171.156
       165   03 Jun 2027 22:33:18.882   03 Jun 2027 22:33:50.249            31.367               Magadan1           980.219
       166   03 Jun 2027 22:34:20.445   03 Jun 2027 22:35:25.790            65.345               Magadan1          2042.031
       167   03 Jun 2027 22:37:24.653   03 Jun 2027 22:37:40.569            15.916               Magadan2           497.375
       168   03 Jun 2027 22:40:12.511   03 Jun 2027 22:40:18.851             6.340               Magadan2           198.125
       169   03 Jun 2027 22:40:31.853   03 Jun 2027 22:41:14.566            42.713               Magadan2          1334.781
       170   03 Jun 2027 23:25:44.389   03 Jun 2027 23:28:24.353           159.964            RioGallegos          4998.875
       171   04 Jun 2027 00:05:32.262   04 Jun 2027 00:07:31.216           118.954                Anadyr1          3717.313
       172   04 Jun 2027 00:07:37.283   04 Jun 2027 00:09:11.297            94.014                Norilsk          2937.938
       173   04 Jun 2027 00:09:49.861   04 Jun 2027 00:10:53.785            63.924               Magadan1          1997.625
       174   04 Jun 2027 00:12:31.431   04 Jun 2027 00:13:27.434            56.003                Irkutsk          1750.094
       175   04 Jun 2027 00:14:34.949   04 Jun 2027 00:15:02.734            27.785                Irkutsk           868.281
       176   04 Jun 2027 00:16:58.219   04 Jun 2027 00:17:08.671            10.452                Irkutsk           326.625
       177   04 Jun 2027 00:17:50.079   04 Jun 2027 00:18:06.160            16.081                Irkutsk           502.531
       178   04 Jun 2027 00:18:16.561   04 Jun 2027 00:20:15.755           119.194                Irkutsk          3724.812
       179   04 Jun 2027 00:27:26.738   04 Jun 2027 00:29:21.315           114.577                Sumatra          3580.531
       180   04 Jun 2027 01:07:42.370   04 Jun 2027 01:07:52.106             9.736            RioGallegos           304.250
       181   04 Jun 2027 01:08:23.736   04 Jun 2027 01:09:03.997            40.261            RioGallegos          1258.156
       182   04 Jun 2027 01:40:48.711   04 Jun 2027 01:40:58.433             9.722                Anadyr1           303.813
       183   04 Jun 2027 01:41:06.613   04 Jun 2027 01:41:20.509            13.896                Anadyr1           434.250
       184   04 Jun 2027 01:42:19.611   04 Jun 2027 01:42:31.256            11.645                Anadyr1           363.906
       185   04 Jun 2027 01:42:58.724   04 Jun 2027 01:43:27.169            28.445                Anadyr1           888.906
       186   04 Jun 2027 01:43:31.893   04 Jun 2027 01:43:42.176            10.283                Anadyr2           321.344
       187   04 Jun 2027 01:43:58.734   04 Jun 2027 01:44:17.226            18.492                Anadyr2           577.875
       188   04 Jun 2027 01:44:26.911   04 Jun 2027 01:44:31.623             4.712               Magadan1           147.250
       189   04 Jun 2027 01:44:34.870   04 Jun 2027 01:45:29.043            54.173                Norilsk          1692.906
       190   04 Jun 2027 01:45:33.904   04 Jun 2027 01:45:58.973            25.069               Magadan1           783.406
       191   04 Jun 2027 01:47:14.167   04 Jun 2027 01:47:22.156             7.989                Norilsk           249.656
       192   04 Jun 2027 01:47:58.568   04 Jun 2027 01:49:19.210            80.642                Novosib          2520.062
       193   04 Jun 2027 01:50:18.967   04 Jun 2027 01:51:14.646            55.679                Irkutsk          1739.969
       194   04 Jun 2027 01:52:00.074   04 Jun 2027 01:52:25.582            25.508                Novosib           797.125
       195   04 Jun 2027 01:53:09.302   04 Jun 2027 01:53:19.461            10.159                Novosib           317.469
       196   04 Jun 2027 01:54:32.100   04 Jun 2027 01:54:59.004            26.904                Irkutsk           840.750
       197   04 Jun 2027 01:57:48.945   04 Jun 2027 01:58:49.296            60.351                  Delhi          1885.969
       198   04 Jun 2027 02:01:15.854   04 Jun 2027 02:01:25.590             9.736                Sumatra           304.250
       199   04 Jun 2027 02:04:08.495   04 Jun 2027 02:05:59.572           111.077                Sumatra          3471.156
       200   04 Jun 2027 02:09:16.693   04 Jun 2027 02:11:01.059           104.366                Sumatra          3261.437
       201   04 Jun 2027 03:23:32.797   04 Jun 2027 03:23:50.662            17.865               Magadan1           558.281
       202   04 Jun 2027 03:24:18.023   04 Jun 2027 03:25:27.380            69.357               Magadan2          2167.406
       203   04 Jun 2027 03:26:26.710   04 Jun 2027 03:27:24.520            57.810              Murmansk1          1806.563
       204   04 Jun 2027 03:27:27.299   04 Jun 2027 03:28:14.679            47.380                Novosib          1480.625
       205   04 Jun 2027 03:28:21.545   04 Jun 2027 03:33:35.371           313.826                Novosib          9807.062
       206   04 Jun 2027 03:33:44.857   04 Jun 2027 03:34:42.847            57.990                Novosib          1812.187
       207   04 Jun 2027 03:35:29.474   04 Jun 2027 03:37:29.274           119.800                  Delhi          3743.750
       208   04 Jun 2027 04:13:32.506   04 Jun 2027 04:15:29.228           116.722            RioGallegos          3647.563
       209   04 Jun 2027 04:15:41.588   04 Jun 2027 04:16:56.815            75.227            RioGallegos          2350.844
       210   04 Jun 2027 05:03:27.788   04 Jun 2027 05:07:27.604           239.816                Novosib          7494.250
       211   04 Jun 2027 05:07:33.464   04 Jun 2027 05:07:37.169             3.705                Novosib           115.781
       212   04 Jun 2027 05:08:30.103   04 Jun 2027 05:15:34.947           424.844                  Delhi         13276.375
       213   04 Jun 2027 06:41:59.466   04 Jun 2027 06:43:53.946           114.480                 Moscow          3577.500
       214   04 Jun 2027 06:44:10.552   04 Jun 2027 06:47:22.554           192.002                 Moscow          6000.062
       215   04 Jun 2027 07:00:38.871   04 Jun 2027 07:03:52.286           193.415               CapeTown          6044.219
       216   04 Jun 2027 08:04:15.592   04 Jun 2027 08:05:04.620            49.028               Magadan2          1532.125
       217   04 Jun 2027 08:05:04.620   04 Jun 2027 08:05:32.797            28.177               Magadan1           880.531
       218   04 Jun 2027 08:05:34.120   04 Jun 2027 08:06:09.953            35.833               Magadan1          1119.781
       219   04 Jun 2027 08:08:28.164   04 Jun 2027 08:10:11.179           103.015                Anadyr2          3219.219
       220   04 Jun 2027 08:40:45.357   04 Jun 2027 08:46:03.340           317.983               CapeTown          9936.969
       221   04 Jun 2027 09:37:45.060   04 Jun 2027 09:40:04.963           139.903                Anadyr2          4371.969
       222   04 Jun 2027 09:40:25.093   04 Jun 2027 09:44:54.651           269.558                Anadyr1          8423.688
       223   04 Jun 2027 11:14:04.997   04 Jun 2027 11:14:34.325            29.328                Irkutsk           916.500
       224   04 Jun 2027 11:15:23.017   04 Jun 2027 11:20:57.886           334.869               Magadan1         10464.656
       225   04 Jun 2027 11:21:26.872   04 Jun 2027 11:22:35.009            68.137                Norilsk          2129.281
       226   04 Jun 2027 11:56:32.268   04 Jun 2027 11:57:46.721            74.453            RioGallegos          2326.656
       227   04 Jun 2027 12:33:02.928   04 Jun 2027 12:33:14.337            11.409                Sumatra           356.531
       228   04 Jun 2027 12:34:47.100   04 Jun 2027 12:35:39.088            51.988                Sumatra          1624.625
       229   04 Jun 2027 12:44:45.935   04 Jun 2027 12:47:46.609           180.674                Irkutsk          5646.062
       230   04 Jun 2027 12:49:41.417   04 Jun 2027 12:50:28.600            47.183                Norilsk          1474.469
       231   04 Jun 2027 12:51:57.204   04 Jun 2027 12:53:03.648            66.444                Irkutsk          2076.375
       232   04 Jun 2027 13:33:00.726   04 Jun 2027 13:33:26.404            25.678            RioGallegos           802.438
       233   04 Jun 2027 13:35:14.889   04 Jun 2027 13:38:03.003           168.114            RioGallegos          5253.563
       234   04 Jun 2027 14:07:22.323   04 Jun 2027 14:07:59.486            37.163                Sumatra          1161.344
       235   04 Jun 2027 14:22:13.803   04 Jun 2027 14:23:33.898            80.095                Novosib          2502.969
       236   04 Jun 2027 14:23:53.484   04 Jun 2027 14:26:48.140           174.656                Irkutsk          5458.000
       237   04 Jun 2027 14:31:20.934   04 Jun 2027 14:32:17.425            56.491                Irkutsk          1765.344
       238   04 Jun 2027 15:52:03.909   04 Jun 2027 15:54:13.337           129.428                  Delhi          4044.625
       239   04 Jun 2027 16:00:18.063   04 Jun 2027 16:02:26.046           127.983                Novosib          3999.469
       240   04 Jun 2027 16:04:09.031   04 Jun 2027 16:04:59.027            49.996                Norilsk          1562.375
       241   04 Jun 2027 16:05:47.177   04 Jun 2027 16:06:05.382            18.205                Novosib           568.906
       242   04 Jun 2027 16:08:52.276   04 Jun 2027 16:09:56.774            64.498                Norilsk          2015.562
       243   04 Jun 2027 17:35:48.397   04 Jun 2027 17:37:02.114            73.717                 Moscow          2303.656
       244   04 Jun 2027 17:39:03.176   04 Jun 2027 17:40:06.368            63.192                 Moscow          1974.750
       245   04 Jun 2027 17:40:46.845   04 Jun 2027 17:42:27.434           100.589              Murmansk2          3143.406
       246   04 Jun 2027 17:44:56.490   04 Jun 2027 17:49:55.172           298.682                Norilsk          9333.812
       247   04 Jun 2027 19:14:18.584   04 Jun 2027 19:16:48.151           149.567                 Moscow          4673.969
       248   04 Jun 2027 19:17:22.310   04 Jun 2027 19:20:26.660           184.350                 Moscow          5760.937
       249   04 Jun 2027 20:27:10.782   04 Jun 2027 20:27:41.031            30.249               CapeTown           945.281
       250   04 Jun 2027 20:29:41.568   04 Jun 2027 20:30:16.710            35.142               CapeTown          1098.188
       251   04 Jun 2027 20:33:47.923   04 Jun 2027 20:35:20.957            93.034               CapeTown          2907.313
       252   04 Jun 2027 20:57:07.268   04 Jun 2027 21:03:35.685           388.417              Murmansk2         12138.031
       253   04 Jun 2027 22:41:44.328   04 Jun 2027 22:43:13.766            89.438                Anadyr1          2794.937
       254   04 Jun 2027 22:44:00.707   04 Jun 2027 22:46:05.930           125.223               Magadan2          3913.219
       255   04 Jun 2027 22:46:29.062   04 Jun 2027 22:47:08.865            39.803               Magadan1          1243.844
       256   04 Jun 2027 22:48:01.152   04 Jun 2027 22:48:40.263            39.111               Magadan1          1222.219
       257   04 Jun 2027 22:52:08.510   04 Jun 2027 22:53:02.734            54.224               Magadan2          1694.500
       258   04 Jun 2027 23:37:07.897   04 Jun 2027 23:40:09.712           181.815            RioGallegos          5681.719
       259   04 Jun 2027 23:44:45.693   04 Jun 2027 23:44:50.447             4.754            RioGallegos           148.563
       260   05 Jun 2027 00:17:31.599   05 Jun 2027 00:18:55.371            83.772                Anadyr1          2617.875
       261   05 Jun 2027 00:19:01.977   05 Jun 2027 00:19:17.034            15.057                Anadyr2           470.531
       262   05 Jun 2027 00:19:35.816   05 Jun 2027 00:21:13.108            97.292                Norilsk          3040.375
       263   05 Jun 2027 00:21:18.827   05 Jun 2027 00:22:37.090            78.263               Magadan2          2445.719
       264   05 Jun 2027 00:24:15.303   05 Jun 2027 00:25:26.394            71.091                Irkutsk          2221.594
       265   05 Jun 2027 00:26:41.050   05 Jun 2027 00:28:34.148           113.098                Irkutsk          3534.312
       266   05 Jun 2027 00:38:42.877   05 Jun 2027 00:39:18.289            35.412                Sumatra          1106.625
       267   05 Jun 2027 00:40:02.706   05 Jun 2027 00:41:30.970            88.264                Sumatra          2758.250
       268   05 Jun 2027 01:16:18.360   05 Jun 2027 01:16:38.076            19.716            RioGallegos           616.125
       269   05 Jun 2027 01:19:07.499   05 Jun 2027 01:19:14.402             6.903            RioGallegos           215.719
       270   05 Jun 2027 01:19:52.889   05 Jun 2027 01:20:10.726            17.837            RioGallegos           557.406
       271   05 Jun 2027 01:21:03.106   05 Jun 2027 01:21:27.605            24.499            RioGallegos           765.594
       272   05 Jun 2027 01:52:41.051   05 Jun 2027 01:53:02.486            21.435                Anadyr1           669.844
       273   05 Jun 2027 01:53:35.629   05 Jun 2027 01:54:11.162            35.533                Anadyr1          1110.406
       274   05 Jun 2027 01:54:31.058   05 Jun 2027 01:54:58.179            27.121                Anadyr2           847.531
       275   05 Jun 2027 01:55:27.421   05 Jun 2027 01:55:27.634             0.213                Norilsk             6.656
       276   05 Jun 2027 01:55:35.750   05 Jun 2027 01:55:38.034             2.284                Anadyr2            71.375
       277   05 Jun 2027 01:56:07.676   05 Jun 2027 01:57:26.850            79.174               Magadan2          2474.187
       278   05 Jun 2027 01:57:27.585   05 Jun 2027 01:58:34.499            66.914                Norilsk          2091.062
       279   05 Jun 2027 01:59:21.180   05 Jun 2027 02:01:22.150           120.970                Irkutsk          3780.312
       280   05 Jun 2027 02:03:46.776   05 Jun 2027 02:04:27.160            40.384                Irkutsk          1262.000
       281   05 Jun 2027 02:12:05.617   05 Jun 2027 02:12:28.182            22.565                  Delhi           705.156
       282   05 Jun 2027 02:13:30.477   05 Jun 2027 02:14:45.306            74.829                Sumatra          2338.406
       283   05 Jun 2027 02:15:56.614   05 Jun 2027 02:18:42.519           165.905                Sumatra          5184.531
       284   05 Jun 2027 02:54:53.753   05 Jun 2027 02:55:19.673            25.920            RioGallegos           810.000
       285   05 Jun 2027 03:36:15.490   05 Jun 2027 03:36:38.653            23.163               Magadan2           723.844
       286   05 Jun 2027 03:36:38.653   05 Jun 2027 03:36:54.965            16.312               Magadan1           509.750
       287   05 Jun 2027 03:38:19.830   05 Jun 2027 03:39:36.006            76.176                Novosib          2380.500
       288   05 Jun 2027 03:39:37.436   05 Jun 2027 03:39:50.461            13.025                Irkutsk           407.031
       289   05 Jun 2027 03:39:57.603   05 Jun 2027 03:41:09.560            71.957                Novosib          2248.656
       290   05 Jun 2027 03:41:12.042   05 Jun 2027 03:42:05.739            53.697                Norilsk          1678.031
       291   05 Jun 2027 03:42:22.485   05 Jun 2027 03:45:16.884           174.399                Novosib          5449.969
       292   05 Jun 2027 03:45:17.107   05 Jun 2027 03:46:34.599            77.492                Irkutsk          2421.625
       293   05 Jun 2027 03:52:04.769   05 Jun 2027 03:53:59.774           115.005                  Delhi          3593.906
       294   05 Jun 2027 04:24:57.970   05 Jun 2027 04:30:32.089           334.119            RioGallegos         10441.219
       295   05 Jun 2027 05:15:33.937   05 Jun 2027 05:17:24.599           110.662                Novosib          3458.188
       296   05 Jun 2027 05:17:29.060   05 Jun 2027 05:19:00.199            91.139                Novosib          2848.094
       297   05 Jun 2027 05:19:09.437   05 Jun 2027 05:20:07.023            57.586              Murmansk1          1799.563
       298   05 Jun 2027 05:20:07.023   05 Jun 2027 05:20:48.814            41.791              Murmansk2          1305.969
       299   05 Jun 2027 05:20:49.935   05 Jun 2027 05:21:40.462            50.527                Novosib          1578.969
       300   05 Jun 2027 05:21:48.252   05 Jun 2027 05:26:06.729           258.477                  Delhi          8077.406
       301   05 Jun 2027 06:53:50.257   05 Jun 2027 06:56:42.304           172.047                 Moscow          5376.469
       302   05 Jun 2027 07:12:44.556   05 Jun 2027 07:15:41.731           177.175               CapeTown          5536.719
       303   05 Jun 2027 08:15:38.996   05 Jun 2027 08:17:45.199           126.203                Anadyr1          3943.844
       304   05 Jun 2027 08:18:57.400   05 Jun 2027 08:19:32.163            34.763               Magadan2          1086.344
       305   05 Jun 2027 09:47:26.203   05 Jun 2027 09:48:31.237            65.034                Anadyr2          2032.312
       306   05 Jun 2027 09:48:31.237   05 Jun 2027 09:49:27.769            56.532                Anadyr1          1766.625
       307   05 Jun 2027 09:51:32.523   05 Jun 2027 09:53:39.325           126.802                Anadyr1          3962.563
       308   05 Jun 2027 09:54:40.851   05 Jun 2027 09:57:01.314           140.463               Magadan1          4389.469
       309   05 Jun 2027 09:57:23.499   05 Jun 2027 09:58:04.173            40.674                Anadyr2          1271.063
       310   05 Jun 2027 11:22:42.225   05 Jun 2027 11:23:35.002            52.777               Magadan1          1649.281
       311   05 Jun 2027 11:26:07.773   05 Jun 2027 11:27:21.415            73.642               Magadan1          2301.313
       312   05 Jun 2027 11:27:21.415   05 Jun 2027 11:28:01.564            40.149               Magadan2          1254.656
       313   05 Jun 2027 11:28:30.579   05 Jun 2027 11:28:38.539             7.960                Novosib           248.750
       314   05 Jun 2027 11:28:49.566   05 Jun 2027 11:29:00.525            10.959                Novosib           342.469
       315   05 Jun 2027 11:29:14.029   05 Jun 2027 11:29:33.589            19.560                Norilsk           611.250
       316   05 Jun 2027 11:30:00.313   05 Jun 2027 11:30:43.039            42.726                Irkutsk          1335.188
       317   05 Jun 2027 11:30:45.633   05 Jun 2027 11:33:30.559           164.926               Magadan2          5153.938
       318   05 Jun 2027 12:44:25.893   05 Jun 2027 12:44:35.327             9.434                Sumatra           294.813
       319   05 Jun 2027 12:44:56.126   05 Jun 2027 12:45:15.437            19.311                Sumatra           603.469
       320   05 Jun 2027 12:53:16.485   05 Jun 2027 12:53:38.390            21.905                Sumatra           684.531
       321   05 Jun 2027 12:55:10.063   05 Jun 2027 12:55:15.021             4.958                Sumatra           154.938
       322   05 Jun 2027 12:56:46.880   05 Jun 2027 12:58:05.895            79.015                Irkutsk          2469.219
       323   05 Jun 2027 12:58:27.171   05 Jun 2027 13:00:13.479           106.308                Irkutsk          3322.125
       324   05 Jun 2027 13:01:40.993   05 Jun 2027 13:02:55.665            74.672                Norilsk          2333.500
       325   05 Jun 2027 13:45:24.320   05 Jun 2027 13:46:22.663            58.343            RioGallegos          1823.219
       326   05 Jun 2027 13:47:12.686   05 Jun 2027 13:50:37.727           205.041            RioGallegos          6407.531
       327   05 Jun 2027 14:19:40.467   05 Jun 2027 14:22:03.885           143.418                Sumatra          4481.813
       328   05 Jun 2027 14:24:29.476   05 Jun 2027 14:25:02.781            33.305                Sumatra          1040.781
       329   05 Jun 2027 14:34:50.975   05 Jun 2027 14:37:57.360           186.385                Irkutsk          5824.531
       330   05 Jun 2027 14:39:50.848   05 Jun 2027 14:40:49.761            58.913                Irkutsk          1841.031
       331   05 Jun 2027 14:42:57.693   05 Jun 2027 14:44:44.108           106.415                Irkutsk          3325.469
       332   05 Jun 2027 16:04:34.162   05 Jun 2027 16:10:45.255           371.093                  Delhi         11596.656
       333   05 Jun 2027 16:15:45.902   05 Jun 2027 16:19:12.013           206.111                Novosib          6440.969
       334   05 Jun 2027 17:57:58.618   05 Jun 2027 18:01:37.744           219.126                Norilsk          6847.687
       335   05 Jun 2027 19:27:03.437   05 Jun 2027 19:33:55.750           412.313                 Moscow         12884.781
       336   05 Jun 2027 20:40:49.336   05 Jun 2027 20:41:36.328            46.992               CapeTown          1468.500
       337   05 Jun 2027 20:42:17.832   05 Jun 2027 20:42:49.745            31.913               CapeTown           997.281
       338   05 Jun 2027 20:47:40.792   05 Jun 2027 20:48:29.301            48.509               CapeTown          1515.906
       339   05 Jun 2027 21:09:59.282   05 Jun 2027 21:15:25.122           325.840              Murmansk2         10182.500
       340   05 Jun 2027 22:53:45.934   05 Jun 2027 22:55:14.490            88.556                Anadyr1          2767.375
       341   05 Jun 2027 22:56:01.660   05 Jun 2027 22:58:02.390           120.730               Magadan1          3772.813
       342   05 Jun 2027 22:59:12.232   05 Jun 2027 22:59:16.758             4.526               Magadan1           141.437
       343   05 Jun 2027 22:59:21.079   05 Jun 2027 22:59:44.726            23.647               Magadan2           738.969
       344   05 Jun 2027 23:00:44.538   05 Jun 2027 23:01:44.159            59.621               Magadan1          1863.156
       345   05 Jun 2027 23:05:28.565   05 Jun 2027 23:06:08.415            39.850               Magadan1          1245.313
       346   05 Jun 2027 23:48:43.611   05 Jun 2027 23:51:58.871           195.260            RioGallegos          6101.875
       347   05 Jun 2027 23:56:33.361   05 Jun 2027 23:57:01.784            28.423            RioGallegos           888.219
       348   06 Jun 2027 00:29:30.352   06 Jun 2027 00:30:47.956            77.604                Anadyr2          2425.125
       349   06 Jun 2027 00:31:35.335   06 Jun 2027 00:33:46.352           131.017                Norilsk          4094.281
       350   06 Jun 2027 00:35:13.880   06 Jun 2027 00:35:27.206            13.326               Magadan2           416.438
       351   06 Jun 2027 00:35:44.685   06 Jun 2027 00:36:32.571            47.886               Magadan2          1496.437
       352   06 Jun 2027 00:36:33.737   06 Jun 2027 00:37:26.415            52.678                Irkutsk          1646.187
       353   06 Jun 2027 00:40:41.566   06 Jun 2027 00:40:45.957             4.391                Irkutsk           137.219
       354   06 Jun 2027 00:41:44.406   06 Jun 2027 00:42:47.849            63.443                Irkutsk          1982.594
       355   06 Jun 2027 00:50:11.501   06 Jun 2027 00:53:19.648           188.147                Sumatra          5879.594
       356   06 Jun 2027 01:26:39.941   06 Jun 2027 01:27:01.213            21.272            RioGallegos           664.750
       357   06 Jun 2027 01:28:05.095   06 Jun 2027 01:28:09.248             4.153            RioGallegos           129.781
       358   06 Jun 2027 01:29:00.808   06 Jun 2027 01:29:34.876            34.068            RioGallegos          1064.625
       359   06 Jun 2027 01:36:16.996   06 Jun 2027 01:36:19.300             2.304            RioGallegos            72.000
       360   06 Jun 2027 02:04:32.116   06 Jun 2027 02:05:26.133            54.017                Anadyr1          1688.031
       361   06 Jun 2027 02:05:59.387   06 Jun 2027 02:06:31.224            31.837                Anadyr1           994.906
       362   06 Jun 2027 02:07:29.781   06 Jun 2027 02:08:50.580            80.799                Norilsk          2524.969
       363   06 Jun 2027 02:09:17.109   06 Jun 2027 02:09:20.593             3.484                Norilsk           108.875
       364   06 Jun 2027 02:10:33.538   06 Jun 2027 02:10:56.210            22.672               Magadan1           708.500
       365   06 Jun 2027 02:11:22.573   06 Jun 2027 02:13:39.404           136.831                Irkutsk          4275.969
       366   06 Jun 2027 02:18:16.374   06 Jun 2027 02:18:21.605             5.231                Irkutsk           163.469
       367   06 Jun 2027 02:18:25.002   06 Jun 2027 02:19:45.417            80.415                Irkutsk          2512.969
       368   06 Jun 2027 02:25:52.483   06 Jun 2027 02:31:33.944           341.461                Sumatra         10670.656
       369   06 Jun 2027 03:49:44.297   06 Jun 2027 03:50:29.504            45.207              Murmansk1          1412.719
       370   06 Jun 2027 03:50:29.504   06 Jun 2027 03:52:34.751           125.247              Murmansk2          3913.969
       371   06 Jun 2027 03:52:45.052   06 Jun 2027 03:54:11.865            86.813                Novosib          2712.906
       372   06 Jun 2027 03:54:16.404   06 Jun 2027 03:55:59.293           102.889                Novosib          3215.281
       373   06 Jun 2027 03:56:12.000   06 Jun 2027 03:57:43.091            91.091                  Delhi          2846.594
       374   06 Jun 2027 03:57:51.422   06 Jun 2027 03:58:17.772            26.350                Novosib           823.437
       375   06 Jun 2027 03:58:38.315   06 Jun 2027 04:00:57.542           139.227                  Delhi          4350.844
       376   06 Jun 2027 04:37:33.318   06 Jun 2027 04:41:25.353           232.035            RioGallegos          7251.094
       377   06 Jun 2027 05:27:36.599   06 Jun 2027 05:28:03.897            27.298                Norilsk           853.062
       378   06 Jun 2027 05:28:09.335   06 Jun 2027 05:29:26.048            76.713                Novosib          2397.281
       379   06 Jun 2027 05:29:37.669   06 Jun 2027 05:31:18.020           100.351                Norilsk          3135.969
       380   06 Jun 2027 05:31:22.959   06 Jun 2027 05:31:53.395            30.436                Novosib           951.125
       381   06 Jun 2027 05:31:56.525   06 Jun 2027 05:32:13.786            17.261              Murmansk1           539.406
       382   06 Jun 2027 05:32:22.322   06 Jun 2027 05:33:08.098            45.776              Murmansk2          1430.500
       383   06 Jun 2027 05:33:12.810   06 Jun 2027 05:34:04.754            51.944                Novosib          1623.250
       384   06 Jun 2027 07:05:18.595   06 Jun 2027 07:06:24.595            66.000                 Moscow          2062.500
       385   06 Jun 2027 07:06:43.730   06 Jun 2027 07:08:20.205            96.475              Murmansk1          3014.844
       386   06 Jun 2027 07:09:41.833   06 Jun 2027 07:10:05.113            23.280              Murmansk2           727.500
       387   06 Jun 2027 07:11:03.045   06 Jun 2027 07:11:27.586            24.541                 Moscow           766.906
       388   06 Jun 2027 07:12:06.197   06 Jun 2027 07:12:44.749            38.552                 Moscow          1204.750
       389   06 Jun 2027 07:24:55.657   06 Jun 2027 07:26:40.057           104.400               CapeTown          3262.500
       390   06 Jun 2027 07:27:47.548   06 Jun 2027 07:29:43.861           116.313               CapeTown          3634.781
       391   06 Jun 2027 08:27:56.779   06 Jun 2027 08:28:21.453            24.674               Magadan2           771.062
       392   06 Jun 2027 08:28:21.453   06 Jun 2027 08:28:45.724            24.271               Magadan1           758.469
       393   06 Jun 2027 08:28:56.128   06 Jun 2027 08:30:18.534            82.406                Anadyr1          2575.188
       394   06 Jun 2027 08:30:24.777   06 Jun 2027 08:31:08.290            43.513               Magadan1          1359.781
       395   06 Jun 2027 08:31:21.980   06 Jun 2027 08:32:28.503            66.523                Anadyr2          2078.844
       396   06 Jun 2027 09:59:24.333   06 Jun 2027 10:00:24.085            59.752               Magadan1          1867.250
       397   06 Jun 2027 10:00:28.157   06 Jun 2027 10:04:17.475           229.318                Anadyr1          7166.188
       398   06 Jun 2027 10:04:17.475   06 Jun 2027 10:05:30.816            73.341                Anadyr2          2291.906
       399   06 Jun 2027 10:06:33.510   06 Jun 2027 10:10:01.318           207.808                Anadyr1          6494.000
       400   06 Jun 2027 11:35:12.785   06 Jun 2027 11:36:37.600            84.815               Magadan1          2650.469
       401   06 Jun 2027 11:38:50.288   06 Jun 2027 11:40:46.716           116.428               Magadan2          3638.375
       402   06 Jun 2027 11:40:55.116   06 Jun 2027 11:45:24.237           269.121               Magadan1          8410.031
       403   06 Jun 2027 13:09:54.587   06 Jun 2027 13:12:06.135           131.548                Irkutsk          4110.875
       404   06 Jun 2027 13:57:53.207   06 Jun 2027 13:59:38.485           105.278            RioGallegos          3289.937
       405   06 Jun 2027 14:02:20.767   06 Jun 2027 14:03:30.256            69.489            RioGallegos          2171.531
       406   06 Jun 2027 14:07:34.734   06 Jun 2027 14:07:54.593            19.859            RioGallegos           620.594
       407   06 Jun 2027 14:32:06.813   06 Jun 2027 14:38:14.756           367.943                Sumatra         11498.219
       408   06 Jun 2027 14:47:32.689   06 Jun 2027 14:54:10.174           397.485                Irkutsk         12421.406
       409   06 Jun 2027 16:19:15.232   06 Jun 2027 16:25:07.094           351.862                  Delhi         10995.687
       410   06 Jun 2027 16:27:08.812   06 Jun 2027 16:32:52.763           343.951                Novosib         10748.469
       411   06 Jun 2027 19:39:58.344   06 Jun 2027 19:46:59.553           421.209                 Moscow         13162.781
       412   06 Jun 2027 20:50:11.452   06 Jun 2027 20:50:48.271            36.819               CapeTown          1150.594
       413   06 Jun 2027 20:51:33.873   06 Jun 2027 20:52:08.379            34.506               CapeTown          1078.312
       414   06 Jun 2027 20:52:40.856   06 Jun 2027 20:55:38.631           177.775               CapeTown          5555.469
       415   06 Jun 2027 21:23:00.475   06 Jun 2027 21:27:07.476           247.001              Murmansk1          7718.781
       416   06 Jun 2027 23:05:47.359   06 Jun 2027 23:05:50.838             3.479                Anadyr2           108.719
       417   06 Jun 2027 23:07:03.270   06 Jun 2027 23:07:35.523            32.253                Anadyr1          1007.906
       418   06 Jun 2027 23:08:00.885   06 Jun 2027 23:08:26.002            25.117                Anadyr2           784.906
       419   06 Jun 2027 23:08:28.017   06 Jun 2027 23:09:55.156            87.139               Magadan1          2723.094
       420   06 Jun 2027 23:10:59.448   06 Jun 2027 23:11:21.982            22.534               Magadan1           704.188
       421   06 Jun 2027 23:11:45.073   06 Jun 2027 23:12:21.752            36.679               Magadan2          1146.219
       422   06 Jun 2027 23:18:10.560   06 Jun 2027 23:18:12.025             1.465               Magadan2            45.781
       423   06 Jun 2027 23:18:48.643   06 Jun 2027 23:18:57.916             9.273               Magadan1           289.781
       424   06 Jun 2027 23:18:57.916   06 Jun 2027 23:19:31.115            33.199               Magadan2          1037.469
       425   06 Jun 2027 23:20:48.295   06 Jun 2027 23:20:58.485            10.190               Magadan1           318.437
       426   07 Jun 2027 00:00:26.251   07 Jun 2027 00:02:57.822           151.571            RioGallegos          4736.594
       427   07 Jun 2027 00:05:50.145   07 Jun 2027 00:06:01.731            11.586            RioGallegos           362.062
       428   07 Jun 2027 00:06:03.524   07 Jun 2027 00:06:13.064             9.540            RioGallegos           298.125
       429   07 Jun 2027 00:07:26.939   07 Jun 2027 00:08:08.351            41.412            RioGallegos          1294.125
       430   07 Jun 2027 00:41:28.458   07 Jun 2027 00:42:24.161            55.703                Anadyr1          1740.719
       431   07 Jun 2027 00:42:39.102   07 Jun 2027 00:42:39.302             0.200                Anadyr2             6.250
       432   07 Jun 2027 00:43:10.738   07 Jun 2027 00:43:50.303            39.565                Anadyr1          1236.406
       433   07 Jun 2027 00:44:05.680   07 Jun 2027 00:45:51.130           105.450               Magadan2          3295.313
       434   07 Jun 2027 00:45:51.130   07 Jun 2027 00:46:13.787            22.657               Magadan1           708.031
       435   07 Jun 2027 00:47:12.474   07 Jun 2027 00:47:29.473            16.999               Magadan1           531.219
       436   07 Jun 2027 00:47:47.361   07 Jun 2027 00:48:27.255            39.894               Magadan1          1246.688
       437   07 Jun 2027 00:48:46.238   07 Jun 2027 00:49:27.392            41.154                Irkutsk          1286.063
       438   07 Jun 2027 00:50:55.295   07 Jun 2027 00:52:11.829            76.534                Novosib          2391.688
       439   07 Jun 2027 00:56:54.866   07 Jun 2027 00:57:05.177            10.311                Irkutsk           322.219
       440   07 Jun 2027 00:58:56.764   07 Jun 2027 00:59:03.066             6.302                Irkutsk           196.938
       441   07 Jun 2027 01:01:49.220   07 Jun 2027 01:03:50.369           121.149                Sumatra          3785.906
       442   07 Jun 2027 01:08:54.122   07 Jun 2027 01:08:57.764             3.642                Sumatra           113.812
       443   07 Jun 2027 01:09:12.793   07 Jun 2027 01:11:11.068           118.275                Sumatra          3696.094
       444   07 Jun 2027 02:16:29.559   07 Jun 2027 02:16:48.210            18.651                Anadyr2           582.844
       445   07 Jun 2027 02:17:42.294   07 Jun 2027 02:17:51.708             9.414                Anadyr2           294.187
       446   07 Jun 2027 02:18:31.713   07 Jun 2027 02:19:22.849            51.136                Anadyr2          1598.000
       447   07 Jun 2027 02:19:32.222   07 Jun 2027 02:20:18.086            45.864                Norilsk          1433.250
       448   07 Jun 2027 02:20:21.363   07 Jun 2027 02:20:46.300            24.937                Norilsk           779.281
       449   07 Jun 2027 02:23:24.820   07 Jun 2027 02:25:46.999           142.179                Irkutsk          4443.094
       450   07 Jun 2027 02:28:42.805   07 Jun 2027 02:29:47.262            64.457                Irkutsk          2014.281
       451   07 Jun 2027 02:37:29.820   07 Jun 2027 02:39:04.123            94.303                  Delhi          2946.969
       452   07 Jun 2027 02:39:11.070   07 Jun 2027 02:45:16.269           365.199                Sumatra         11412.469
       453   07 Jun 2027 04:00:40.816   07 Jun 2027 04:02:07.662            86.846                Irkutsk          2713.937
       454   07 Jun 2027 04:02:45.997   07 Jun 2027 04:03:51.522            65.525                Norilsk          2047.656
       455   07 Jun 2027 04:04:11.764   07 Jun 2027 04:05:08.692            56.928                Norilsk          1779.000
       456   07 Jun 2027 04:05:14.465   07 Jun 2027 04:05:48.134            33.669              Murmansk2          1052.156
       457   07 Jun 2027 04:05:48.705   07 Jun 2027 04:09:41.629           232.924                Irkutsk          7278.875
       458   07 Jun 2027 04:09:58.139   07 Jun 2027 04:10:20.865            22.726                Novosib           710.188
       459   07 Jun 2027 04:16:30.958   07 Jun 2027 04:18:55.871           144.913                  Delhi          4528.531
       460   07 Jun 2027 05:40:36.727   07 Jun 2027 05:40:53.183            16.456              Murmansk1           514.250
       461   07 Jun 2027 05:41:04.881   07 Jun 2027 05:41:28.096            23.215              Murmansk2           725.469
       462   07 Jun 2027 05:41:28.096   07 Jun 2027 05:44:08.777           160.681              Murmansk1          5021.281
       463   07 Jun 2027 05:44:17.999   07 Jun 2027 05:44:41.406            23.407                 Moscow           731.469
       464   07 Jun 2027 05:44:46.743   07 Jun 2027 05:44:48.878             2.135              Murmansk2            66.719
       465   07 Jun 2027 05:44:54.064   07 Jun 2027 05:45:39.161            45.097                Novosib          1409.281
       466   07 Jun 2027 05:46:20.299   07 Jun 2027 05:49:15.537           175.238                 Moscow          5476.187
       467   07 Jun 2027 06:01:43.736   07 Jun 2027 06:11:01.628           557.892               CapeTown         17434.125
       468   07 Jun 2027 07:17:48.017   07 Jun 2027 07:18:11.621            23.604              Murmansk1           737.625
       469   07 Jun 2027 07:18:11.621   07 Jun 2027 07:18:38.440            26.819              Murmansk2           838.094
       470   07 Jun 2027 07:18:39.642   07 Jun 2027 07:19:01.734            22.092              Murmansk2           690.375
       471   07 Jun 2027 07:19:14.666   07 Jun 2027 07:20:12.109            57.443              Murmansk2          1795.094
       472   07 Jun 2027 07:21:17.137   07 Jun 2027 07:22:18.428            61.291                 Moscow          1915.344
       473   07 Jun 2027 07:22:26.471   07 Jun 2027 07:22:37.714            11.243                 Moscow           351.344
       474   07 Jun 2027 07:23:33.754   07 Jun 2027 07:23:53.714            19.960                 Moscow           623.750
       475   07 Jun 2027 07:37:12.668   07 Jun 2027 07:39:40.342           147.674               CapeTown          4614.813
       476   07 Jun 2027 07:45:11.552   07 Jun 2027 07:47:05.010           113.458               CapeTown          3545.563
       477   07 Jun 2027 08:40:24.115   07 Jun 2027 08:42:12.372           108.257               Magadan2          3383.031
       478   07 Jun 2027 08:42:21.743   07 Jun 2027 08:42:52.670            30.927                Norilsk           966.469
       479   07 Jun 2027 08:42:56.086   07 Jun 2027 08:44:14.101            78.015                Anadyr2          2437.969
       480   07 Jun 2027 08:45:51.456   07 Jun 2027 08:46:02.538            11.082               Magadan1           346.313
       481   07 Jun 2027 09:29:14.782   07 Jun 2027 09:29:26.503            11.721            RioGallegos           366.281
       482   07 Jun 2027 10:12:29.030   07 Jun 2027 10:16:56.907           267.877                Anadyr1          8371.156
