uniorb/output/strategy_1/Drop/Drop_KinoSat_110910.txt

KinoSat_110910
-------------------------
    Access    *     Start Time (UTCG)     *     Stop Time (UTCG)  *   Duration (s)        *       Station  *  Data (Mbytes)
         1   01 Jun 2027 04:20:10.865   01 Jun 2027 04:22:07.181           116.316                Anadyr2          3634.875
         2   01 Jun 2027 04:22:07.181   01 Jun 2027 04:22:16.414             9.233                Anadyr1           288.531
         3   01 Jun 2027 04:22:20.927   01 Jun 2027 04:22:43.954            23.027                Anadyr1           719.594
         4   01 Jun 2027 04:23:08.229   01 Jun 2027 04:24:28.411            80.182               Magadan1          2505.688
         5   01 Jun 2027 04:24:28.411   01 Jun 2027 04:25:09.504            41.093               Magadan2          1284.156
         6   01 Jun 2027 04:25:27.317   01 Jun 2027 04:25:38.608            11.291               Magadan2           352.844
         7   01 Jun 2027 05:54:27.596   01 Jun 2027 05:54:55.793            28.197                Anadyr1           881.156
         8   01 Jun 2027 05:55:15.658   01 Jun 2027 05:56:28.503            72.845                Anadyr1          2276.406
         9   01 Jun 2027 05:56:28.503   01 Jun 2027 05:56:59.516            31.013                Anadyr2           969.156
        10   01 Jun 2027 05:57:38.171   01 Jun 2027 05:59:35.708           117.537               Magadan2          3673.031
        11   01 Jun 2027 05:59:37.124   01 Jun 2027 06:00:30.055            52.931                Novosib          1654.094
        12   01 Jun 2027 06:01:00.087   01 Jun 2027 06:03:05.936           125.849                Norilsk          3932.781
        13   01 Jun 2027 06:03:55.751   01 Jun 2027 06:04:00.113             4.362                Norilsk           136.312
        14   01 Jun 2027 06:04:12.839   01 Jun 2027 06:05:14.808            61.969              Murmansk1          1936.531
        15   01 Jun 2027 06:37:09.118   01 Jun 2027 06:39:14.630           125.512            RioGallegos          3922.250
        16   01 Jun 2027 07:32:21.491   01 Jun 2027 07:33:20.169            58.678                Irkutsk          1833.688
        17   01 Jun 2027 07:33:42.946   01 Jun 2027 07:36:26.853           163.907               Magadan1          5122.094
        18   01 Jun 2027 07:36:44.941   01 Jun 2027 07:39:02.878           137.937              Murmansk2          4310.531
        19   01 Jun 2027 07:39:02.878   01 Jun 2027 07:39:58.051            55.173              Murmansk1          1724.156
        20   01 Jun 2027 07:41:21.775   01 Jun 2027 07:41:35.720            13.945                Norilsk           435.781
        21   01 Jun 2027 07:41:35.807   01 Jun 2027 07:42:18.725            42.918              Murmansk1          1341.187
        22   01 Jun 2027 08:12:13.705   01 Jun 2027 08:13:58.860           105.155            RioGallegos          3286.094
        23   01 Jun 2027 08:15:22.735   01 Jun 2027 08:15:54.272            31.537            RioGallegos           985.531
        24   01 Jun 2027 08:47:04.541   01 Jun 2027 08:49:10.466           125.925                Sumatra          3935.156
        25   01 Jun 2027 08:50:09.771   01 Jun 2027 08:50:17.449             7.678                Sumatra           239.937
        26   01 Jun 2027 08:57:53.092   01 Jun 2027 08:58:17.795            24.703                  Delhi           771.969
        27   01 Jun 2027 08:59:51.671   01 Jun 2027 09:00:15.108            23.437                  Delhi           732.406
        28   01 Jun 2027 09:09:09.246   01 Jun 2027 09:09:52.551            43.305                Irkutsk          1353.281
        29   01 Jun 2027 09:09:52.754   01 Jun 2027 09:10:30.427            37.673                Norilsk          1177.281
        30   01 Jun 2027 09:10:48.560   01 Jun 2027 09:15:26.781           278.221              Murmansk1          8694.406
        31   01 Jun 2027 09:15:37.438   01 Jun 2027 09:15:47.758            10.320                Norilsk           322.500
        32   01 Jun 2027 09:16:15.747   01 Jun 2027 09:16:44.728            28.981                Norilsk           905.656
        33   01 Jun 2027 09:18:15.251   01 Jun 2027 09:18:22.952             7.701                Norilsk           240.656
        34   01 Jun 2027 09:20:16.885   01 Jun 2027 09:20:39.329            22.444              Murmansk2           701.375
        35   01 Jun 2027 09:51:35.484   01 Jun 2027 09:52:44.670            69.186            RioGallegos          2162.063
        36   01 Jun 2027 09:53:57.845   01 Jun 2027 09:54:10.715            12.870            RioGallegos           402.187
        37   01 Jun 2027 09:54:46.884   01 Jun 2027 09:54:59.042            12.158            RioGallegos           379.938
        38   01 Jun 2027 09:55:31.724   01 Jun 2027 09:55:46.599            14.875            RioGallegos           464.844
        39   01 Jun 2027 09:58:52.716   01 Jun 2027 09:59:15.766            23.050            RioGallegos           720.313
        40   01 Jun 2027 10:26:28.670   01 Jun 2027 10:26:43.745            15.075                Sumatra           471.094
        41   01 Jun 2027 10:27:27.550   01 Jun 2027 10:28:59.129            91.579                Sumatra          2861.844
        42   01 Jun 2027 10:31:14.971   01 Jun 2027 10:31:37.671            22.700                  Delhi           709.375
        43   01 Jun 2027 10:46:54.471   01 Jun 2027 10:48:03.649            69.178                 Moscow          2161.812
        44   01 Jun 2027 10:48:15.040   01 Jun 2027 10:49:12.960            57.920                 Moscow          1810.000
        45   01 Jun 2027 10:49:27.451   01 Jun 2027 10:50:35.956            68.505              Murmansk1          2140.781
        46   01 Jun 2027 12:15:40.778   01 Jun 2027 12:19:44.724           243.946                 Moscow          7623.313
        47   01 Jun 2027 12:19:54.947   01 Jun 2027 12:20:57.832            62.885              Murmansk1          1965.156
        48   01 Jun 2027 12:21:20.290   01 Jun 2027 12:22:25.140            64.850              Murmansk2          2026.563
        49   01 Jun 2027 12:22:59.838   01 Jun 2027 12:23:07.127             7.289              Murmansk1           227.781
        50   01 Jun 2027 12:23:52.716   01 Jun 2027 12:24:07.950            15.234              Murmansk2           476.063
        51   01 Jun 2027 12:24:22.934   01 Jun 2027 12:25:12.311            49.377                Norilsk          1543.031
        52   01 Jun 2027 13:30:40.144   01 Jun 2027 13:33:41.606           181.462               CapeTown          5670.687
        53   01 Jun 2027 13:36:55.795   01 Jun 2027 13:37:26.721            30.926               CapeTown           966.437
        54   01 Jun 2027 13:52:39.395   01 Jun 2027 13:53:20.713            41.318                 Moscow          1291.188
        55   01 Jun 2027 13:55:55.678   01 Jun 2027 13:56:52.268            56.590              Murmansk2          1768.437
        56   01 Jun 2027 13:57:01.699   01 Jun 2027 13:58:38.769            97.070              Murmansk1          3033.437
        57   01 Jun 2027 14:10:16.202   01 Jun 2027 14:13:29.648           193.446                Anadyr2          6045.187
        58   01 Jun 2027 14:15:24.047   01 Jun 2027 14:16:38.280            74.233                Anadyr1          2319.781
        59   01 Jun 2027 15:34:58.827   01 Jun 2027 15:36:17.209            78.382              Murmansk1          2449.438
        60   01 Jun 2027 15:36:17.209   01 Jun 2027 15:37:17.651            60.442              Murmansk2          1888.813
        61   01 Jun 2027 15:45:42.550   01 Jun 2027 15:47:33.419           110.869                Anadyr2          3464.656
        62   01 Jun 2027 15:47:39.947   01 Jun 2027 15:47:57.515            17.568                Anadyr1           549.000
        63   01 Jun 2027 15:48:20.236   01 Jun 2027 15:48:27.836             7.600                Anadyr1           237.500
        64   01 Jun 2027 15:48:34.745   01 Jun 2027 15:48:38.544             3.799                Anadyr1           118.719
        65   01 Jun 2027 15:49:27.841   01 Jun 2027 15:53:27.228           239.387               Magadan1          7480.844
        66   01 Jun 2027 15:54:55.005   01 Jun 2027 15:55:04.400             9.395               Magadan1           293.594
        67   01 Jun 2027 15:55:20.454   01 Jun 2027 15:56:05.293            44.839               Magadan1          1401.219
        68   01 Jun 2027 17:21:36.271   01 Jun 2027 17:22:35.634            59.363                Anadyr1          1855.094
        69   01 Jun 2027 17:22:58.160   01 Jun 2027 17:23:18.047            19.887                Anadyr1           621.469
        70   01 Jun 2027 17:24:00.534   01 Jun 2027 17:25:32.284            91.750               Magadan2          2867.188
        71   01 Jun 2027 17:31:17.989   01 Jun 2027 17:31:41.544            23.555               Magadan2           736.094
        72   01 Jun 2027 18:57:28.496   01 Jun 2027 19:01:11.433           222.937                Anadyr2          6966.781
        73   01 Jun 2027 19:01:36.961   01 Jun 2027 19:03:38.242           121.281                Norilsk          3790.031
        74   01 Jun 2027 19:05:35.269   01 Jun 2027 19:08:20.709           165.440                Irkutsk          5170.000
        75   01 Jun 2027 19:09:07.011   01 Jun 2027 19:09:30.010            22.999                Irkutsk           718.719
        76   01 Jun 2027 19:10:25.694   01 Jun 2027 19:11:23.390            57.696                Irkutsk          1803.000
        77   01 Jun 2027 19:22:58.412   01 Jun 2027 19:24:53.769           115.357                Sumatra          3604.906
        78   01 Jun 2027 20:35:53.056   01 Jun 2027 20:36:27.848            34.792               Magadan2          1087.250
        79   01 Jun 2027 20:36:29.490   01 Jun 2027 20:37:08.010            38.520                Norilsk          1203.750
        80   01 Jun 2027 20:39:22.133   01 Jun 2027 20:41:10.715           108.582                Irkutsk          3393.188
        81   01 Jun 2027 20:41:14.236   01 Jun 2027 20:43:52.364           158.128                Novosib          4941.500
        82   01 Jun 2027 20:46:18.392   01 Jun 2027 20:46:54.363            35.971                Novosib          1124.094
        83   01 Jun 2027 21:01:34.925   01 Jun 2027 21:02:38.173            63.248                Sumatra          1976.500
        84   01 Jun 2027 22:11:55.953   01 Jun 2027 22:13:03.180            67.227               Magadan2          2100.844
        85   01 Jun 2027 22:13:12.880   01 Jun 2027 22:13:25.261            12.381               Magadan2           386.906
        86   01 Jun 2027 22:15:12.419   01 Jun 2027 22:17:04.040           111.621                Novosib          3488.156
        87   01 Jun 2027 22:22:41.068   01 Jun 2027 22:24:05.134            84.066                  Delhi          2627.063
        88   01 Jun 2027 22:25:22.977   01 Jun 2027 22:26:02.978            40.001                  Delhi          1250.031
        89   01 Jun 2027 22:33:16.356   01 Jun 2027 22:33:28.469            12.113                  Delhi           378.531
        90   01 Jun 2027 22:34:51.756   01 Jun 2027 22:35:08.162            16.406                  Delhi           512.688
        91   01 Jun 2027 23:42:51.727   01 Jun 2027 23:43:24.777            33.050                Anadyr2          1032.813
        92   01 Jun 2027 23:43:45.822   01 Jun 2027 23:43:55.382             9.560                Anadyr2           298.750
        93   01 Jun 2027 23:46:55.006   01 Jun 2027 23:47:46.286            51.280               Magadan2          1602.500
        94   01 Jun 2027 23:48:31.298   01 Jun 2027 23:49:19.406            48.108               Magadan2          1503.375
        95   01 Jun 2027 23:49:19.406   01 Jun 2027 23:49:48.431            29.025               Magadan1           907.031
        96   01 Jun 2027 23:50:07.093   01 Jun 2027 23:53:36.049           208.956              Murmansk2          6529.875
        97   01 Jun 2027 23:53:47.214   01 Jun 2027 23:55:05.174            77.960                 Moscow          2436.250
        98   01 Jun 2027 23:59:52.737   02 Jun 2027 00:00:09.818            17.081                 Moscow           533.781
        99   02 Jun 2027 00:21:40.516   02 Jun 2027 00:22:52.549            72.033               CapeTown          2251.031
       100   02 Jun 2027 00:24:05.756   02 Jun 2027 00:25:34.075            88.319               CapeTown          2759.969
       101   02 Jun 2027 01:18:51.595   02 Jun 2027 01:20:01.354            69.759               Magadan2          2179.969
       102   02 Jun 2027 01:25:26.169   02 Jun 2027 01:25:33.720             7.551              Murmansk2           235.969
       103   02 Jun 2027 01:26:28.580   02 Jun 2027 01:28:26.413           117.833              Murmansk1          3682.281
       104   02 Jun 2027 01:28:42.384   02 Jun 2027 01:30:31.660           109.276                 Moscow          3414.875
       105   02 Jun 2027 01:54:10.400   02 Jun 2027 01:55:37.527            87.127               CapeTown          2722.719
       106   02 Jun 2027 02:49:16.646   02 Jun 2027 02:50:14.456            57.810                Anadyr1          1806.563
       107   02 Jun 2027 02:50:14.456   02 Jun 2027 02:51:16.807            62.351                Anadyr2          1948.469
       108   02 Jun 2027 02:51:34.346   02 Jun 2027 02:52:05.818            31.472               Magadan2           983.500
       109   02 Jun 2027 02:53:23.714   02 Jun 2027 02:53:35.338            11.624               Magadan2           363.250
       110   02 Jun 2027 02:57:06.480   02 Jun 2027 02:57:22.602            16.122               Magadan1           503.813
       111   02 Jun 2027 02:58:21.790   02 Jun 2027 02:58:57.600            35.810                Norilsk          1119.063
       112   02 Jun 2027 04:30:14.760   02 Jun 2027 04:30:33.722            18.962                Anadyr1           592.562
       113   02 Jun 2027 04:30:33.722   02 Jun 2027 04:31:18.827            45.105                Anadyr2          1409.531
       114   02 Jun 2027 04:31:42.601   02 Jun 2027 04:33:48.777           126.176               Magadan1          3943.000
       115   02 Jun 2027 04:33:53.495   02 Jun 2027 04:35:15.359            81.864               Magadan1          2558.250
       116   02 Jun 2027 06:05:47.290   02 Jun 2027 06:06:32.467            45.177               Magadan1          1411.781
       117   02 Jun 2027 06:06:43.960   02 Jun 2027 06:07:31.475            47.515               Magadan1          1484.844
       118   02 Jun 2027 06:07:42.395   02 Jun 2027 06:08:59.427            77.032                Irkutsk          2407.250
       119   02 Jun 2027 06:09:13.268   02 Jun 2027 06:10:26.260            72.992                Novosib          2281.000
       120   02 Jun 2027 06:10:30.254   02 Jun 2027 06:11:08.923            38.669                Norilsk          1208.406
       121   02 Jun 2027 06:11:16.108   02 Jun 2027 06:13:08.086           111.978                Anadyr2          3499.313
       122   02 Jun 2027 06:13:13.088   02 Jun 2027 06:13:52.186            39.098                Norilsk          1221.813
       123   02 Jun 2027 06:14:02.532   02 Jun 2027 06:14:51.572            49.040              Murmansk1          1532.500
       124   02 Jun 2027 06:15:14.552   02 Jun 2027 06:16:00.954            46.402              Murmansk2          1450.063
       125   02 Jun 2027 06:48:52.842   02 Jun 2027 06:50:00.479            67.637            RioGallegos          2113.656
       126   02 Jun 2027 06:51:20.632   02 Jun 2027 06:51:27.330             6.698            RioGallegos           209.313
       127   02 Jun 2027 07:43:59.570   02 Jun 2027 07:44:28.009            28.439                Norilsk           888.719
       128   02 Jun 2027 07:44:41.939   02 Jun 2027 07:45:07.818            25.879                Norilsk           808.719
       129   02 Jun 2027 07:45:09.401   02 Jun 2027 07:46:21.245            71.844                Irkutsk          2245.125
       130   02 Jun 2027 07:46:30.649   02 Jun 2027 07:48:03.261            92.612               Magadan2          2894.125
       131   02 Jun 2027 07:48:07.754   02 Jun 2027 07:49:31.530            83.776                Irkutsk          2618.000
       132   02 Jun 2027 07:50:05.830   02 Jun 2027 07:50:50.503            44.673              Murmansk1          1396.031
       133   02 Jun 2027 07:51:15.526   02 Jun 2027 07:51:20.666             5.140                Norilsk           160.625
       134   02 Jun 2027 07:51:59.709   02 Jun 2027 07:52:34.357            34.648              Murmansk2          1082.750
       135   02 Jun 2027 08:24:23.730   02 Jun 2027 08:25:11.386            47.656            RioGallegos          1489.250
       136   02 Jun 2027 08:25:23.464   02 Jun 2027 08:25:44.076            20.612            RioGallegos           644.125
       137   02 Jun 2027 08:28:32.637   02 Jun 2027 08:28:37.972             5.335            RioGallegos           166.719
       138   02 Jun 2027 08:29:07.464   02 Jun 2027 08:29:14.783             7.319            RioGallegos           228.719
       139   02 Jun 2027 08:59:03.040   02 Jun 2027 08:59:28.890            25.850                Sumatra           807.812
       140   02 Jun 2027 08:59:44.330   02 Jun 2027 08:59:57.166            12.836                Sumatra           401.125
       141   02 Jun 2027 09:07:32.642   02 Jun 2027 09:07:41.216             8.574                Sumatra           267.937
       142   02 Jun 2027 09:08:31.197   02 Jun 2027 09:08:34.070             2.873                Sumatra            89.781
       143   02 Jun 2027 09:09:10.086   02 Jun 2027 09:10:26.494            76.408                  Delhi          2387.750
       144   02 Jun 2027 09:21:17.303   02 Jun 2027 09:25:09.091           231.788                Irkutsk          7243.375
       145   02 Jun 2027 09:25:16.198   02 Jun 2027 09:27:54.371           158.173              Murmansk2          4942.906
       146   02 Jun 2027 10:05:16.304   02 Jun 2027 10:05:44.867            28.563            RioGallegos           892.594
       147   02 Jun 2027 10:05:52.868   02 Jun 2027 10:06:56.797            63.929            RioGallegos          1997.781
       148   02 Jun 2027 10:43:33.900   02 Jun 2027 10:44:30.362            56.462                  Delhi          1764.438
       149   02 Jun 2027 10:58:46.423   02 Jun 2027 10:59:09.369            22.946                Norilsk           717.062
       150   02 Jun 2027 10:59:11.461   02 Jun 2027 11:00:36.976            85.515              Murmansk2          2672.344
       151   02 Jun 2027 11:00:46.628   02 Jun 2027 11:02:12.488            85.860                Novosib          2683.125
       152   02 Jun 2027 12:27:39.177   02 Jun 2027 12:29:55.423           136.246                 Moscow          4257.688
       153   02 Jun 2027 12:31:06.131   02 Jun 2027 12:34:26.666           200.535              Murmansk1          6266.719
       154   02 Jun 2027 12:34:36.783   02 Jun 2027 12:34:54.795            18.012              Murmansk1           562.875
       155   02 Jun 2027 12:35:16.785   02 Jun 2027 12:35:22.935             6.150              Murmansk1           192.187
       156   02 Jun 2027 13:42:12.644   02 Jun 2027 13:45:30.688           198.044               CapeTown          6188.875
       157   02 Jun 2027 14:05:05.025   02 Jun 2027 14:05:29.628            24.603                 Moscow           768.844
       158   02 Jun 2027 14:08:12.422   02 Jun 2027 14:09:00.612            48.190              Murmansk1          1505.938
       159   02 Jun 2027 14:09:01.584   02 Jun 2027 14:10:48.528           106.944              Murmansk2          3342.000
       160   02 Jun 2027 14:22:09.978   02 Jun 2027 14:24:52.118           162.140                Anadyr1          5066.875
       161   02 Jun 2027 14:26:00.369   02 Jun 2027 14:26:26.716            26.347                Anadyr2           823.344
       162   02 Jun 2027 15:17:09.588   02 Jun 2027 15:18:56.961           107.373               CapeTown          3355.406
       163   02 Jun 2027 15:47:36.044   02 Jun 2027 15:49:11.034            94.990              Murmansk1          2968.437
       164   02 Jun 2027 15:57:43.027   02 Jun 2027 15:59:31.709           108.682                Anadyr1          3396.313
       165   02 Jun 2027 15:59:34.104   02 Jun 2027 16:00:39.857            65.753                Anadyr2          2054.781
       166   02 Jun 2027 16:00:55.772   02 Jun 2027 16:01:46.751            50.979                Anadyr2          1593.094
       167   02 Jun 2027 16:01:55.460   02 Jun 2027 16:04:19.215           143.755               Magadan1          4492.344
       168   02 Jun 2027 16:04:19.215   02 Jun 2027 16:04:49.959            30.744               Magadan2           960.750
       169   02 Jun 2027 16:05:34.976   02 Jun 2027 16:05:43.524             8.548               Magadan2           267.125
       170   02 Jun 2027 16:06:57.238   02 Jun 2027 16:07:07.142             9.904               Magadan1           309.500
       171   02 Jun 2027 16:07:20.878   02 Jun 2027 16:07:50.696            29.818               Magadan1           931.813
       172   02 Jun 2027 17:33:37.650   02 Jun 2027 17:36:30.119           172.469                Anadyr2          5389.656
       173   02 Jun 2027 17:37:04.101   02 Jun 2027 17:38:15.929            71.828               Magadan2          2244.625
       174   02 Jun 2027 17:38:15.929   02 Jun 2027 17:38:51.438            35.509               Magadan1          1109.656
       175   02 Jun 2027 18:31:20.672   02 Jun 2027 18:32:51.745            91.073            RioGallegos          2846.031
       176   02 Jun 2027 19:09:28.276   02 Jun 2027 19:11:14.798           106.522                Anadyr1          3328.813
       177   02 Jun 2027 19:11:19.159   02 Jun 2027 19:13:26.139           126.980                Anadyr2          3968.125
       178   02 Jun 2027 19:13:35.218   02 Jun 2027 19:14:37.369            62.151               Magadan1          1942.219
       179   02 Jun 2027 19:14:57.966   02 Jun 2027 19:15:08.157            10.191               Magadan1           318.469
       180   02 Jun 2027 19:15:52.478   02 Jun 2027 19:16:47.963            55.485               Magadan1          1733.906
       181   02 Jun 2027 19:16:58.725   02 Jun 2027 19:20:06.850           188.125                Irkutsk          5878.906
       182   02 Jun 2027 19:32:38.791   02 Jun 2027 19:34:18.680            99.889                Sumatra          3121.531
       183   02 Jun 2027 20:47:22.309   02 Jun 2027 20:49:26.917           124.608                Norilsk          3894.000
       184   02 Jun 2027 20:50:32.686   02 Jun 2027 20:50:57.986            25.300               Magadan2           790.625
       185   02 Jun 2027 20:51:19.656   02 Jun 2027 20:52:59.255            99.599                Irkutsk          3112.469
       186   02 Jun 2027 20:53:45.349   02 Jun 2027 20:56:33.417           168.068                Novosib          5252.125
       187   02 Jun 2027 21:05:04.387   02 Jun 2027 21:05:14.706            10.319                Sumatra           322.469
       188   02 Jun 2027 22:20:53.462   02 Jun 2027 22:20:59.196             5.734                Anadyr2           179.188
       189   02 Jun 2027 22:23:56.522   02 Jun 2027 22:24:33.513            36.991               Magadan2          1155.969
       190   02 Jun 2027 22:24:49.930   02 Jun 2027 22:25:00.828            10.898                Norilsk           340.563
       191   02 Jun 2027 22:26:42.117   02 Jun 2027 22:30:04.912           202.795              Murmansk2          6337.344
       192   02 Jun 2027 22:30:24.105   02 Jun 2027 22:30:36.321            12.216              Murmansk1           381.750
       193   02 Jun 2027 22:34:34.567   02 Jun 2027 22:35:50.538            75.971                  Delhi          2374.094
       194   02 Jun 2027 22:36:10.066   02 Jun 2027 22:37:27.556            77.490                  Delhi          2421.562
       195   02 Jun 2027 23:52:27.266   02 Jun 2027 23:52:28.474             1.208                Anadyr1            37.750
       196   02 Jun 2027 23:54:50.926   02 Jun 2027 23:55:05.663            14.737                Anadyr1           460.531
       197   02 Jun 2027 23:58:34.526   03 Jun 2027 00:00:03.798            89.272               Magadan2          2789.750
       198   03 Jun 2027 00:00:30.771   03 Jun 2027 00:00:50.162            19.391               Magadan2           605.969
       199   03 Jun 2027 00:01:34.531   03 Jun 2027 00:06:33.737           299.206              Murmansk2          9350.188
       200   03 Jun 2027 00:07:08.375   03 Jun 2027 00:09:24.269           135.894                 Moscow          4246.687
       201   03 Jun 2027 00:32:23.274   03 Jun 2027 00:34:16.748           113.474               CapeTown          3546.062
       202   03 Jun 2027 01:30:41.853   03 Jun 2027 01:31:14.319            32.466               Magadan2          1014.563
       203   03 Jun 2027 01:37:27.838   03 Jun 2027 01:39:07.887           100.049              Murmansk1          3126.531
       204   03 Jun 2027 01:39:42.483   03 Jun 2027 01:40:20.764            38.281              Murmansk1          1196.281
       205   03 Jun 2027 01:42:52.651   03 Jun 2027 01:43:38.329            45.678                 Moscow          1427.438
       206   03 Jun 2027 02:04:35.964   03 Jun 2027 02:05:11.839            35.875               CapeTown          1121.094
       207   03 Jun 2027 02:11:45.951   03 Jun 2027 02:12:40.369            54.418               CapeTown          1700.563
       208   03 Jun 2027 03:01:18.210   03 Jun 2027 03:02:12.206            53.996                Anadyr2          1687.375
       209   03 Jun 2027 03:02:30.415   03 Jun 2027 03:02:41.423            11.008                Anadyr2           344.000
       210   03 Jun 2027 03:02:47.641   03 Jun 2027 03:02:58.425            10.784               Magadan1           337.000
       211   03 Jun 2027 03:07:30.638   03 Jun 2027 03:09:12.378           101.740                Anadyr1          3179.375
       212   03 Jun 2027 03:09:19.484   03 Jun 2027 03:10:30.264            70.780                Anadyr1          2211.875
       213   03 Jun 2027 03:10:30.264   03 Jun 2027 03:11:24.130            53.866                Anadyr2          1683.312
       214   03 Jun 2027 04:44:46.464   03 Jun 2027 04:45:49.483            63.019                Anadyr2          1969.344
       215   03 Jun 2027 04:45:49.483   03 Jun 2027 04:45:56.754             7.271                Anadyr1           227.219
       216   03 Jun 2027 04:46:08.238   03 Jun 2027 04:46:16.237             7.999                Anadyr2           249.969
       217   03 Jun 2027 04:46:19.270   03 Jun 2027 04:46:45.553            26.283                Anadyr1           821.344
       218   03 Jun 2027 04:47:09.277   03 Jun 2027 04:47:46.340            37.063               Magadan1          1158.219
       219   03 Jun 2027 04:47:46.340   03 Jun 2027 04:47:50.866             4.526               Magadan2           141.438
       220   03 Jun 2027 04:48:01.453   03 Jun 2027 04:48:17.573            16.120                Anadyr1           503.750
       221   03 Jun 2027 04:48:28.157   03 Jun 2027 04:49:48.820            80.663               Magadan1          2520.719
       222   03 Jun 2027 04:50:28.212   03 Jun 2027 04:50:52.715            24.503              Murmansk1           765.719
       223   03 Jun 2027 04:51:16.463   03 Jun 2027 04:51:58.109            41.646                Norilsk          1301.437
       224   03 Jun 2027 06:17:53.117   03 Jun 2027 06:18:04.470            11.353               Magadan1           354.781
       225   03 Jun 2027 06:18:05.519   03 Jun 2027 06:18:59.558            54.039                Irkutsk          1688.719
       226   03 Jun 2027 06:19:06.155   03 Jun 2027 06:19:38.027            31.872                Anadyr1           996.000
       227   03 Jun 2027 06:19:43.621   03 Jun 2027 06:20:02.639            19.018                Norilsk           594.312
       228   03 Jun 2027 06:20:11.154   03 Jun 2027 06:21:56.997           105.843                Irkutsk          3307.594
       229   03 Jun 2027 06:22:08.406   03 Jun 2027 06:22:28.415            20.009                Novosib           625.281
       230   03 Jun 2027 06:22:31.694   03 Jun 2027 06:22:37.309             5.615               Magadan2           175.469
       231   03 Jun 2027 06:22:45.617   03 Jun 2027 06:24:48.503           122.886                Norilsk          3840.187
       232   03 Jun 2027 06:24:59.557   03 Jun 2027 06:26:36.698            97.141              Murmansk1          3035.656
       233   03 Jun 2027 06:26:36.698   03 Jun 2027 06:26:39.691             2.993              Murmansk2            93.531
       234   03 Jun 2027 06:26:52.910   03 Jun 2027 06:27:05.217            12.307              Murmansk2           384.594
       235   03 Jun 2027 06:27:33.764   03 Jun 2027 06:27:59.543            25.779                Norilsk           805.594
       236   03 Jun 2027 06:28:00.323   03 Jun 2027 06:28:34.070            33.747              Murmansk1          1054.594
       237   03 Jun 2027 07:00:39.776   03 Jun 2027 07:03:25.711           165.935            RioGallegos          5185.469
       238   03 Jun 2027 07:38:01.266   03 Jun 2027 07:38:10.052             8.786                Sumatra           274.563
       239   03 Jun 2027 07:55:53.332   03 Jun 2027 07:57:11.345            78.013                Irkutsk          2437.906
       240   03 Jun 2027 07:57:30.004   03 Jun 2027 07:57:46.559            16.555                Irkutsk           517.344
       241   03 Jun 2027 07:57:49.763   03 Jun 2027 07:58:35.735            45.972               Magadan2          1436.625
       242   03 Jun 2027 07:58:58.435   03 Jun 2027 08:01:48.661           170.226                Norilsk          5319.562
       243   03 Jun 2027 08:01:59.458   03 Jun 2027 08:02:20.459            21.001              Murmansk1           656.281
       244   03 Jun 2027 08:02:20.459   03 Jun 2027 08:02:22.937             2.478              Murmansk2            77.438
       245   03 Jun 2027 08:02:38.507   03 Jun 2027 08:03:00.710            22.203              Murmansk2           693.844
       246   03 Jun 2027 08:36:37.589   03 Jun 2027 08:37:21.368            43.779            RioGallegos          1368.094
       247   03 Jun 2027 08:39:18.622   03 Jun 2027 08:39:48.798            30.176            RioGallegos           943.000
       248   03 Jun 2027 09:11:07.145   03 Jun 2027 09:11:54.875            47.730                Sumatra          1491.562
       249   03 Jun 2027 09:15:24.737   03 Jun 2027 09:15:53.742            29.005                Sumatra           906.406
       250   03 Jun 2027 09:20:36.635   03 Jun 2027 09:22:41.170           124.535                  Delhi          3891.719
       251   03 Jun 2027 09:33:11.922   03 Jun 2027 09:33:33.352            21.430              Murmansk1           669.688
       252   03 Jun 2027 09:33:40.335   03 Jun 2027 09:35:00.360            80.025              Murmansk1          2500.781
       253   03 Jun 2027 09:35:02.671   03 Jun 2027 09:35:12.106             9.435                Norilsk           294.844
       254   03 Jun 2027 09:35:21.449   03 Jun 2027 09:37:02.007           100.558                Irkutsk          3142.438
       255   03 Jun 2027 09:37:03.702   03 Jun 2027 09:39:42.513           158.811                 Moscow          4962.844
       256   03 Jun 2027 10:18:23.729   03 Jun 2027 10:18:56.720            32.991            RioGallegos          1030.969
       257   03 Jun 2027 10:19:05.356   03 Jun 2027 10:19:38.352            32.996            RioGallegos          1031.125
       258   03 Jun 2027 10:55:37.020   03 Jun 2027 10:55:51.439            14.419                  Delhi           450.594
       259   03 Jun 2027 10:55:52.834   03 Jun 2027 10:57:06.159            73.325                  Delhi          2291.406
       260   03 Jun 2027 11:00:07.178   03 Jun 2027 11:00:30.885            23.707                  Delhi           740.844
       261   03 Jun 2027 11:09:12.343   03 Jun 2027 11:09:49.072            36.729              Murmansk1          1147.781
       262   03 Jun 2027 11:09:50.581   03 Jun 2027 11:10:47.713            57.132                Norilsk          1785.375
       263   03 Jun 2027 11:11:02.063   03 Jun 2027 11:11:38.550            36.487                Novosib          1140.219
       264   03 Jun 2027 11:11:42.462   03 Jun 2027 11:12:49.237            66.775                Novosib          2086.719
       265   03 Jun 2027 11:12:52.898   03 Jun 2027 11:13:08.480            15.582              Murmansk2           486.937
       266   03 Jun 2027 11:13:25.485   03 Jun 2027 11:13:30.484             4.999              Murmansk2           156.219
       267   03 Jun 2027 11:14:20.139   03 Jun 2027 11:14:22.112             1.973                 Moscow            61.656
       268   03 Jun 2027 11:14:23.443   03 Jun 2027 11:14:25.487             2.044                Novosib            63.875
       269   03 Jun 2027 11:14:28.548   03 Jun 2027 11:14:32.406             3.858                Norilsk           120.562
       270   03 Jun 2027 11:14:37.328   03 Jun 2027 11:14:58.854            21.526              Murmansk2           672.687
       271   03 Jun 2027 12:39:40.425   03 Jun 2027 12:42:58.952           198.527                 Moscow          6203.969
       272   03 Jun 2027 12:43:10.212   03 Jun 2027 12:46:42.849           212.637              Murmansk2          6644.906
       273   03 Jun 2027 12:47:00.927   03 Jun 2027 12:47:35.121            34.194              Murmansk2          1068.563
       274   03 Jun 2027 13:53:52.666   03 Jun 2027 13:57:23.483           210.817               CapeTown          6588.031
       275   03 Jun 2027 13:58:12.642   03 Jun 2027 13:58:54.818            42.176               CapeTown          1318.000
       276   03 Jun 2027 14:20:31.257   03 Jun 2027 14:21:10.743            39.486              Murmansk2          1233.938
       277   03 Jun 2027 14:22:17.725   03 Jun 2027 14:24:07.347           109.622              Murmansk1          3425.687
       278   03 Jun 2027 14:34:05.446   03 Jun 2027 14:36:31.041           145.595                Anadyr1          4549.844
       279   03 Jun 2027 14:42:04.735   03 Jun 2027 14:43:01.016            56.281                Anadyr2          1758.781
       280   03 Jun 2027 15:29:17.373   03 Jun 2027 15:30:52.162            94.789               CapeTown          2962.156
       281   03 Jun 2027 16:00:21.204   03 Jun 2027 16:01:05.555            44.351              Murmansk2          1385.969
       282   03 Jun 2027 16:02:21.604   03 Jun 2027 16:03:50.052            88.448              Murmansk2          2764.000
       283   03 Jun 2027 16:09:43.772   03 Jun 2027 16:10:16.147            32.375                Anadyr1          1011.719
       284   03 Jun 2027 16:11:25.919   03 Jun 2027 16:11:30.705             4.786                Anadyr2           149.562
       285   03 Jun 2027 16:11:43.803   03 Jun 2027 16:12:41.102            57.299                Anadyr1          1790.594
       286   03 Jun 2027 16:12:51.414   03 Jun 2027 16:15:00.311           128.897               Magadan2          4028.031
       287   03 Jun 2027 16:15:25.016   03 Jun 2027 16:16:27.990            62.974               Magadan1          1967.938
       288   03 Jun 2027 16:17:22.807   03 Jun 2027 16:18:59.622            96.815               Magadan2          3025.469
       289   03 Jun 2027 17:45:38.972   03 Jun 2027 17:47:03.844            84.872                Anadyr2          2652.250
       290   03 Jun 2027 17:47:58.229   03 Jun 2027 17:48:12.738            14.509               Magadan1           453.406
       291   03 Jun 2027 17:48:12.738   03 Jun 2027 17:49:48.573            95.835               Magadan2          2994.844
       292   03 Jun 2027 17:51:42.256   03 Jun 2027 17:51:59.995            17.739               Magadan1           554.344
       293   03 Jun 2027 18:41:53.520   03 Jun 2027 18:44:31.554           158.034            RioGallegos          4938.562
       294   03 Jun 2027 19:21:27.636   03 Jun 2027 19:23:03.649            96.013                Anadyr2          3000.406
       295   03 Jun 2027 19:23:39.101   03 Jun 2027 19:27:35.856           236.755                Norilsk          7398.594
       296   03 Jun 2027 19:29:44.205   03 Jun 2027 19:30:20.367            36.162                Irkutsk          1130.063
       297   03 Jun 2027 19:30:28.981   03 Jun 2027 19:31:56.429            87.448                Irkutsk          2732.750
       298   03 Jun 2027 19:34:38.359   03 Jun 2027 19:35:08.760            30.401                Irkutsk           950.031
       299   03 Jun 2027 19:43:31.211   03 Jun 2027 19:45:53.401           142.190                Sumatra          4443.438
       300   03 Jun 2027 19:48:55.162   03 Jun 2027 19:49:26.591            31.429                Sumatra           982.156
       301   03 Jun 2027 19:49:46.657   03 Jun 2027 19:50:20.456            33.799                Sumatra          1056.219
       302   03 Jun 2027 21:03:18.358   03 Jun 2027 21:05:01.526           103.168                Irkutsk          3224.000
       303   03 Jun 2027 21:05:38.312   03 Jun 2027 21:07:38.246           119.934                Novosib          3747.937
       304   03 Jun 2027 21:14:00.449   03 Jun 2027 21:15:48.632           108.183                  Delhi          3380.719
       305   03 Jun 2027 22:35:56.202   03 Jun 2027 22:37:07.641            71.439               Magadan1          2232.469
       306   03 Jun 2027 22:38:22.205   03 Jun 2027 22:43:38.517           316.312              Murmansk1          9884.750
       307   03 Jun 2027 22:46:31.675   03 Jun 2027 22:46:37.251             5.576                  Delhi           174.250
       308   04 Jun 2027 00:04:08.956   04 Jun 2027 00:04:19.626            10.670                Anadyr2           333.438
       309   04 Jun 2027 00:09:48.384   04 Jun 2027 00:10:10.361            21.977                Anadyr1           686.781
       310   04 Jun 2027 00:10:18.320   04 Jun 2027 00:10:22.887             4.567                Anadyr1           142.719
       311   04 Jun 2027 00:10:53.785   04 Jun 2027 00:12:48.102           114.317               Magadan2          3572.406
       312   04 Jun 2027 00:13:34.526   04 Jun 2027 00:18:05.350           270.824              Murmansk2          8463.250
       313   04 Jun 2027 00:18:59.907   04 Jun 2027 00:19:12.044            12.137                 Moscow           379.281
       314   04 Jun 2027 00:19:29.172   04 Jun 2027 00:19:44.745            15.573                 Moscow           486.656
       315   04 Jun 2027 00:43:27.643   04 Jun 2027 00:44:40.201            72.558               CapeTown          2267.438
       316   04 Jun 2027 00:45:38.582   04 Jun 2027 00:45:48.353             9.771               CapeTown           305.344
       317   04 Jun 2027 00:46:51.144   04 Jun 2027 00:47:25.144            34.000               CapeTown          1062.500
       318   04 Jun 2027 00:48:35.855   04 Jun 2027 00:49:06.043            30.188               CapeTown           943.375
       319   04 Jun 2027 00:50:54.870   04 Jun 2027 00:51:09.225            14.355               CapeTown           448.594
       320   04 Jun 2027 01:40:24.332   04 Jun 2027 01:40:43.862            19.530                Anadyr1           610.312
       321   04 Jun 2027 01:41:49.981   04 Jun 2027 01:43:29.146            99.165               Magadan1          3098.906
       322   04 Jun 2027 01:44:16.754   04 Jun 2027 01:44:26.911            10.157               Magadan2           317.406
       323   04 Jun 2027 01:49:29.560   04 Jun 2027 01:51:04.334            94.774              Murmansk1          2961.687
       324   04 Jun 2027 01:51:04.334   04 Jun 2027 01:51:55.530            51.196              Murmansk2          1599.875
       325   04 Jun 2027 01:52:42.599   04 Jun 2027 01:53:57.268            74.669                 Moscow          2333.406
       326   04 Jun 2027 02:05:30.302   04 Jun 2027 02:05:32.280             1.978                 Moscow            61.812
       327   04 Jun 2027 02:16:35.558   04 Jun 2027 02:17:43.935            68.377               CapeTown          2136.781
       328   04 Jun 2027 02:26:13.339   04 Jun 2027 02:26:25.378            12.039               CapeTown           376.219
       329   04 Jun 2027 02:28:57.775   04 Jun 2027 02:29:22.960            25.185               CapeTown           787.031
       330   04 Jun 2027 03:14:22.888   04 Jun 2027 03:15:00.640            37.752               Magadan1          1179.750
       331   04 Jun 2027 03:19:19.755   04 Jun 2027 03:20:05.372            45.617               Magadan1          1425.531
       332   04 Jun 2027 03:20:20.227   04 Jun 2027 03:23:32.054           191.827                Anadyr1          5994.594
       333   04 Jun 2027 03:23:32.054   04 Jun 2027 03:23:40.028             7.974                Anadyr2           249.187
       334   04 Jun 2027 03:23:50.662   04 Jun 2027 03:24:18.023            27.361               Magadan1           855.031
       335   04 Jun 2027 04:57:31.725   04 Jun 2027 04:58:36.858            65.133                Anadyr1          2035.406
       336   04 Jun 2027 04:58:36.858   04 Jun 2027 05:00:26.354           109.496                Anadyr2          3421.750
       337   04 Jun 2027 05:00:40.751   04 Jun 2027 05:01:08.618            27.867                Anadyr2           870.844
       338   04 Jun 2027 06:30:59.390   04 Jun 2027 06:31:37.800            38.410                Norilsk          1200.312
       339   04 Jun 2027 06:31:43.701   04 Jun 2027 06:32:08.975            25.274                Norilsk           789.812
       340   04 Jun 2027 06:32:15.824   04 Jun 2027 06:36:20.007           244.183                Anadyr1          7630.719
       341   04 Jun 2027 06:36:30.098   04 Jun 2027 06:37:30.685            60.587               Magadan2          1893.344
       342   04 Jun 2027 06:37:33.560   04 Jun 2027 06:37:36.866             3.306              Murmansk2           103.313
       343   04 Jun 2027 06:37:37.786   04 Jun 2027 06:38:55.856            78.070                Norilsk          2439.688
       344   04 Jun 2027 06:41:03.517   04 Jun 2027 06:41:20.866            17.349              Murmansk1           542.156
       345   04 Jun 2027 07:12:29.887   04 Jun 2027 07:14:11.245           101.358            RioGallegos          3167.437
       346   04 Jun 2027 07:49:06.314   04 Jun 2027 07:50:20.657            74.343                Sumatra          2323.219
       347   04 Jun 2027 08:07:54.501   04 Jun 2027 08:09:32.711            98.210                Novosib          3069.063
       348   04 Jun 2027 08:09:40.308   04 Jun 2027 08:09:47.380             7.072                Norilsk           221.000
       349   04 Jun 2027 08:09:57.340   04 Jun 2027 08:10:17.330            19.990                Irkutsk           624.688
       350   04 Jun 2027 08:10:33.048   04 Jun 2027 08:11:32.629            59.581                Novosib          1861.906
       351   04 Jun 2027 08:11:41.169   04 Jun 2027 08:11:57.223            16.054                Norilsk           501.688
       352   04 Jun 2027 08:11:59.069   04 Jun 2027 08:12:30.997            31.928                Irkutsk           997.750
       353   04 Jun 2027 08:12:39.401   04 Jun 2027 08:13:35.590            56.189                Irkutsk          1755.906
       354   04 Jun 2027 08:13:50.049   04 Jun 2027 08:14:07.754            17.705              Murmansk1           553.281
       355   04 Jun 2027 08:14:58.885   04 Jun 2027 08:15:36.115            37.230              Murmansk2          1163.437
       356   04 Jun 2027 08:48:55.589   04 Jun 2027 08:49:10.295            14.706            RioGallegos           459.563
       357   04 Jun 2027 08:50:24.390   04 Jun 2027 08:50:33.048             8.658            RioGallegos           270.563
       358   04 Jun 2027 08:51:08.577   04 Jun 2027 08:51:14.462             5.885            RioGallegos           183.906
       359   04 Jun 2027 08:53:33.265   04 Jun 2027 08:54:03.945            30.680            RioGallegos           958.750
       360   04 Jun 2027 09:23:17.101   04 Jun 2027 09:25:04.899           107.798                Sumatra          3368.688
       361   04 Jun 2027 09:32:10.802   04 Jun 2027 09:33:03.535            52.733                  Delhi          1647.906
       362   04 Jun 2027 09:43:37.185   04 Jun 2027 09:43:52.686            15.501                  Delhi           484.406
       363   04 Jun 2027 09:44:06.210   04 Jun 2027 09:44:13.927             7.717                Irkutsk           241.156
       364   04 Jun 2027 09:44:43.446   04 Jun 2027 09:44:52.411             8.965                Novosib           280.156
       365   04 Jun 2027 09:44:53.705   04 Jun 2027 09:45:13.817            20.112              Murmansk2           628.500
       366   04 Jun 2027 09:45:13.817   04 Jun 2027 09:45:23.388             9.571              Murmansk1           299.094
       367   04 Jun 2027 09:45:27.360   04 Jun 2027 09:46:27.507            60.147                 Moscow          1879.594
       368   04 Jun 2027 09:46:28.779   04 Jun 2027 09:46:38.734             9.955              Murmansk1           311.094
       369   04 Jun 2027 09:46:39.124   04 Jun 2027 09:47:00.130            21.006                 Moscow           656.437
       370   04 Jun 2027 09:47:04.470   04 Jun 2027 09:47:04.608             0.138                Novosib             4.313
       371   04 Jun 2027 09:47:09.616   04 Jun 2027 09:47:15.866             6.250                Norilsk           195.313
       372   04 Jun 2027 09:47:16.886   04 Jun 2027 09:47:31.950            15.064                Novosib           470.750
       373   04 Jun 2027 09:47:48.391   04 Jun 2027 09:48:01.582            13.191                Novosib           412.219
       374   04 Jun 2027 09:48:03.782   04 Jun 2027 09:49:14.902            71.120                 Moscow          2222.500
       375   04 Jun 2027 11:07:57.653   04 Jun 2027 11:10:02.549           124.896                  Delhi          3903.000
       376   04 Jun 2027 11:12:00.887   04 Jun 2027 11:12:11.902            11.015                  Delhi           344.219
       377   04 Jun 2027 11:12:59.275   04 Jun 2027 11:13:01.104             1.829                  Delhi            57.156
       378   04 Jun 2027 11:20:40.303   04 Jun 2027 11:21:12.682            32.379              Murmansk2          1011.844
       379   04 Jun 2027 11:21:36.493   04 Jun 2027 11:22:12.157            35.664              Murmansk2          1114.500
       380   04 Jun 2027 11:22:18.754   04 Jun 2027 11:22:25.652             6.898              Murmansk1           215.562
       381   04 Jun 2027 11:22:34.927   04 Jun 2027 11:22:43.147             8.220              Murmansk2           256.875
       382   04 Jun 2027 11:22:43.147   04 Jun 2027 11:23:01.248            18.101              Murmansk1           565.656
       383   04 Jun 2027 11:23:05.893   04 Jun 2027 11:23:38.403            32.510                Novosib          1015.938
       384   04 Jun 2027 11:23:44.744   04 Jun 2027 11:24:02.318            17.574                 Moscow           549.188
       385   04 Jun 2027 11:24:23.383   04 Jun 2027 11:24:36.956            13.573                 Moscow           424.156
       386   04 Jun 2027 11:24:49.268   04 Jun 2027 11:24:59.163             9.895                Novosib           309.219
       387   04 Jun 2027 11:25:10.083   04 Jun 2027 11:25:32.110            22.027              Murmansk2           688.344
       388   04 Jun 2027 11:28:27.652   04 Jun 2027 11:28:32.125             4.473                 Moscow           139.781
       389   04 Jun 2027 12:51:44.612   04 Jun 2027 12:54:15.297           150.685                 Moscow          4708.906
       390   04 Jun 2027 12:54:31.683   04 Jun 2027 12:54:59.583            27.900                 Moscow           871.875
       391   04 Jun 2027 12:55:15.929   04 Jun 2027 12:58:11.850           175.921              Murmansk1          5497.531
       392   04 Jun 2027 12:58:11.850   04 Jun 2027 12:59:06.844            54.994              Murmansk2          1718.562
       393   04 Jun 2027 13:12:44.838   04 Jun 2027 13:13:04.164            19.326                Anadyr2           603.937
       394   04 Jun 2027 13:13:52.284   04 Jun 2027 13:14:04.674            12.390                Anadyr2           387.188
       395   04 Jun 2027 14:05:38.178   04 Jun 2027 14:07:43.887           125.709               CapeTown          3928.406
       396   04 Jun 2027 14:08:31.705   04 Jun 2027 14:09:19.490            47.785               CapeTown          1493.281
       397   04 Jun 2027 14:32:52.281   04 Jun 2027 14:33:22.715            30.434              Murmansk2           951.062
       398   04 Jun 2027 14:33:47.707   04 Jun 2027 14:36:09.116           141.409              Murmansk1          4419.031
       399   04 Jun 2027 14:40:10.360   04 Jun 2027 14:40:10.910             0.550              Murmansk2            17.188
       400   04 Jun 2027 14:46:02.210   04 Jun 2027 14:48:17.083           134.873                Anadyr2          4214.781
       401   04 Jun 2027 14:52:35.539   04 Jun 2027 14:53:11.191            35.652                Anadyr2          1114.125
       402   04 Jun 2027 15:42:27.634   04 Jun 2027 15:42:30.650             3.016               CapeTown            94.250
       403   04 Jun 2027 15:43:40.736   04 Jun 2027 15:45:21.587           100.851               CapeTown          3151.594
       404   04 Jun 2027 16:13:02.615   04 Jun 2027 16:13:21.843            19.228              Murmansk2           600.875
       405   04 Jun 2027 16:13:22.733   04 Jun 2027 16:14:03.396            40.663              Murmansk1          1270.719
       406   04 Jun 2027 16:16:08.841   04 Jun 2027 16:17:19.109            70.268              Murmansk1          2195.875
       407   04 Jun 2027 16:21:44.741   04 Jun 2027 16:23:21.533            96.792                Anadyr2          3024.750
       408   04 Jun 2027 16:24:40.342   04 Jun 2027 16:28:11.365           211.023               Magadan1          6594.469
       409   04 Jun 2027 17:57:40.198   04 Jun 2027 18:01:02.046           201.848                Anadyr2          6307.750
       410   04 Jun 2027 18:01:51.869   04 Jun 2027 18:03:40.685           108.816               Magadan2          3400.500
       411   04 Jun 2027 18:05:44.375   04 Jun 2027 18:06:25.638            41.263               Magadan1          1289.469
       412   04 Jun 2027 18:53:12.936   04 Jun 2027 18:56:16.642           183.706            RioGallegos          5740.812
       413   04 Jun 2027 18:58:41.557   04 Jun 2027 18:59:58.151            76.594            RioGallegos          2393.562
       414   04 Jun 2027 19:35:36.589   04 Jun 2027 19:39:35.771           239.182                Norilsk          7474.438
       415   04 Jun 2027 19:40:51.581   04 Jun 2027 19:41:18.694            27.113                Irkutsk           847.281
       416   04 Jun 2027 19:41:48.762   04 Jun 2027 19:42:20.146            31.384                Irkutsk           980.750
       417   04 Jun 2027 19:42:56.423   04 Jun 2027 19:45:34.830           158.407                Irkutsk          4950.219
       418   04 Jun 2027 19:57:35.777   04 Jun 2027 19:58:04.304            28.527                Sumatra           891.469
       419   04 Jun 2027 19:58:55.099   04 Jun 2027 20:00:08.065            72.966                Sumatra          2280.187
       420   04 Jun 2027 20:01:26.712   04 Jun 2027 20:02:08.376            41.664                Sumatra          1302.000
       421   04 Jun 2027 21:15:49.536   04 Jun 2027 21:17:22.687            93.151                Novosib          2910.969
       422   04 Jun 2027 21:18:00.107   04 Jun 2027 21:19:00.800            60.693                Novosib          1896.656
       423   04 Jun 2027 21:24:54.100   04 Jun 2027 21:27:26.073           151.973                  Delhi          4749.156
       424   04 Jun 2027 21:32:31.358   04 Jun 2027 21:32:49.419            18.061                  Delhi           564.406
       425   04 Jun 2027 22:47:25.451   04 Jun 2027 22:47:32.043             6.592                Norilsk           206.000
       426   04 Jun 2027 22:47:53.347   04 Jun 2027 22:48:37.002            43.655                Norilsk          1364.219
       427   04 Jun 2027 22:48:40.263   04 Jun 2027 22:49:01.534            21.271               Magadan2           664.719
       428   04 Jun 2027 22:50:10.231   04 Jun 2027 22:53:55.377           225.146              Murmansk2          7035.813
       429   04 Jun 2027 22:54:50.912   04 Jun 2027 22:56:17.492            86.580              Murmansk1          2705.625
       430   05 Jun 2027 00:15:51.211   05 Jun 2027 00:16:07.447            16.236                Anadyr2           507.375
       431   05 Jun 2027 00:16:51.638   05 Jun 2027 00:18:22.512            90.874                Anadyr2          2839.812
       432   05 Jun 2027 00:21:42.565   05 Jun 2027 00:22:41.000            58.435               Magadan1          1826.094
       433   05 Jun 2027 00:22:44.830   05 Jun 2027 00:23:13.250            28.420               Magadan1           888.125
       434   05 Jun 2027 00:24:31.291   05 Jun 2027 00:24:58.819            27.528               Magadan2           860.250
       435   05 Jun 2027 00:25:34.974   05 Jun 2027 00:27:36.300           121.326              Murmansk1          3791.438
       436   05 Jun 2027 00:29:14.060   05 Jun 2027 00:31:16.197           122.137                 Moscow          3816.781
       437   05 Jun 2027 00:31:45.869   05 Jun 2027 00:32:33.485            47.616                 Moscow          1488.000
       438   05 Jun 2027 00:54:44.379   05 Jun 2027 00:55:43.065            58.686               CapeTown          1833.937
       439   05 Jun 2027 00:56:32.360   05 Jun 2027 00:57:26.272            53.912               CapeTown          1684.750
       440   05 Jun 2027 01:51:25.856   05 Jun 2027 01:52:03.067            37.211                Anadyr1          1162.844
       441   05 Jun 2027 01:53:20.671   05 Jun 2027 01:53:54.426            33.755               Magadan1          1054.844
       442   05 Jun 2027 01:54:28.083   05 Jun 2027 01:54:59.109            31.026               Magadan2           969.562
       443   05 Jun 2027 01:55:19.637   05 Jun 2027 01:56:03.673            44.036               Magadan1          1376.125
       444   05 Jun 2027 01:58:52.227   05 Jun 2027 01:59:02.942            10.715                Norilsk           334.844
       445   05 Jun 2027 02:00:45.743   05 Jun 2027 02:00:50.403             4.660                Norilsk           145.625
       446   05 Jun 2027 02:01:31.289   05 Jun 2027 02:02:59.512            88.223              Murmansk2          2756.969
       447   05 Jun 2027 02:04:33.683   05 Jun 2027 02:05:04.591            30.908                Novosib           965.875
       448   05 Jun 2027 02:05:38.601   05 Jun 2027 02:05:42.269             3.668                 Moscow           114.625
       449   05 Jun 2027 02:06:04.366   05 Jun 2027 02:07:25.545            81.179                 Moscow          2536.844
       450   05 Jun 2027 02:28:40.196   05 Jun 2027 02:28:55.286            15.090               CapeTown           471.563
       451   05 Jun 2027 02:29:22.661   05 Jun 2027 02:30:46.181            83.520               CapeTown          2610.000
       452   05 Jun 2027 03:31:20.953   05 Jun 2027 03:32:17.847            56.894               Magadan2          1777.938
       453   05 Jun 2027 03:32:41.623   05 Jun 2027 03:32:59.222            17.599                Anadyr1           549.969
       454   05 Jun 2027 03:32:59.222   05 Jun 2027 03:35:34.235           155.013                Anadyr2          4844.156
       455   05 Jun 2027 03:36:54.965   05 Jun 2027 03:37:28.035            33.070               Magadan1          1033.438
       456   05 Jun 2027 05:09:51.050   05 Jun 2027 05:11:42.206           111.156               Magadan1          3473.625
       457   05 Jun 2027 05:11:42.206   05 Jun 2027 05:11:50.669             8.463               Magadan2           264.469
       458   05 Jun 2027 05:11:56.107   05 Jun 2027 05:13:17.740            81.633                Anadyr1          2551.031
       459   05 Jun 2027 05:51:02.567   05 Jun 2027 05:51:08.094             5.527            RioGallegos           172.719
       460   05 Jun 2027 06:44:01.438   05 Jun 2027 06:44:31.087            29.649                Irkutsk           926.531
       461   05 Jun 2027 06:44:47.567   05 Jun 2027 06:45:09.972            22.405                Novosib           700.156
       462   05 Jun 2027 06:45:11.743   05 Jun 2027 06:45:32.324            20.581                Norilsk           643.156
       463   05 Jun 2027 06:45:32.432   05 Jun 2027 06:46:10.818            38.386                Norilsk          1199.562
       464   05 Jun 2027 06:46:28.008   05 Jun 2027 06:49:25.653           177.645               Magadan2          5551.406
       465   05 Jun 2027 06:49:29.888   05 Jun 2027 06:52:51.432           201.544              Murmansk1          6298.250
       466   05 Jun 2027 06:52:51.432   05 Jun 2027 06:53:22.655            31.223              Murmansk2           975.719
       467   05 Jun 2027 07:24:23.166   05 Jun 2027 07:27:05.804           162.638            RioGallegos          5082.438
       468   05 Jun 2027 08:00:27.508   05 Jun 2027 08:01:07.733            40.225                Sumatra          1257.031
       469   05 Jun 2027 08:19:39.706   05 Jun 2027 08:20:06.613            26.907                Norilsk           840.844
       470   05 Jun 2027 08:20:09.927   05 Jun 2027 08:20:30.809            20.882                Novosib           652.562
       471   05 Jun 2027 08:20:38.644   05 Jun 2027 08:20:38.775             0.131                Irkutsk             4.094
       472   05 Jun 2027 08:20:58.237   05 Jun 2027 08:21:10.762            12.525                Norilsk           391.406
       473   05 Jun 2027 08:21:28.223   05 Jun 2027 08:22:01.303            33.080                Irkutsk          1033.750
       474   05 Jun 2027 08:22:10.305   05 Jun 2027 08:22:39.734            29.429                Norilsk           919.656
       475   05 Jun 2027 08:22:42.917   05 Jun 2027 08:23:13.594            30.677                Norilsk           958.656
       476   05 Jun 2027 08:23:15.200   05 Jun 2027 08:24:20.457            65.257                Novosib          2039.281
       477   05 Jun 2027 08:24:32.887   05 Jun 2027 08:24:46.496            13.609                Novosib           425.281
       478   05 Jun 2027 08:24:47.855   05 Jun 2027 08:24:51.192             3.337                Irkutsk           104.281
       479   05 Jun 2027 08:25:04.189   05 Jun 2027 08:25:39.836            35.647              Murmansk1          1113.969
       480   05 Jun 2027 08:25:54.938   05 Jun 2027 08:26:01.952             7.014              Murmansk2           219.188
       481   05 Jun 2027 08:27:29.505   05 Jun 2027 08:28:18.861            49.356              Murmansk2          1542.375
       482   05 Jun 2027 09:01:52.891   05 Jun 2027 09:01:58.320             5.429            RioGallegos           169.656
