uniorb/output/strategy_1/Drop/Drop_KinoSat_111706.txt

KinoSat_111706
-------------------------
    Access    *     Start Time (UTCG)     *     Stop Time (UTCG)  *   Duration (s)        *       Station  *  Data (Mbytes)
         1   01 Jun 2027 03:00:38.579   01 Jun 2027 03:01:48.909            70.330              Murmansk1          2197.812
         2   01 Jun 2027 03:01:52.018   01 Jun 2027 03:03:23.219            91.201                Norilsk          2850.031
         3   01 Jun 2027 03:03:48.677   01 Jun 2027 03:05:47.471           118.794                Irkutsk          3712.313
         4   01 Jun 2027 03:08:31.824   01 Jun 2027 03:11:04.337           152.513                  Delhi          4766.031
         5   01 Jun 2027 04:40:37.606   01 Jun 2027 04:43:21.241           163.635              Murmansk1          5113.594
         6   01 Jun 2027 04:43:21.241   01 Jun 2027 04:45:16.659           115.418              Murmansk2          3606.813
         7   01 Jun 2027 04:45:44.390   01 Jun 2027 04:45:58.626            14.236                 Moscow           444.875
         8   01 Jun 2027 04:47:08.617   01 Jun 2027 04:48:32.847            84.230                 Moscow          2632.188
         9   01 Jun 2027 05:00:39.068   01 Jun 2027 05:03:31.349           172.281               CapeTown          5383.781
        10   01 Jun 2027 06:05:08.761   01 Jun 2027 06:05:29.791            21.030               Magadan1           657.187
        11   01 Jun 2027 06:05:32.445   01 Jun 2027 06:08:31.229           178.784               Magadan1          5587.000
        12   01 Jun 2027 06:15:36.845   01 Jun 2027 06:16:09.030            32.185              Murmansk1          1005.781
        13   01 Jun 2027 06:16:11.793   01 Jun 2027 06:17:12.582            60.789                 Moscow          1899.656
        14   01 Jun 2027 06:17:36.295   01 Jun 2027 06:19:28.685           112.390              Murmansk1          3512.188
        15   01 Jun 2027 06:19:28.685   01 Jun 2027 06:19:43.926            15.241              Murmansk2           476.281
        16   01 Jun 2027 06:19:43.926   01 Jun 2027 06:20:28.780            44.854              Murmansk1          1401.688
        17   01 Jun 2027 07:40:28.436   01 Jun 2027 07:42:00.297            91.861                Anadyr2          2870.656
        18   01 Jun 2027 07:42:15.051   01 Jun 2027 07:42:29.893            14.842                Norilsk           463.812
        19   01 Jun 2027 07:42:33.051   01 Jun 2027 07:43:13.481            40.430               Magadan1          1263.438
        20   01 Jun 2027 07:43:13.481   01 Jun 2027 07:43:25.425            11.944               Magadan2           373.250
        21   01 Jun 2027 07:43:32.818   01 Jun 2027 07:45:46.584           133.766                Anadyr2          4180.188
        22   01 Jun 2027 09:13:57.384   01 Jun 2027 09:16:18.630           141.246                Anadyr2          4413.937
        23   01 Jun 2027 09:16:55.432   01 Jun 2027 09:17:38.248            42.816                Irkutsk          1338.000
        24   01 Jun 2027 09:17:38.893   01 Jun 2027 09:21:09.079           210.186                Anadyr1          6568.313
        25   01 Jun 2027 10:52:13.094   01 Jun 2027 10:52:46.513            33.419                Norilsk          1044.344
        26   01 Jun 2027 10:52:50.193   01 Jun 2027 10:54:09.981            79.788                Novosib          2493.375
        27   01 Jun 2027 10:54:11.982   01 Jun 2027 10:54:18.440             6.458                Novosib           201.812
        28   01 Jun 2027 10:54:20.651   01 Jun 2027 10:56:18.785           118.134               Magadan2          3691.688
        29   01 Jun 2027 10:56:23.892   01 Jun 2027 10:57:08.180            44.288                Irkutsk          1384.000
        30   01 Jun 2027 10:57:09.654   01 Jun 2027 10:57:56.581            46.927                Norilsk          1466.469
        31   01 Jun 2027 11:31:52.508   01 Jun 2027 11:32:55.388            62.880            RioGallegos          1965.000
        32   01 Jun 2027 11:33:54.933   01 Jun 2027 11:35:05.141            70.208            RioGallegos          2194.000
        33   01 Jun 2027 12:07:26.626   01 Jun 2027 12:09:18.008           111.382                Sumatra          3480.687
        34   01 Jun 2027 12:20:38.207   01 Jun 2027 12:23:26.430           168.223                Irkutsk          5256.969
        35   01 Jun 2027 12:25:12.311   01 Jun 2027 12:26:18.211            65.900                Norilsk          2059.375
        36   01 Jun 2027 12:27:05.217   01 Jun 2027 12:27:45.806            40.589                Norilsk          1268.406
        37   01 Jun 2027 13:10:54.542   01 Jun 2027 13:15:33.909           279.367            RioGallegos          8730.219
        38   01 Jun 2027 13:45:33.074   01 Jun 2027 13:49:48.516           255.442                Sumatra          7982.562
        39   01 Jun 2027 14:01:28.977   01 Jun 2027 14:04:04.311           155.334                Irkutsk          4854.188
        40   01 Jun 2027 15:32:04.399   01 Jun 2027 15:34:43.128           158.729                  Delhi          4960.281
        41   01 Jun 2027 15:40:06.935   01 Jun 2027 15:43:30.943           204.008                Novosib          6375.250
        42   01 Jun 2027 15:47:14.050   01 Jun 2027 15:47:20.383             6.333                Norilsk           197.906
        43   01 Jun 2027 17:12:11.960   01 Jun 2027 17:12:34.010            22.050                 Moscow           689.063
        44   01 Jun 2027 17:14:19.721   01 Jun 2027 17:16:28.582           128.861                 Moscow          4026.906
        45   01 Jun 2027 17:19:42.481   01 Jun 2027 17:19:54.617            12.136              Murmansk1           379.250
        46   01 Jun 2027 17:23:33.977   01 Jun 2027 17:23:52.378            18.401              Murmansk2           575.031
        47   01 Jun 2027 17:23:52.378   01 Jun 2027 17:24:28.587            36.209              Murmansk1          1131.531
        48   01 Jun 2027 17:29:58.303   01 Jun 2027 17:30:33.240            34.937                Anadyr2          1091.781
        49   01 Jun 2027 17:31:07.062   01 Jun 2027 17:31:10.217             3.155                Anadyr2            98.594
        50   01 Jun 2027 18:24:45.511   01 Jun 2027 18:27:00.336           134.825               CapeTown          4213.281
        51   01 Jun 2027 18:54:25.255   01 Jun 2027 18:54:56.831            31.576              Murmansk2           986.750
        52   01 Jun 2027 18:55:57.879   01 Jun 2027 18:59:35.339           217.460              Murmansk2          6795.625
        53   01 Jun 2027 19:00:15.777   01 Jun 2027 19:00:57.728            41.951              Murmansk1          1310.969
        54   01 Jun 2027 19:09:16.241   01 Jun 2027 19:09:34.120            17.879               Magadan2           558.719
        55   01 Jun 2027 19:10:59.877   01 Jun 2027 19:11:04.521             4.644               Magadan1           145.125
        56   01 Jun 2027 19:14:21.288   01 Jun 2027 19:15:11.057            49.769               Magadan2          1555.281
        57   01 Jun 2027 20:03:00.746   01 Jun 2027 20:03:04.691             3.945               CapeTown           123.281
        58   01 Jun 2027 20:04:58.845   01 Jun 2027 20:06:36.492            97.647               CapeTown          3051.469
        59   01 Jun 2027 20:41:17.805   01 Jun 2027 20:42:20.503            62.698                Anadyr2          1959.313
        60   01 Jun 2027 20:42:26.127   01 Jun 2027 20:42:50.326            24.199                Anadyr2           756.219
        61   01 Jun 2027 20:42:56.279   01 Jun 2027 20:42:56.443             0.164                Anadyr1             5.125
        62   01 Jun 2027 20:43:13.392   01 Jun 2027 20:44:31.823            78.431                Anadyr2          2450.969
        63   01 Jun 2027 20:44:40.350   01 Jun 2027 20:45:19.966            39.616               Magadan2          1238.000
        64   01 Jun 2027 20:45:37.226   01 Jun 2027 20:45:58.210            20.984               Magadan2           655.750
        65   01 Jun 2027 20:46:31.674   01 Jun 2027 20:46:54.370            22.696               Magadan2           709.250
        66   01 Jun 2027 20:47:16.191   01 Jun 2027 20:48:13.420            57.229               Magadan2          1788.406
        67   01 Jun 2027 22:17:11.505   01 Jun 2027 22:19:10.058           118.553                Anadyr1          3704.781
        68   01 Jun 2027 22:19:20.045   01 Jun 2027 22:21:23.126           123.081                Anadyr2          3846.281
        69   01 Jun 2027 22:21:26.198   01 Jun 2027 22:23:19.487           113.289               Magadan2          3540.281
        70   01 Jun 2027 22:23:19.487   01 Jun 2027 22:23:50.414            30.927               Magadan1           966.469
        71   01 Jun 2027 22:25:32.295   01 Jun 2027 22:26:26.464            54.169                Irkutsk          1692.781
        72   01 Jun 2027 22:27:28.783   01 Jun 2027 22:27:57.300            28.517                Irkutsk           891.156
        73   01 Jun 2027 23:11:23.354   01 Jun 2027 23:12:58.149            94.795            RioGallegos          2962.344
        74   01 Jun 2027 23:16:26.580   01 Jun 2027 23:16:40.484            13.904            RioGallegos           434.500
        75   01 Jun 2027 23:52:42.006   01 Jun 2027 23:54:56.277           134.271                Anadyr2          4195.969
        76   01 Jun 2027 23:55:00.959   01 Jun 2027 23:56:43.363           102.404                Norilsk          3200.125
        77   01 Jun 2027 23:56:53.654   01 Jun 2027 23:57:11.206            17.552               Magadan1           548.500
        78   01 Jun 2027 23:57:11.206   01 Jun 2027 23:57:22.584            11.378               Magadan2           355.562
        79   01 Jun 2027 23:58:05.450   01 Jun 2027 23:58:31.017            25.567               Magadan1           798.969
        80   01 Jun 2027 23:59:04.604   01 Jun 2027 23:59:43.992            39.388                Irkutsk          1230.875
        81   02 Jun 2027 00:00:19.127   02 Jun 2027 00:01:45.422            86.295                Novosib          2696.719
        82   02 Jun 2027 00:02:52.928   02 Jun 2027 00:04:24.354            91.426                Novosib          2857.063
        83   02 Jun 2027 00:12:45.977   02 Jun 2027 00:13:18.542            32.565                Sumatra          1017.656
        84   02 Jun 2027 00:15:52.293   02 Jun 2027 00:15:55.881             3.588                Sumatra           112.125
        85   02 Jun 2027 00:20:38.073   02 Jun 2027 00:20:59.165            21.092                Sumatra           659.125
        86   02 Jun 2027 00:46:56.464   02 Jun 2027 00:47:28.664            32.200            RioGallegos          1006.250
        87   02 Jun 2027 00:50:08.884   02 Jun 2027 00:50:48.052            39.168            RioGallegos          1224.000
        88   02 Jun 2027 01:27:12.766   02 Jun 2027 01:27:21.585             8.819                Anadyr2           275.594
        89   02 Jun 2027 01:27:21.585   02 Jun 2027 01:28:01.297            39.712                Anadyr1          1241.000
        90   02 Jun 2027 01:28:33.310   02 Jun 2027 01:29:15.193            41.883                Anadyr1          1308.844
        91   02 Jun 2027 01:29:22.203   02 Jun 2027 01:29:29.926             7.723                Anadyr1           241.344
        92   02 Jun 2027 01:31:00.504   02 Jun 2027 01:32:43.093           102.589                Norilsk          3205.906
        93   02 Jun 2027 01:32:45.542   02 Jun 2027 01:32:56.508            10.966               Magadan1           342.687
        94   02 Jun 2027 01:34:02.987   02 Jun 2027 01:34:14.647            11.660               Magadan2           364.375
        95   02 Jun 2027 01:34:54.346   02 Jun 2027 01:37:45.703           171.357                Novosib          5354.906
        96   02 Jun 2027 01:39:49.745   02 Jun 2027 01:41:50.895           121.150                Novosib          3785.937
        97   02 Jun 2027 01:52:26.291   02 Jun 2027 01:53:16.030            49.739                Sumatra          1554.344
        98   02 Jun 2027 01:55:53.575   02 Jun 2027 01:56:20.070            26.495                Sumatra           827.969
        99   02 Jun 2027 02:25:55.992   02 Jun 2027 02:26:47.644            51.652            RioGallegos          1614.125
       100   02 Jun 2027 02:32:15.822   02 Jun 2027 02:32:39.469            23.647            RioGallegos           738.969
       101   02 Jun 2027 03:13:16.699   02 Jun 2027 03:13:40.263            23.564                Novosib           736.375
       102   02 Jun 2027 03:13:40.814   02 Jun 2027 03:14:25.595            44.781                Norilsk          1399.406
       103   02 Jun 2027 03:14:28.418   02 Jun 2027 03:16:34.440           126.022                Novosib          3938.187
       104   02 Jun 2027 03:16:41.406   02 Jun 2027 03:17:21.885            40.479              Murmansk2          1264.969
       105   02 Jun 2027 03:17:22.856   02 Jun 2027 03:17:46.548            23.692                 Moscow           740.375
       106   02 Jun 2027 03:17:56.508   02 Jun 2027 03:18:05.229             8.721                Norilsk           272.531
       107   02 Jun 2027 03:18:48.153   02 Jun 2027 03:19:46.282            58.129                  Delhi          1816.531
       108   02 Jun 2027 04:51:56.351   02 Jun 2027 04:52:29.586            33.235              Murmansk2          1038.594
       109   02 Jun 2027 04:52:29.625   02 Jun 2027 04:52:41.813            12.188                Novosib           380.875
       110   02 Jun 2027 04:52:53.729   02 Jun 2027 04:54:20.858            87.129                Norilsk          2722.781
       111   02 Jun 2027 04:54:22.812   02 Jun 2027 04:54:41.219            18.407                Norilsk           575.219
       112   02 Jun 2027 04:54:58.454   02 Jun 2027 04:55:47.995            49.541                Novosib          1548.156
       113   02 Jun 2027 04:55:55.949   02 Jun 2027 04:57:30.657            94.708              Murmansk2          2959.625
       114   02 Jun 2027 04:57:58.333   02 Jun 2027 05:00:21.478           143.145                 Moscow          4473.281
       115   02 Jun 2027 05:12:26.852   02 Jun 2027 05:12:52.129            25.277               CapeTown           789.906
       116   02 Jun 2027 05:13:18.374   02 Jun 2027 05:14:08.298            49.924               CapeTown          1560.125
       117   02 Jun 2027 05:15:22.273   02 Jun 2027 05:15:55.918            33.645               CapeTown          1051.406
       118   02 Jun 2027 06:15:25.538   02 Jun 2027 06:16:43.862            78.324                Anadyr2          2447.625
       119   02 Jun 2027 06:16:55.299   02 Jun 2027 06:17:19.691            24.392               Magadan2           762.250
       120   02 Jun 2027 06:17:27.648   02 Jun 2027 06:19:15.982           108.334               Magadan1          3385.437
       121   02 Jun 2027 06:19:26.332   02 Jun 2027 06:19:33.198             6.866               Magadan1           214.563
       122   02 Jun 2027 06:28:06.073   02 Jun 2027 06:31:53.412           227.339                 Moscow          7104.344
       123   02 Jun 2027 06:32:08.067   02 Jun 2027 06:32:51.006            42.939              Murmansk1          1341.844
       124   02 Jun 2027 06:32:51.006   02 Jun 2027 06:33:45.590            54.584              Murmansk2          1705.750
       125   02 Jun 2027 06:35:36.822   02 Jun 2027 06:36:09.877            33.055                 Moscow          1032.969
       126   02 Jun 2027 06:49:46.359   02 Jun 2027 06:50:13.016            26.657               CapeTown           833.031
       127   02 Jun 2027 07:51:42.278   02 Jun 2027 07:54:17.391           155.113               Magadan1          4847.281
       128   02 Jun 2027 07:54:22.775   02 Jun 2027 07:54:51.726            28.951                Norilsk           904.719
       129   02 Jun 2027 07:54:57.177   02 Jun 2027 07:55:13.114            15.937                Norilsk           498.031
       130   02 Jun 2027 07:55:20.895   02 Jun 2027 07:55:23.264             2.369               Magadan1            74.031
       131   02 Jun 2027 07:55:30.334   02 Jun 2027 07:56:40.415            70.081                Anadyr2          2190.031
       132   02 Jun 2027 07:56:40.415   02 Jun 2027 07:57:46.854            66.439                Anadyr1          2076.219
       133   02 Jun 2027 09:25:13.262   02 Jun 2027 09:26:00.733            47.471                Irkutsk          1483.469
       134   02 Jun 2027 09:26:40.416   02 Jun 2027 09:32:59.008           378.592                Anadyr1         11831.000
       135   02 Jun 2027 11:04:35.861   02 Jun 2027 11:05:58.360            82.499                Novosib          2578.094
       136   02 Jun 2027 11:06:05.734   02 Jun 2027 11:06:40.713            34.979                Irkutsk          1093.094
       137   02 Jun 2027 11:06:50.964   02 Jun 2027 11:08:07.111            76.147                Norilsk          2379.594
       138   02 Jun 2027 11:08:15.006   02 Jun 2027 11:09:12.146            57.140                Irkutsk          1785.625
       139   02 Jun 2027 11:09:50.353   02 Jun 2027 11:10:07.104            16.751                Norilsk           523.469
       140   02 Jun 2027 11:10:11.185   02 Jun 2027 11:10:27.141            15.956              Murmansk1           498.625
       141   02 Jun 2027 11:12:11.663   02 Jun 2027 11:12:31.274            19.611              Murmansk1           612.844
       142   02 Jun 2027 11:44:01.367   02 Jun 2027 11:47:04.602           183.235            RioGallegos          5726.094
       143   02 Jun 2027 12:18:45.041   02 Jun 2027 12:19:14.714            29.673                Sumatra           927.281
       144   02 Jun 2027 12:21:33.511   02 Jun 2027 12:22:27.272            53.761                Sumatra          1680.031
       145   02 Jun 2027 12:32:54.931   02 Jun 2027 12:37:34.043           279.112                Irkutsk          8722.250
       146   02 Jun 2027 12:38:17.222   02 Jun 2027 12:39:06.338            49.116                Norilsk          1534.875
       147   02 Jun 2027 13:23:53.557   02 Jun 2027 13:28:15.091           261.534            RioGallegos          8172.937
       148   02 Jun 2027 14:06:05.454   02 Jun 2027 14:07:21.912            76.458                  Delhi          2389.312
       149   02 Jun 2027 14:12:48.314   02 Jun 2027 14:15:35.046           166.732                Novosib          5210.375
       150   02 Jun 2027 14:18:27.780   02 Jun 2027 14:19:19.382            51.602                Norilsk          1612.563
       151   02 Jun 2027 15:47:21.707   02 Jun 2027 15:49:25.349           123.642                 Moscow          3863.812
       152   02 Jun 2027 15:50:47.101   02 Jun 2027 15:52:08.591            81.490              Murmansk1          2546.562
       153   02 Jun 2027 15:54:36.580   02 Jun 2027 15:56:00.561            83.981                Norilsk          2624.406
       154   02 Jun 2027 15:56:57.319   02 Jun 2027 15:58:13.151            75.832                Norilsk          2369.750
       155   02 Jun 2027 15:58:48.937   02 Jun 2027 16:00:12.315            83.378                Norilsk          2605.562
       156   02 Jun 2027 17:24:36.140   02 Jun 2027 17:25:25.151            49.011                 Moscow          1531.594
       157   02 Jun 2027 17:25:58.025   02 Jun 2027 17:26:15.176            17.151                 Moscow           535.969
       158   02 Jun 2027 17:27:47.259   02 Jun 2027 17:30:07.451           140.192              Murmansk2          4381.000
       159   02 Jun 2027 17:30:07.451   02 Jun 2027 17:31:42.221            94.770              Murmansk1          2961.562
       160   02 Jun 2027 18:36:49.867   02 Jun 2027 18:38:48.639           118.772               CapeTown          3711.625
       161   02 Jun 2027 18:39:33.386   02 Jun 2027 18:39:53.739            20.353               CapeTown           636.031
       162   02 Jun 2027 19:07:01.334   02 Jun 2027 19:07:52.117            50.783              Murmansk2          1586.969
       163   02 Jun 2027 19:07:59.039   02 Jun 2027 19:12:23.411           264.372              Murmansk1          8261.625
       164   02 Jun 2027 19:12:44.161   02 Jun 2027 19:15:27.123           162.962              Murmansk2          5092.562
       165   02 Jun 2027 20:16:28.208   02 Jun 2027 20:19:07.337           159.129               CapeTown          4972.781
       166   02 Jun 2027 20:53:19.602   02 Jun 2027 20:54:00.470            40.868                Anadyr1          1277.125
       167   02 Jun 2027 20:54:40.613   02 Jun 2027 20:56:29.373           108.760                Anadyr1          3398.750
       168   02 Jun 2027 20:56:47.086   02 Jun 2027 20:57:55.510            68.424               Magadan2          2138.250
       169   02 Jun 2027 20:58:05.207   02 Jun 2027 20:58:09.426             4.219               Magadan2           131.844
       170   02 Jun 2027 20:58:16.452   02 Jun 2027 20:58:24.330             7.878               Magadan2           246.187
       171   02 Jun 2027 20:58:42.177   02 Jun 2027 20:59:00.634            18.457               Magadan1           576.781
       172   02 Jun 2027 20:59:43.198   02 Jun 2027 21:00:32.163            48.965               Magadan1          1530.156
       173   02 Jun 2027 22:29:11.825   02 Jun 2027 22:32:52.734           220.909                Anadyr2          6903.406
       174   02 Jun 2027 22:32:57.776   02 Jun 2027 22:34:36.859            99.083                Norilsk          3096.344
       175   02 Jun 2027 22:34:42.900   02 Jun 2027 22:35:26.253            43.353               Magadan1          1354.781
       176   02 Jun 2027 22:36:49.439   02 Jun 2027 22:37:53.133            63.694                Irkutsk          1990.437
       177   02 Jun 2027 22:39:11.177   02 Jun 2027 22:39:23.983            12.806                Irkutsk           400.188
       178   02 Jun 2027 22:52:57.081   02 Jun 2027 22:54:10.539            73.458                Sumatra          2295.563
       179   02 Jun 2027 23:23:17.199   02 Jun 2027 23:23:28.907            11.708            RioGallegos           365.875
       180   02 Jun 2027 23:24:40.901   02 Jun 2027 23:25:11.508            30.607            RioGallegos           956.469
       181   02 Jun 2027 23:25:53.624   02 Jun 2027 23:26:02.253             8.629            RioGallegos           269.656
       182   03 Jun 2027 00:04:37.059   03 Jun 2027 00:08:23.298           226.239                Anadyr1          7069.969
       183   03 Jun 2027 00:08:26.135   03 Jun 2027 00:08:45.557            19.422                Norilsk           606.938
       184   03 Jun 2027 00:08:56.281   03 Jun 2027 00:09:24.705            28.424               Magadan1           888.250
       185   03 Jun 2027 00:09:59.199   03 Jun 2027 00:10:28.951            29.752               Magadan2           929.750
       186   03 Jun 2027 00:11:02.078   03 Jun 2027 00:12:09.330            67.252                Irkutsk          2101.625
       187   03 Jun 2027 00:13:50.280   03 Jun 2027 00:14:15.937            25.657                Novosib           801.781
       188   03 Jun 2027 00:14:47.421   03 Jun 2027 00:15:05.054            17.633                Novosib           551.031
       189   03 Jun 2027 00:15:20.903   03 Jun 2027 00:15:59.531            38.628                Novosib          1207.125
       190   03 Jun 2027 00:16:35.111   03 Jun 2027 00:17:05.824            30.713                Novosib           959.781
       191   03 Jun 2027 00:24:45.514   03 Jun 2027 00:25:12.281            26.767                Sumatra           836.469
       192   03 Jun 2027 00:33:31.961   03 Jun 2027 00:33:38.010             6.049                Sumatra           189.031
       193   03 Jun 2027 00:33:43.800   03 Jun 2027 00:34:07.844            24.044                Sumatra           751.375
       194   03 Jun 2027 00:58:59.975   03 Jun 2027 01:00:03.063            63.088            RioGallegos          1971.500
       195   03 Jun 2027 01:01:46.830   03 Jun 2027 01:02:03.474            16.644            RioGallegos           520.125
       196   03 Jun 2027 01:38:58.004   03 Jun 2027 01:39:55.524            57.520                Anadyr2          1797.500
       197   03 Jun 2027 01:40:33.310   03 Jun 2027 01:40:58.082            24.772                Anadyr2           774.125
       198   03 Jun 2027 01:41:16.466   03 Jun 2027 01:41:35.694            19.228                Anadyr2           600.875
       199   03 Jun 2027 01:43:02.845   03 Jun 2027 01:44:55.889           113.044                Norilsk          3532.625
       200   03 Jun 2027 01:44:57.087   03 Jun 2027 01:45:06.978             9.891               Magadan2           309.094
       201   03 Jun 2027 01:46:27.098   03 Jun 2027 01:48:39.744           132.646              Murmansk2          4145.188
       202   03 Jun 2027 01:48:48.992   03 Jun 2027 01:49:32.181            43.189                Novosib          1349.656
       203   03 Jun 2027 01:52:06.338   03 Jun 2027 01:52:29.702            23.364                Irkutsk           730.125
       204   03 Jun 2027 01:54:18.449   03 Jun 2027 01:56:20.070           121.621                  Delhi          3800.656
       205   03 Jun 2027 02:35:47.364   03 Jun 2027 02:37:07.801            80.437            RioGallegos          2513.656
       206   03 Jun 2027 02:37:10.998   03 Jun 2027 02:37:20.251             9.253            RioGallegos           289.156
       207   03 Jun 2027 02:38:08.588   03 Jun 2027 02:40:13.527           124.939            RioGallegos          3904.344
       208   03 Jun 2027 03:26:01.216   03 Jun 2027 03:26:36.681            35.465                Novosib          1108.281
       209   03 Jun 2027 03:26:38.527   03 Jun 2027 03:28:42.882           124.355              Murmansk1          3886.094
       210   03 Jun 2027 03:28:42.882   03 Jun 2027 03:29:18.529            35.647              Murmansk2          1113.969
       211   03 Jun 2027 03:29:26.474   03 Jun 2027 03:30:56.425            89.951                Irkutsk          2810.969
       212   03 Jun 2027 03:31:08.036   03 Jun 2027 03:33:20.494           132.458                Novosib          4139.312
       213   03 Jun 2027 03:35:05.483   03 Jun 2027 03:36:43.578            98.095                  Delhi          3065.469
       214   03 Jun 2027 05:04:05.534   03 Jun 2027 05:05:26.459            80.925              Murmansk1          2528.906
       215   03 Jun 2027 05:05:26.459   03 Jun 2027 05:05:54.775            28.316              Murmansk2           884.875
       216   03 Jun 2027 05:06:14.719   03 Jun 2027 05:10:13.216           238.497                 Moscow          7453.031
       217   03 Jun 2027 05:10:38.151   03 Jun 2027 05:11:02.494            24.343                 Moscow           760.719
       218   03 Jun 2027 05:24:19.782   03 Jun 2027 05:27:05.808           166.026               CapeTown          5188.312
       219   03 Jun 2027 06:28:06.542   03 Jun 2027 06:31:50.467           223.925                Anadyr2          6997.656
       220   03 Jun 2027 08:02:40.191   03 Jun 2027 08:02:47.917             7.726               Magadan1           241.438
       221   03 Jun 2027 08:02:59.220   03 Jun 2027 08:05:12.568           133.348               Magadan2          4167.125
       222   03 Jun 2027 08:05:23.816   03 Jun 2027 08:07:26.619           122.803               Magadan2          3837.594
       223   03 Jun 2027 08:07:26.690   03 Jun 2027 08:08:29.172            62.482                Anadyr1          1952.562
       224   03 Jun 2027 08:14:33.647   03 Jun 2027 08:14:36.543             2.896                 Moscow            90.500
       225   03 Jun 2027 09:37:02.007   03 Jun 2027 09:37:48.367            46.360                Irkutsk          1448.750
       226   03 Jun 2027 09:37:49.633   03 Jun 2027 09:38:11.951            22.318               Magadan2           697.438
       227   03 Jun 2027 09:38:22.850   03 Jun 2027 09:44:44.428           381.578                Anadyr2         11924.313
       228   03 Jun 2027 11:14:10.016   03 Jun 2027 11:17:39.137           209.121               Magadan2          6535.031
       229   03 Jun 2027 11:18:21.222   03 Jun 2027 11:19:29.765            68.543               Magadan1          2141.969
       230   03 Jun 2027 11:19:40.048   03 Jun 2027 11:19:43.312             3.264                Novosib           102.000
       231   03 Jun 2027 11:19:45.505   03 Jun 2027 11:20:56.131            70.626                Novosib          2207.062
       232   03 Jun 2027 11:21:13.381   03 Jun 2027 11:22:23.752            70.371                Novosib          2199.094
       233   03 Jun 2027 11:56:14.004   03 Jun 2027 11:56:52.666            38.662            RioGallegos          1208.187
       234   03 Jun 2027 11:59:34.384   03 Jun 2027 12:00:42.299            67.915            RioGallegos          2122.344
       235   03 Jun 2027 12:30:47.412   03 Jun 2027 12:32:36.467           109.055                Sumatra          3407.969
       236   03 Jun 2027 12:45:15.950   03 Jun 2027 12:46:18.600            62.650                Irkutsk          1957.812
       237   03 Jun 2027 12:48:01.420   03 Jun 2027 12:48:02.859             1.439                Novosib            44.969
       238   03 Jun 2027 12:49:25.771   03 Jun 2027 12:50:32.690            66.919                Norilsk          2091.219
       239   03 Jun 2027 12:51:07.736   03 Jun 2027 12:51:46.899            39.163                Norilsk          1223.844
       240   03 Jun 2027 13:37:15.338   03 Jun 2027 13:39:36.504           141.166            RioGallegos          4411.437
       241   03 Jun 2027 14:16:20.127   03 Jun 2027 14:17:02.574            42.447                  Delhi          1326.469
       242   03 Jun 2027 14:18:00.074   03 Jun 2027 14:19:50.608           110.534                  Delhi          3454.187
       243   03 Jun 2027 14:23:11.276   03 Jun 2027 14:23:32.750            21.474                Novosib           671.062
       244   03 Jun 2027 14:26:58.060   03 Jun 2027 14:28:12.822            74.762                Novosib          2336.312
       245   03 Jun 2027 14:28:35.740   03 Jun 2027 14:29:09.337            33.597                Norilsk          1049.906
       246   03 Jun 2027 14:30:06.881   03 Jun 2027 14:30:30.218            23.337                Norilsk           729.281
       247   03 Jun 2027 14:30:44.514   03 Jun 2027 14:31:54.996            70.482                Norilsk          2202.563
       248   03 Jun 2027 14:32:43.042   03 Jun 2027 14:33:41.329            58.287                Novosib          1821.469
       249   03 Jun 2027 15:59:22.061   03 Jun 2027 16:02:04.551           162.490                 Moscow          5077.813
       250   03 Jun 2027 16:02:50.815   03 Jun 2027 16:03:50.052            59.237              Murmansk1          1851.156
       251   03 Jun 2027 16:04:06.857   03 Jun 2027 16:04:41.483            34.626              Murmansk1          1082.063
       252   03 Jun 2027 16:07:21.216   03 Jun 2027 16:11:33.466           252.250                Norilsk          7882.812
       253   03 Jun 2027 16:12:08.278   03 Jun 2027 16:13:13.296            65.018                Norilsk          2031.813
       254   03 Jun 2027 17:40:05.577   03 Jun 2027 17:41:14.638            69.061              Murmansk1          2158.156
       255   03 Jun 2027 17:43:41.251   03 Jun 2027 17:44:16.034            34.783              Murmansk2          1086.969
       256   03 Jun 2027 17:53:47.347   03 Jun 2027 17:53:51.444             4.097                Anadyr2           128.031
       257   03 Jun 2027 17:54:07.255   03 Jun 2027 17:55:10.451            63.196                Anadyr1          1974.875
       258   03 Jun 2027 18:48:57.084   03 Jun 2027 18:50:48.170           111.086               CapeTown          3471.437
       259   03 Jun 2027 18:57:06.517   03 Jun 2027 18:57:45.432            38.915               CapeTown          1216.094
       260   03 Jun 2027 19:19:40.942   03 Jun 2027 19:23:46.096           245.154              Murmansk2          7661.062
       261   03 Jun 2027 19:23:53.074   03 Jun 2027 19:25:41.544           108.470              Murmansk2          3389.688
       262   03 Jun 2027 19:32:36.216   03 Jun 2027 19:32:41.794             5.578               Magadan2           174.313
       263   03 Jun 2027 19:33:06.682   03 Jun 2027 19:33:40.792            34.110               Magadan2          1065.937
       264   03 Jun 2027 19:35:02.444   03 Jun 2027 19:35:15.247            12.803               Magadan2           400.094
       265   03 Jun 2027 21:05:21.347   03 Jun 2027 21:06:57.580            96.233                Anadyr2          3007.281
       266   03 Jun 2027 21:07:11.470   03 Jun 2027 21:09:06.972           115.502                Anadyr1          3609.437
       267   03 Jun 2027 21:09:35.148   03 Jun 2027 21:12:30.632           175.484               Magadan1          5483.875
       268   03 Jun 2027 21:12:32.063   03 Jun 2027 21:13:06.415            34.352               Magadan1          1073.500
       269   03 Jun 2027 21:17:53.480   03 Jun 2027 21:18:27.017            33.537               Magadan1          1048.031
       270   03 Jun 2027 22:01:52.825   03 Jun 2027 22:04:09.596           136.771            RioGallegos          4274.094
       271   03 Jun 2027 22:41:11.738   03 Jun 2027 22:43:21.181           129.443                Anadyr1          4045.094
       272   03 Jun 2027 22:43:34.657   03 Jun 2027 22:45:29.607           114.950               Magadan2          3592.188
       273   03 Jun 2027 22:45:41.657   03 Jun 2027 22:46:20.588            38.931               Magadan1          1216.594
       274   03 Jun 2027 22:48:22.239   03 Jun 2027 22:48:50.546            28.307                Irkutsk           884.594
       275   03 Jun 2027 22:49:57.028   03 Jun 2027 22:50:56.393            59.365                Irkutsk          1855.156
       276   03 Jun 2027 22:53:39.726   03 Jun 2027 22:53:50.248            10.522                Irkutsk           328.813
       277   03 Jun 2027 23:03:34.988   03 Jun 2027 23:05:29.016           114.028                Sumatra          3563.375
       278   03 Jun 2027 23:10:56.873   03 Jun 2027 23:11:20.708            23.835                Sumatra           744.844
       279   03 Jun 2027 23:42:12.246   03 Jun 2027 23:42:27.586            15.340            RioGallegos           479.375
       280   03 Jun 2027 23:43:16.300   03 Jun 2027 23:43:20.274             3.974            RioGallegos           124.187
       281   04 Jun 2027 00:16:31.046   04 Jun 2027 00:18:16.934           105.888                Anadyr1          3309.000
       282   04 Jun 2027 00:18:16.934   04 Jun 2027 00:18:30.146            13.212                Anadyr2           412.875
       283   04 Jun 2027 00:19:04.378   04 Jun 2027 00:20:13.468            69.090                Norilsk          2159.063
       284   04 Jun 2027 00:20:14.854   04 Jun 2027 00:20:52.584            37.730               Magadan2          1179.062
       285   04 Jun 2027 00:21:27.004   04 Jun 2027 00:21:57.306            30.302               Magadan2           946.938
       286   04 Jun 2027 00:23:00.805   04 Jun 2027 00:24:07.880            67.075                Irkutsk          2096.094
       287   04 Jun 2027 00:24:33.928   04 Jun 2027 00:24:40.708             6.780                Novosib           211.875
       288   04 Jun 2027 00:25:35.364   04 Jun 2027 00:26:48.005            72.641                Novosib          2270.031
       289   04 Jun 2027 00:33:05.257   04 Jun 2027 00:33:32.306            27.049                Novosib           845.281
       290   04 Jun 2027 00:34:18.662   04 Jun 2027 00:35:36.464            77.802                  Delhi          2431.313
       291   04 Jun 2027 00:45:28.316   04 Jun 2027 00:45:31.802             3.486                Sumatra           108.938
       292   04 Jun 2027 00:45:44.128   04 Jun 2027 00:45:47.115             2.987                Sumatra            93.344
       293   04 Jun 2027 00:46:26.796   04 Jun 2027 00:48:32.075           125.279                Sumatra          3914.969
       294   04 Jun 2027 01:22:28.800   04 Jun 2027 01:22:42.617            13.817            RioGallegos           431.781
       295   04 Jun 2027 01:50:42.122   04 Jun 2027 01:51:10.852            28.730                Anadyr2           897.813
       296   04 Jun 2027 01:52:05.522   04 Jun 2027 01:52:16.506            10.984                Anadyr2           343.250
       297   04 Jun 2027 01:52:32.866   04 Jun 2027 01:53:11.658            38.792                Anadyr2          1212.250
       298   04 Jun 2027 01:55:05.137   04 Jun 2027 01:56:39.755            94.618                Norilsk          2956.813
       299   04 Jun 2027 01:58:04.855   04 Jun 2027 01:59:48.668           103.813              Murmansk2          3244.156
       300   04 Jun 2027 02:00:00.477   04 Jun 2027 02:01:28.471            87.994                Novosib          2749.813
       301   04 Jun 2027 02:06:14.683   04 Jun 2027 02:06:32.688            18.005                  Delhi           562.656
       302   04 Jun 2027 02:06:56.415   04 Jun 2027 02:08:39.796           103.381                  Delhi          3230.656
       303   04 Jun 2027 02:48:03.358   04 Jun 2027 02:50:36.555           153.197            RioGallegos          4787.406
       304   04 Jun 2027 02:52:12.049   04 Jun 2027 02:52:21.361             9.312            RioGallegos           291.000
       305   04 Jun 2027 03:38:38.979   04 Jun 2027 03:39:00.807            21.828              Murmansk2           682.125
       306   04 Jun 2027 03:39:00.807   04 Jun 2027 03:39:04.920             4.113              Murmansk1           128.531
       307   04 Jun 2027 03:39:06.200   04 Jun 2027 03:42:06.455           180.255                Irkutsk          5632.969
       308   04 Jun 2027 03:42:15.636   04 Jun 2027 03:42:34.455            18.819                Norilsk           588.094
       309   04 Jun 2027 03:42:50.109   04 Jun 2027 03:43:37.312            47.203              Murmansk2          1475.094
       310   04 Jun 2027 03:43:46.975   04 Jun 2027 03:46:53.786           186.811                  Delhi          5837.844
       311   04 Jun 2027 05:16:41.912   04 Jun 2027 05:17:14.955            33.043                Novosib          1032.594
       312   04 Jun 2027 05:17:30.404   04 Jun 2027 05:18:20.567            50.163                Norilsk          1567.594
       313   04 Jun 2027 05:18:23.166   04 Jun 2027 05:20:28.086           124.920              Murmansk2          3903.750
       314   04 Jun 2027 05:20:41.192   04 Jun 2027 05:21:25.975            44.783              Murmansk2          1399.469
       315   04 Jun 2027 06:40:34.229   04 Jun 2027 06:41:28.624            54.395               Magadan1          1699.844
       316   04 Jun 2027 06:41:28.624   04 Jun 2027 06:44:14.987           166.363               Magadan2          5198.844
       317   04 Jun 2027 06:44:37.306   04 Jun 2027 06:45:02.736            25.430                Anadyr2           794.687
       318   04 Jun 2027 06:45:15.205   04 Jun 2027 06:45:31.614            16.409               Magadan1           512.781
       319   04 Jun 2027 08:16:17.715   04 Jun 2027 08:18:02.779           105.064                Anadyr1          3283.250
       320   04 Jun 2027 08:18:15.460   04 Jun 2027 08:19:27.516            72.056               Magadan2          2251.750
       321   04 Jun 2027 08:19:27.516   04 Jun 2027 08:19:29.900             2.384               Magadan1            74.500
       322   04 Jun 2027 08:20:21.580   04 Jun 2027 08:20:32.284            10.704               Magadan1           334.500
       323   04 Jun 2027 08:20:41.116   04 Jun 2027 08:21:35.313            54.197               Magadan1          1693.656
       324   04 Jun 2027 09:47:44.185   04 Jun 2027 09:48:21.286            37.101               Magadan1          1159.406
       325   04 Jun 2027 09:49:22.393   04 Jun 2027 09:49:26.952             4.559                Irkutsk           142.469
       326   04 Jun 2027 09:49:50.487   04 Jun 2027 09:50:29.774            39.287               Magadan2          1227.719
       327   04 Jun 2027 09:50:29.774   04 Jun 2027 09:50:37.171             7.397               Magadan1           231.156
       328   04 Jun 2027 09:50:41.864   04 Jun 2027 09:50:57.534            15.670                Norilsk           489.687
       329   04 Jun 2027 09:51:03.072   04 Jun 2027 09:53:37.190           154.118               Magadan2          4816.188
       330   04 Jun 2027 09:53:45.433   04 Jun 2027 09:54:26.168            40.735                Irkutsk          1272.969
       331   04 Jun 2027 09:54:31.143   04 Jun 2027 09:54:48.790            17.647                Norilsk           551.469
       332   04 Jun 2027 09:54:51.379   04 Jun 2027 09:56:14.693            83.314                Anadyr2          2603.563
       333   04 Jun 2027 09:56:14.693   04 Jun 2027 09:56:21.806             7.113                Anadyr1           222.281
       334   04 Jun 2027 09:56:26.130   04 Jun 2027 09:57:16.163            50.033               Magadan1          1563.531
       335   04 Jun 2027 10:32:16.116   04 Jun 2027 10:33:01.180            45.064            RioGallegos          1408.250
       336   04 Jun 2027 10:35:24.463   04 Jun 2027 10:35:45.015            20.552            RioGallegos           642.250
       337   04 Jun 2027 11:09:06.373   04 Jun 2027 11:11:03.573           117.200                Sumatra          3662.500
       338   04 Jun 2027 11:26:32.926   04 Jun 2027 11:26:53.709            20.783                Novosib           649.469
       339   04 Jun 2027 11:27:28.110   04 Jun 2027 11:28:14.499            46.389                Irkutsk          1449.656
       340   04 Jun 2027 11:28:24.201   04 Jun 2027 11:30:32.084           127.883               Magadan1          3996.344
       341   04 Jun 2027 11:30:58.291   04 Jun 2027 11:31:06.756             8.465                Irkutsk           264.531
       342   04 Jun 2027 11:31:09.414   04 Jun 2027 11:31:16.407             6.993                Norilsk           218.531
       343   04 Jun 2027 11:31:24.497   04 Jun 2027 11:31:58.099            33.602                Novosib          1050.063
       344   04 Jun 2027 11:31:59.184   04 Jun 2027 11:32:32.335            33.151              Murmansk1          1035.969
       345   04 Jun 2027 11:32:37.484   04 Jun 2027 11:32:42.922             5.438                Novosib           169.937
       346   04 Jun 2027 11:32:44.971   04 Jun 2027 11:32:51.010             6.039                Norilsk           188.719
       347   04 Jun 2027 11:33:11.552   04 Jun 2027 11:34:23.151            71.599                Novosib          2237.469
       348   04 Jun 2027 12:09:10.225   04 Jun 2027 12:09:49.898            39.673            RioGallegos          1239.781
       349   04 Jun 2027 12:11:09.225   04 Jun 2027 12:13:07.455           118.230            RioGallegos          3694.688
       350   04 Jun 2027 12:57:41.750   04 Jun 2027 12:58:27.513            45.763                Irkutsk          1430.094
       351   04 Jun 2027 12:58:59.453   04 Jun 2027 13:00:38.829            99.376                Novosib          3105.500
       352   04 Jun 2027 13:01:31.123   04 Jun 2027 13:02:29.647            58.524                Irkutsk          1828.875
       353   04 Jun 2027 13:04:37.606   04 Jun 2027 13:04:57.638            20.032                Norilsk           626.000
       354   04 Jun 2027 14:27:31.828   04 Jun 2027 14:28:06.478            34.650                  Delhi          1082.813
       355   04 Jun 2027 14:28:57.572   04 Jun 2027 14:29:50.704            53.132                  Delhi          1660.375
       356   04 Jun 2027 14:32:08.313   04 Jun 2027 14:32:29.396            21.083                  Delhi           658.844
       357   04 Jun 2027 14:34:53.402   04 Jun 2027 14:35:53.958            60.556                  Delhi          1892.375
       358   04 Jun 2027 14:36:10.134   04 Jun 2027 14:40:45.662           275.528                Novosib          8610.250
       359   04 Jun 2027 14:43:25.770   04 Jun 2027 14:44:21.647            55.877                Norilsk          1746.156
       360   04 Jun 2027 16:11:25.352   04 Jun 2027 16:14:29.778           184.426                 Moscow          5763.313
       361   04 Jun 2027 16:14:56.150   04 Jun 2027 16:15:47.607            51.457              Murmansk2          1608.031
       362   04 Jun 2027 16:20:10.903   04 Jun 2027 16:24:43.551           272.648                Norilsk          8520.250
       363   04 Jun 2027 17:35:22.593   04 Jun 2027 17:35:38.141            15.548               CapeTown           485.875
       364   04 Jun 2027 17:49:39.357   04 Jun 2027 17:51:14.221            94.864                 Moscow          2964.500
       365   04 Jun 2027 17:52:26.062   04 Jun 2027 17:54:10.803           104.741              Murmansk1          3273.156
       366   04 Jun 2027 17:56:06.465   04 Jun 2027 17:56:58.522            52.057              Murmansk1          1626.781
       367   04 Jun 2027 18:05:44.187   04 Jun 2027 18:05:51.249             7.062                Anadyr2           220.688
       368   04 Jun 2027 18:06:20.125   04 Jun 2027 18:06:23.669             3.544                Anadyr1           110.750
       369   04 Jun 2027 18:06:30.126   04 Jun 2027 18:07:11.133            41.007                Anadyr1          1281.469
       370   04 Jun 2027 18:12:17.587   04 Jun 2027 18:12:48.491            30.904                Anadyr1           965.750
       371   04 Jun 2027 19:01:07.388   04 Jun 2027 19:02:46.825            99.437               CapeTown          3107.406
       372   04 Jun 2027 19:10:25.749   04 Jun 2027 19:10:52.307            26.558               CapeTown           829.938
       373   04 Jun 2027 19:32:24.677   04 Jun 2027 19:39:17.726           413.049              Murmansk2         12907.781
       374   04 Jun 2027 21:17:23.011   04 Jun 2027 21:18:57.633            94.622                Anadyr1          2956.937
       375   04 Jun 2027 21:19:18.809   04 Jun 2027 21:20:35.863            77.054                Anadyr2          2407.938
       376   04 Jun 2027 21:20:40.692   04 Jun 2027 21:20:49.038             8.346                Anadyr2           260.812
       377   04 Jun 2027 21:20:52.801   04 Jun 2027 21:23:13.972           141.171               Magadan2          4411.594
       378   04 Jun 2027 21:23:37.964   04 Jun 2027 21:24:01.511            23.547               Magadan1           735.844
       379   04 Jun 2027 21:24:27.496   04 Jun 2027 21:24:48.713            21.217               Magadan2           663.031
       380   04 Jun 2027 21:25:44.441   04 Jun 2027 21:26:18.990            34.549               Magadan1          1079.656
       381   04 Jun 2027 22:13:04.798   04 Jun 2027 22:15:51.055           166.257            RioGallegos          5195.531
       382   04 Jun 2027 22:18:35.926   04 Jun 2027 22:19:05.654            29.728            RioGallegos           929.000
       383   04 Jun 2027 22:53:11.195   04 Jun 2027 22:54:55.177           103.982                Anadyr1          3249.437
       384   04 Jun 2027 22:55:02.227   04 Jun 2027 22:55:13.944            11.717                Anadyr2           366.156
       385   04 Jun 2027 22:55:17.133   04 Jun 2027 22:56:49.910            92.777                Norilsk          2899.281
       386   04 Jun 2027 22:57:51.056   04 Jun 2027 22:58:23.363            32.307               Magadan1          1009.594
       387   04 Jun 2027 22:58:29.378   04 Jun 2027 22:58:50.089            20.711               Magadan2           647.219
       388   04 Jun 2027 23:00:03.115   04 Jun 2027 23:00:48.175            45.060                Irkutsk          1408.125
       389   04 Jun 2027 23:05:19.809   04 Jun 2027 23:06:45.682            85.873                Irkutsk          2683.531
       390   04 Jun 2027 23:16:32.759   04 Jun 2027 23:17:13.822            41.063                Sumatra          1283.219
       391   04 Jun 2027 23:19:16.433   04 Jun 2027 23:20:27.017            70.584                Sumatra          2205.750
       392   04 Jun 2027 23:54:06.750   04 Jun 2027 23:54:35.549            28.799            RioGallegos           899.969
       393   05 Jun 2027 00:28:23.881   05 Jun 2027 00:29:23.399            59.518                Anadyr2          1859.937
       394   05 Jun 2027 00:29:23.399   05 Jun 2027 00:30:27.774            64.375                Anadyr1          2011.719
       395   05 Jun 2027 00:31:06.393   05 Jun 2027 00:32:10.634            64.241                Norilsk          2007.531
       396   05 Jun 2027 00:32:29.420   05 Jun 2027 00:33:01.260            31.840               Magadan2           995.000
       397   05 Jun 2027 00:33:01.260   05 Jun 2027 00:33:04.402             3.142               Magadan1            98.187
       398   05 Jun 2027 00:33:18.695   05 Jun 2027 00:34:06.798            48.103               Magadan2          1503.219
       399   05 Jun 2027 00:35:00.613   05 Jun 2027 00:35:55.861            55.248                Irkutsk          1726.500
       400   05 Jun 2027 00:36:05.604   05 Jun 2027 00:36:50.449            44.845                Novosib          1401.406
       401   05 Jun 2027 00:38:53.107   05 Jun 2027 00:39:46.537            53.430                Novosib          1669.688
       402   05 Jun 2027 00:44:54.832   05 Jun 2027 00:46:22.222            87.390                  Delhi          2730.938
       403   05 Jun 2027 00:54:37.136   05 Jun 2027 00:56:31.868           114.732                Sumatra          3585.375
       404   05 Jun 2027 01:33:47.222   05 Jun 2027 01:33:52.361             5.139            RioGallegos           160.594
       405   05 Jun 2027 01:34:32.924   05 Jun 2027 01:34:42.813             9.889            RioGallegos           309.031
       406   05 Jun 2027 02:02:34.192   05 Jun 2027 02:02:55.895            21.703                Anadyr1           678.219
       407   05 Jun 2027 02:03:36.619   05 Jun 2027 02:04:05.620            29.001                Anadyr2           906.281
       408   05 Jun 2027 02:05:04.398   05 Jun 2027 02:05:18.672            14.274                Anadyr2           446.062
       409   05 Jun 2027 02:07:07.359   05 Jun 2027 02:09:00.764           113.405                Norilsk          3543.906
       410   05 Jun 2027 02:09:52.136   05 Jun 2027 02:11:02.079            69.943              Murmansk2          2185.719
       411   05 Jun 2027 02:11:12.243   05 Jun 2027 02:12:14.686            62.443                Irkutsk          1951.344
       412   05 Jun 2027 02:15:31.934   05 Jun 2027 02:16:34.099            62.165                Novosib          1942.656
       413   05 Jun 2027 02:26:22.305   05 Jun 2027 02:26:50.195            27.890                  Delhi           871.562
       414   05 Jun 2027 03:00:23.588   05 Jun 2027 03:03:50.069           206.481            RioGallegos          6452.531
       415   05 Jun 2027 03:04:40.889   05 Jun 2027 03:05:43.828            62.939            RioGallegos          1966.844
       416   05 Jun 2027 03:51:12.580   05 Jun 2027 03:51:36.428            23.848                Norilsk           745.250
       417   05 Jun 2027 03:51:45.251   05 Jun 2027 03:53:32.898           107.647              Murmansk2          3363.969
       418   05 Jun 2027 03:53:52.973   05 Jun 2027 03:56:18.822           145.849              Murmansk2          4557.781
       419   05 Jun 2027 03:56:37.285   05 Jun 2027 04:01:10.224           272.939                  Delhi          8529.344
       420   05 Jun 2027 05:28:30.567   05 Jun 2027 05:28:44.900            14.333                Novosib           447.906
       421   05 Jun 2027 05:28:53.431   05 Jun 2027 05:30:09.607            76.176                Norilsk          2380.500
       422   05 Jun 2027 05:30:23.429   05 Jun 2027 05:34:01.384           217.955              Murmansk1          6811.094
       423   05 Jun 2027 05:48:58.230   05 Jun 2027 05:50:43.139           104.909               CapeTown          3278.406
       424   05 Jun 2027 06:52:09.253   05 Jun 2027 06:54:47.503           158.250                Anadyr1          4945.312
       425   05 Jun 2027 06:57:12.670   05 Jun 2027 06:57:59.533            46.863                Anadyr2          1464.469
       426   05 Jun 2027 08:27:45.626   05 Jun 2027 08:27:47.329             1.703                Anadyr1            53.219
       427   05 Jun 2027 08:27:59.505   05 Jun 2027 08:28:25.326            25.821                Norilsk           806.906
       428   05 Jun 2027 08:28:28.053   05 Jun 2027 08:29:30.567            62.514                Irkutsk          1953.563
       429   05 Jun 2027 08:29:48.439   05 Jun 2027 08:32:25.352           156.913               Magadan2          4903.531
       430   05 Jun 2027 08:32:48.831   05 Jun 2027 08:33:20.048            31.217                Anadyr1           975.531
       431   05 Jun 2027 10:01:50.832   05 Jun 2027 10:03:21.655            90.823               Magadan2          2838.219
       432   05 Jun 2027 10:03:21.655   05 Jun 2027 10:04:18.515            56.860               Magadan1          1776.875
       433   05 Jun 2027 10:04:46.539   05 Jun 2027 10:05:01.828            15.289                Novosib           477.781
       434   05 Jun 2027 10:05:07.244   05 Jun 2027 10:07:38.569           151.325                Anadyr2          4728.906
       435   05 Jun 2027 10:08:01.531   05 Jun 2027 10:08:45.073            43.542              Murmansk2          1360.688
       436   05 Jun 2027 10:08:55.993   05 Jun 2027 10:09:01.958             5.965                Irkutsk           186.406
       437   05 Jun 2027 10:09:03.016   05 Jun 2027 10:09:12.135             9.119               Magadan1           284.969
       438   05 Jun 2027 10:09:30.585   05 Jun 2027 10:09:35.620             5.035                Norilsk           157.344
       439   05 Jun 2027 10:09:38.213   05 Jun 2027 10:09:56.068            17.855                Novosib           557.969
       440   05 Jun 2027 10:11:12.858   05 Jun 2027 10:12:04.709            51.851              Murmansk2          1620.344
       441   05 Jun 2027 10:44:08.366   05 Jun 2027 10:45:10.662            62.296            RioGallegos          1946.750
       442   05 Jun 2027 11:20:22.574   05 Jun 2027 11:20:35.130            12.556                Sumatra           392.375
       443   05 Jun 2027 11:21:54.034   05 Jun 2027 11:23:04.890            70.856                Sumatra          2214.250
       444   05 Jun 2027 11:38:31.495   05 Jun 2027 11:38:36.226             4.731                Norilsk           147.844
       445   05 Jun 2027 11:38:41.292   05 Jun 2027 11:38:55.766            14.474                Novosib           452.313
       446   05 Jun 2027 11:38:59.463   05 Jun 2027 11:39:27.493            28.030                Novosib           875.938
       447   05 Jun 2027 11:39:35.985   05 Jun 2027 11:40:21.366            45.381                Norilsk          1418.156
       448   05 Jun 2027 11:40:24.616   05 Jun 2027 11:41:00.488            35.872                Irkutsk          1121.000
       449   05 Jun 2027 11:41:05.195   05 Jun 2027 11:41:07.740             2.545                Norilsk            79.531
       450   05 Jun 2027 11:41:20.229   05 Jun 2027 11:42:39.921            79.692                Novosib          2490.375
       451   05 Jun 2027 11:42:45.654   05 Jun 2027 11:43:22.113            36.459                Novosib          1139.344
       452   05 Jun 2027 11:43:25.412   05 Jun 2027 11:44:54.179            88.767                Irkutsk          2773.969
       453   05 Jun 2027 11:45:03.953   05 Jun 2027 11:45:19.274            15.321                Irkutsk           478.781
       454   05 Jun 2027 11:45:35.397   05 Jun 2027 11:45:50.630            15.233              Murmansk1           476.031
       455   05 Jun 2027 11:46:30.798   05 Jun 2027 11:46:41.296            10.498              Murmansk1           328.062
       456   05 Jun 2027 12:20:51.816   05 Jun 2027 12:21:13.409            21.593            RioGallegos           674.781
       457   05 Jun 2027 12:22:31.336   05 Jun 2027 12:25:08.182           156.846            RioGallegos          4901.438
       458   05 Jun 2027 13:01:52.876   05 Jun 2027 13:02:56.165            63.289                Sumatra          1977.781
       459   05 Jun 2027 13:09:55.871   05 Jun 2027 13:10:57.223            61.352                Novosib          1917.250
       460   05 Jun 2027 13:13:29.722   05 Jun 2027 13:15:15.727           106.005                Irkutsk          3312.656
       461   05 Jun 2027 13:16:15.537   05 Jun 2027 13:16:39.962            24.425                Norilsk           763.281
       462   05 Jun 2027 13:24:39.749   05 Jun 2027 13:24:53.656            13.907                Norilsk           434.594
       463   05 Jun 2027 14:39:57.666   05 Jun 2027 14:41:59.469           121.803                  Delhi          3806.344
       464   05 Jun 2027 14:44:10.251   05 Jun 2027 14:45:10.116            59.865                  Delhi          1870.781
       465   05 Jun 2027 14:45:16.539   05 Jun 2027 14:45:22.672             6.133                  Delhi           191.656
       466   05 Jun 2027 14:47:47.102   05 Jun 2027 14:49:47.787           120.685                  Delhi          3771.406
       467   05 Jun 2027 14:50:55.108   05 Jun 2027 14:51:33.224            38.116                Novosib          1191.125
       468   05 Jun 2027 14:52:02.992   05 Jun 2027 14:52:52.683            49.691                Norilsk          1552.844
       469   05 Jun 2027 14:54:00.030   05 Jun 2027 14:56:03.504           123.474                Norilsk          3858.562
       470   05 Jun 2027 16:23:31.693   05 Jun 2027 16:26:42.983           191.290                 Moscow          5977.812
       471   05 Jun 2027 16:27:43.795   05 Jun 2027 16:28:10.754            26.959              Murmansk2           842.469
       472   05 Jun 2027 16:33:07.982   05 Jun 2027 16:37:24.963           256.981                Norilsk          8030.656
       473   05 Jun 2027 17:39:13.444   05 Jun 2027 17:39:41.013            27.569               CapeTown           861.531
       474   05 Jun 2027 17:44:23.078   05 Jun 2027 17:44:28.234             5.156               CapeTown           161.125
       475   05 Jun 2027 17:47:44.072   05 Jun 2027 17:48:05.107            21.035               CapeTown           657.344
       476   05 Jun 2027 17:49:27.630   05 Jun 2027 17:49:29.172             1.542               CapeTown            48.188
       477   05 Jun 2027 18:02:20.252   05 Jun 2027 18:04:43.481           143.229                 Moscow          4475.906
       478   05 Jun 2027 18:04:48.810   05 Jun 2027 18:04:59.011            10.201              Murmansk2           318.781
       479   05 Jun 2027 18:07:36.218   05 Jun 2027 18:08:08.594            32.376              Murmansk1          1011.750
       480   05 Jun 2027 18:08:28.828   05 Jun 2027 18:09:24.126            55.298              Murmansk1          1728.063
       481   05 Jun 2027 18:13:50.618   05 Jun 2027 18:14:42.800            52.182              Murmansk1          1630.687
       482   05 Jun 2027 18:26:13.812   05 Jun 2027 18:26:44.400            30.588                Anadyr2           955.875
