uniorb/output/strategy_1/Drop/Drop_KinoSat_110205.txt

KinoSat_110205
-------------------------
    Access    *     Start Time (UTCG)     *     Stop Time (UTCG)  *   Duration (s)        *       Station  *  Data (Mbytes)
         1   01 Jun 2027 04:03:56.980   01 Jun 2027 04:04:17.094            20.114                Norilsk          2514.250
         2   01 Jun 2027 04:04:22.881   01 Jun 2027 04:04:57.183            34.302                Novosib          4287.750
         3   01 Jun 2027 04:04:58.733   01 Jun 2027 04:05:18.842            20.109                Norilsk          2513.625
         4   01 Jun 2027 04:05:33.103   01 Jun 2027 04:06:57.442            84.339                Norilsk         10542.375
         5   01 Jun 2027 04:07:16.458   01 Jun 2027 04:07:49.102            32.644              Murmansk2          4080.500
         6   01 Jun 2027 04:08:04.106   01 Jun 2027 04:08:24.765            20.659              Murmansk2          2582.375
         7   01 Jun 2027 04:08:24.765   01 Jun 2027 04:09:02.507            37.742              Murmansk1          4717.750
         8   01 Jun 2027 04:09:08.102   01 Jun 2027 04:09:21.441            13.339                Norilsk          1667.375
         9   01 Jun 2027 04:12:05.329   01 Jun 2027 04:12:52.572            47.243                Norilsk          5905.375
        10   01 Jun 2027 04:12:56.020   01 Jun 2027 04:13:03.882             7.862                Norilsk           982.750
        11   01 Jun 2027 04:43:55.913   01 Jun 2027 04:45:04.359            68.446            RioGallegos          8555.750
        12   01 Jun 2027 05:20:28.976   01 Jun 2027 05:22:58.611           149.635                Sumatra         18704.375
        13   01 Jun 2027 05:32:44.541   01 Jun 2027 05:33:44.173            59.632                  Delhi          7454.000
        14   01 Jun 2027 05:41:42.375   01 Jun 2027 05:43:52.014           129.639                Irkutsk         16204.875
        15   01 Jun 2027 07:02:58.043   01 Jun 2027 07:05:02.027           123.984                  Delhi         15498.000
        16   01 Jun 2027 07:18:07.894   01 Jun 2027 07:18:42.370            34.476                 Moscow          4309.500
        17   01 Jun 2027 07:18:54.173   01 Jun 2027 07:19:48.350            54.177                 Moscow          6772.125
        18   01 Jun 2027 07:20:22.385   01 Jun 2027 07:21:14.896            52.511                Novosib          6563.875
        19   01 Jun 2027 09:07:42.508   01 Jun 2027 09:09:07.707            85.199                Anadyr2         10649.875
        20   01 Jun 2027 10:00:37.806   01 Jun 2027 10:02:44.244           126.438               CapeTown         15804.750
        21   01 Jun 2027 10:05:03.314   01 Jun 2027 10:06:32.591            89.277               CapeTown         11159.625
        22   01 Jun 2027 10:41:02.103   01 Jun 2027 10:45:43.287           281.184                Anadyr2         35148.000
        23   01 Jun 2027 12:20:31.397   01 Jun 2027 12:22:40.473           129.076               Magadan2         16134.500
        24   01 Jun 2027 12:22:40.473   01 Jun 2027 12:23:14.353            33.880               Magadan1          4235.000
        25   01 Jun 2027 14:04:32.616   01 Jun 2027 14:06:14.427           101.811               Magadan1         12726.375
        26   01 Jun 2027 14:52:25.150   01 Jun 2027 14:55:37.764           192.614            RioGallegos         24076.750
        27   01 Jun 2027 15:39:27.084   01 Jun 2027 15:41:27.144           120.060                Irkutsk         15007.500
        28   01 Jun 2027 15:49:44.354   01 Jun 2027 15:53:08.668           204.314                Sumatra         25539.250
        29   01 Jun 2027 15:56:06.566   01 Jun 2027 15:58:34.792           148.226                Sumatra         18528.250
        30   01 Jun 2027 17:14:18.171   01 Jun 2027 17:15:15.223            57.052                Novosib          7131.500
        31   01 Jun 2027 17:19:52.956   01 Jun 2027 17:22:53.199           180.243                  Delhi         17089.501
        32   02 Jun 2027 04:19:04.089   02 Jun 2027 04:19:32.379            28.290                Novosib          3536.250
        33   02 Jun 2027 04:19:59.063   02 Jun 2027 04:20:50.338            51.275                Novosib          6409.375
        34   02 Jun 2027 05:30:33.800   02 Jun 2027 05:30:55.466            21.666                Sumatra          2708.250
        35   02 Jun 2027 05:32:46.183   02 Jun 2027 05:34:57.423           131.240                Sumatra         16405.000
        36   02 Jun 2027 05:38:50.950   02 Jun 2027 05:41:20.783           149.833                  Delhi         18729.125
        37   02 Jun 2027 05:55:13.507   02 Jun 2027 05:55:59.286            45.779                Novosib          5722.375
        38   02 Jun 2027 07:15:26.708   02 Jun 2027 07:16:45.466            78.758                  Delhi          9844.750
        39   02 Jun 2027 07:17:39.576   02 Jun 2027 07:18:10.853            31.277                  Delhi          3909.625
        40   02 Jun 2027 07:30:21.921   02 Jun 2027 07:30:38.813            16.892                 Moscow          2111.500
        41   02 Jun 2027 07:30:47.414   02 Jun 2027 07:31:38.406            50.992                Norilsk          6374.000
        42   02 Jun 2027 07:31:54.558   02 Jun 2027 07:32:54.186            59.628              Murmansk2          7453.500
        43   02 Jun 2027 07:34:19.936   02 Jun 2027 07:34:31.937            12.001                Norilsk          1500.125
        44   02 Jun 2027 07:34:40.670   02 Jun 2027 07:34:45.002             4.332                 Moscow           541.500
        45   02 Jun 2027 10:52:59.843   02 Jun 2027 10:54:06.560            66.717                Anadyr2          8339.625
        46   02 Jun 2027 10:57:14.020   02 Jun 2027 10:57:37.265            23.245                Anadyr1          2905.625
        47   02 Jun 2027 12:31:31.830   02 Jun 2027 12:36:01.493           269.663               Magadan1         33707.875
        48   02 Jun 2027 14:06:58.194   02 Jun 2027 14:07:29.488            31.294               Magadan1          3911.750
        49   02 Jun 2027 15:03:24.871   02 Jun 2027 15:05:30.256           125.385            RioGallegos         15673.125
        50   02 Jun 2027 15:07:05.739   02 Jun 2027 15:08:30.501            84.762            RioGallegos         10595.250
        51   02 Jun 2027 15:47:39.005   02 Jun 2027 15:50:05.915           146.910                Irkutsk         18363.750
        52   02 Jun 2027 16:04:12.904   02 Jun 2027 16:05:04.040            51.136                Sumatra          6392.000
        53   02 Jun 2027 16:08:12.578   02 Jun 2027 16:08:27.777            15.199                Sumatra          1899.875
        54   02 Jun 2027 16:10:26.624   02 Jun 2027 16:12:21.742           115.118                Sumatra         14389.750
        55   02 Jun 2027 17:22:41.662   02 Jun 2027 17:25:38.697           177.035                Novosib         22129.375
        56   02 Jun 2027 17:31:11.391   02 Jun 2027 17:37:22.921           371.530                  Delhi         46441.250
        57   02 Jun 2027 20:36:07.773   02 Jun 2027 20:37:56.870           109.097                 Moscow         13637.125
        58   02 Jun 2027 22:35:50.190   02 Jun 2027 22:36:38.455            48.265               CapeTown          6033.125
        59   02 Jun 2027 22:38:39.348   02 Jun 2027 22:40:30.053           110.705               CapeTown         13838.125
        60   03 Jun 2027 04:06:58.770   03 Jun 2027 04:08:39.802           101.032                Sumatra         12629.000
        61   03 Jun 2027 05:50:37.610   03 Jun 2027 05:53:30.609           172.999                  Delhi         21624.875
        62   03 Jun 2027 06:07:55.314   03 Jun 2027 06:09:11.219            75.905                Norilsk          9488.125
        63   03 Jun 2027 07:28:05.497   03 Jun 2027 07:29:22.200            76.703                  Delhi          9587.875
        64   03 Jun 2027 07:34:07.554   03 Jun 2027 07:34:31.529            23.975                  Delhi          2996.875
        65   03 Jun 2027 07:42:32.082   03 Jun 2027 07:43:32.869            60.787                Novosib          7598.375
        66   03 Jun 2027 07:43:48.902   03 Jun 2027 07:43:53.957             5.055              Murmansk1           631.875
        67   03 Jun 2027 07:44:14.800   03 Jun 2027 07:46:09.388           114.588                 Moscow         14323.500
        68   03 Jun 2027 11:04:58.377   03 Jun 2027 11:05:51.843            53.466                Anadyr2          6683.250
        69   03 Jun 2027 11:06:39.362   03 Jun 2027 11:08:56.579           137.217                Anadyr1         17152.125
        70   03 Jun 2027 11:15:50.815   03 Jun 2027 11:16:31.208            40.393                Anadyr2          5049.125
        71   03 Jun 2027 12:43:25.607   03 Jun 2027 12:45:51.691           146.084               Magadan1         18260.500
        72   03 Jun 2027 12:47:31.590   03 Jun 2027 12:49:26.901           115.311               Magadan2         14413.875
        73   03 Jun 2027 12:51:53.040   03 Jun 2027 12:52:56.315            63.275               Magadan1          7909.375
        74   03 Jun 2027 15:11:26.894   03 Jun 2027 15:15:35.089           248.195            RioGallegos         31024.375
        75   03 Jun 2027 15:58:53.383   03 Jun 2027 16:03:07.274           253.891                Irkutsk         31736.375
        76   03 Jun 2027 16:14:51.809   03 Jun 2027 16:17:05.016           133.207                Sumatra         16650.875
        77   03 Jun 2027 17:36:31.046   03 Jun 2027 17:39:12.396           161.350                Novosib         20168.750
        78   03 Jun 2027 17:43:49.408   03 Jun 2027 17:46:35.684           166.276                  Delhi         20784.500
        79   03 Jun 2027 20:48:03.328   03 Jun 2027 20:49:41.728            98.400                 Moscow         12300.000
        80   03 Jun 2027 22:50:36.239   03 Jun 2027 22:50:51.399            15.160               CapeTown          1895.000
        81   04 Jun 2027 03:06:24.321   04 Jun 2027 03:06:37.775            13.454               Magadan1          1681.750
        82   04 Jun 2027 03:06:58.849   04 Jun 2027 03:07:42.156            43.307               Magadan2          5413.375
        83   04 Jun 2027 03:07:42.156   04 Jun 2027 03:08:09.372            27.216               Magadan1          3402.000
        84   04 Jun 2027 03:43:19.159   04 Jun 2027 03:45:27.190           128.031            RioGallegos         16003.875
        85   04 Jun 2027 03:46:08.771   04 Jun 2027 03:46:31.766            22.995            RioGallegos          2874.375
        86   04 Jun 2027 04:18:39.030   04 Jun 2027 04:23:07.611           268.581                Sumatra         33572.625
        87   04 Jun 2027 04:40:37.536   04 Jun 2027 04:40:54.070            16.534                Irkutsk          2066.750
        88   04 Jun 2027 04:41:00.601   04 Jun 2027 04:41:09.222             8.621                Norilsk          1077.625
        89   04 Jun 2027 04:41:11.726   04 Jun 2027 04:41:35.976            24.250                Irkutsk          3031.250
        90   04 Jun 2027 04:42:02.913   04 Jun 2027 04:42:56.946            54.033              Murmansk2          6754.125
        91   04 Jun 2027 04:43:07.991   04 Jun 2027 04:43:52.724            44.733                Norilsk          5591.625
        92   04 Jun 2027 04:44:09.487   04 Jun 2027 04:44:30.844            21.357                Novosib          2669.625
        93   04 Jun 2027 04:44:32.809   04 Jun 2027 04:44:34.809             2.000                Irkutsk           250.000
        94   04 Jun 2027 04:45:22.738   04 Jun 2027 04:45:46.768            24.030                Novosib          3003.750
        95   04 Jun 2027 05:21:20.181   04 Jun 2027 05:22:43.585            83.404            RioGallegos         10425.500
        96   04 Jun 2027 05:55:32.913   04 Jun 2027 05:57:26.493           113.580                Sumatra         14197.500
        97   04 Jun 2027 06:02:29.735   04 Jun 2027 06:03:43.002            73.267                  Delhi          9158.375
        98   04 Jun 2027 06:05:36.868   04 Jun 2027 06:05:41.847             4.979                  Delhi           622.375
        99   04 Jun 2027 06:18:31.702   04 Jun 2027 06:18:48.322            16.620              Murmansk1          2077.500
       100   04 Jun 2027 06:18:48.322   04 Jun 2027 06:19:34.206            45.884              Murmansk2          5735.500
       101   04 Jun 2027 06:19:43.742   04 Jun 2027 06:20:01.640            17.898              Murmansk2          2237.250
       102   04 Jun 2027 06:20:47.069   04 Jun 2027 06:20:55.729             8.660              Murmansk2          1082.500
       103   04 Jun 2027 07:40:58.901   04 Jun 2027 07:41:29.778            30.877                  Delhi          3859.625
       104   04 Jun 2027 07:53:37.328   04 Jun 2027 07:54:55.225            77.897              Murmansk1          9737.125
       105   04 Jun 2027 07:55:10.787   04 Jun 2027 07:55:52.919            42.132              Murmansk2          5266.500
       106   04 Jun 2027 07:56:01.749   04 Jun 2027 07:56:12.332            10.583                 Moscow          1322.875
       107   04 Jun 2027 07:56:29.453   04 Jun 2027 07:57:11.619            42.166                Norilsk          5270.750
       108   04 Jun 2027 07:57:24.396   04 Jun 2027 07:58:15.892            51.496              Murmansk1          6437.000
       109   04 Jun 2027 09:03:32.365   04 Jun 2027 09:05:54.479           142.114               CapeTown         17764.250
       110   04 Jun 2027 10:36:17.789   04 Jun 2027 10:38:20.210           122.421               CapeTown         15302.625
       111   04 Jun 2027 11:16:57.549   04 Jun 2027 11:17:41.500            43.951                Anadyr2          5493.875
       112   04 Jun 2027 11:18:32.667   04 Jun 2027 11:22:42.930           250.263                Anadyr2         31282.875
       113   04 Jun 2027 12:55:20.976   04 Jun 2027 12:57:04.887           103.911               Magadan1         12988.875
       114   04 Jun 2027 13:00:14.667   04 Jun 2027 13:00:34.207            19.540               Magadan2          2442.500
       115   04 Jun 2027 13:02:50.754   04 Jun 2027 13:06:17.131           206.377               Magadan1         25797.125
       116   04 Jun 2027 15:23:12.832   04 Jun 2027 15:27:30.869           258.037            RioGallegos         32254.625
       117   04 Jun 2027 16:24:31.758   04 Jun 2027 16:29:11.659           279.901                Sumatra         34987.625
       118   04 Jun 2027 17:54:21.050   04 Jun 2027 17:58:14.828           233.778                  Delhi         29222.250
       119   04 Jun 2027 20:56:38.013   04 Jun 2027 20:56:56.617            18.604              Murmansk2          2325.500
       120   04 Jun 2027 21:00:00.203   04 Jun 2027 21:01:17.948            77.745                 Moscow          9718.125
       121   04 Jun 2027 21:02:37.221   04 Jun 2027 21:04:43.401           126.180                 Moscow         15772.500
       122   05 Jun 2027 03:17:25.786   05 Jun 2027 03:18:24.200            58.414               Magadan2          7301.750
       123   05 Jun 2027 03:18:30.543   05 Jun 2027 03:18:37.985             7.442               Magadan1           930.250
       124   05 Jun 2027 03:19:10.631   05 Jun 2027 03:19:57.230            46.599               Magadan1          5824.875
       125   05 Jun 2027 03:20:12.241   05 Jun 2027 03:20:32.764            20.523                Irkutsk          2565.375
       126   05 Jun 2027 03:20:57.890   05 Jun 2027 03:21:05.937             8.047                Norilsk          1005.875
       127   05 Jun 2027 03:22:50.776   05 Jun 2027 03:23:16.798            26.022              Murmansk2          3252.750
       128   05 Jun 2027 03:55:22.255   05 Jun 2027 03:55:58.646            36.391            RioGallegos          4548.875
       129   05 Jun 2027 03:58:07.180   05 Jun 2027 03:58:26.845            19.665            RioGallegos          2458.125
       130   05 Jun 2027 03:59:47.450   05 Jun 2027 04:00:11.191            23.741            RioGallegos          2967.625
       131   05 Jun 2027 04:30:26.064   05 Jun 2027 04:35:17.220           291.156                Sumatra         36394.500
       132   05 Jun 2027 04:52:17.789   05 Jun 2027 04:56:05.917           228.128                Irkutsk         28516.000
       133   05 Jun 2027 06:16:25.778   05 Jun 2027 06:16:52.368            26.590                  Delhi          3323.750
       134   05 Jun 2027 06:30:52.195   05 Jun 2027 06:31:43.536            51.341                 Moscow          6417.625
       135   05 Jun 2027 06:31:52.596   05 Jun 2027 06:32:35.434            42.838              Murmansk1          5354.750
       136   05 Jun 2027 07:54:19.552   05 Jun 2027 07:55:44.357            84.805                  Delhi         10600.625
       137   05 Jun 2027 08:02:46.082   05 Jun 2027 08:03:26.277            40.195                Novosib          5024.375
       138   05 Jun 2027 08:03:35.354   05 Jun 2027 08:04:31.719            56.365                Novosib          7045.625
       139   05 Jun 2027 08:04:46.453   05 Jun 2027 08:05:29.316            42.863                Novosib          5357.875
       140   05 Jun 2027 08:05:37.849   05 Jun 2027 08:05:55.222            17.373              Murmansk1          2171.625
       141   05 Jun 2027 08:05:55.222   05 Jun 2027 08:06:14.759            19.537              Murmansk2          2442.125
       142   05 Jun 2027 08:06:34.156   05 Jun 2027 08:07:45.988            71.832                 Moscow          8979.000
       143   05 Jun 2027 08:07:51.391   05 Jun 2027 08:08:30.909            39.518              Murmansk2          4939.750
       144   05 Jun 2027 08:08:35.655   05 Jun 2027 08:09:19.916            44.261              Murmansk2          5532.625
       145   05 Jun 2027 09:14:32.175   05 Jun 2027 09:17:39.714           187.539               CapeTown         23442.375
       146   05 Jun 2027 09:55:43.184   05 Jun 2027 09:57:23.499           100.315                Anadyr1         12539.375
       147   05 Jun 2027 11:28:57.242   05 Jun 2027 11:29:34.003            36.761                Anadyr1          4595.125
       148   05 Jun 2027 11:30:53.680   05 Jun 2027 11:31:40.209            46.529                Anadyr1          5816.125
       149   05 Jun 2027 11:31:40.209   05 Jun 2027 11:33:45.524           125.315                Anadyr2         15664.375
       150   05 Jun 2027 13:07:17.596   05 Jun 2027 13:08:38.068            80.472               Magadan2         10059.000
       151   05 Jun 2027 13:09:18.549   05 Jun 2027 13:12:25.993           187.444               Magadan1         23430.500
       152   05 Jun 2027 15:35:02.262   05 Jun 2027 15:39:28.123           265.861            RioGallegos         33232.625
       153   05 Jun 2027 16:22:40.589   05 Jun 2027 16:24:37.425           116.836                Irkutsk         14604.500
       154   05 Jun 2027 16:36:21.867   05 Jun 2027 16:39:21.314           179.447                Sumatra         22430.875
       155   05 Jun 2027 17:58:28.935   05 Jun 2027 17:59:43.206            74.271                Novosib          9283.875
       156   05 Jun 2027 18:06:05.889   05 Jun 2027 18:08:19.394           133.505                  Delhi         16688.125
       157   05 Jun 2027 19:44:39.574   05 Jun 2027 19:45:15.371            35.797                 Moscow          4474.625
       158   05 Jun 2027 21:14:51.714   05 Jun 2027 21:17:01.977           130.263                 Moscow         16282.875
       159   05 Jun 2027 21:18:15.202   05 Jun 2027 21:18:29.777            14.575              Murmansk1          1821.875
       160   05 Jun 2027 21:36:05.884   05 Jun 2027 21:38:50.966           165.082               CapeTown         20635.250
       161   06 Jun 2027 03:30:05.342   06 Jun 2027 03:31:40.569            95.227               Magadan2         11903.375
       162   06 Jun 2027 03:32:36.002   06 Jun 2027 03:32:43.247             7.245                Irkutsk           905.625
       163   06 Jun 2027 03:32:46.683   06 Jun 2027 03:33:32.422            45.739              Murmansk2          5717.375
       164   06 Jun 2027 03:33:37.736   06 Jun 2027 03:33:41.966             4.230                Norilsk           528.750
       165   06 Jun 2027 03:33:47.463   06 Jun 2027 03:33:56.496             9.033              Murmansk1          1129.125
       166   06 Jun 2027 03:36:57.579   06 Jun 2027 03:37:11.945            14.366              Murmansk2          1795.750
       167   06 Jun 2027 04:07:28.790   06 Jun 2027 04:07:44.217            15.427            RioGallegos          1928.375
       168   06 Jun 2027 04:09:09.011   06 Jun 2027 04:10:37.409            88.398            RioGallegos         11049.750
       169   06 Jun 2027 04:16:18.980   06 Jun 2027 04:17:11.112            52.132            RioGallegos          6516.500
       170   06 Jun 2027 04:42:19.112   06 Jun 2027 04:45:24.736           185.624                Sumatra         23203.000
       171   06 Jun 2027 05:04:30.476   06 Jun 2027 05:06:01.264            90.788                Irkutsk         11348.500
       172   06 Jun 2027 05:06:54.398   06 Jun 2027 05:08:22.180            87.782                Novosib         10972.750
       173   06 Jun 2027 05:08:38.334   06 Jun 2027 05:08:53.793            15.459                Norilsk          1932.375
       174   06 Jun 2027 05:09:08.558   06 Jun 2027 05:10:11.000            62.442                Novosib          7805.250
       175   06 Jun 2027 06:26:27.033   06 Jun 2027 06:26:27.930             0.897                Sumatra           112.125
       176   06 Jun 2027 06:26:29.921   06 Jun 2027 06:28:14.109           104.188                  Delhi         13023.500
       177   06 Jun 2027 06:28:55.680   06 Jun 2027 06:29:39.433            43.753                  Delhi          5469.125
       178   06 Jun 2027 06:42:43.689   06 Jun 2027 06:42:59.064            15.375                 Moscow          1921.875
       179   06 Jun 2027 06:43:03.645   06 Jun 2027 06:43:59.004            55.359                Novosib          6919.875
       180   06 Jun 2027 06:44:53.143   06 Jun 2027 06:44:54.750             1.607                Norilsk           200.875
       181   06 Jun 2027 06:45:40.463   06 Jun 2027 06:45:49.821             9.358              Murmansk2          1169.750
       182   06 Jun 2027 08:14:18.420   06 Jun 2027 08:15:15.090            56.670              Murmansk2          7083.750
       183   06 Jun 2027 08:15:35.313   06 Jun 2027 08:16:43.055            67.742              Murmansk1          8467.750
       184   06 Jun 2027 08:16:43.055   06 Jun 2027 08:17:22.701            39.646              Murmansk2          4955.750
       185   06 Jun 2027 08:17:35.396   06 Jun 2027 08:17:39.928             4.532              Murmansk2           566.500
       186   06 Jun 2027 08:17:39.928   06 Jun 2027 08:17:55.060            15.132              Murmansk1          1891.500
       187   06 Jun 2027 08:18:01.800   06 Jun 2027 08:18:43.728            41.928                 Moscow          5241.000
       188   06 Jun 2027 08:18:49.031   06 Jun 2027 08:18:53.761             4.730              Murmansk1           591.250
       189   06 Jun 2027 08:18:57.925   06 Jun 2027 08:19:00.383             2.458                 Moscow           307.250
       190   06 Jun 2027 08:19:01.950   06 Jun 2027 08:19:25.723            23.773                Norilsk          2971.625
       191   06 Jun 2027 08:19:27.517   06 Jun 2027 08:19:58.324            30.807                 Moscow          3850.875
       192   06 Jun 2027 08:20:09.908   06 Jun 2027 08:20:48.354            38.446                Norilsk          4805.750
       193   06 Jun 2027 08:20:57.777   06 Jun 2027 08:21:15.238            17.461                Norilsk          2182.625
       194   06 Jun 2027 08:21:52.005   06 Jun 2027 08:21:58.440             6.435                 Moscow           804.375
       195   06 Jun 2027 08:23:45.793   06 Jun 2027 08:23:46.660             0.867                 Moscow           108.375
       196   06 Jun 2027 09:25:53.677   06 Jun 2027 09:29:29.321           215.644               CapeTown         26955.500
       197   06 Jun 2027 09:32:04.398   06 Jun 2027 09:35:05.824           181.426               CapeTown         22678.250
       198   06 Jun 2027 11:40:57.347   06 Jun 2027 11:41:28.529            31.182                Anadyr1          3897.750
       199   06 Jun 2027 11:43:35.537   06 Jun 2027 11:43:52.761            17.224                Anadyr2          2153.000
       200   06 Jun 2027 11:44:34.558   06 Jun 2027 11:45:46.657            72.099                Anadyr1          9012.375
       201   06 Jun 2027 13:19:15.247   06 Jun 2027 13:20:19.879            64.632               Magadan1          8079.000
       202   06 Jun 2027 13:21:38.426   06 Jun 2027 13:23:59.159           140.733               Magadan2         17591.625
       203   06 Jun 2027 15:05:43.622   06 Jun 2027 15:05:55.778            12.156                Irkutsk          1519.500
       204   06 Jun 2027 15:06:39.788   06 Jun 2027 15:06:44.440             4.652                Irkutsk           581.500
       205   06 Jun 2027 15:18:01.364   06 Jun 2027 15:20:24.419           143.055                Sumatra         17881.875
       206   06 Jun 2027 15:46:54.347   06 Jun 2027 15:48:46.509           112.162            RioGallegos         14020.250
       207   06 Jun 2027 16:34:36.775   06 Jun 2027 16:36:07.327            90.552                Irkutsk         11319.000
       208   06 Jun 2027 16:39:47.460   06 Jun 2027 16:41:07.152            79.692                Irkutsk          9961.500
       209   06 Jun 2027 16:48:17.766   06 Jun 2027 16:51:24.567           186.801                Sumatra         23350.125
       210   06 Jun 2027 18:15:14.035   06 Jun 2027 18:17:26.273           132.238                Novosib         16529.750
       211   06 Jun 2027 18:17:55.487   06 Jun 2027 18:20:38.336           162.849                  Delhi         20356.125
       212   06 Jun 2027 19:49:01.429   06 Jun 2027 19:50:26.949            85.520                 Moscow         10690.000
       213   06 Jun 2027 21:28:57.565   06 Jun 2027 21:31:14.149           136.584                 Moscow         17073.000
       214   06 Jun 2027 21:49:10.223   06 Jun 2027 21:50:58.036           107.813               CapeTown         13476.625
       215   07 Jun 2027 03:22:39.114   07 Jun 2027 03:24:01.636            82.522                Sumatra         10315.250
       216   07 Jun 2027 03:25:38.733   07 Jun 2027 03:27:42.949           124.216                Sumatra         15527.000
       217   07 Jun 2027 03:42:32.604   07 Jun 2027 03:42:45.857            13.253               Magadan2          1656.625
       218   07 Jun 2027 03:43:12.083   07 Jun 2027 03:43:16.517             4.434               Magadan2           554.250
       219   07 Jun 2027 03:43:54.996   07 Jun 2027 03:44:31.844            36.848                Irkutsk          4606.000
       220   07 Jun 2027 03:44:55.053   07 Jun 2027 03:45:26.918            31.865                Norilsk          3983.125
       221   07 Jun 2027 03:45:27.423   07 Jun 2027 03:46:02.808            35.385                Novosib          4423.125
       222   07 Jun 2027 03:49:18.545   07 Jun 2027 03:49:23.159             4.614                Norilsk           576.750
       223   07 Jun 2027 04:19:38.943   07 Jun 2027 04:20:05.571            26.628            RioGallegos          3328.500
       224   07 Jun 2027 04:25:40.371   07 Jun 2027 04:27:01.920            81.549            RioGallegos         10193.625
       225   07 Jun 2027 04:27:41.625   07 Jun 2027 04:27:45.843             4.218            RioGallegos           527.250
       226   07 Jun 2027 04:29:21.098   07 Jun 2027 04:29:24.309             3.211            RioGallegos           401.375
       227   07 Jun 2027 04:54:17.809   07 Jun 2027 04:56:54.018           156.209                Sumatra         19526.125
       228   07 Jun 2027 05:04:40.867   07 Jun 2027 05:06:05.427            84.560                  Delhi         10570.000
       229   07 Jun 2027 05:16:59.575   07 Jun 2027 05:17:29.381            29.806                Norilsk          3725.750
       230   07 Jun 2027 05:17:37.597   07 Jun 2027 05:20:23.484           165.887                Irkutsk         20735.875
       231   07 Jun 2027 05:59:59.563   07 Jun 2027 06:00:16.479            16.916            RioGallegos          2114.500
       232   07 Jun 2027 06:38:38.194   07 Jun 2027 06:41:17.718           159.524                  Delhi         19940.500
       233   07 Jun 2027 06:54:59.342   07 Jun 2027 06:56:46.614           107.272                Norilsk         13409.000
       234   07 Jun 2027 08:26:20.980   07 Jun 2027 08:26:42.067            21.087              Murmansk1          2635.875
       235   07 Jun 2027 08:26:50.687   07 Jun 2027 08:27:06.572            15.885              Murmansk2          1985.625
       236   07 Jun 2027 08:27:09.359   07 Jun 2027 08:27:30.536            21.177                 Moscow          2647.125
       237   07 Jun 2027 08:27:43.363   07 Jun 2027 08:28:28.987            45.624              Murmansk2          5703.000
       238   07 Jun 2027 08:28:34.690   07 Jun 2027 08:29:19.972            45.282                 Moscow          5660.250
       239   07 Jun 2027 08:29:31.637   07 Jun 2027 08:29:41.425             9.788              Murmansk2          1223.500
       240   07 Jun 2027 08:29:55.214   07 Jun 2027 08:30:47.707            52.493              Murmansk1          6561.625
       241   07 Jun 2027 08:30:55.843   07 Jun 2027 08:31:26.566            30.723                Norilsk          3840.375
       242   07 Jun 2027 08:31:32.745   07 Jun 2027 08:32:16.950            44.205              Murmansk1          5525.625
       243   07 Jun 2027 09:37:26.507   07 Jun 2027 09:41:22.573           236.066               CapeTown         29508.250
       244   07 Jun 2027 09:44:19.121   07 Jun 2027 09:44:23.766             4.645               CapeTown           580.625
       245   07 Jun 2027 10:21:57.112   07 Jun 2027 10:22:45.162            48.050                Anadyr2          6006.250
       246   07 Jun 2027 11:52:57.802   07 Jun 2027 11:55:49.163           171.361                Anadyr2         21420.125
       247   07 Jun 2027 11:57:20.955   07 Jun 2027 11:57:47.909            26.954                Anadyr2          3369.250
       248   07 Jun 2027 12:03:14.511   07 Jun 2027 12:04:15.916            61.405               Magadan2          7675.625
       249   07 Jun 2027 13:31:13.738   07 Jun 2027 13:33:50.700           156.962               Magadan2         19620.250
       250   07 Jun 2027 13:35:59.889   07 Jun 2027 13:37:50.364           110.475               Magadan2         13809.375
       251   07 Jun 2027 15:27:50.150   07 Jun 2027 15:31:51.102           240.952                Sumatra         30119.000
       252   07 Jun 2027 16:47:27.364   07 Jun 2027 16:49:13.736           106.372                Novosib         13296.500
       253   07 Jun 2027 16:54:25.749   07 Jun 2027 16:56:40.272           134.523                Novosib         16815.375
       254   07 Jun 2027 17:00:19.253   07 Jun 2027 17:01:40.396            81.143                Sumatra         10142.875
       255   07 Jun 2027 17:08:04.827   07 Jun 2027 17:11:30.856           206.029                Sumatra         25753.625
       256   07 Jun 2027 18:29:49.105   07 Jun 2027 18:32:46.237           177.132                  Delhi         22141.500
       257   07 Jun 2027 20:02:39.428   07 Jun 2027 20:04:08.653            89.225                 Moscow         11153.125
       258   07 Jun 2027 21:47:31.938   07 Jun 2027 21:48:49.203            77.265                 Moscow          9658.125
       259   07 Jun 2027 22:01:49.494   07 Jun 2027 22:02:26.870            37.376               CapeTown          4672.000
       260   07 Jun 2027 22:05:05.543   07 Jun 2027 22:05:14.841             9.298               CapeTown          1162.250
       261   07 Jun 2027 22:07:35.645   07 Jun 2027 22:09:24.485           108.840               CapeTown         13605.000
       262   08 Jun 2027 03:33:13.364   08 Jun 2027 03:35:41.340           147.976                Sumatra         18497.000
       263   08 Jun 2027 03:38:01.395   08 Jun 2027 03:41:02.115           180.720                Sumatra         22590.000
       264   08 Jun 2027 03:56:11.577   08 Jun 2027 03:56:35.701            24.124                Irkutsk          3015.500
       265   08 Jun 2027 03:56:47.641   08 Jun 2027 03:57:01.813            14.172                Norilsk          1771.500
       266   08 Jun 2027 03:57:15.760   08 Jun 2027 03:57:34.250            18.490                Norilsk          2311.250
       267   08 Jun 2027 04:31:52.937   08 Jun 2027 04:32:35.384            42.447            RioGallegos          5305.875
       268   08 Jun 2027 04:39:47.716   08 Jun 2027 04:39:57.896            10.180            RioGallegos          1272.500
       269   08 Jun 2027 04:40:43.280   08 Jun 2027 04:41:16.850            33.570            RioGallegos          4196.250
       270   08 Jun 2027 04:41:41.586   08 Jun 2027 04:42:47.920            66.334            RioGallegos          8291.750
       271   08 Jun 2027 05:06:22.110   08 Jun 2027 05:08:05.725           103.615                Sumatra         12951.875
       272   08 Jun 2027 05:15:50.143   08 Jun 2027 05:17:03.367            73.224                  Delhi          9153.000
       273   08 Jun 2027 05:29:35.726   08 Jun 2027 05:31:22.607           106.881                Novosib         13360.125
       274   08 Jun 2027 05:31:42.939   08 Jun 2027 05:32:18.225            35.286              Murmansk1          4410.750
       275   08 Jun 2027 05:32:37.760   08 Jun 2027 05:32:43.259             5.499                Novosib           687.375
       276   08 Jun 2027 05:32:56.835   08 Jun 2027 05:33:23.434            26.599                Norilsk          3324.875
       277   08 Jun 2027 05:34:18.312   08 Jun 2027 05:34:30.132            11.820              Murmansk1          1477.500
       278   08 Jun 2027 06:13:45.004   08 Jun 2027 06:14:28.416            43.412            RioGallegos          5426.500
       279   08 Jun 2027 06:50:52.401   08 Jun 2027 06:53:28.251           155.850                  Delhi         19481.250
       280   08 Jun 2027 07:06:02.146   08 Jun 2027 07:06:05.664             3.518                Norilsk           439.750
       281   08 Jun 2027 07:06:15.209   08 Jun 2027 07:06:47.541            32.332                Norilsk          4041.500
       282   08 Jun 2027 07:07:06.309   08 Jun 2027 07:08:55.136           108.827                 Moscow         13603.375
       283   08 Jun 2027 07:08:55.590   08 Jun 2027 07:09:39.725            44.135                Novosib          5516.875
       284   08 Jun 2027 08:38:57.160   08 Jun 2027 08:39:16.899            19.739              Murmansk2          2467.375
       285   08 Jun 2027 08:39:53.750   08 Jun 2027 08:40:16.049            22.299                 Moscow          2787.375
       286   08 Jun 2027 08:40:21.382   08 Jun 2027 08:40:33.235            11.853                 Moscow          1481.625
       287   08 Jun 2027 08:40:46.091   08 Jun 2027 08:41:34.815            48.724                 Moscow          6090.500
       288   08 Jun 2027 08:41:43.014   08 Jun 2027 08:41:55.647            12.633              Murmansk2          1579.125
       289   08 Jun 2027 08:41:55.647   08 Jun 2027 08:42:15.654            20.007              Murmansk1          2500.875
       290   08 Jun 2027 08:42:28.158   08 Jun 2027 08:43:43.516            75.358              Murmansk1          9419.750
       291   08 Jun 2027 09:49:06.750   08 Jun 2027 09:53:18.995           252.245               CapeTown         31530.625
       292   08 Jun 2027 11:29:11.635   08 Jun 2027 11:29:16.446             4.811               CapeTown           601.375
       293   08 Jun 2027 12:04:58.524   08 Jun 2027 12:08:00.438           181.914                Anadyr1         22739.250
       294   08 Jun 2027 12:09:03.862   08 Jun 2027 12:11:54.315           170.453               Magadan1         21306.625
       295   08 Jun 2027 13:43:12.930   08 Jun 2027 13:43:56.049            43.119               Magadan2          5389.875
       296   08 Jun 2027 13:46:59.295   08 Jun 2027 13:48:00.998            61.703               Magadan1          7712.875
       297   08 Jun 2027 13:51:20.803   08 Jun 2027 13:53:25.445           124.642               Magadan1         15580.250
       298   08 Jun 2027 15:23:48.303   08 Jun 2027 15:24:18.118            29.815                Irkutsk          3726.875
       299   08 Jun 2027 15:28:15.749   08 Jun 2027 15:29:37.877            82.128                Irkutsk         10266.000
       300   08 Jun 2027 15:38:43.785   08 Jun 2027 15:41:33.825           170.040                Sumatra         21255.000
       301   08 Jun 2027 15:44:09.831   08 Jun 2027 15:47:28.780           198.949                Sumatra         24868.625
       302   08 Jun 2027 17:01:25.827   08 Jun 2027 17:03:17.005           111.178                Novosib         13897.250
       303   08 Jun 2027 17:09:11.834   08 Jun 2027 17:11:23.445           131.611                  Delhi         16451.375
       304   08 Jun 2027 18:41:46.316   08 Jun 2027 18:43:53.610           127.294                  Delhi         15911.750
       305   08 Jun 2027 18:46:53.898   08 Jun 2027 18:49:14.563           140.665                  Delhi         17583.125
       306   08 Jun 2027 20:15:52.016   08 Jun 2027 20:17:01.414            69.398                 Moscow          8674.750
       307   08 Jun 2027 21:52:51.114   08 Jun 2027 21:52:52.463             1.349                 Moscow           168.625
       308   08 Jun 2027 21:53:39.935   08 Jun 2027 21:54:03.522            23.587                 Moscow          2948.375
       309   08 Jun 2027 21:54:10.320   08 Jun 2027 21:54:20.209             9.889              Murmansk1          1236.125
       310   08 Jun 2027 21:57:32.669   08 Jun 2027 21:58:01.777            29.108                 Moscow          3638.500
       311   08 Jun 2027 22:11:50.318   08 Jun 2027 22:12:31.875            41.557               CapeTown          5194.625
       312   08 Jun 2027 22:14:17.360   08 Jun 2027 22:15:03.793            46.433               CapeTown          5804.125
       313   08 Jun 2027 22:17:40.858   08 Jun 2027 22:19:27.275           106.417               CapeTown         13302.125
       314   09 Jun 2027 03:44:19.237   09 Jun 2027 03:47:27.905           188.668                Sumatra         23583.500
       315   09 Jun 2027 04:08:32.875   09 Jun 2027 04:08:46.453            13.578                Irkutsk          1697.250
       316   09 Jun 2027 04:12:20.606   09 Jun 2027 04:13:47.212            86.606                Norilsk         10825.750
       317   09 Jun 2027 04:44:11.082   09 Jun 2027 04:45:29.996            78.914            RioGallegos          9864.250
       318   09 Jun 2027 04:52:09.953   09 Jun 2027 04:53:14.113            64.160            RioGallegos          8020.000
       319   09 Jun 2027 05:20:44.019   09 Jun 2027 05:21:15.618            31.599                Sumatra          3949.875
       320   09 Jun 2027 05:27:24.583   09 Jun 2027 05:29:22.018           117.435                  Delhi         14679.375
       321   09 Jun 2027 05:34:40.761   09 Jun 2027 05:36:43.381           122.620                  Delhi         15327.500
       322   09 Jun 2027 05:41:42.925   09 Jun 2027 05:41:55.759            12.834                Irkutsk          1604.250
       323   09 Jun 2027 05:41:58.861   09 Jun 2027 05:43:41.556           102.695                Novosib         12836.875
       324   09 Jun 2027 07:05:46.114   09 Jun 2027 07:07:24.436            98.322                  Delhi         12290.250
       325   09 Jun 2027 07:18:14.372   09 Jun 2027 07:19:18.445            64.073              Murmansk1          8009.125
       326   09 Jun 2027 07:19:33.444   09 Jun 2027 07:19:55.808            22.364              Murmansk2          2795.500
       327   09 Jun 2027 07:20:05.992   09 Jun 2027 07:20:33.380            27.388                 Moscow          3423.500
       328   09 Jun 2027 07:20:50.053   09 Jun 2027 07:20:55.226             5.173                 Moscow           646.625
       329   09 Jun 2027 07:21:46.676   09 Jun 2027 07:21:53.192             6.516                 Moscow           814.500
       330   09 Jun 2027 08:53:33.284   09 Jun 2027 08:54:05.217            31.933                 Moscow          3991.625
       331   09 Jun 2027 08:54:15.556   09 Jun 2027 08:54:22.137             6.581              Murmansk2           822.625
       332   09 Jun 2027 08:54:43.387   09 Jun 2027 08:56:10.103            86.716              Murmansk2         10839.500
       333   09 Jun 2027 08:56:50.773   09 Jun 2027 08:57:16.945            26.172              Murmansk2          3271.500
       334   09 Jun 2027 09:07:54.592   09 Jun 2027 09:08:06.449            11.857                Anadyr1          1482.125
       335   09 Jun 2027 09:08:46.761   09 Jun 2027 09:09:26.002            39.241                Anadyr2          4905.125
       336   09 Jun 2027 10:00:52.417   09 Jun 2027 10:05:18.307           265.890               CapeTown         33236.250
       337   09 Jun 2027 10:41:16.869   09 Jun 2027 10:42:02.780            45.911                Anadyr1          5738.875
       338   09 Jun 2027 12:16:59.469   09 Jun 2027 12:17:19.783            20.314                Anadyr1          2539.250
       339   09 Jun 2027 12:18:39.325   09 Jun 2027 12:20:09.463            90.138                Anadyr2         11267.250
       340   09 Jun 2027 12:20:47.458   09 Jun 2027 12:24:18.816           211.358               Magadan2         26419.750
       341   09 Jun 2027 13:55:12.724   09 Jun 2027 13:55:49.592            36.868               Magadan1          4608.500
       342   09 Jun 2027 13:58:19.072   09 Jun 2027 13:58:33.946            14.874               Magadan2          1859.250
       343   09 Jun 2027 13:59:53.220   09 Jun 2027 14:00:02.428             9.208               Magadan1          1151.000
       344   09 Jun 2027 14:52:38.920   09 Jun 2027 14:55:53.615           194.695            RioGallegos         24336.875
       345   09 Jun 2027 15:35:30.856   09 Jun 2027 15:36:54.468            83.612                Irkutsk         10451.500
       346   09 Jun 2027 15:49:58.523   09 Jun 2027 15:53:23.494           204.971                Sumatra         25621.375
       347   09 Jun 2027 15:56:21.737   09 Jun 2027 15:58:46.116           144.379                Sumatra         18047.375
       348   09 Jun 2027 17:11:03.946   09 Jun 2027 17:15:30.148           266.202                Novosib         33275.250
       349   09 Jun 2027 17:20:06.910   09 Jun 2027 17:23:07.906           180.996                  Delhi         22624.500
       350   09 Jun 2027 20:24:28.526   09 Jun 2027 20:27:46.334           197.808                 Moscow         24726.000
       351   09 Jun 2027 22:23:55.134   09 Jun 2027 22:25:17.101            81.967               CapeTown         10245.875
       352   09 Jun 2027 22:31:12.037   09 Jun 2027 22:31:52.560            40.523               CapeTown          5065.375
       353   10 Jun 2027 03:55:40.917   10 Jun 2027 03:59:20.533           219.616                Sumatra         27452.000
       354   10 Jun 2027 04:20:21.510   10 Jun 2027 04:20:47.916            26.406                Irkutsk          3300.750
       355   10 Jun 2027 04:21:59.477   10 Jun 2027 04:22:17.085            17.608                Novosib          2201.000
       356   10 Jun 2027 04:56:33.798   10 Jun 2027 04:57:25.400            51.602            RioGallegos          6450.250
       357   10 Jun 2027 05:30:48.977   10 Jun 2027 05:31:09.852            20.875                Sumatra          2609.375
       358   10 Jun 2027 05:33:00.701   10 Jun 2027 05:35:12.156           131.455                Sumatra         16431.875
       359   10 Jun 2027 05:39:05.500   10 Jun 2027 05:41:35.803           150.303                  Delhi         18787.875
       360   10 Jun 2027 05:55:06.452   10 Jun 2027 05:55:10.646             4.194                Novosib           524.250
       361   10 Jun 2027 05:55:27.716   10 Jun 2027 05:56:20.194            52.478                Novosib          6559.750
       362   10 Jun 2027 05:57:11.221   10 Jun 2027 05:58:07.962            56.741                Novosib          7092.625
       363   10 Jun 2027 07:15:42.102   10 Jun 2027 07:16:34.060            51.958                  Delhi          6494.750
       364   10 Jun 2027 07:17:54.299   10 Jun 2027 07:18:24.789            30.490                  Delhi          3811.250
       365   10 Jun 2027 07:30:08.622   10 Jun 2027 07:30:36.695            28.073                 Moscow          3509.125
       366   10 Jun 2027 07:30:51.976   10 Jun 2027 07:31:27.209            35.233                Norilsk          4404.125
       367   10 Jun 2027 07:31:27.555   10 Jun 2027 07:31:48.098            20.543              Murmansk2          2567.875
       368   10 Jun 2027 07:31:53.913   10 Jun 2027 07:33:15.976            82.063                Novosib         10257.875
       369   10 Jun 2027 10:12:42.369   10 Jun 2027 10:15:19.852           157.483               CapeTown         19685.375
       370   10 Jun 2027 10:53:14.626   10 Jun 2027 10:57:30.526           255.900                Anadyr1         31987.500
       371   10 Jun 2027 12:31:46.520   10 Jun 2027 12:36:16.425           269.905               Magadan1         33738.125
       372   10 Jun 2027 14:07:13.026   10 Jun 2027 14:07:44.066            31.040               Magadan2          3880.000
       373   10 Jun 2027 14:09:00.537   10 Jun 2027 14:10:26.888            86.351               Magadan1         10793.875
       374   10 Jun 2027 15:00:00.267   10 Jun 2027 15:00:10.269            10.002            RioGallegos          1250.250
       375   10 Jun 2027 15:03:33.634   10 Jun 2027 15:03:55.892            22.258            RioGallegos          2782.250
       376   10 Jun 2027 15:05:45.766   10 Jun 2027 15:07:18.291            92.525            RioGallegos         11565.625
       377   10 Jun 2027 15:47:17.846   10 Jun 2027 15:47:54.448            36.602                Irkutsk          4575.250
       378   10 Jun 2027 15:50:21.638   10 Jun 2027 15:51:38.073            76.435                Irkutsk          9554.375
       379   10 Jun 2027 16:01:25.927   10 Jun 2027 16:05:18.987           233.060                Sumatra         29132.500
       380   10 Jun 2027 17:22:56.365   10 Jun 2027 17:27:26.427           270.062                Novosib         33757.750
       381   10 Jun 2027 17:31:25.620   10 Jun 2027 17:34:57.201           211.581                  Delhi         26447.625
       382   10 Jun 2027 20:36:22.501   10 Jun 2027 20:38:32.030           129.529                 Moscow         16191.125
       383   10 Jun 2027 22:09:18.283   10 Jun 2027 22:09:43.690            25.407              Murmansk1          3175.875
       384   10 Jun 2027 22:36:05.233   10 Jun 2027 22:36:52.828            47.595               CapeTown          5949.375
       385   10 Jun 2027 22:38:54.161   10 Jun 2027 22:40:44.722           110.561               CapeTown         13820.125
       386   11 Jun 2027 04:07:13.192   11 Jun 2027 04:08:55.069           101.877                Sumatra         12734.625
       387   11 Jun 2027 04:32:41.302   11 Jun 2027 04:32:59.468            18.166                Norilsk          2270.750
       388   11 Jun 2027 04:33:01.805   11 Jun 2027 04:33:34.615            32.810              Murmansk2          4101.250
       389   11 Jun 2027 04:33:41.144   11 Jun 2027 04:34:04.140            22.996                Novosib          2874.500
       390   11 Jun 2027 05:09:01.685   11 Jun 2027 05:09:07.612             5.927            RioGallegos           740.875
       391   11 Jun 2027 05:43:13.526   11 Jun 2027 05:47:16.650           243.124                Sumatra         30390.500
       392   11 Jun 2027 05:50:52.256   11 Jun 2027 05:53:45.566           173.310                  Delhi         21663.750
       393   11 Jun 2027 06:07:37.915   11 Jun 2027 06:08:10.427            32.512                Norilsk          4064.000
       394   11 Jun 2027 06:08:25.921   11 Jun 2027 06:09:13.717            47.796              Murmansk1          5974.500
       395   11 Jun 2027 07:28:21.089   11 Jun 2027 07:29:36.299            75.210                  Delhi          9401.250
       396   11 Jun 2027 07:34:46.298   11 Jun 2027 07:36:22.355            96.057                  Delhi         12007.125
       397   11 Jun 2027 07:42:30.237   11 Jun 2027 07:43:41.441            71.204              Murmansk1          8900.500
       398   11 Jun 2027 07:43:47.038   11 Jun 2027 07:44:03.962            16.924              Murmansk2          2115.500
       399   11 Jun 2027 07:44:21.148   11 Jun 2027 07:44:57.597            36.449                 Moscow          4556.125
       400   11 Jun 2027 07:45:00.387   11 Jun 2027 07:45:11.883            11.496              Murmansk1          1437.000
       401   11 Jun 2027 07:48:07.355   11 Jun 2027 07:48:10.930             3.575              Murmansk2           446.875
       402   11 Jun 2027 07:49:21.533   11 Jun 2027 07:49:58.508            36.975              Murmansk1          4621.875
       403   11 Jun 2027 09:32:16.088   11 Jun 2027 09:32:49.263            33.175                Anadyr1          4146.875
       404   11 Jun 2027 10:24:35.906   11 Jun 2027 10:27:22.981           167.075               CapeTown         20884.375
       405   11 Jun 2027 11:05:13.174   11 Jun 2027 11:06:06.329            53.155                Anadyr2          6644.375
       406   11 Jun 2027 11:09:12.341   11 Jun 2027 11:10:14.332            61.991                Anadyr2          7748.875
       407   11 Jun 2027 11:10:27.229   11 Jun 2027 11:12:13.194           105.965                Anadyr1         13245.625
       408   11 Jun 2027 11:13:38.313   11 Jun 2027 11:14:46.995            68.682                Anadyr2          8585.250
       409   11 Jun 2027 12:43:40.330   11 Jun 2027 12:47:46.972           246.642               Magadan1         30830.250
       410   11 Jun 2027 15:11:41.430   11 Jun 2027 15:15:49.957           248.527            RioGallegos         31065.875
       411   11 Jun 2027 15:59:08.054   11 Jun 2027 16:03:22.753           254.699                Irkutsk         31837.375
       412   11 Jun 2027 16:13:02.474   11 Jun 2027 16:15:07.003           124.529                Sumatra         15566.125
       413   11 Jun 2027 17:34:50.701   11 Jun 2027 17:36:46.276           115.575                Novosib         14446.875
       414   11 Jun 2027 17:44:09.082   11 Jun 2027 17:46:50.564           161.482                  Delhi         20185.250
       415   11 Jun 2027 17:49:51.242   11 Jun 2027 17:50:03.031            11.789                  Delhi          1473.625
       416   11 Jun 2027 19:17:57.922   11 Jun 2027 19:18:34.398            36.476                  Delhi          4559.500
       417   11 Jun 2027 20:46:00.772   11 Jun 2027 20:46:49.203            48.431              Murmansk1          6053.875
       418   11 Jun 2027 20:48:18.082   11 Jun 2027 20:49:56.009            97.927                 Moscow         12240.875
       419   11 Jun 2027 21:20:02.693   11 Jun 2027 21:22:14.002           131.309               CapeTown         16413.625
       420   12 Jun 2027 03:06:00.364   12 Jun 2027 03:06:29.584            29.220               Magadan2          3652.500
       421   12 Jun 2027 03:06:40.537   12 Jun 2027 03:06:52.850            12.313               Magadan1          1539.125
       422   12 Jun 2027 03:07:07.874   12 Jun 2027 03:07:14.343             6.469                Irkutsk           808.625
       423   12 Jun 2027 03:07:15.624   12 Jun 2027 03:07:56.771            41.147               Magadan2          5143.375
       424   12 Jun 2027 03:08:15.688   12 Jun 2027 03:08:23.277             7.589                Novosib           948.625
       425   12 Jun 2027 03:08:37.130   12 Jun 2027 03:08:49.615            12.485                Irkutsk          1560.625
       426   12 Jun 2027 03:08:59.382   12 Jun 2027 03:09:58.178            58.796                Novosib          7349.500
       427   12 Jun 2027 03:43:34.009   12 Jun 2027 03:46:46.492           192.483            RioGallegos         24060.375
       428   12 Jun 2027 04:18:53.578   12 Jun 2027 04:23:22.735           269.157                Sumatra         33644.625
       429   12 Jun 2027 04:41:06.196   12 Jun 2027 04:41:31.283            25.087                Irkutsk          3135.875
       430   12 Jun 2027 04:41:43.028   12 Jun 2027 04:42:52.390            69.362                Novosib          8670.250
       431   12 Jun 2027 04:43:15.240   12 Jun 2027 04:43:36.309            21.069              Murmansk1          2633.625
       432   12 Jun 2027 04:43:59.921   12 Jun 2027 04:44:27.091            27.170              Murmansk2          3396.250
       433   12 Jun 2027 04:44:45.188   12 Jun 2027 04:45:37.055            51.867                Novosib          6483.375
       434   12 Jun 2027 05:22:58.220   12 Jun 2027 05:23:31.234            33.014            RioGallegos          4126.750
       435   12 Jun 2027 05:55:48.448   12 Jun 2027 05:57:41.241           112.793                Sumatra         14099.125
       436   12 Jun 2027 06:02:44.472   12 Jun 2027 06:05:51.769           187.297                  Delhi         23412.125
       437   12 Jun 2027 06:18:57.336   12 Jun 2027 06:19:17.873            20.537                Novosib          2567.125
       438   12 Jun 2027 06:19:40.475   12 Jun 2027 06:19:56.687            16.212                 Moscow          2026.500
       439   12 Jun 2027 06:20:01.012   12 Jun 2027 06:21:01.612            60.600              Murmansk1          7575.000
       440   12 Jun 2027 07:41:14.809   12 Jun 2027 07:41:44.744            29.935                  Delhi          3741.875
       441   12 Jun 2027 07:42:00.514   12 Jun 2027 07:44:07.918           127.404                  Delhi         15925.500
       442   12 Jun 2027 07:53:52.167   12 Jun 2027 07:55:09.828            77.661              Murmansk1          9707.625
       443   12 Jun 2027 07:55:10.969   12 Jun 2027 07:55:14.751             3.782                 Moscow           472.750
       444   12 Jun 2027 07:55:25.869   12 Jun 2027 07:55:51.739            25.870              Murmansk2          3233.750
       445   12 Jun 2027 07:55:51.739   12 Jun 2027 07:56:09.691            17.952              Murmansk1          2244.000
       446   12 Jun 2027 07:56:18.309   12 Jun 2027 07:56:50.099            31.790                 Moscow          3973.750
       447   12 Jun 2027 07:57:00.679   12 Jun 2027 07:57:41.748            41.069              Murmansk2          5133.625
       448   12 Jun 2027 09:03:45.819   12 Jun 2027 09:06:09.091           143.272               CapeTown         17909.000
       449   12 Jun 2027 10:36:32.580   12 Jun 2027 10:38:34.357           121.777               CapeTown         15222.125
       450   12 Jun 2027 11:17:12.358   12 Jun 2027 11:17:56.025            43.667                Anadyr2          5458.375
       451   12 Jun 2027 11:18:48.202   12 Jun 2027 11:22:11.117           202.915                Anadyr1         25364.375
       452   12 Jun 2027 12:55:35.725   12 Jun 2027 13:00:29.946           294.221               Magadan2         36777.625
       453   12 Jun 2027 15:23:27.440   12 Jun 2027 15:26:22.761           175.321            RioGallegos         21915.125
       454   12 Jun 2027 15:27:45.773   12 Jun 2027 15:29:19.797            94.024            RioGallegos         11753.000
       455   12 Jun 2027 16:11:00.720   12 Jun 2027 16:12:53.909           113.189                Irkutsk         14148.625
       456   12 Jun 2027 16:24:46.362   12 Jun 2027 16:27:25.000           158.638                Sumatra         19829.750
       457   12 Jun 2027 17:46:46.575   12 Jun 2027 17:49:07.521           140.946                Novosib         17618.250
       458   12 Jun 2027 17:54:35.561   12 Jun 2027 17:58:30.779           235.218                  Delhi         29402.250
       459   12 Jun 2027 20:56:52.855   12 Jun 2027 20:57:11.238            18.383              Murmansk2          2297.875
       460   12 Jun 2027 21:00:14.980   12 Jun 2027 21:01:32.340            77.360                 Moscow          9670.000
       461   12 Jun 2027 21:02:52.326   12 Jun 2027 21:04:58.399           126.073                 Moscow         15759.125
       462   13 Jun 2027 03:17:40.353   13 Jun 2027 03:18:40.330            59.977               Magadan1          7497.125
       463   13 Jun 2027 03:18:52.907   13 Jun 2027 03:20:11.830            78.923               Magadan2          9865.375
       464   13 Jun 2027 03:55:37.162   13 Jun 2027 03:57:07.681            90.519            RioGallegos         11314.875
       465   13 Jun 2027 03:58:20.916   13 Jun 2027 03:58:41.706            20.790            RioGallegos          2598.750
       466   13 Jun 2027 04:00:01.592   13 Jun 2027 04:00:31.468            29.876            RioGallegos          3734.500
       467   13 Jun 2027 04:30:40.721   13 Jun 2027 04:35:32.474           291.753                Sumatra         36469.125
       468   13 Jun 2027 04:53:28.674   13 Jun 2027 04:53:44.190            15.516                Novosib          1939.500
       469   13 Jun 2027 04:53:51.319   13 Jun 2027 04:55:01.658            70.339                Novosib          8792.375
       470   13 Jun 2027 04:55:18.119   13 Jun 2027 04:56:05.006            46.887                Novosib          5860.875
       471   13 Jun 2027 04:56:09.457   13 Jun 2027 04:56:18.563             9.106                Norilsk          1138.250
       472   13 Jun 2027 04:56:22.823   13 Jun 2027 04:56:29.163             6.340              Murmansk1           792.500
       473   13 Jun 2027 04:56:33.741   13 Jun 2027 04:57:12.679            38.938                Novosib          4867.250
       474   13 Jun 2027 05:34:17.048   13 Jun 2027 05:34:57.321            40.273            RioGallegos          5034.125
       475   13 Jun 2027 05:35:46.960   13 Jun 2027 05:36:14.577            27.617            RioGallegos          3452.125
       476   13 Jun 2027 06:08:39.368   13 Jun 2027 06:09:37.084            57.716                Sumatra          7214.500
       477   13 Jun 2027 06:14:41.996   13 Jun 2027 06:16:40.857           118.861                  Delhi         14857.625
       478   13 Jun 2027 06:31:02.203   13 Jun 2027 06:31:43.418            41.215              Murmansk1          5151.875
       479   13 Jun 2027 06:31:52.709   13 Jun 2027 06:33:03.319            70.610                Novosib          8826.250
       480   13 Jun 2027 07:54:36.186   13 Jun 2027 07:55:58.895            82.709                  Delhi         10338.625
       481   13 Jun 2027 08:03:05.541   13 Jun 2027 08:03:18.798            13.257              Murmansk1          1657.125
       482   13 Jun 2027 08:03:39.496   13 Jun 2027 08:05:06.242            86.746              Murmansk2         10843.250
