uniorb/output/strategy_1/Drop/Drop_KinoSat_111407.txt

KinoSat_111407
-------------------------
    Access    *     Start Time (UTCG)     *     Stop Time (UTCG)  *   Duration (s)        *       Station  *  Data (Mbytes)
         1   01 Jun 2027 03:04:21.230   01 Jun 2027 03:04:44.506            23.276                Novosib           727.375
         2   01 Jun 2027 03:04:52.878   01 Jun 2027 03:05:53.130            60.252                 Moscow          1882.875
         3   01 Jun 2027 03:06:16.329   01 Jun 2027 03:08:24.522           128.193              Murmansk2          4006.031
         4   01 Jun 2027 03:08:33.905   01 Jun 2027 03:09:22.474            48.569              Murmansk2          1517.781
         5   01 Jun 2027 03:26:59.895   01 Jun 2027 03:27:49.974            50.079               CapeTown          1564.969
         6   01 Jun 2027 04:43:20.143   01 Jun 2027 04:45:44.390           144.247                 Moscow          4507.719
         7   01 Jun 2027 04:46:01.032   01 Jun 2027 04:47:43.386           102.354              Murmansk2          3198.562
         8   01 Jun 2027 05:03:31.349   01 Jun 2027 05:03:55.320            23.971               CapeTown           749.094
         9   01 Jun 2027 06:06:32.974   01 Jun 2027 06:09:52.683           199.709                Anadyr1          6240.906
        10   01 Jun 2027 06:09:52.683   01 Jun 2027 06:10:19.687            27.004                Anadyr2           843.875
        11   01 Jun 2027 06:10:45.463   01 Jun 2027 06:11:31.649            46.186                Anadyr2          1443.312
        12   01 Jun 2027 07:43:13.481   01 Jun 2027 07:43:25.425            11.944               Magadan1           373.250
        13   01 Jun 2027 07:43:25.425   01 Jun 2027 07:45:06.277           100.852               Magadan2          3151.625
        14   01 Jun 2027 07:45:28.795   01 Jun 2027 07:47:08.315            99.520               Magadan2          3110.000
        15   01 Jun 2027 09:17:38.248   01 Jun 2027 09:18:36.818            58.570                Irkutsk          1830.313
        16   01 Jun 2027 09:18:37.631   01 Jun 2027 09:21:21.723           164.092               Magadan1          5127.875
        17   01 Jun 2027 09:21:21.723   01 Jun 2027 09:22:25.887            64.164               Magadan2          2005.125
        18   01 Jun 2027 09:22:44.779   01 Jun 2027 09:22:46.516             1.737                Irkutsk            54.281
        19   01 Jun 2027 09:24:31.372   01 Jun 2027 09:24:52.531            21.159              Murmansk1           661.219
        20   01 Jun 2027 09:29:45.872   01 Jun 2027 09:30:10.759            24.887              Murmansk2           777.719
        21   01 Jun 2027 09:57:32.246   01 Jun 2027 09:58:39.518            67.272            RioGallegos          2102.250
        22   01 Jun 2027 10:08:11.085   01 Jun 2027 10:08:22.133            11.048            RioGallegos           345.250
        23   01 Jun 2027 10:08:32.560   01 Jun 2027 10:09:31.187            58.627            RioGallegos          1832.094
        24   01 Jun 2027 10:39:16.511   01 Jun 2027 10:39:23.674             7.163                Sumatra           223.844
        25   01 Jun 2027 10:49:38.135   01 Jun 2027 10:50:10.018            31.883                  Delhi           996.344
        26   01 Jun 2027 10:54:09.981   01 Jun 2027 10:54:11.982             2.001                Novosib            62.531
        27   01 Jun 2027 10:54:13.925   01 Jun 2027 10:55:32.413            78.488                Norilsk          2452.750
        28   01 Jun 2027 10:55:38.661   01 Jun 2027 10:57:36.188           117.527              Murmansk1          3672.719
        29   01 Jun 2027 10:57:36.188   01 Jun 2027 10:58:01.252            25.064              Murmansk2           783.250
        30   01 Jun 2027 10:58:11.513   01 Jun 2027 10:58:57.455            45.942              Murmansk2          1435.688
        31   01 Jun 2027 10:59:03.157   01 Jun 2027 10:59:10.438             7.281              Murmansk2           227.531
        32   01 Jun 2027 11:00:00.922   01 Jun 2027 11:00:25.375            24.453                Norilsk           764.156
        33   01 Jun 2027 11:01:18.557   01 Jun 2027 11:01:48.688            30.131              Murmansk1           941.594
        34   01 Jun 2027 11:02:15.321   01 Jun 2027 11:02:44.592            29.271              Murmansk1           914.719
        35   01 Jun 2027 11:35:26.371   01 Jun 2027 11:36:01.449            35.078            RioGallegos          1096.188
        36   01 Jun 2027 11:36:59.596   01 Jun 2027 11:37:19.487            19.891            RioGallegos           621.594
        37   01 Jun 2027 11:38:43.938   01 Jun 2027 11:39:08.182            24.244            RioGallegos           757.625
        38   01 Jun 2027 11:39:54.905   01 Jun 2027 11:40:31.772            36.867            RioGallegos          1152.094
        39   01 Jun 2027 12:09:39.601   01 Jun 2027 12:10:31.646            52.045                Sumatra          1626.406
        40   01 Jun 2027 12:11:51.891   01 Jun 2027 12:12:56.091            64.200                Sumatra          2006.250
        41   01 Jun 2027 12:13:34.735   01 Jun 2027 12:13:46.164            11.429                Sumatra           357.156
        42   01 Jun 2027 12:23:45.054   01 Jun 2027 12:25:03.696            78.642                Novosib          2457.563
        43   01 Jun 2027 12:25:29.085   01 Jun 2027 12:26:59.108            90.023                Irkutsk          2813.219
        44   01 Jun 2027 12:27:45.806   01 Jun 2027 12:28:12.721            26.915                Norilsk           841.094
        45   01 Jun 2027 12:28:30.811   01 Jun 2027 12:30:08.511            97.700                Norilsk          3053.125
        46   01 Jun 2027 13:55:01.083   01 Jun 2027 13:59:42.878           281.795                  Delhi          8806.094
        47   01 Jun 2027 14:04:31.390   01 Jun 2027 14:05:48.216            76.826              Murmansk2          2400.813
        48   01 Jun 2027 14:06:40.687   01 Jun 2027 14:07:11.367            30.680                Norilsk           958.750
        49   01 Jun 2027 14:07:42.348   01 Jun 2027 14:08:07.691            25.343                Novosib           791.969
        50   01 Jun 2027 14:08:18.225   01 Jun 2027 14:08:54.884            36.659                Norilsk          1145.594
        51   01 Jun 2027 14:09:47.647   01 Jun 2027 14:10:18.392            30.745                Norilsk           960.781
        52   01 Jun 2027 15:17:58.255   01 Jun 2027 15:19:12.357            74.102               CapeTown          2315.688
        53   01 Jun 2027 15:37:26.591   01 Jun 2027 15:38:28.244            61.653                 Moscow          1926.656
        54   01 Jun 2027 15:40:54.436   01 Jun 2027 15:42:34.581           100.145              Murmansk2          3129.531
        55   01 Jun 2027 15:43:43.880   01 Jun 2027 15:44:30.437            46.557              Murmansk1          1454.906
        56   01 Jun 2027 15:56:04.537   01 Jun 2027 15:56:50.034            45.497                Anadyr2          1421.781
        57   01 Jun 2027 15:56:50.034   01 Jun 2027 15:57:06.448            16.414                Anadyr1           512.937
        58   01 Jun 2027 15:58:05.894   01 Jun 2027 15:58:30.189            24.295                Anadyr2           759.219
        59   01 Jun 2027 16:50:31.324   01 Jun 2027 16:52:55.932           144.608               CapeTown          4519.000
        60   01 Jun 2027 17:17:56.419   01 Jun 2027 17:22:05.041           248.622                 Moscow          7769.438
        61   01 Jun 2027 17:31:10.217   01 Jun 2027 17:31:11.873             1.656                Anadyr2            51.750
        62   01 Jun 2027 17:32:03.900   01 Jun 2027 17:32:53.524            49.624                Anadyr1          1550.750
        63   01 Jun 2027 17:36:58.146   01 Jun 2027 17:38:11.010            72.864               Magadan1          2277.000
        64   01 Jun 2027 18:27:37.223   01 Jun 2027 18:28:42.289            65.066               CapeTown          2033.313
        65   01 Jun 2027 19:01:10.012   01 Jun 2027 19:03:46.401           156.389              Murmansk2          4887.156
        66   01 Jun 2027 19:07:01.352   01 Jun 2027 19:07:02.856             1.504                Anadyr1            47.000
        67   01 Jun 2027 19:07:27.519   01 Jun 2027 19:07:42.636            15.117                Anadyr2           472.406
        68   01 Jun 2027 19:07:56.766   01 Jun 2027 19:08:08.173            11.407                Anadyr2           356.469
        69   01 Jun 2027 19:08:30.941   01 Jun 2027 19:08:56.662            25.721                Anadyr2           803.781
        70   01 Jun 2027 19:09:34.120   01 Jun 2027 19:11:58.229           144.109               Magadan2          4503.406
        71   01 Jun 2027 20:42:56.443   01 Jun 2027 20:45:03.960           127.517                Anadyr1          3984.906
        72   01 Jun 2027 20:45:13.124   01 Jun 2027 20:49:36.314           263.190               Magadan1          8224.688
        73   01 Jun 2027 21:37:27.221   01 Jun 2027 21:41:07.082           219.861            RioGallegos          6870.656
        74   01 Jun 2027 22:18:34.219   01 Jun 2027 22:19:20.045            45.826                Anadyr2          1432.062
        75   01 Jun 2027 22:20:46.519   01 Jun 2027 22:23:00.995           134.476                Norilsk          4202.375
        76   01 Jun 2027 22:23:11.890   01 Jun 2027 22:23:19.487             7.597               Magadan1           237.406
        77   01 Jun 2027 22:23:50.414   01 Jun 2027 22:24:37.134            46.720               Magadan1          1460.000
        78   01 Jun 2027 22:24:59.722   01 Jun 2027 22:25:32.295            32.573                Irkutsk          1017.906
        79   01 Jun 2027 22:27:11.058   01 Jun 2027 22:27:44.911            33.853                Novosib          1057.906
        80   01 Jun 2027 22:27:48.578   01 Jun 2027 22:27:51.494             2.916                Novosib            91.125
        81   01 Jun 2027 22:28:21.085   01 Jun 2027 22:28:57.209            36.124                Novosib          1128.875
        82   01 Jun 2027 22:38:47.292   01 Jun 2027 22:41:00.036           132.744                Sumatra          4148.250
        83   01 Jun 2027 23:54:01.843   01 Jun 2027 23:55:37.276            95.433                Anadyr1          2982.281
        84   01 Jun 2027 23:55:46.833   01 Jun 2027 23:56:05.918            19.085                Anadyr1           596.406
        85   01 Jun 2027 23:56:43.363   01 Jun 2027 23:57:00.996            17.633                Norilsk           551.031
        86   01 Jun 2027 23:57:22.584   01 Jun 2027 23:58:46.504            83.920               Magadan2          2622.500
        87   01 Jun 2027 23:58:59.637   01 Jun 2027 23:59:54.299            54.662               Magadan2          1708.187
        88   02 Jun 2027 00:00:35.484   02 Jun 2027 00:00:59.037            23.553                Irkutsk           736.031
        89   02 Jun 2027 00:01:17.260   02 Jun 2027 00:01:36.076            18.816                Irkutsk           588.000
        90   02 Jun 2027 00:01:45.422   02 Jun 2027 00:02:52.928            67.506                Novosib          2109.563
        91   02 Jun 2027 00:05:38.980   02 Jun 2027 00:06:33.223            54.243                Novosib          1695.094
        92   02 Jun 2027 00:08:36.963   02 Jun 2027 00:09:45.121            68.158                  Delhi          2129.938
        93   02 Jun 2027 00:49:01.887   02 Jun 2027 00:50:08.884            66.997            RioGallegos          2093.656
        94   02 Jun 2027 01:26:55.668   02 Jun 2027 01:27:12.766            17.098                Anadyr2           534.312
        95   02 Jun 2027 01:28:01.297   02 Jun 2027 01:29:15.193            73.896                Anadyr2          2309.250
        96   02 Jun 2027 01:29:29.926   02 Jun 2027 01:29:48.696            18.770                Anadyr1           586.563
        97   02 Jun 2027 01:32:43.093   02 Jun 2027 01:32:53.536            10.443                Norilsk           326.344
        98   02 Jun 2027 01:32:56.508   02 Jun 2027 01:34:39.381           102.873               Magadan1          3214.781
        99   02 Jun 2027 01:35:05.562   02 Jun 2027 01:36:43.150            97.588              Murmansk1          3049.625
       100   02 Jun 2027 01:36:43.767   02 Jun 2027 01:37:17.119            33.352              Murmansk2          1042.250
       101   02 Jun 2027 01:37:45.703   02 Jun 2027 01:38:03.187            17.484                Novosib           546.375
       102   02 Jun 2027 01:38:19.794   02 Jun 2027 01:39:01.729            41.935                Novosib          1310.469
       103   02 Jun 2027 01:44:05.410   02 Jun 2027 01:44:23.844            18.434                  Delhi           576.062
       104   02 Jun 2027 01:46:32.318   02 Jun 2027 01:48:29.867           117.549                  Delhi          3673.406
       105   02 Jun 2027 03:00:18.807   02 Jun 2027 03:00:48.832            30.025                Anadyr1           938.281
       106   02 Jun 2027 03:17:21.885   02 Jun 2027 03:18:25.182            63.297              Murmansk1          1978.031
       107   02 Jun 2027 03:18:26.722   02 Jun 2027 03:18:49.245            22.523              Murmansk2           703.844
       108   02 Jun 2027 03:18:57.120   02 Jun 2027 03:19:25.735            28.615                Norilsk           894.219
       109   02 Jun 2027 03:19:39.142   02 Jun 2027 03:22:29.865           170.723                Novosib          5335.094
       110   02 Jun 2027 03:22:32.712   02 Jun 2027 03:22:51.423            18.711              Murmansk2           584.719
       111   02 Jun 2027 03:22:55.018   02 Jun 2027 03:23:02.583             7.565                 Moscow           236.406
       112   02 Jun 2027 03:23:23.071   02 Jun 2027 03:25:29.856           126.785                 Moscow          3962.031
       113   02 Jun 2027 03:38:37.993   02 Jun 2027 03:41:50.172           192.179               CapeTown          6005.594
       114   02 Jun 2027 03:44:52.101   02 Jun 2027 03:45:07.430            15.329               CapeTown           479.031
       115   02 Jun 2027 04:34:47.822   02 Jun 2027 04:36:45.077           117.255                Anadyr1          3664.219
       116   02 Jun 2027 04:36:58.112   02 Jun 2027 04:38:02.365            64.253                Anadyr2          2007.906
       117   02 Jun 2027 04:42:13.701   02 Jun 2027 04:43:42.670            88.969                Anadyr2          2780.281
       118   02 Jun 2027 04:43:42.670   02 Jun 2027 04:44:20.242            37.572                Anadyr1          1174.125
       119   02 Jun 2027 04:53:55.596   02 Jun 2027 04:54:42.647            47.051              Murmansk2          1470.344
       120   02 Jun 2027 04:55:13.477   02 Jun 2027 04:57:30.657           137.180              Murmansk1          4286.875
       121   02 Jun 2027 04:57:35.277   02 Jun 2027 04:58:10.190            34.913              Murmansk1          1091.031
       122   02 Jun 2027 05:15:55.918   02 Jun 2027 05:16:00.266             4.348               CapeTown           135.875
       123   02 Jun 2027 06:16:28.071   02 Jun 2027 06:16:55.299            27.228               Magadan2           850.875
       124   02 Jun 2027 06:17:14.245   02 Jun 2027 06:19:49.332           155.087                Anadyr2          4846.469
       125   02 Jun 2027 06:19:54.843   02 Jun 2027 06:20:32.616            37.773                Anadyr2          1180.406
       126   02 Jun 2027 06:21:08.700   02 Jun 2027 06:21:52.646            43.946               Magadan1          1373.312
       127   02 Jun 2027 07:54:17.391   02 Jun 2027 07:55:20.895            63.504               Magadan2          1984.500
       128   02 Jun 2027 07:55:26.567   02 Jun 2027 07:55:59.780            33.213               Magadan1          1037.906
       129   02 Jun 2027 07:56:14.164   02 Jun 2027 07:59:08.303           174.139               Magadan2          5441.844
       130   02 Jun 2027 09:29:27.112   02 Jun 2027 09:33:09.566           222.454                Novosib          6951.687
       131   02 Jun 2027 09:33:17.730   02 Jun 2027 09:35:11.218           113.488              Murmansk2          3546.500
       132   02 Jun 2027 09:35:11.218   02 Jun 2027 09:35:47.880            36.662              Murmansk1          1145.688
       133   02 Jun 2027 09:36:02.589   02 Jun 2027 09:36:16.405            13.816                Norilsk           431.750
       134   02 Jun 2027 10:09:34.896   02 Jun 2027 10:10:59.630            84.734            RioGallegos          2647.937
       135   02 Jun 2027 10:44:41.163   02 Jun 2027 10:47:14.849           153.686                Sumatra          4802.688
       136   02 Jun 2027 11:06:35.893   02 Jun 2027 11:06:52.083            16.190                Novosib           505.938
       137   02 Jun 2027 11:07:07.675   02 Jun 2027 11:10:23.569           195.894                Novosib          6121.688
       138   02 Jun 2027 11:10:27.141   02 Jun 2027 11:11:01.640            34.499              Murmansk1          1078.094
       139   02 Jun 2027 11:11:08.818   02 Jun 2027 11:11:54.330            45.512                 Moscow          1422.250
       140   02 Jun 2027 11:12:01.697   02 Jun 2027 11:12:13.640            11.943                Novosib           373.219
       141   02 Jun 2027 11:48:06.373   02 Jun 2027 11:48:19.581            13.208            RioGallegos           412.750
       142   02 Jun 2027 12:22:27.272   02 Jun 2027 12:22:41.856            14.584                Sumatra           455.750
       143   02 Jun 2027 12:25:26.693   02 Jun 2027 12:27:14.134           107.441                Sumatra          3357.531
       144   02 Jun 2027 12:28:40.715   02 Jun 2027 12:28:50.932            10.217                  Delhi           319.281
       145   02 Jun 2027 12:31:52.976   02 Jun 2027 12:32:26.799            33.823                  Delhi          1056.969
       146   02 Jun 2027 12:35:59.216   02 Jun 2027 12:38:39.664           160.448                Novosib          5014.000
       147   02 Jun 2027 12:40:02.445   02 Jun 2027 12:41:20.639            78.194                Norilsk          2443.562
       148   02 Jun 2027 12:44:02.255   02 Jun 2027 12:44:20.394            18.139                Norilsk           566.844
       149   02 Jun 2027 14:08:15.244   02 Jun 2027 14:09:28.367            73.123                  Delhi          2285.094
       150   02 Jun 2027 14:11:56.757   02 Jun 2027 14:12:25.603            28.846                  Delhi           901.437
       151   02 Jun 2027 14:13:14.306   02 Jun 2027 14:14:19.829            65.523                 Moscow          2047.594
       152   02 Jun 2027 14:15:03.472   02 Jun 2027 14:15:13.535            10.063                 Moscow           314.469
       153   02 Jun 2027 14:16:30.876   02 Jun 2027 14:18:41.867           130.991              Murmansk1          4093.469
       154   02 Jun 2027 14:18:43.341   02 Jun 2027 14:20:39.968           116.627                Novosib          3644.594
       155   02 Jun 2027 14:22:20.698   02 Jun 2027 14:24:02.452           101.754                Norilsk          3179.813
       156   02 Jun 2027 15:28:52.369   02 Jun 2027 15:29:34.512            42.143               CapeTown          1316.969
       157   02 Jun 2027 15:49:43.621   02 Jun 2027 15:50:39.105            55.484                 Moscow          1733.875
       158   02 Jun 2027 15:53:07.130   02 Jun 2027 15:55:40.489           153.359              Murmansk2          4792.469
       159   02 Jun 2027 15:56:04.448   02 Jun 2027 15:56:34.485            30.037              Murmansk2           938.656
       160   02 Jun 2027 16:07:52.502   02 Jun 2027 16:09:18.290            85.788                Anadyr2          2680.875
       161   02 Jun 2027 16:10:15.394   02 Jun 2027 16:11:18.351            62.957                Anadyr2          1967.406
       162   02 Jun 2027 17:02:30.641   02 Jun 2027 17:05:02.548           151.907               CapeTown          4747.094
       163   02 Jun 2027 17:31:33.859   02 Jun 2027 17:34:32.896           179.037                 Moscow          5594.906
       164   02 Jun 2027 17:35:19.934   02 Jun 2027 17:36:54.410            94.476              Murmansk1          2952.375
       165   02 Jun 2027 17:43:10.118   02 Jun 2027 17:43:13.212             3.094                Anadyr1            96.687
       166   02 Jun 2027 17:46:47.882   02 Jun 2027 17:46:53.415             5.533                Anadyr2           172.906
       167   02 Jun 2027 17:47:31.688   02 Jun 2027 17:47:51.917            20.229               Magadan1           632.156
       168   02 Jun 2027 17:48:25.334   02 Jun 2027 17:48:59.069            33.735               Magadan2          1054.219
       169   02 Jun 2027 17:49:20.782   02 Jun 2027 17:50:11.803            51.021               Magadan1          1594.406
       170   02 Jun 2027 18:40:10.967   02 Jun 2027 18:40:53.669            42.702               CapeTown          1334.438
       171   02 Jun 2027 19:19:02.985   02 Jun 2027 19:22:48.648           225.663                Anadyr1          7051.969
       172   02 Jun 2027 19:23:16.172   02 Jun 2027 19:25:08.939           112.767               Magadan1          3523.969
       173   02 Jun 2027 19:25:08.939   02 Jun 2027 19:27:09.456           120.517               Magadan2          3766.156
       174   02 Jun 2027 20:54:57.161   02 Jun 2027 20:57:05.533           128.372                Anadyr2          4011.625
       175   02 Jun 2027 20:57:12.504   02 Jun 2027 20:58:33.241            80.737                Anadyr1          2523.031
       176   02 Jun 2027 20:58:36.572   02 Jun 2027 20:58:50.110            13.538                Anadyr1           423.062
       177   02 Jun 2027 20:59:00.634   02 Jun 2027 21:01:33.452           152.818               Magadan2          4775.563
       178   02 Jun 2027 21:01:42.186   02 Jun 2027 21:02:34.185            51.999                Norilsk          1624.969
       179   02 Jun 2027 21:04:24.034   02 Jun 2027 21:04:55.152            31.118                Irkutsk           972.437
       180   02 Jun 2027 21:06:14.335   02 Jun 2027 21:06:35.699            21.364                Irkutsk           667.625
       181   02 Jun 2027 21:49:16.458   02 Jun 2027 21:52:33.223           196.765            RioGallegos          6148.906
       182   02 Jun 2027 22:30:30.737   02 Jun 2027 22:31:11.562            40.825                Anadyr1          1275.781
       183   02 Jun 2027 22:32:47.289   02 Jun 2027 22:32:57.776            10.487                Norilsk           327.719
       184   02 Jun 2027 22:33:18.978   02 Jun 2027 22:35:14.582           115.604               Magadan2          3612.625
       185   02 Jun 2027 22:35:26.253   02 Jun 2027 22:36:44.050            77.797               Magadan1          2431.156
       186   02 Jun 2027 22:37:53.133   02 Jun 2027 22:38:28.329            35.196                Irkutsk          1099.875
       187   02 Jun 2027 22:38:28.954   02 Jun 2027 22:39:42.134            73.180                Novosib          2286.875
       188   02 Jun 2027 22:41:12.766   02 Jun 2027 22:42:05.325            52.559                Novosib          1642.469
       189   02 Jun 2027 22:50:36.564   02 Jun 2027 22:52:57.081           140.517                Sumatra          4391.156
       190   03 Jun 2027 00:06:08.315   03 Jun 2027 00:06:54.775            46.460                Anadyr2          1451.875
       191   03 Jun 2027 00:08:45.557   03 Jun 2027 00:09:00.743            15.186                Norilsk           474.563
       192   03 Jun 2027 00:09:24.705   03 Jun 2027 00:10:52.535            87.830               Magadan1          2744.687
       193   03 Jun 2027 00:12:38.734   03 Jun 2027 00:13:54.680            75.946                Irkutsk          2373.312
       194   03 Jun 2027 00:14:15.937   03 Jun 2027 00:14:47.421            31.484                Novosib           983.875
       195   03 Jun 2027 00:15:05.054   03 Jun 2027 00:15:20.903            15.849                Novosib           495.281
       196   03 Jun 2027 00:15:59.531   03 Jun 2027 00:16:35.111            35.580                Novosib          1111.875
       197   03 Jun 2027 00:20:21.148   03 Jun 2027 00:21:53.457            92.309                  Delhi          2884.656
       198   03 Jun 2027 00:22:29.112   03 Jun 2027 00:23:44.041            74.929                  Delhi          2341.531
       199   03 Jun 2027 01:38:36.706   03 Jun 2027 01:38:58.004            21.298                Anadyr2           665.562
       200   03 Jun 2027 01:39:55.524   03 Jun 2027 01:40:05.801            10.277                Anadyr2           321.156
       201   03 Jun 2027 01:40:33.310   03 Jun 2027 01:40:58.082            24.772                Anadyr1           774.125
       202   03 Jun 2027 01:40:58.082   03 Jun 2027 01:41:16.466            18.384                Anadyr2           574.500
       203   03 Jun 2027 01:44:11.207   03 Jun 2027 01:44:13.762             2.555                Anadyr2            79.844
       204   03 Jun 2027 01:44:43.563   03 Jun 2027 01:45:02.690            19.127                Anadyr2           597.719
       205   03 Jun 2027 01:45:19.686   03 Jun 2027 01:46:38.484            78.798               Magadan1          2462.438
       206   03 Jun 2027 01:46:45.648   03 Jun 2027 01:46:50.168             4.520                Norilsk           141.250
       207   03 Jun 2027 01:47:03.508   03 Jun 2027 01:49:58.697           175.189              Murmansk1          5474.656
       208   03 Jun 2027 01:51:36.322   03 Jun 2027 01:52:09.640            33.318                 Moscow          1041.187
       209   03 Jun 2027 01:52:29.702   03 Jun 2027 01:52:37.989             8.287                Irkutsk           258.969
       210   03 Jun 2027 01:52:42.630   03 Jun 2027 01:52:43.068             0.438                Irkutsk            13.687
       211   03 Jun 2027 01:53:20.022   03 Jun 2027 01:53:27.203             7.181                 Moscow           224.406
       212   03 Jun 2027 01:53:34.352   03 Jun 2027 01:54:06.053            31.701                 Moscow           990.656
       213   03 Jun 2027 01:56:20.070   03 Jun 2027 01:57:13.950            53.880                  Delhi          1683.750
       214   03 Jun 2027 03:12:04.603   03 Jun 2027 03:12:43.943            39.340                Anadyr2          1229.375
       215   03 Jun 2027 03:12:47.916   03 Jun 2027 03:12:52.231             4.315                Anadyr1           134.844
       216   03 Jun 2027 03:14:10.975   03 Jun 2027 03:14:14.276             3.301                Anadyr2           103.156
       217   03 Jun 2027 03:29:13.911   03 Jun 2027 03:29:45.396            31.485                Norilsk           983.906
       218   03 Jun 2027 03:29:54.178   03 Jun 2027 03:30:26.055            31.877                Norilsk           996.156
       219   03 Jun 2027 03:30:47.097   03 Jun 2027 03:32:35.971           108.874              Murmansk1          3402.313
       220   03 Jun 2027 03:32:53.487   03 Jun 2027 03:34:18.330            84.843              Murmansk1          2651.344
       221   03 Jun 2027 03:34:30.277   03 Jun 2027 03:36:57.040           146.763                 Moscow          4586.344
       222   03 Jun 2027 03:37:41.941   03 Jun 2027 03:38:47.349            65.408                 Moscow          2044.000
       223   03 Jun 2027 03:50:21.787   03 Jun 2027 03:52:19.333           117.546               CapeTown          3673.312
       224   03 Jun 2027 04:53:22.353   03 Jun 2027 04:53:34.072            11.719               Magadan2           366.219
       225   03 Jun 2027 04:53:55.740   03 Jun 2027 04:54:52.496            56.756               Magadan2          1773.625
       226   03 Jun 2027 05:05:35.924   03 Jun 2027 05:06:22.597            46.673                Norilsk          1458.531
       227   03 Jun 2027 05:06:31.139   03 Jun 2027 05:06:34.593             3.454                Norilsk           107.937
       228   03 Jun 2027 05:08:39.303   03 Jun 2027 05:09:31.237            51.934              Murmansk1          1622.938
       229   03 Jun 2027 05:27:05.808   03 Jun 2027 05:27:25.146            19.338               CapeTown           604.312
       230   03 Jun 2027 05:30:09.237   03 Jun 2027 05:30:23.714            14.477               CapeTown           452.406
       231   03 Jun 2027 06:28:06.542   03 Jun 2027 06:29:39.835            93.293                Anadyr1          2915.406
       232   03 Jun 2027 06:29:56.429   03 Jun 2027 06:31:29.164            92.735               Magadan1          2897.969
       233   03 Jun 2027 06:31:29.164   03 Jun 2027 06:32:43.694            74.530               Magadan2          2329.063
       234   03 Jun 2027 06:33:20.011   03 Jun 2027 06:33:56.259            36.248                Anadyr1          1132.750
       235   03 Jun 2027 08:04:36.928   03 Jun 2027 08:06:49.128           132.200                Anadyr1          4131.250
       236   03 Jun 2027 08:07:07.540   03 Jun 2027 08:07:35.397            27.857                Irkutsk           870.531
       237   03 Jun 2027 08:07:37.430   03 Jun 2027 08:08:17.373            39.943                Norilsk          1248.219
       238   03 Jun 2027 08:08:28.331   03 Jun 2027 08:11:07.673           159.342               Magadan1          4979.437
       239   03 Jun 2027 09:40:29.436   03 Jun 2027 09:40:32.137             2.701                Irkutsk            84.406
       240   03 Jun 2027 09:40:44.469   03 Jun 2027 09:41:08.693            24.224                Irkutsk           757.000
       241   03 Jun 2027 09:41:28.882   03 Jun 2027 09:41:39.755            10.873                Irkutsk           339.781
       242   03 Jun 2027 09:41:56.039   03 Jun 2027 09:44:44.095           168.056                Irkutsk          5251.750
       243   03 Jun 2027 09:45:07.504   03 Jun 2027 09:46:20.690            73.186              Murmansk2          2287.062
       244   03 Jun 2027 09:46:21.583   03 Jun 2027 09:47:15.735            54.152                Novosib          1692.250
       245   03 Jun 2027 09:48:05.068   03 Jun 2027 09:48:14.530             9.462              Murmansk1           295.687
       246   03 Jun 2027 10:21:40.995   03 Jun 2027 10:23:48.440           127.445            RioGallegos          3982.656
       247   03 Jun 2027 10:56:33.440   03 Jun 2027 10:59:37.334           183.894                Sumatra          5746.688
       248   03 Jun 2027 11:17:41.831   03 Jun 2027 11:18:50.103            68.272                Irkutsk          2133.500
       249   03 Jun 2027 11:18:59.353   03 Jun 2027 11:19:20.680            21.327                Norilsk           666.469
       250   03 Jun 2027 11:19:25.040   03 Jun 2027 11:20:14.135            49.095              Murmansk2          1534.219
       251   03 Jun 2027 11:20:16.876   03 Jun 2027 11:21:15.329            58.453                Irkutsk          1826.656
       252   03 Jun 2027 11:21:45.082   03 Jun 2027 11:22:43.710            58.628                Irkutsk          1832.125
       253   03 Jun 2027 12:00:55.750   03 Jun 2027 12:01:45.671            49.921            RioGallegos          1560.031
       254   03 Jun 2027 12:08:34.781   03 Jun 2027 12:08:49.544            14.763            RioGallegos           461.344
       255   03 Jun 2027 12:35:43.905   03 Jun 2027 12:36:36.442            52.537                Sumatra          1641.781
       256   03 Jun 2027 12:37:12.413   03 Jun 2027 12:39:41.797           149.384                Sumatra          4668.250
       257   03 Jun 2027 12:49:08.994   03 Jun 2027 12:49:39.965            30.971                Novosib           967.844
       258   03 Jun 2027 12:50:58.706   03 Jun 2027 12:52:54.202           115.496                Novosib          3609.250
       259   03 Jun 2027 14:25:09.668   03 Jun 2027 14:28:23.850           194.182                 Moscow          6068.188
       260   03 Jun 2027 14:28:31.816   03 Jun 2027 14:30:54.581           142.765              Murmansk1          4461.406
       261   03 Jun 2027 14:31:06.206   03 Jun 2027 14:32:43.042            96.836                Novosib          3026.125
       262   03 Jun 2027 14:32:48.856   03 Jun 2027 14:33:02.703            13.847                Norilsk           432.719
       263   03 Jun 2027 14:36:02.392   03 Jun 2027 14:36:49.949            47.557                Norilsk          1486.156
       264   03 Jun 2027 15:40:11.645   03 Jun 2027 15:41:19.029            67.384               CapeTown          2105.750
       265   03 Jun 2027 15:42:47.189   03 Jun 2027 15:42:59.069            11.880               CapeTown           371.250
       266   03 Jun 2027 15:44:22.422   03 Jun 2027 15:44:33.834            11.412               CapeTown           356.625
       267   03 Jun 2027 15:45:28.215   03 Jun 2027 15:46:18.117            49.902               CapeTown          1559.437
       268   03 Jun 2027 16:02:04.551   03 Jun 2027 16:02:07.627             3.076                 Moscow            96.125
       269   03 Jun 2027 16:02:41.040   03 Jun 2027 16:03:16.648            35.608                 Moscow          1112.750
       270   03 Jun 2027 16:05:21.770   03 Jun 2027 16:05:48.572            26.802              Murmansk1           837.563
       271   03 Jun 2027 16:05:48.572   03 Jun 2027 16:06:44.644            56.072              Murmansk2          1752.250
       272   03 Jun 2027 16:19:43.984   03 Jun 2027 16:20:57.008            73.024                Anadyr2          2282.000
       273   03 Jun 2027 16:20:57.008   03 Jun 2027 16:21:10.264            13.256                Anadyr1           414.250
       274   03 Jun 2027 16:22:16.565   03 Jun 2027 16:23:14.424            57.859                Anadyr1          1808.094
       275   03 Jun 2027 16:28:25.726   03 Jun 2027 16:28:32.437             6.711                Anadyr2           209.719
       276   03 Jun 2027 17:14:32.753   03 Jun 2027 17:16:52.690           139.937               CapeTown          4373.031
       277   03 Jun 2027 17:44:21.633   03 Jun 2027 17:45:04.250            42.617              Murmansk1          1331.781
       278   03 Jun 2027 17:45:54.318   03 Jun 2027 17:47:56.539           122.221              Murmansk2          3819.406
       279   03 Jun 2027 17:47:56.539   03 Jun 2027 17:48:01.665             5.126              Murmansk1           160.188
       280   03 Jun 2027 17:49:36.129   03 Jun 2027 17:49:36.392             0.263              Murmansk2             8.219
       281   03 Jun 2027 17:49:43.585   03 Jun 2027 17:49:55.911            12.326              Murmansk1           385.187
       282   03 Jun 2027 17:51:44.781   03 Jun 2027 17:52:22.583            37.802              Murmansk1          1181.313
       283   03 Jun 2027 17:55:10.451   03 Jun 2027 17:55:28.992            18.541                Anadyr1           579.406
       284   03 Jun 2027 17:56:20.882   03 Jun 2027 17:56:23.242             2.360                Anadyr1            73.750
       285   03 Jun 2027 17:58:57.194   03 Jun 2027 17:59:27.007            29.813               Magadan2           931.656
       286   03 Jun 2027 17:59:27.007   03 Jun 2027 18:00:56.864            89.857               Magadan1          2808.031
       287   03 Jun 2027 18:04:59.639   03 Jun 2027 18:05:22.180            22.541               Magadan1           704.406
       288   03 Jun 2027 19:31:04.625   03 Jun 2027 19:34:56.174           231.549                Anadyr2          7235.906
       289   03 Jun 2027 19:35:02.444   03 Jun 2027 19:38:17.119           194.675               Magadan1          6083.594
       290   03 Jun 2027 21:06:57.580   03 Jun 2027 21:10:38.709           221.129                Anadyr2          6910.281
       291   03 Jun 2027 21:10:40.772   03 Jun 2027 21:13:06.415           145.643               Magadan2          4551.344
       292   03 Jun 2027 21:13:06.415   03 Jun 2027 21:13:31.611            25.196               Magadan1           787.375
       293   03 Jun 2027 21:15:07.051   03 Jun 2027 21:16:07.129            60.078                Irkutsk          1877.437
       294   03 Jun 2027 21:16:22.588   03 Jun 2027 21:16:33.565            10.977                Irkutsk           343.031
       295   03 Jun 2027 21:16:53.489   03 Jun 2027 21:17:39.324            45.835                Irkutsk          1432.344
       296   03 Jun 2027 21:20:11.059   03 Jun 2027 21:20:47.245            36.186                Irkutsk          1130.812
       297   03 Jun 2027 22:01:08.455   03 Jun 2027 22:01:52.825            44.370            RioGallegos          1386.562
       298   03 Jun 2027 22:06:31.741   03 Jun 2027 22:07:14.953            43.212            RioGallegos          1350.375
       299   03 Jun 2027 22:10:38.042   03 Jun 2027 22:10:46.970             8.928            RioGallegos           279.000
       300   03 Jun 2027 22:42:26.364   03 Jun 2027 22:43:12.871            46.507                Anadyr2          1453.344
       301   03 Jun 2027 22:43:21.181   03 Jun 2027 22:43:56.572            35.391                Anadyr1          1105.969
       302   03 Jun 2027 22:44:48.446   03 Jun 2027 22:46:38.883           110.437                Norilsk          3451.156
       303   03 Jun 2027 22:46:43.977   03 Jun 2027 22:47:16.657            32.680               Magadan2          1021.250
       304   03 Jun 2027 22:48:28.866   03 Jun 2027 22:48:48.330            19.464               Magadan1           608.250
       305   03 Jun 2027 22:48:50.546   03 Jun 2027 22:49:57.028            66.482                Irkutsk          2077.562
       306   03 Jun 2027 22:50:00.893   03 Jun 2027 22:50:19.834            18.941                Novosib           591.906
       307   03 Jun 2027 22:53:18.023   03 Jun 2027 22:53:47.956            29.933                Novosib           935.406
       308   03 Jun 2027 23:02:31.747   03 Jun 2027 23:03:34.988            63.241                Sumatra          1976.281
       309   03 Jun 2027 23:05:29.016   03 Jun 2027 23:05:37.475             8.459                Sumatra           264.344
       310   03 Jun 2027 23:06:49.223   03 Jun 2027 23:08:34.853           105.630                Sumatra          3300.938
       311   04 Jun 2027 00:16:54.420   04 Jun 2027 00:17:22.335            27.915                Anadyr2           872.344
       312   04 Jun 2027 00:18:16.934   04 Jun 2027 00:18:52.587            35.653                Anadyr1          1114.156
       313   04 Jun 2027 00:19:10.805   04 Jun 2027 00:19:14.247             3.442                Anadyr2           107.563
       314   04 Jun 2027 00:19:30.157   04 Jun 2027 00:19:42.451            12.294                Anadyr2           384.188
       315   04 Jun 2027 00:20:47.753   04 Jun 2027 00:22:37.980           110.227                Norilsk          3444.594
       316   04 Jun 2027 00:23:04.006   04 Jun 2027 00:23:40.472            36.466               Magadan2          1139.562
       317   04 Jun 2027 00:24:07.411   04 Jun 2027 00:24:30.034            22.623               Magadan2           706.969
       318   04 Jun 2027 00:24:40.708   04 Jun 2027 00:25:35.364            54.656                Novosib          1708.000
       319   04 Jun 2027 00:26:07.739   04 Jun 2027 00:26:27.995            20.256              Murmansk2           633.000
       320   04 Jun 2027 00:26:48.005   04 Jun 2027 00:27:35.435            47.430                Novosib          1482.188
       321   04 Jun 2027 00:32:10.290   04 Jun 2027 00:33:01.732            51.442                  Delhi          1607.562
       322   04 Jun 2027 00:34:05.605   04 Jun 2027 00:34:18.662            13.057                  Delhi           408.031
       323   04 Jun 2027 00:36:18.147   04 Jun 2027 00:38:29.966           131.819                  Delhi          4119.344
       324   04 Jun 2027 01:18:59.919   04 Jun 2027 01:19:54.317            54.398            RioGallegos          1699.938
       325   04 Jun 2027 01:50:33.929   04 Jun 2027 01:50:37.627             3.698                Anadyr2           115.563
       326   04 Jun 2027 01:51:10.852   04 Jun 2027 01:51:47.609            36.757                Anadyr2          1148.656
       327   04 Jun 2027 01:52:48.497   04 Jun 2027 01:53:11.658            23.161                Anadyr1           723.781
       328   04 Jun 2027 01:55:14.917   04 Jun 2027 01:55:57.287            42.370                Anadyr1          1324.063
       329   04 Jun 2027 01:56:30.047   04 Jun 2027 01:58:08.351            98.304               Magadan2          3072.000
       330   04 Jun 2027 01:59:02.427   04 Jun 2027 01:59:05.442             3.015              Murmansk1            94.219
       331   04 Jun 2027 01:59:48.668   04 Jun 2027 02:01:08.190            79.522              Murmansk1          2485.063
       332   04 Jun 2027 02:01:28.471   04 Jun 2027 02:01:45.076            16.605                Novosib           518.906
       333   04 Jun 2027 02:02:06.546   04 Jun 2027 02:02:49.302            42.756                Novosib          1336.125
       334   04 Jun 2027 02:08:39.796   04 Jun 2027 02:09:23.354            43.558                  Delhi          1361.187
       335   04 Jun 2027 02:10:05.639   04 Jun 2027 02:11:51.846           106.207                  Delhi          3318.969
       336   04 Jun 2027 03:41:58.948   04 Jun 2027 03:42:15.636            16.688                Norilsk           521.500
       337   04 Jun 2027 03:42:24.843   04 Jun 2027 03:43:16.803            51.960                Novosib          1623.750
       338   04 Jun 2027 03:43:26.218   04 Jun 2027 03:45:26.304           120.086                Novosib          3752.687
       339   04 Jun 2027 03:45:41.747   04 Jun 2027 03:46:33.898            52.151                 Moscow          1629.719
       340   04 Jun 2027 03:46:35.252   04 Jun 2027 03:47:20.155            44.903              Murmansk1          1403.219
       341   04 Jun 2027 03:47:21.024   04 Jun 2027 03:50:56.529           215.505                 Moscow          6734.531
       342   04 Jun 2027 04:03:05.328   04 Jun 2027 04:03:43.473            38.145               CapeTown          1192.031
       343   04 Jun 2027 04:04:43.758   04 Jun 2027 04:05:36.003            52.245               CapeTown          1632.656
       344   04 Jun 2027 05:05:25.314   04 Jun 2027 05:05:35.075             9.761               Magadan2           305.031
       345   04 Jun 2027 05:05:44.131   04 Jun 2027 05:10:01.655           257.524                Anadyr2          8047.625
       346   04 Jun 2027 05:18:20.382   04 Jun 2027 05:18:23.166             2.784              Murmansk1            87.000
       347   04 Jun 2027 05:18:24.421   04 Jun 2027 05:18:40.448            16.027                Norilsk           500.844
       348   04 Jun 2027 05:19:52.541   04 Jun 2027 05:21:25.975            93.434              Murmansk1          2919.812
       349   04 Jun 2027 05:23:26.766   04 Jun 2027 05:23:47.872            21.106              Murmansk2           659.562
       350   04 Jun 2027 06:40:34.229   04 Jun 2027 06:41:00.765            26.536               Magadan2           829.250
       351   04 Jun 2027 06:41:12.667   04 Jun 2027 06:41:28.624            15.957               Magadan2           498.656
       352   04 Jun 2027 06:41:38.900   04 Jun 2027 06:45:02.736           203.836                Anadyr1          6369.875
       353   04 Jun 2027 06:45:02.736   04 Jun 2027 06:45:57.955            55.219                Anadyr2          1725.594
       354   04 Jun 2027 08:14:34.959   04 Jun 2027 08:15:10.125            35.166                Irkutsk          1098.938
       355   04 Jun 2027 08:15:26.795   04 Jun 2027 08:16:29.258            62.463               Magadan2          1951.969
       356   04 Jun 2027 08:16:44.309   04 Jun 2027 08:18:02.779            78.470                Anadyr2          2452.188
       357   04 Jun 2027 08:18:02.779   04 Jun 2027 08:19:54.681           111.902                Anadyr1          3496.938
       358   04 Jun 2027 08:20:11.325   04 Jun 2027 08:20:48.353            37.028                Irkutsk          1157.125
       359   04 Jun 2027 08:20:54.100   04 Jun 2027 08:20:55.981             1.881                Norilsk            58.781
       360   04 Jun 2027 08:21:04.419   04 Jun 2027 08:22:40.560            96.141                Anadyr1          3004.406
       361   04 Jun 2027 08:58:23.475   04 Jun 2027 08:58:47.691            24.216            RioGallegos           756.750
       362   04 Jun 2027 09:00:47.980   04 Jun 2027 09:00:49.959             1.979            RioGallegos            61.844
       363   04 Jun 2027 09:02:28.791   04 Jun 2027 09:02:45.569            16.778            RioGallegos           524.313
       364   04 Jun 2027 09:08:40.312   04 Jun 2027 09:08:42.978             2.666            RioGallegos            83.312
       365   04 Jun 2027 09:37:13.385   04 Jun 2027 09:38:06.609            53.224                Sumatra          1663.250
       366   04 Jun 2027 09:52:05.479   04 Jun 2027 09:52:43.652            38.173                Irkutsk          1192.906
       367   04 Jun 2027 09:52:51.770   04 Jun 2027 09:52:55.557             3.787                Norilsk           118.344
       368   04 Jun 2027 09:52:56.122   04 Jun 2027 09:53:10.986            14.864                Irkutsk           464.500
       369   04 Jun 2027 09:53:11.989   04 Jun 2027 09:53:15.761             3.772                Novosib           117.875
       370   04 Jun 2027 09:53:20.057   04 Jun 2027 09:53:45.433            25.376                Irkutsk           793.000
       371   04 Jun 2027 09:54:23.762   04 Jun 2027 09:54:31.143             7.381                Norilsk           230.656
       372   04 Jun 2027 09:54:38.129   04 Jun 2027 09:55:31.937            53.808               Magadan1          1681.500
       373   04 Jun 2027 09:55:31.937   04 Jun 2027 09:55:37.554             5.617               Magadan2           175.531
       374   04 Jun 2027 09:55:39.866   04 Jun 2027 09:56:26.130            46.264               Magadan2          1445.750
       375   04 Jun 2027 09:56:32.578   04 Jun 2027 09:56:35.470             2.892                Norilsk            90.375
       376   04 Jun 2027 09:56:40.497   04 Jun 2027 09:57:26.565            46.068                Novosib          1439.625
       377   04 Jun 2027 09:57:42.232   04 Jun 2027 09:57:50.105             7.873              Murmansk2           246.031
       378   04 Jun 2027 09:57:54.977   04 Jun 2027 09:58:08.027            13.050                Norilsk           407.813
       379   04 Jun 2027 09:58:15.800   04 Jun 2027 09:58:17.272             1.472                Irkutsk            46.000
       380   04 Jun 2027 09:58:22.184   04 Jun 2027 09:58:32.086             9.902              Murmansk1           309.438
       381   04 Jun 2027 09:58:33.739   04 Jun 2027 09:59:12.065            38.326              Murmansk2          1197.688
       382   04 Jun 2027 10:03:44.386   04 Jun 2027 10:03:51.071             6.685              Murmansk2           208.906
       383   04 Jun 2027 10:05:49.455   04 Jun 2027 10:06:02.597            13.142              Murmansk2           410.688
       384   04 Jun 2027 10:33:50.709   04 Jun 2027 10:34:28.982            38.273            RioGallegos          1196.031
       385   04 Jun 2027 10:35:10.575   04 Jun 2027 10:35:24.463            13.888            RioGallegos           434.000
       386   04 Jun 2027 10:36:46.667   04 Jun 2027 10:37:37.992            51.325            RioGallegos          1603.906
       387   04 Jun 2027 11:08:31.463   04 Jun 2027 11:08:49.606            18.143                Sumatra           566.969
       388   04 Jun 2027 11:21:16.569   04 Jun 2027 11:21:47.757            31.188                  Delhi           974.625
       389   04 Jun 2027 11:22:01.296   04 Jun 2027 11:22:48.877            47.581                  Delhi          1486.906
       390   04 Jun 2027 11:28:42.453   04 Jun 2027 11:28:42.616             0.163                  Delhi             5.094
       391   04 Jun 2027 11:29:03.178   04 Jun 2027 11:30:00.454            57.276                Norilsk          1789.875
       392   04 Jun 2027 11:30:05.350   04 Jun 2027 11:30:19.773            14.423                Norilsk           450.719
       393   04 Jun 2027 11:30:28.527   04 Jun 2027 11:30:38.800            10.273                Norilsk           321.031
       394   04 Jun 2027 11:30:39.258   04 Jun 2027 11:30:50.898            11.640                Novosib           363.750
       395   04 Jun 2027 11:31:00.922   04 Jun 2027 11:31:39.601            38.679              Murmansk1          1208.719
       396   04 Jun 2027 11:31:47.245   04 Jun 2027 11:32:48.712            61.467                Irkutsk          1920.844
       397   04 Jun 2027 11:33:17.716   04 Jun 2027 11:33:51.391            33.675                Irkutsk          1052.344
       398   04 Jun 2027 11:33:57.436   04 Jun 2027 11:34:08.378            10.942              Murmansk2           341.938
       399   04 Jun 2027 11:34:18.993   04 Jun 2027 11:34:39.008            20.015                Irkutsk           625.469
       400   04 Jun 2027 11:34:46.986   04 Jun 2027 11:35:04.382            17.396              Murmansk2           543.625
       401   04 Jun 2027 11:35:04.382   04 Jun 2027 11:35:07.974             3.592              Murmansk1           112.250
       402   04 Jun 2027 11:36:06.956   04 Jun 2027 11:36:13.805             6.849              Murmansk2           214.031
       403   04 Jun 2027 11:37:19.416   04 Jun 2027 11:37:43.854            24.438              Murmansk1           763.687
       404   04 Jun 2027 12:14:27.155   04 Jun 2027 12:15:32.532            65.377            RioGallegos          2043.031
       405   04 Jun 2027 12:53:42.010   04 Jun 2027 12:54:54.791            72.781                  Delhi          2274.406
       406   04 Jun 2027 12:57:09.489   04 Jun 2027 12:57:14.256             4.767                  Delhi           148.969
       407   04 Jun 2027 13:00:38.829   04 Jun 2027 13:01:48.017            69.188                Novosib          2162.125
       408   04 Jun 2027 13:03:02.783   04 Jun 2027 13:04:54.358           111.575                Novosib          3486.719
       409   04 Jun 2027 13:04:57.638   04 Jun 2027 13:05:45.363            47.725                Norilsk          1491.406
       410   04 Jun 2027 13:05:49.832   04 Jun 2027 13:06:39.927            50.095              Murmansk2          1565.469
       411   04 Jun 2027 14:37:07.826   04 Jun 2027 14:38:34.034            86.208                 Moscow          2694.000
       412   04 Jun 2027 14:39:35.927   04 Jun 2027 14:40:56.734            80.807                 Moscow          2525.219
       413   04 Jun 2027 14:41:45.936   04 Jun 2027 14:43:51.652           125.716              Murmansk2          3928.625
       414   04 Jun 2027 14:44:35.396   04 Jun 2027 14:46:25.260           109.864                Norilsk          3433.250
       415   04 Jun 2027 14:48:01.577   04 Jun 2027 14:48:11.667            10.090                Norilsk           315.313
       416   04 Jun 2027 15:51:43.277   04 Jun 2027 15:54:45.860           182.583               CapeTown          5705.719
       417   04 Jun 2027 16:14:29.778   04 Jun 2027 16:15:23.511            53.733                 Moscow          1679.156
       418   04 Jun 2027 16:17:38.422   04 Jun 2027 16:18:12.366            33.944              Murmansk2          1060.750
       419   04 Jun 2027 16:19:27.800   04 Jun 2027 16:19:53.809            26.009              Murmansk1           812.781
       420   04 Jun 2027 16:24:35.857   04 Jun 2027 16:25:19.182            43.325              Murmansk1          1353.906
       421   04 Jun 2027 16:31:37.860   04 Jun 2027 16:32:51.265            73.405                Anadyr2          2293.906
       422   04 Jun 2027 16:32:51.265   04 Jun 2027 16:33:15.410            24.145                Anadyr1           754.531
       423   04 Jun 2027 16:34:17.607   04 Jun 2027 16:34:30.237            12.630                Anadyr1           394.687
       424   04 Jun 2027 16:35:10.181   04 Jun 2027 16:35:32.393            22.212                Anadyr1           694.125
       425   04 Jun 2027 16:40:30.459   04 Jun 2027 16:40:55.621            25.162                Anadyr2           786.313
       426   04 Jun 2027 17:26:37.628   04 Jun 2027 17:28:18.688           101.060               CapeTown          3158.125
       427   04 Jun 2027 17:56:58.522   04 Jun 2027 17:58:03.085            64.563              Murmansk1          2017.594
       428   04 Jun 2027 17:58:41.500   04 Jun 2027 18:01:35.628           174.128              Murmansk2          5441.500
       429   04 Jun 2027 18:07:11.133   04 Jun 2027 18:07:15.582             4.449                Anadyr1           139.031
       430   04 Jun 2027 18:08:48.442   04 Jun 2027 18:08:57.835             9.393                Anadyr2           293.531
       431   04 Jun 2027 18:10:30.012   04 Jun 2027 18:10:54.010            23.998                Anadyr1           749.938
       432   04 Jun 2027 18:11:23.077   04 Jun 2027 18:11:54.313            31.236               Magadan1           976.125
       433   04 Jun 2027 18:12:07.813   04 Jun 2027 18:12:33.494            25.681               Magadan1           802.531
       434   04 Jun 2027 18:13:32.726   04 Jun 2027 18:15:10.101            97.375               Magadan1          3042.969
       435   04 Jun 2027 19:43:06.246   04 Jun 2027 19:44:51.114           104.868                Anadyr2          3277.125
       436   04 Jun 2027 19:45:03.580   04 Jun 2027 19:46:52.645           109.065                Anadyr1          3408.281
       437   04 Jun 2027 19:47:16.280   04 Jun 2027 19:48:53.386            97.106               Magadan2          3034.562
       438   04 Jun 2027 19:48:53.386   04 Jun 2027 19:49:46.798            53.412               Magadan1          1669.125
       439   04 Jun 2027 19:50:27.393   04 Jun 2027 19:50:30.178             2.785               Magadan1            87.031
       440   04 Jun 2027 19:54:37.230   04 Jun 2027 19:54:43.647             6.417               Magadan2           200.531
       441   04 Jun 2027 19:56:01.477   04 Jun 2027 19:56:14.282            12.805               Magadan2           400.156
       442   04 Jun 2027 19:57:01.091   04 Jun 2027 19:57:20.725            19.634               Magadan2           613.562
       443   04 Jun 2027 20:41:07.292   04 Jun 2027 20:42:15.237            67.945            RioGallegos          2123.281
       444   04 Jun 2027 21:18:57.633   04 Jun 2027 21:21:08.240           130.607                Anadyr1          4081.469
       445   04 Jun 2027 21:21:10.124   04 Jun 2027 21:24:45.719           215.595                Norilsk          6737.344
       446   04 Jun 2027 21:26:29.053   04 Jun 2027 21:26:46.819            17.766                Irkutsk           555.188
       447   04 Jun 2027 21:27:55.895   04 Jun 2027 21:28:11.395            15.500                Norilsk           484.375
       448   04 Jun 2027 21:28:43.067   04 Jun 2027 21:32:06.054           202.987                Irkutsk          6343.344
       449   04 Jun 2027 21:42:17.734   04 Jun 2027 21:43:31.247            73.513                Sumatra          2297.281
       450   04 Jun 2027 22:54:21.005   04 Jun 2027 22:54:34.995            13.990                Anadyr2           437.188
       451   04 Jun 2027 22:55:42.709   04 Jun 2027 22:56:49.420            66.711                Anadyr1          2084.719
       452   04 Jun 2027 22:56:49.910   04 Jun 2027 22:57:01.311            11.401                Norilsk           356.281
       453   04 Jun 2027 22:57:19.235   04 Jun 2027 22:58:07.757            48.522                Norilsk          1516.312
       454   04 Jun 2027 22:58:23.363   04 Jun 2027 22:58:29.378             6.015               Magadan2           187.969
       455   04 Jun 2027 22:58:38.132   04 Jun 2027 22:58:40.926             2.794                Norilsk            87.313
       456   04 Jun 2027 22:58:50.089   04 Jun 2027 22:59:41.475            51.386               Magadan2          1605.812
       457   04 Jun 2027 23:01:42.255   04 Jun 2027 23:03:28.971           106.716                Novosib          3334.875
       458   04 Jun 2027 23:07:57.596   04 Jun 2027 23:08:06.661             9.065                Novosib           283.281
       459   04 Jun 2027 23:10:48.450   04 Jun 2027 23:10:48.451             0.001                Novosib             0.031
       460   04 Jun 2027 23:17:40.903   04 Jun 2027 23:18:39.470            58.567                Sumatra          1830.219
       461   04 Jun 2027 23:23:44.754   04 Jun 2027 23:23:46.583             1.829                Sumatra            57.156
       462   04 Jun 2027 23:24:59.590   04 Jun 2027 23:26:34.769            95.179                Sumatra          2974.344
       463   05 Jun 2027 00:28:43.875   05 Jun 2027 00:29:23.399            39.524                Anadyr1          1235.125
       464   05 Jun 2027 00:30:27.774   05 Jun 2027 00:31:41.430            73.656                Anadyr1          2301.750
       465   05 Jun 2027 00:32:49.916   05 Jun 2027 00:33:02.121            12.205                Norilsk           381.406
       466   05 Jun 2027 00:33:27.456   05 Jun 2027 00:35:24.391           116.935               Magadan1          3654.219
       467   05 Jun 2027 00:36:09.441   05 Jun 2027 00:37:10.090            60.649              Murmansk2          1895.281
       468   05 Jun 2027 00:37:10.090   05 Jun 2027 00:37:30.319            20.229              Murmansk1           632.156
       469   05 Jun 2027 00:38:09.401   05 Jun 2027 00:39:44.803            95.402              Murmansk1          2981.313
       470   05 Jun 2027 00:44:03.574   05 Jun 2027 00:44:53.524            49.950                  Delhi          1560.938
       471   05 Jun 2027 00:51:27.604   05 Jun 2027 00:51:44.559            16.955                  Delhi           529.844
       472   05 Jun 2027 00:56:13.882   05 Jun 2027 00:56:24.501            10.619                  Delhi           331.844
       473   05 Jun 2027 01:25:36.369   05 Jun 2027 01:26:45.631            69.262            RioGallegos          2164.437
       474   05 Jun 2027 01:30:04.197   05 Jun 2027 01:30:37.423            33.226            RioGallegos          1038.312
       475   05 Jun 2027 02:01:59.015   05 Jun 2027 02:02:08.308             9.293                Anadyr1           290.406
       476   05 Jun 2027 02:02:34.192   05 Jun 2027 02:02:55.895            21.703                Anadyr2           678.219
       477   05 Jun 2027 02:04:05.620   05 Jun 2027 02:04:31.889            26.269                Anadyr1           820.906
       478   05 Jun 2027 02:05:18.672   05 Jun 2027 02:05:24.615             5.943                Anadyr2           185.719
       479   05 Jun 2027 02:06:11.081   05 Jun 2027 02:06:25.931            14.850                Anadyr1           464.062
       480   05 Jun 2027 02:07:11.241   05 Jun 2027 02:07:47.857            36.616                Anadyr1          1144.250
       481   05 Jun 2027 02:08:10.043   05 Jun 2027 02:08:50.231            40.188               Magadan1          1255.875
       482   05 Jun 2027 02:08:50.231   05 Jun 2027 02:09:16.943            26.712               Magadan2           834.750
