uniorb/output/strategy_1/Drop/Drop_KinoSat_111403.txt

KinoSat_111403
-------------------------
    Access    *     Start Time (UTCG)     *     Stop Time (UTCG)  *   Duration (s)        *       Station  *  Data (Mbytes)
         1   01 Jun 2027 03:45:07.387   01 Jun 2027 03:45:52.972            45.585              Murmansk1          1424.531
         2   01 Jun 2027 03:45:59.288   01 Jun 2027 03:46:41.047            41.759                Norilsk          1304.969
         3   01 Jun 2027 03:46:47.696   01 Jun 2027 03:49:39.835           172.139              Murmansk1          5379.344
         4   01 Jun 2027 03:49:41.255   01 Jun 2027 03:50:02.441            21.186                 Moscow           662.063
         5   01 Jun 2027 03:51:11.319   01 Jun 2027 03:51:34.301            22.982                 Moscow           718.188
         6   01 Jun 2027 04:04:26.948   01 Jun 2027 04:05:38.464            71.516               CapeTown          2234.875
         7   01 Jun 2027 04:07:07.007   01 Jun 2027 04:07:29.223            22.216               CapeTown           694.250
         8   01 Jun 2027 05:08:06.033   01 Jun 2027 05:10:00.197           114.164                Anadyr1          3567.625
         9   01 Jun 2027 05:13:51.262   01 Jun 2027 05:13:59.083             7.821                Anadyr1           244.406
        10   01 Jun 2027 05:22:22.496   01 Jun 2027 05:22:45.824            23.328              Murmansk2           729.000
        11   01 Jun 2027 05:22:58.435   01 Jun 2027 05:23:42.592            44.157              Murmansk2          1379.906
        12   01 Jun 2027 06:42:33.212   01 Jun 2027 06:42:43.140             9.928                Anadyr1           310.250
        13   01 Jun 2027 06:42:47.786   01 Jun 2027 06:43:28.787            41.001               Magadan1          1281.281
        14   01 Jun 2027 06:43:46.511   01 Jun 2027 06:48:26.148           279.637               Magadan2          8738.656
        15   01 Jun 2027 08:17:57.827   01 Jun 2027 08:23:23.748           325.921                Anadyr1         10185.031
        16   01 Jun 2027 08:23:50.152   01 Jun 2027 08:24:12.397            22.245                Irkutsk           695.156
        17   01 Jun 2027 08:24:12.412   01 Jun 2027 08:25:05.699            53.287                Novosib          1665.219
        18   01 Jun 2027 08:25:15.417   01 Jun 2027 08:26:08.464            53.047              Murmansk1          1657.719
        19   01 Jun 2027 08:27:22.248   01 Jun 2027 08:27:22.908             0.660              Murmansk1            20.625
        20   01 Jun 2027 09:00:38.330   01 Jun 2027 09:01:10.371            32.041            RioGallegos          1001.281
        21   01 Jun 2027 09:01:45.732   01 Jun 2027 09:01:50.491             4.759            RioGallegos           148.719
        22   01 Jun 2027 09:39:08.215   01 Jun 2027 09:40:16.784            68.569                Sumatra          2142.781
        23   01 Jun 2027 09:55:16.842   01 Jun 2027 09:55:31.488            14.646                Irkutsk           457.688
        24   01 Jun 2027 09:55:54.044   01 Jun 2027 09:56:53.419            59.375               Magadan2          1855.469
        25   01 Jun 2027 09:56:53.419   01 Jun 2027 09:58:45.044           111.625               Magadan1          3488.281
        26   01 Jun 2027 09:58:58.690   01 Jun 2027 09:59:48.048            49.358                Novosib          1542.438
        27   01 Jun 2027 09:59:57.985   01 Jun 2027 10:03:19.661           201.676              Murmansk2          6302.375
        28   01 Jun 2027 10:08:36.658   01 Jun 2027 10:09:02.245            25.587              Murmansk2           799.594
        29   01 Jun 2027 10:36:10.329   01 Jun 2027 10:36:38.896            28.567            RioGallegos           892.719
        30   01 Jun 2027 10:37:37.663   01 Jun 2027 10:38:02.001            24.338            RioGallegos           760.562
        31   01 Jun 2027 11:10:49.190   01 Jun 2027 11:11:14.942            25.752                Sumatra           804.750
        32   01 Jun 2027 11:13:10.592   01 Jun 2027 11:13:37.910            27.318                Sumatra           853.688
        33   01 Jun 2027 11:16:46.278   01 Jun 2027 11:17:24.635            38.357                Sumatra          1198.656
        34   01 Jun 2027 11:18:57.179   01 Jun 2027 11:19:38.125            40.946                Sumatra          1279.563
        35   01 Jun 2027 11:31:22.737   01 Jun 2027 11:31:33.044            10.307                Irkutsk           322.094
        36   01 Jun 2027 11:31:44.147   01 Jun 2027 11:32:17.024            32.877                Irkutsk          1027.406
        37   01 Jun 2027 11:33:16.345   01 Jun 2027 11:34:59.770           103.425                Irkutsk          3232.031
        38   01 Jun 2027 11:35:16.014   01 Jun 2027 11:36:55.478            99.464                Irkutsk          3108.250
        39   01 Jun 2027 11:37:12.077   01 Jun 2027 11:37:45.200            33.123                Norilsk          1035.094
        40   01 Jun 2027 11:37:46.231   01 Jun 2027 11:38:07.188            20.957                 Moscow           654.906
        41   01 Jun 2027 11:38:32.080   01 Jun 2027 11:38:47.579            15.499                Novosib           484.344
        42   01 Jun 2027 12:16:30.308   01 Jun 2027 12:17:48.994            78.686            RioGallegos          2458.938
        43   01 Jun 2027 12:19:11.023   01 Jun 2027 12:20:42.352            91.329            RioGallegos          2854.031
        44   01 Jun 2027 12:56:59.644   01 Jun 2027 12:57:18.998            19.354                  Delhi           604.813
        45   01 Jun 2027 12:58:07.208   01 Jun 2027 12:59:13.708            66.500                  Delhi          2078.125
        46   01 Jun 2027 13:03:00.661   01 Jun 2027 13:04:06.986            66.325                Novosib          2072.656
        47   01 Jun 2027 13:04:43.704   01 Jun 2027 13:07:54.580           190.876                Novosib          5964.875
        48   01 Jun 2027 13:08:00.819   01 Jun 2027 13:08:37.937            37.118                Norilsk          1159.937
        49   01 Jun 2027 13:08:48.807   01 Jun 2027 13:09:29.433            40.626                Norilsk          1269.562
        50   01 Jun 2027 14:39:25.283   01 Jun 2027 14:42:43.842           198.559                 Moscow          6204.969
        51   01 Jun 2027 14:42:52.361   01 Jun 2027 14:44:11.787            79.426              Murmansk1          2482.062
        52   01 Jun 2027 14:44:11.787   01 Jun 2027 14:45:07.827            56.040              Murmansk2          1751.250
        53   01 Jun 2027 14:47:00.726   01 Jun 2027 14:49:07.892           127.166                Norilsk          3973.938
        54   01 Jun 2027 14:50:17.119   01 Jun 2027 14:51:53.353            96.234                Norilsk          3007.313
        55   01 Jun 2027 15:53:56.591   01 Jun 2027 15:54:43.620            47.029               CapeTown          1469.656
        56   01 Jun 2027 15:57:56.474   01 Jun 2027 15:58:48.046            51.572               CapeTown          1611.625
        57   01 Jun 2027 16:16:52.267   01 Jun 2027 16:17:27.545            35.278                 Moscow          1102.437
        58   01 Jun 2027 16:19:59.104   01 Jun 2027 16:20:29.856            30.752              Murmansk1           961.000
        59   01 Jun 2027 16:20:29.856   01 Jun 2027 16:21:43.975            74.119              Murmansk2          2316.219
        60   01 Jun 2027 16:33:54.439   01 Jun 2027 16:35:32.865            98.426                Anadyr1          3075.813
        61   01 Jun 2027 16:36:53.916   01 Jun 2027 16:37:25.213            31.297                Anadyr1           978.031
        62   01 Jun 2027 16:38:21.337   01 Jun 2027 16:38:27.908             6.571                Anadyr1           205.344
        63   01 Jun 2027 16:38:40.606   01 Jun 2027 16:39:15.125            34.519                Anadyr1          1078.719
        64   01 Jun 2027 16:43:09.953   01 Jun 2027 16:43:20.064            10.111                Anadyr1           315.969
        65   01 Jun 2027 17:28:56.285   01 Jun 2027 17:31:02.972           126.687               CapeTown          3958.969
        66   01 Jun 2027 17:38:36.998   01 Jun 2027 17:38:53.875            16.877               CapeTown           527.406
        67   01 Jun 2027 17:39:31.676   01 Jun 2027 17:40:31.460            59.784               CapeTown          1868.250
        68   01 Jun 2027 17:59:22.963   01 Jun 2027 18:00:33.039            70.076              Murmansk2          2189.875
        69   01 Jun 2027 18:00:59.970   01 Jun 2027 18:03:52.849           172.879              Murmansk1          5402.469
        70   01 Jun 2027 18:10:44.655   01 Jun 2027 18:11:39.871            55.216                Anadyr2          1725.500
        71   01 Jun 2027 18:12:49.750   01 Jun 2027 18:13:40.160            50.410               Magadan2          1575.312
        72   01 Jun 2027 18:14:41.574   01 Jun 2027 18:14:51.460             9.886               Magadan1           308.937
        73   01 Jun 2027 19:45:24.026   01 Jun 2027 19:49:09.354           225.328                Anadyr1          7041.500
        74   01 Jun 2027 19:49:28.836   01 Jun 2027 19:52:44.866           196.030               Magadan2          6125.938
        75   01 Jun 2027 19:55:55.723   01 Jun 2027 19:56:07.521            11.798               Magadan1           368.687
        76   01 Jun 2027 19:56:22.820   01 Jun 2027 19:56:50.884            28.064               Magadan1           877.000
        77   01 Jun 2027 20:42:51.143   01 Jun 2027 20:44:31.798           100.655            RioGallegos          3145.469
        78   01 Jun 2027 20:45:00.759   01 Jun 2027 20:45:29.841            29.082            RioGallegos           908.813
        79   01 Jun 2027 21:21:15.098   01 Jun 2027 21:23:47.605           152.507                Anadyr2          4765.844
        80   01 Jun 2027 21:23:56.158   01 Jun 2027 21:25:58.772           122.614               Magadan2          3831.687
        81   01 Jun 2027 21:26:21.963   01 Jun 2027 21:27:03.075            41.112                Norilsk          1284.750
        82   01 Jun 2027 21:28:41.333   01 Jun 2027 21:29:03.920            22.587                Irkutsk           705.844
        83   01 Jun 2027 21:30:13.852   01 Jun 2027 21:30:36.621            22.769                Norilsk           711.531
        84   01 Jun 2027 21:31:06.014   01 Jun 2027 21:31:38.316            32.302                Irkutsk          1009.437
        85   01 Jun 2027 21:32:49.574   01 Jun 2027 21:34:22.798            93.224                Irkutsk          2913.250
        86   01 Jun 2027 21:44:19.658   01 Jun 2027 21:45:50.058            90.400                Sumatra          2825.000
        87   01 Jun 2027 21:48:47.220   01 Jun 2027 21:49:36.846            49.626                Sumatra          1550.813
        88   01 Jun 2027 22:56:37.442   01 Jun 2027 22:56:49.292            11.850                Anadyr1           370.312
        89   01 Jun 2027 22:56:49.292   01 Jun 2027 22:57:31.027            41.735                Anadyr2          1304.219
        90   01 Jun 2027 22:59:07.675   01 Jun 2027 23:00:59.128           111.453                Norilsk          3482.906
        91   01 Jun 2027 23:01:05.583   01 Jun 2027 23:01:43.924            38.341               Magadan1          1198.156
        92   01 Jun 2027 23:02:23.811   01 Jun 2027 23:02:39.578            15.767               Magadan2           492.719
        93   01 Jun 2027 23:03:05.366   01 Jun 2027 23:04:15.147            69.781                Irkutsk          2180.656
        94   01 Jun 2027 23:04:23.564   01 Jun 2027 23:05:34.704            71.140                Novosib          2223.125
        95   01 Jun 2027 23:13:01.601   01 Jun 2027 23:13:13.410            11.809                Novosib           369.031
        96   01 Jun 2027 23:19:27.775   01 Jun 2027 23:19:57.971            30.196                Sumatra           943.625
        97   01 Jun 2027 23:20:24.041   01 Jun 2027 23:21:00.534            36.493                Sumatra          1140.406
        98   01 Jun 2027 23:21:37.477   01 Jun 2027 23:22:12.361            34.884                Sumatra          1090.125
        99   01 Jun 2027 23:23:16.837   01 Jun 2027 23:24:12.407            55.570                Sumatra          1736.563
       100   02 Jun 2027 00:00:43.252   02 Jun 2027 00:00:46.333             3.081            RioGallegos            96.281
       101   02 Jun 2027 00:02:43.318   02 Jun 2027 00:02:49.260             5.942            RioGallegos           185.688
       102   02 Jun 2027 00:03:13.990   02 Jun 2027 00:03:30.598            16.608            RioGallegos           519.000
       103   02 Jun 2027 00:30:53.989   02 Jun 2027 00:31:41.763            47.774                Anadyr2          1492.937
       104   02 Jun 2027 00:31:41.763   02 Jun 2027 00:32:46.369            64.606                Anadyr1          2018.938
       105   02 Jun 2027 00:35:07.788   02 Jun 2027 00:35:50.722            42.934                Norilsk          1341.688
       106   02 Jun 2027 00:36:25.189   02 Jun 2027 00:37:38.080            72.891               Magadan1          2277.844
       107   02 Jun 2027 00:38:22.357   02 Jun 2027 00:42:00.997           218.640              Murmansk2          6832.500
       108   02 Jun 2027 00:46:20.256   02 Jun 2027 00:47:02.223            41.967                  Delhi          1311.469
       109   02 Jun 2027 00:53:11.719   02 Jun 2027 00:53:54.165            42.446                  Delhi          1326.438
       110   02 Jun 2027 00:56:55.864   02 Jun 2027 00:58:36.374           100.510                  Delhi          3140.937
       111   02 Jun 2027 01:32:54.358   02 Jun 2027 01:33:29.826            35.468            RioGallegos          1108.375
       112   02 Jun 2027 02:04:13.194   02 Jun 2027 02:04:30.583            17.389                Anadyr1           543.406
       113   02 Jun 2027 02:04:51.140   02 Jun 2027 02:05:18.662            27.522                Anadyr1           860.063
       114   02 Jun 2027 02:05:52.082   02 Jun 2027 02:06:23.495            31.413                Anadyr2           981.656
       115   02 Jun 2027 02:08:28.420   02 Jun 2027 02:08:44.259            15.839                Anadyr1           494.969
       116   02 Jun 2027 02:09:32.601   02 Jun 2027 02:09:36.487             3.886                Anadyr2           121.437
       117   02 Jun 2027 02:10:02.932   02 Jun 2027 02:10:16.176            13.244                Anadyr1           413.875
       118   02 Jun 2027 02:10:16.176   02 Jun 2027 02:10:18.417             2.241                Anadyr2            70.031
       119   02 Jun 2027 02:10:23.547   02 Jun 2027 02:10:42.045            18.498               Magadan1           578.062
       120   02 Jun 2027 02:10:48.783   02 Jun 2027 02:11:34.326            45.543               Magadan2          1423.219
       121   02 Jun 2027 02:12:20.555   02 Jun 2027 02:12:39.397            18.842                Norilsk           588.813
       122   02 Jun 2027 02:13:19.556   02 Jun 2027 02:15:25.736           126.180              Murmansk1          3943.125
       123   02 Jun 2027 02:16:11.450   02 Jun 2027 02:16:29.959            18.509                Novosib           578.406
       124   02 Jun 2027 02:20:29.697   02 Jun 2027 02:20:46.647            16.950                Novosib           529.687
       125   02 Jun 2027 02:21:41.749   02 Jun 2027 02:22:10.351            28.602                Novosib           893.812
       126   02 Jun 2027 02:24:27.694   02 Jun 2027 02:24:49.724            22.030                  Delhi           688.438
       127   02 Jun 2027 02:28:43.220   02 Jun 2027 02:29:27.176            43.956                  Delhi          1373.625
       128   02 Jun 2027 02:45:44.795   02 Jun 2027 02:45:57.794            12.999               CapeTown           406.219
       129   02 Jun 2027 02:47:07.055   02 Jun 2027 02:48:37.884            90.829               CapeTown          2838.406
       130   02 Jun 2027 03:56:44.366   02 Jun 2027 03:56:59.903            15.537                Novosib           485.531
       131   02 Jun 2027 03:57:08.519   02 Jun 2027 03:58:39.918            91.399              Murmansk1          2856.219
       132   02 Jun 2027 03:58:46.826   02 Jun 2027 04:01:50.984           184.158              Murmansk1          5754.937
       133   02 Jun 2027 04:02:34.170   02 Jun 2027 04:03:05.397            31.227                 Moscow           975.844
       134   02 Jun 2027 05:20:10.389   02 Jun 2027 05:22:15.893           125.504                Anadyr1          3922.000
       135   02 Jun 2027 05:22:28.651   02 Jun 2027 05:23:36.881            68.230               Magadan2          2132.187
       136   02 Jun 2027 05:23:36.881   02 Jun 2027 05:23:44.647             7.766               Magadan1           242.688
       137   02 Jun 2027 06:57:03.276   02 Jun 2027 06:57:50.095            46.819                Norilsk          1463.094
       138   02 Jun 2027 06:57:52.166   02 Jun 2027 06:58:00.265             8.099               Magadan2           253.094
       139   02 Jun 2027 06:58:05.641   02 Jun 2027 07:00:59.425           173.784               Magadan2          5430.750
       140   02 Jun 2027 07:01:04.690   02 Jun 2027 07:01:19.510            14.820              Murmansk1           463.125
       141   02 Jun 2027 07:05:39.336   02 Jun 2027 07:05:46.555             7.219              Murmansk2           225.594
       142   02 Jun 2027 07:40:00.572   02 Jun 2027 07:40:20.938            20.366            RioGallegos           636.437
       143   02 Jun 2027 07:45:21.331   02 Jun 2027 07:45:46.138            24.807            RioGallegos           775.219
       144   02 Jun 2027 08:30:53.669   02 Jun 2027 08:33:30.207           156.538                Anadyr2          4891.813
       145   02 Jun 2027 08:33:30.207   02 Jun 2027 08:34:13.266            43.059                Anadyr1          1345.594
       146   02 Jun 2027 08:34:29.813   02 Jun 2027 08:36:35.229           125.416                Novosib          3919.250
       147   02 Jun 2027 08:36:35.888   02 Jun 2027 08:37:21.096            45.208               Magadan2          1412.750
       148   02 Jun 2027 09:49:43.139   02 Jun 2027 09:51:19.387            96.248                Sumatra          3007.750
       149   02 Jun 2027 10:07:30.246   02 Jun 2027 10:07:44.845            14.599                Irkutsk           456.219
       150   02 Jun 2027 10:07:52.505   02 Jun 2027 10:11:11.782           199.277               Magadan2          6227.406
       151   02 Jun 2027 10:11:13.442   02 Jun 2027 10:12:15.757            62.315                Irkutsk          1947.344
       152   02 Jun 2027 10:12:40.502   02 Jun 2027 10:13:20.229            39.727                Irkutsk          1241.469
       153   02 Jun 2027 10:50:02.435   02 Jun 2027 10:51:05.077            62.642            RioGallegos          1957.563
       154   02 Jun 2027 11:23:54.325   02 Jun 2027 11:25:19.452            85.127                Sumatra          2660.219
       155   02 Jun 2027 11:32:21.233   02 Jun 2027 11:32:56.752            35.519                  Delhi          1109.969
       156   02 Jun 2027 11:43:23.049   02 Jun 2027 11:43:24.512             1.463                  Delhi            45.719
       157   02 Jun 2027 11:44:39.776   02 Jun 2027 11:44:46.467             6.691                Norilsk           209.094
       158   02 Jun 2027 11:44:46.968   02 Jun 2027 11:44:53.695             6.727                Norilsk           210.219
       159   02 Jun 2027 11:44:56.225   02 Jun 2027 11:45:41.159            44.934                Norilsk          1404.187
       160   02 Jun 2027 11:45:46.571   02 Jun 2027 11:46:27.165            40.594                Novosib          1268.563
       161   02 Jun 2027 11:46:28.235   02 Jun 2027 11:48:06.220            97.985              Murmansk1          3062.031
       162   02 Jun 2027 11:48:14.788   02 Jun 2027 11:48:22.776             7.988              Murmansk2           249.625
       163   02 Jun 2027 11:48:22.776   02 Jun 2027 11:48:26.436             3.660              Murmansk1           114.375
       164   02 Jun 2027 11:48:26.711   02 Jun 2027 11:48:45.166            18.455                Norilsk           576.719
       165   02 Jun 2027 11:48:49.108   02 Jun 2027 11:48:58.270             9.162              Murmansk1           286.313
       166   02 Jun 2027 11:49:00.677   02 Jun 2027 11:50:49.063           108.386                Novosib          3387.062
       167   02 Jun 2027 11:51:15.430   02 Jun 2027 11:52:15.460            60.030                Norilsk          1875.937
       168   02 Jun 2027 12:31:08.578   02 Jun 2027 12:31:30.359            21.781            RioGallegos           680.656
       169   02 Jun 2027 12:33:06.647   02 Jun 2027 12:33:08.215             1.568            RioGallegos            49.000
       170   02 Jun 2027 13:07:24.290   02 Jun 2027 13:08:17.781            53.491                  Delhi          1671.594
       171   02 Jun 2027 13:09:12.100   02 Jun 2027 13:09:59.982            47.882                  Delhi          1496.312
       172   02 Jun 2027 13:15:17.371   02 Jun 2027 13:16:02.917            45.546                  Delhi          1423.312
       173   02 Jun 2027 13:16:09.676   02 Jun 2027 13:19:10.735           181.059                Novosib          5658.094
       174   02 Jun 2027 13:19:19.098   02 Jun 2027 13:19:32.515            13.417              Murmansk2           419.281
       175   02 Jun 2027 13:19:38.705   02 Jun 2027 13:20:39.541            60.836                Norilsk          1901.125
       176   02 Jun 2027 13:22:15.936   02 Jun 2027 13:23:08.786            52.850                Norilsk          1651.563
       177   02 Jun 2027 14:51:26.823   02 Jun 2027 14:55:24.236           237.413                 Moscow          7419.156
       178   02 Jun 2027 14:55:32.840   02 Jun 2027 14:57:33.526           120.686              Murmansk2          3771.437
       179   02 Jun 2027 14:58:20.760   02 Jun 2027 14:58:35.818            15.058              Murmansk2           470.563
       180   02 Jun 2027 14:58:58.215   02 Jun 2027 15:00:04.672            66.457              Murmansk2          2076.781
       181   02 Jun 2027 15:00:44.123   02 Jun 2027 15:02:31.377           107.254                Norilsk          3351.688
       182   02 Jun 2027 15:04:26.113   02 Jun 2027 15:04:40.959            14.846                Norilsk           463.938
       183   02 Jun 2027 16:05:37.239   02 Jun 2027 16:08:35.833           178.594               CapeTown          5581.063
       184   02 Jun 2027 16:15:43.758   02 Jun 2027 16:16:10.241            26.483               CapeTown           827.594
       185   02 Jun 2027 16:16:26.738   02 Jun 2027 16:17:01.314            34.576               CapeTown          1080.500
       186   02 Jun 2027 16:30:36.720   02 Jun 2027 16:30:56.734            20.014                 Moscow           625.438
       187   02 Jun 2027 16:32:18.233   02 Jun 2027 16:32:26.836             8.603              Murmansk1           268.844
       188   02 Jun 2027 16:32:31.968   02 Jun 2027 16:33:27.933            55.965              Murmansk2          1748.906
       189   02 Jun 2027 16:35:50.954   02 Jun 2027 16:36:18.905            27.951              Murmansk2           873.469
       190   02 Jun 2027 16:36:54.046   02 Jun 2027 16:37:57.346            63.300              Murmansk1          1978.125
       191   02 Jun 2027 16:41:41.132   02 Jun 2027 16:42:07.945            26.813              Murmansk1           837.906
       192   02 Jun 2027 16:42:38.466   02 Jun 2027 16:42:50.020            11.554              Murmansk2           361.062
       193   02 Jun 2027 16:43:12.715   02 Jun 2027 16:43:48.532            35.817              Murmansk2          1119.281
       194   02 Jun 2027 16:46:46.819   02 Jun 2027 16:47:02.463            15.644                Anadyr1           488.875
       195   02 Jun 2027 16:47:28.442   02 Jun 2027 16:47:48.392            19.950                Anadyr1           623.437
       196   02 Jun 2027 16:48:58.832   02 Jun 2027 16:49:27.160            28.328                Anadyr1           885.250
       197   02 Jun 2027 16:49:46.228   02 Jun 2027 16:50:08.240            22.012                Anadyr2           687.875
       198   02 Jun 2027 16:51:12.582   02 Jun 2027 16:51:16.148             3.566                Anadyr1           111.437
       199   02 Jun 2027 16:51:17.854   02 Jun 2027 16:51:50.291            32.437                Anadyr1          1013.656
       200   02 Jun 2027 16:52:37.311   02 Jun 2027 16:52:58.004            20.693                Anadyr1           646.656
       201   02 Jun 2027 16:54:26.661   02 Jun 2027 16:55:15.204            48.543                Anadyr2          1516.969
       202   02 Jun 2027 17:46:08.199   02 Jun 2027 17:46:11.600             3.401               CapeTown           106.281
       203   02 Jun 2027 17:46:35.698   02 Jun 2027 17:46:46.503            10.805               CapeTown           337.656
       204   02 Jun 2027 17:48:49.581   02 Jun 2027 17:49:25.206            35.625               CapeTown          1113.281
       205   02 Jun 2027 17:50:07.097   02 Jun 2027 17:50:47.815            40.718               CapeTown          1272.437
       206   02 Jun 2027 17:51:48.782   02 Jun 2027 17:52:34.836            46.054               CapeTown          1439.187
       207   02 Jun 2027 18:12:04.247   02 Jun 2027 18:13:57.515           113.268              Murmansk2          3539.625
       208   02 Jun 2027 18:14:17.523   02 Jun 2027 18:16:55.753           158.230              Murmansk1          4944.688
       209   02 Jun 2027 18:25:33.532   02 Jun 2027 18:25:38.129             4.597               Magadan1           143.656
       210   02 Jun 2027 18:26:13.786   02 Jun 2027 18:26:33.485            19.699                Anadyr2           615.594
       211   02 Jun 2027 18:26:51.773   02 Jun 2027 18:27:11.703            19.930                Anadyr2           622.813
       212   02 Jun 2027 18:28:40.824   02 Jun 2027 18:29:12.578            31.754               Magadan1           992.313
       213   02 Jun 2027 18:31:05.608   02 Jun 2027 18:31:09.785             4.177                Anadyr1           130.531
       214   02 Jun 2027 18:31:23.664   02 Jun 2027 18:31:40.642            16.978               Magadan2           530.562
       215   02 Jun 2027 18:32:09.883   02 Jun 2027 18:32:35.302            25.419               Magadan1           794.344
       216   02 Jun 2027 18:33:27.542   02 Jun 2027 18:33:34.256             6.714               Magadan2           209.812
       217   02 Jun 2027 18:33:43.002   02 Jun 2027 18:34:09.166            26.164                Anadyr1           817.625
       218   02 Jun 2027 19:57:25.573   02 Jun 2027 20:01:10.553           224.980                Anadyr2          7030.625
       219   02 Jun 2027 20:01:13.094   02 Jun 2027 20:01:55.726            42.632                Anadyr1          1332.250
       220   02 Jun 2027 20:02:04.531   02 Jun 2027 20:03:35.812            91.281               Magadan2          2852.531
       221   02 Jun 2027 20:03:42.802   02 Jun 2027 20:04:01.039            18.237               Magadan2           569.906
       222   02 Jun 2027 20:04:32.957   02 Jun 2027 20:04:36.016             3.059               Magadan2            95.594
       223   02 Jun 2027 20:04:41.623   02 Jun 2027 20:04:46.513             4.890               Magadan2           152.813
       224   02 Jun 2027 20:05:25.672   02 Jun 2027 20:06:25.431            59.759               Magadan2          1867.469
       225   02 Jun 2027 20:08:13.791   02 Jun 2027 20:08:15.992             2.201               Magadan2            68.781
       226   02 Jun 2027 20:08:26.952   02 Jun 2027 20:08:51.069            24.117               Magadan1           753.656
       227   02 Jun 2027 20:08:59.337   02 Jun 2027 20:09:29.038            29.701               Magadan1           928.156
       228   02 Jun 2027 20:10:33.192   02 Jun 2027 20:11:16.174            42.982               Magadan1          1343.188
       229   02 Jun 2027 20:53:33.982   02 Jun 2027 20:54:33.750            59.768            RioGallegos          1867.750
       230   02 Jun 2027 20:55:05.963   02 Jun 2027 20:55:08.173             2.210            RioGallegos            69.063
       231   02 Jun 2027 20:55:23.349   02 Jun 2027 20:56:05.133            41.784            RioGallegos          1305.750
       232   02 Jun 2027 20:56:58.265   02 Jun 2027 20:58:34.674            96.409            RioGallegos          3012.781
       233   02 Jun 2027 21:33:14.660   02 Jun 2027 21:34:31.140            76.480                Anadyr2          2390.000
       234   02 Jun 2027 21:35:23.277   02 Jun 2027 21:36:30.839            67.562                Norilsk          2111.313
       235   02 Jun 2027 21:37:53.328   02 Jun 2027 21:38:15.335            22.007                Norilsk           687.719
       236   02 Jun 2027 21:40:01.271   02 Jun 2027 21:40:16.339            15.068               Magadan2           470.875
       237   02 Jun 2027 21:40:17.852   02 Jun 2027 21:41:00.914            43.062                Irkutsk          1345.687
       238   02 Jun 2027 21:42:29.189   02 Jun 2027 21:42:47.225            18.036                Norilsk           563.625
       239   02 Jun 2027 21:43:12.188   02 Jun 2027 21:43:23.411            11.223                Irkutsk           350.719
       240   02 Jun 2027 21:43:51.292   02 Jun 2027 21:44:22.009            30.717                Irkutsk           959.906
       241   02 Jun 2027 21:45:55.557   02 Jun 2027 21:46:14.153            18.596                Irkutsk           581.125
       242   02 Jun 2027 21:46:50.720   02 Jun 2027 21:47:22.049            31.329                Irkutsk           979.031
       243   02 Jun 2027 21:48:00.283   02 Jun 2027 21:48:05.403             5.120               Magadan2           160.000
       244   02 Jun 2027 21:48:49.036   02 Jun 2027 21:49:09.991            20.955                Irkutsk           654.844
       245   02 Jun 2027 21:56:40.916   02 Jun 2027 21:57:29.740            48.824                Sumatra          1525.750
       246   02 Jun 2027 21:59:05.598   02 Jun 2027 22:00:36.261            90.663                Sumatra          2833.219
       247   02 Jun 2027 22:37:14.351   02 Jun 2027 22:37:56.844            42.493            RioGallegos          1327.906
       248   02 Jun 2027 23:08:30.809   02 Jun 2027 23:09:19.146            48.337                Anadyr1          1510.531
       249   02 Jun 2027 23:11:09.411   02 Jun 2027 23:11:53.752            44.341                Norilsk          1385.656
       250   02 Jun 2027 23:12:10.331   02 Jun 2027 23:12:13.564             3.233                Anadyr2           101.031
       251   02 Jun 2027 23:12:14.223   02 Jun 2027 23:14:06.526           112.303               Magadan1          3509.469
       252   02 Jun 2027 23:14:56.446   02 Jun 2027 23:15:43.774            47.328               Magadan1          1479.000
       253   02 Jun 2027 23:16:03.629   02 Jun 2027 23:16:08.627             4.998                Novosib           156.188
       254   02 Jun 2027 23:16:57.286   02 Jun 2027 23:17:27.195            29.909                Irkutsk           934.656
       255   02 Jun 2027 23:18:27.706   02 Jun 2027 23:18:35.779             8.073                Novosib           252.281
       256   02 Jun 2027 23:19:18.705   02 Jun 2027 23:19:54.722            36.017                Novosib          1125.531
       257   02 Jun 2027 23:20:45.331   02 Jun 2027 23:22:03.728            78.397                Novosib          2449.906
       258   02 Jun 2027 23:26:57.621   02 Jun 2027 23:27:53.842            56.221                Irkutsk          1756.906
       259   02 Jun 2027 23:31:15.422   02 Jun 2027 23:31:23.599             8.177                  Delhi           255.531
       260   02 Jun 2027 23:38:43.221   02 Jun 2027 23:39:16.549            33.328                Sumatra          1041.500
       261   02 Jun 2027 23:40:39.753   02 Jun 2027 23:41:17.851            38.098                Sumatra          1190.563
       262   03 Jun 2027 00:11:23.904   03 Jun 2027 00:11:47.261            23.357            RioGallegos           729.906
       263   03 Jun 2027 00:12:48.507   03 Jun 2027 00:13:11.762            23.255            RioGallegos           726.719
       264   03 Jun 2027 00:14:45.335   03 Jun 2027 00:15:17.971            32.636            RioGallegos          1019.875
       265   03 Jun 2027 00:42:44.514   03 Jun 2027 00:43:03.411            18.897                Anadyr2           590.531
       266   03 Jun 2027 00:44:46.772   03 Jun 2027 00:45:02.019            15.247                Anadyr2           476.469
       267   03 Jun 2027 00:45:06.419   03 Jun 2027 00:45:20.929            14.510                Anadyr1           453.437
       268   03 Jun 2027 00:45:37.612   03 Jun 2027 00:46:07.897            30.285                Anadyr1           946.406
       269   03 Jun 2027 00:47:09.886   03 Jun 2027 00:47:43.009            33.123                Norilsk          1035.094
       270   03 Jun 2027 00:47:45.157   03 Jun 2027 00:48:49.125            63.968               Magadan2          1999.000
       271   03 Jun 2027 00:49:11.250   03 Jun 2027 00:49:42.049            30.799               Magadan2           962.469
       272   03 Jun 2027 00:50:04.421   03 Jun 2027 00:50:40.234            35.813              Murmansk2          1119.156
       273   03 Jun 2027 00:50:55.497   03 Jun 2027 00:51:12.475            16.978              Murmansk2           530.563
       274   03 Jun 2027 00:51:12.475   03 Jun 2027 00:51:14.699             2.224              Murmansk1            69.500
       275   03 Jun 2027 00:51:26.193   03 Jun 2027 00:51:49.414            23.221              Murmansk2           725.656
       276   03 Jun 2027 00:53:50.800   03 Jun 2027 00:55:01.293            70.493              Murmansk1          2202.906
       277   03 Jun 2027 00:58:49.025   03 Jun 2027 00:59:06.435            17.410                Irkutsk           544.062
       278   03 Jun 2027 00:59:53.946   03 Jun 2027 01:00:25.554            31.608                Novosib           987.750
       279   03 Jun 2027 01:02:28.823   03 Jun 2027 01:03:50.926            82.103                Novosib          2565.719
       280   03 Jun 2027 01:08:12.696   03 Jun 2027 01:10:23.516           130.820                  Delhi          4088.125
       281   03 Jun 2027 02:15:54.932   03 Jun 2027 02:15:55.387             0.455                Anadyr2            14.219
       282   03 Jun 2027 02:16:21.672   03 Jun 2027 02:16:40.693            19.021                Anadyr1           594.406
       283   03 Jun 2027 02:18:23.974   03 Jun 2027 02:18:33.670             9.696                Anadyr2           303.000
       284   03 Jun 2027 02:18:47.974   03 Jun 2027 02:18:56.348             8.374                Anadyr1           261.688
       285   03 Jun 2027 02:19:19.785   03 Jun 2027 02:19:31.950            12.165                Anadyr2           380.156
       286   03 Jun 2027 02:20:27.339   03 Jun 2027 02:20:45.638            18.299                Anadyr1           571.844
       287   03 Jun 2027 02:21:50.584   03 Jun 2027 02:22:04.109            13.525                Anadyr1           422.656
       288   03 Jun 2027 02:22:25.466   03 Jun 2027 02:23:02.902            37.436               Magadan1          1169.875
       289   03 Jun 2027 02:23:05.330   03 Jun 2027 02:23:30.132            24.802                Norilsk           775.063
       290   03 Jun 2027 02:24:02.042   03 Jun 2027 02:24:30.708            28.666               Magadan2           895.813
       291   03 Jun 2027 02:25:19.870   03 Jun 2027 02:25:49.492            29.622              Murmansk2           925.687
       292   03 Jun 2027 02:26:13.499   03 Jun 2027 02:26:23.062             9.563              Murmansk2           298.844
       293   03 Jun 2027 02:27:03.935   03 Jun 2027 02:27:14.031            10.096                Novosib           315.500
       294   03 Jun 2027 02:27:57.991   03 Jun 2027 02:28:45.581            47.590              Murmansk1          1487.188
       295   03 Jun 2027 02:31:56.559   03 Jun 2027 02:32:41.496            44.937              Murmansk2          1404.281
       296   03 Jun 2027 02:34:54.802   03 Jun 2027 02:35:02.956             8.154              Murmansk1           254.813
       297   03 Jun 2027 02:36:08.626   03 Jun 2027 02:36:39.653            31.027                  Delhi           969.594
       298   03 Jun 2027 02:38:44.723   03 Jun 2027 02:39:02.335            17.612                 Moscow           550.375
       299   03 Jun 2027 02:40:51.578   03 Jun 2027 02:41:33.393            41.815                  Delhi          1306.719
       300   03 Jun 2027 03:02:36.751   03 Jun 2027 03:02:49.555            12.804               CapeTown           400.125
       301   03 Jun 2027 03:03:02.062   03 Jun 2027 03:03:50.180            48.118               CapeTown          1503.688
       302   03 Jun 2027 04:09:07.645   03 Jun 2027 04:09:50.743            43.098                Novosib          1346.812
       303   03 Jun 2027 04:09:54.923   03 Jun 2027 04:14:00.314           245.391              Murmansk2          7668.469
       304   03 Jun 2027 04:14:56.765   03 Jun 2027 04:15:13.110            16.345                 Moscow           510.781
       305   03 Jun 2027 04:40:24.373   03 Jun 2027 04:41:08.416            44.043               CapeTown          1376.344
       306   03 Jun 2027 05:32:11.594   03 Jun 2027 05:32:54.573            42.979                Anadyr1          1343.094
       307   03 Jun 2027 05:33:14.994   03 Jun 2027 05:36:49.572           214.578                Anadyr2          6705.563
       308   03 Jun 2027 05:37:54.421   03 Jun 2027 05:38:02.138             7.717                Anadyr1           241.156
       309   03 Jun 2027 07:09:26.307   03 Jun 2027 07:09:34.813             8.506               Magadan2           265.812
       310   03 Jun 2027 07:09:43.690   03 Jun 2027 07:09:53.016             9.326                Norilsk           291.437
       311   03 Jun 2027 07:09:54.450   03 Jun 2027 07:13:39.617           225.167               Magadan1          7036.469
       312   03 Jun 2027 08:42:47.716   03 Jun 2027 08:43:01.606            13.890               Magadan1           434.062
       313   03 Jun 2027 08:43:16.620   03 Jun 2027 08:45:43.222           146.602               Magadan1          4581.312
       314   03 Jun 2027 08:45:43.222   03 Jun 2027 08:47:52.857           129.635               Magadan2          4051.094
       315   03 Jun 2027 08:47:55.405   03 Jun 2027 08:48:10.705            15.300               Magadan2           478.125
       316   03 Jun 2027 08:48:38.812   03 Jun 2027 08:50:20.789           101.977                Norilsk          3186.781
       317   03 Jun 2027 08:51:54.559   03 Jun 2027 08:52:22.773            28.214              Murmansk1           881.688
       318   03 Jun 2027 09:24:15.870   03 Jun 2027 09:25:52.674            96.804            RioGallegos          3025.125
       319   03 Jun 2027 10:19:24.354   03 Jun 2027 10:19:30.670             6.316                Irkutsk           197.375
       320   03 Jun 2027 10:19:34.263   03 Jun 2027 10:20:43.449            69.186                Norilsk          2162.063
       321   03 Jun 2027 10:20:46.100   03 Jun 2027 10:21:24.848            38.748                Irkutsk          1210.875
       322   03 Jun 2027 10:21:32.462   03 Jun 2027 10:22:50.213            77.751                Novosib          2429.719
       323   03 Jun 2027 10:23:00.277   03 Jun 2027 10:24:30.949            90.672                Novosib          2833.500
       324   03 Jun 2027 10:24:33.704   03 Jun 2027 10:25:22.072            48.368                Irkutsk          1511.500
       325   03 Jun 2027 10:26:37.318   03 Jun 2027 10:26:43.100             5.782              Murmansk2           180.688
       326   03 Jun 2027 11:00:43.025   03 Jun 2027 11:00:59.900            16.875            RioGallegos           527.344
       327   03 Jun 2027 11:01:35.592   03 Jun 2027 11:02:06.255            30.663            RioGallegos           958.219
       328   03 Jun 2027 11:35:34.239   03 Jun 2027 11:37:07.721            93.482                Sumatra          2921.313
       329   03 Jun 2027 11:44:44.642   03 Jun 2027 11:45:10.043            25.401                  Delhi           793.781
       330   03 Jun 2027 11:55:48.177   03 Jun 2027 11:56:57.179            69.002                Novosib          2156.312
       331   03 Jun 2027 11:57:03.859   03 Jun 2027 11:57:16.467            12.608                Irkutsk           394.000
       332   03 Jun 2027 11:57:28.237   03 Jun 2027 11:57:55.083            26.846                Norilsk           838.938
       333   03 Jun 2027 11:57:59.247   03 Jun 2027 11:58:02.266             3.019                 Moscow            94.344
       334   03 Jun 2027 11:58:08.843   03 Jun 2027 11:58:16.088             7.245                Novosib           226.406
       335   03 Jun 2027 11:58:23.422   03 Jun 2027 11:58:24.974             1.552                Novosib            48.500
       336   03 Jun 2027 11:58:25.189   03 Jun 2027 11:59:37.075            71.886                Irkutsk          2246.437
       337   03 Jun 2027 11:59:55.494   03 Jun 2027 12:00:49.780            54.286              Murmansk2          1696.437
       338   03 Jun 2027 12:00:49.780   03 Jun 2027 12:01:09.161            19.381              Murmansk1           605.656
       339   03 Jun 2027 12:01:28.311   03 Jun 2027 12:01:55.981            27.670                 Moscow           864.687
       340   03 Jun 2027 12:02:46.403   03 Jun 2027 12:02:49.905             3.502                Novosib           109.438
       341   03 Jun 2027 12:03:15.346   03 Jun 2027 12:03:26.614            11.268                Norilsk           352.125
       342   03 Jun 2027 12:03:42.050   03 Jun 2027 12:03:59.921            17.871              Murmansk2           558.469
       343   03 Jun 2027 12:04:17.334   03 Jun 2027 12:05:05.022            47.688                Norilsk          1490.250
       344   03 Jun 2027 12:05:52.735   03 Jun 2027 12:06:05.008            12.273              Murmansk2           383.531
       345   03 Jun 2027 12:06:17.679   03 Jun 2027 12:06:46.852            29.173              Murmansk1           911.656
       346   03 Jun 2027 12:07:09.723   03 Jun 2027 12:08:05.493            55.770              Murmansk2          1742.813
       347   03 Jun 2027 13:19:45.605   03 Jun 2027 13:20:10.552            24.947                  Delhi           779.594
       348   03 Jun 2027 13:20:29.024   03 Jun 2027 13:20:58.568            29.544                  Delhi           923.250
       349   03 Jun 2027 13:23:56.667   03 Jun 2027 13:24:40.592            43.925                  Delhi          1372.656
       350   03 Jun 2027 13:24:53.416   03 Jun 2027 13:25:09.216            15.800                  Delhi           493.750
       351   03 Jun 2027 13:25:58.986   03 Jun 2027 13:26:21.094            22.108                  Delhi           690.875
       352   03 Jun 2027 13:27:07.467   03 Jun 2027 13:27:57.762            50.295                  Delhi          1571.719
       353   03 Jun 2027 13:27:59.888   03 Jun 2027 13:29:23.803            83.915                Novosib          2622.344
       354   03 Jun 2027 13:31:08.948   03 Jun 2027 13:31:46.785            37.837                Novosib          1182.406
       355   03 Jun 2027 13:32:05.538   03 Jun 2027 13:33:06.128            60.590                Novosib          1893.437
       356   03 Jun 2027 13:36:46.263   03 Jun 2027 13:37:02.520            16.257                Norilsk           508.031
       357   03 Jun 2027 13:37:03.586   03 Jun 2027 13:38:02.246            58.660                Novosib          1833.125
       358   03 Jun 2027 13:40:35.986   03 Jun 2027 13:41:47.808            71.822                Norilsk          2244.438
       359   03 Jun 2027 15:03:31.331   03 Jun 2027 15:06:42.672           191.341                 Moscow          5979.406
       360   03 Jun 2027 15:08:36.439   03 Jun 2027 15:08:38.886             2.447              Murmansk1            76.469
       361   03 Jun 2027 15:08:40.267   03 Jun 2027 15:09:00.827            20.560              Murmansk2           642.500
       362   03 Jun 2027 15:10:35.907   03 Jun 2027 15:11:05.333            29.426              Murmansk2           919.562
       363   03 Jun 2027 15:12:40.172   03 Jun 2027 15:16:16.538           216.366                Norilsk          6761.437
       364   03 Jun 2027 16:23:16.102   03 Jun 2027 16:23:39.930            23.828               CapeTown           744.625
       365   03 Jun 2027 16:24:39.601   03 Jun 2027 16:24:47.252             7.651               CapeTown           239.094
       366   03 Jun 2027 16:25:26.879   03 Jun 2027 16:26:49.697            82.818               CapeTown          2588.063
       367   03 Jun 2027 16:42:59.288   03 Jun 2027 16:43:35.799            36.511                 Moscow          1140.969
       368   03 Jun 2027 16:47:48.054   03 Jun 2027 16:48:20.905            32.851              Murmansk2          1026.594
       369   03 Jun 2027 16:49:20.946   03 Jun 2027 16:49:57.776            36.830              Murmansk2          1150.937
       370   03 Jun 2027 16:52:05.907   03 Jun 2027 16:52:12.076             6.169              Murmansk1           192.781
       371   03 Jun 2027 16:52:44.573   03 Jun 2027 16:53:40.038            55.465              Murmansk2          1733.281
       372   03 Jun 2027 16:57:47.447   03 Jun 2027 16:58:25.852            38.405                Anadyr2          1200.156
       373   03 Jun 2027 16:58:36.147   03 Jun 2027 16:58:54.980            18.833                Anadyr2           588.531
       374   03 Jun 2027 17:03:00.227   03 Jun 2027 17:03:07.024             6.797                Anadyr1           212.406
       375   03 Jun 2027 17:03:17.344   03 Jun 2027 17:03:40.798            23.454                Anadyr2           732.937
       376   03 Jun 2027 17:04:18.366   03 Jun 2027 17:04:57.554            39.188                Anadyr1          1224.625
       377   03 Jun 2027 17:55:25.735   03 Jun 2027 17:57:25.007           119.272               CapeTown          3727.250
       378   03 Jun 2027 18:24:50.089   03 Jun 2027 18:29:57.528           307.439              Murmansk1          9607.469
       379   03 Jun 2027 18:43:08.420   03 Jun 2027 18:43:26.332            17.912               Magadan1           559.750
       380   03 Jun 2027 18:45:13.542   03 Jun 2027 18:45:48.199            34.657               Magadan1          1083.031
       381   03 Jun 2027 20:09:27.025   03 Jun 2027 20:12:51.312           204.287                Anadyr2          6383.969
       382   03 Jun 2027 20:12:51.312   03 Jun 2027 20:12:54.116             2.804                Anadyr1            87.625
       383   03 Jun 2027 20:12:58.623   03 Jun 2027 20:16:03.765           185.142               Magadan1          5785.688
       384   03 Jun 2027 20:18:47.470   03 Jun 2027 20:19:25.509            38.039               Magadan2          1188.719
       385   03 Jun 2027 21:04:55.428   03 Jun 2027 21:07:26.539           151.111            RioGallegos          4722.219
       386   03 Jun 2027 21:07:38.367   03 Jun 2027 21:07:43.805             5.438            RioGallegos           169.937
       387   03 Jun 2027 21:07:48.474   03 Jun 2027 21:07:48.675             0.201            RioGallegos             6.281
       388   03 Jun 2027 21:10:25.856   03 Jun 2027 21:11:08.342            42.486            RioGallegos          1327.688
       389   03 Jun 2027 21:45:13.734   03 Jun 2027 21:45:39.842            26.108                Anadyr2           815.875
       390   03 Jun 2027 21:46:12.276   03 Jun 2027 21:46:27.831            15.555                Anadyr2           486.094
       391   03 Jun 2027 21:46:29.093   03 Jun 2027 21:46:31.833             2.740                Anadyr2            85.625
       392   03 Jun 2027 21:47:18.483   03 Jun 2027 21:47:27.431             8.948                Anadyr2           279.625
       393   03 Jun 2027 21:47:41.857   03 Jun 2027 21:49:11.746            89.889               Magadan1          2809.031
       394   03 Jun 2027 21:49:11.746   03 Jun 2027 21:50:12.395            60.649               Magadan2          1895.281
       395   03 Jun 2027 21:50:24.789   03 Jun 2027 21:50:38.245            13.456                Norilsk           420.500
       396   03 Jun 2027 21:50:42.122   03 Jun 2027 21:50:54.292            12.170                Norilsk           380.312
       397   03 Jun 2027 21:52:00.941   03 Jun 2027 21:52:59.175            58.234                Irkutsk          1819.813
       398   03 Jun 2027 21:58:02.460   03 Jun 2027 21:58:22.269            19.809                Irkutsk           619.031
       399   03 Jun 2027 22:00:08.504   03 Jun 2027 22:00:13.931             5.427                Irkutsk           169.594
       400   03 Jun 2027 22:01:16.863   03 Jun 2027 22:01:28.593            11.730                Irkutsk           366.563
       401   03 Jun 2027 22:06:28.930   03 Jun 2027 22:09:09.384           160.454                Sumatra          5014.187
       402   03 Jun 2027 23:20:22.997   03 Jun 2027 23:21:32.132            69.135                Anadyr2          2160.469
       403   03 Jun 2027 23:21:34.843   03 Jun 2027 23:22:51.100            76.257                Anadyr1          2383.031
       404   03 Jun 2027 23:23:11.318   03 Jun 2027 23:23:22.609            11.291                Norilsk           352.844
       405   03 Jun 2027 23:23:49.031   03 Jun 2027 23:25:37.161           108.130               Magadan1          3379.062
       406   03 Jun 2027 23:25:51.208   03 Jun 2027 23:26:28.440            37.232               Magadan2          1163.500
       407   03 Jun 2027 23:27:34.458   03 Jun 2027 23:27:48.662            14.204                Novosib           443.875
       408   03 Jun 2027 23:30:18.608   03 Jun 2027 23:30:34.227            15.619                Novosib           488.094
       409   03 Jun 2027 23:33:19.036   03 Jun 2027 23:33:28.398             9.362                Novosib           292.562
       410   03 Jun 2027 23:36:03.181   03 Jun 2027 23:37:09.664            66.483                Novosib          2077.594
       411   03 Jun 2027 23:39:43.546   03 Jun 2027 23:39:54.350            10.804                  Delhi           337.625
       412   03 Jun 2027 23:40:01.834   03 Jun 2027 23:40:07.834             6.000                  Delhi           187.500
       413   03 Jun 2027 23:41:03.801   03 Jun 2027 23:42:10.055            66.254                  Delhi          2070.438
       414   04 Jun 2027 00:17:40.605   04 Jun 2027 00:17:50.354             9.749            RioGallegos           304.656
       415   04 Jun 2027 00:18:37.447   04 Jun 2027 00:19:13.639            36.192            RioGallegos          1131.000
       416   04 Jun 2027 00:25:07.397   04 Jun 2027 00:25:32.733            25.336            RioGallegos           791.750
       417   04 Jun 2027 00:54:20.371   04 Jun 2027 00:54:21.175             0.804                Anadyr2            25.125
       418   04 Jun 2027 00:54:43.071   04 Jun 2027 00:55:44.261            61.190                Anadyr2          1912.188
       419   04 Jun 2027 00:55:44.261   04 Jun 2027 00:56:37.898            53.637                Anadyr1          1676.156
       420   04 Jun 2027 00:59:11.908   04 Jun 2027 01:00:11.046            59.138                Norilsk          1848.063
       421   04 Jun 2027 01:00:28.986   04 Jun 2027 01:01:38.766            69.780               Magadan2          2180.625
       422   04 Jun 2027 01:01:53.537   04 Jun 2027 01:03:38.447           104.910              Murmansk1          3278.437
       423   04 Jun 2027 01:03:38.447   04 Jun 2027 01:03:44.790             6.343              Murmansk2           198.219
       424   04 Jun 2027 01:06:13.457   04 Jun 2027 01:07:08.179            54.722                Irkutsk          1710.063
       425   04 Jun 2027 01:13:43.494   04 Jun 2027 01:14:16.031            32.537                  Delhi          1016.781
       426   04 Jun 2027 01:18:38.249   04 Jun 2027 01:19:02.891            24.642                  Delhi           770.063
       427   04 Jun 2027 01:22:13.308   04 Jun 2027 01:23:02.200            48.892                  Delhi          1527.875
       428   04 Jun 2027 01:52:36.037   04 Jun 2027 01:53:45.419            69.382            RioGallegos          2168.187
       429   04 Jun 2027 01:56:29.186   04 Jun 2027 01:56:57.764            28.578            RioGallegos           893.062
       430   04 Jun 2027 02:27:37.247   04 Jun 2027 02:28:01.883            24.636                Anadyr2           769.875
       431   04 Jun 2027 02:29:07.849   04 Jun 2027 02:30:13.064            65.215                Anadyr2          2037.969
       432   04 Jun 2027 02:33:30.625   04 Jun 2027 02:34:26.886            56.261               Magadan1          1758.156
       433   04 Jun 2027 02:37:05.393   04 Jun 2027 02:37:47.640            42.247               Magadan2          1320.219
       434   04 Jun 2027 02:37:48.006   04 Jun 2027 02:38:59.403            71.397              Murmansk2          2231.156
       435   04 Jun 2027 02:40:54.485   04 Jun 2027 02:41:04.565            10.080                Novosib           315.000
       436   04 Jun 2027 02:41:35.345   04 Jun 2027 02:42:18.855            43.510                Novosib          1359.688
       437   04 Jun 2027 02:48:37.149   04 Jun 2027 02:48:47.878            10.729                Novosib           335.281
       438   04 Jun 2027 02:49:11.070   04 Jun 2027 02:49:35.157            24.087                  Delhi           752.719
       439   04 Jun 2027 02:52:36.392   04 Jun 2027 02:52:55.625            19.233                  Delhi           601.031
       440   04 Jun 2027 03:11:12.295   04 Jun 2027 03:11:30.524            18.229               CapeTown           569.656
       441   04 Jun 2027 03:13:46.161   04 Jun 2027 03:14:56.674            70.513               CapeTown          2203.531
       442   04 Jun 2027 04:21:06.946   04 Jun 2027 04:22:04.650            57.704                Norilsk          1803.250
       443   04 Jun 2027 04:22:05.568   04 Jun 2027 04:24:12.988           127.420              Murmansk2          3981.875
       444   04 Jun 2027 05:44:21.033   04 Jun 2027 05:45:54.870            93.837                Anadyr2          2932.406
       445   04 Jun 2027 05:45:54.870   04 Jun 2027 05:47:41.677           106.807                Anadyr1          3337.719
       446   04 Jun 2027 05:47:57.512   04 Jun 2027 05:48:23.836            26.324                Anadyr1           822.625
       447   04 Jun 2027 05:48:49.414   04 Jun 2027 05:50:03.488            74.074                Anadyr1          2314.813
       448   04 Jun 2027 07:21:48.668   04 Jun 2027 07:22:23.686            35.018               Magadan2          1094.312
       449   04 Jun 2027 07:22:37.559   04 Jun 2027 07:22:53.481            15.922                Norilsk           497.562
       450   04 Jun 2027 07:22:56.589   04 Jun 2027 07:25:30.118           153.529                Anadyr1          4797.781
       451   04 Jun 2027 07:25:30.118   04 Jun 2027 07:25:46.094            15.976                Anadyr2           499.250
       452   04 Jun 2027 07:26:52.843   04 Jun 2027 07:27:23.053            30.210              Murmansk1           944.063
       453   04 Jun 2027 07:29:48.874   04 Jun 2027 07:29:55.195             6.321                 Moscow           197.531
       454   04 Jun 2027 07:30:14.759   04 Jun 2027 07:30:35.076            20.317                 Moscow           634.906
       455   04 Jun 2027 08:02:47.692   04 Jun 2027 08:03:30.551            42.859            RioGallegos          1339.344
       456   04 Jun 2027 08:54:53.793   04 Jun 2027 08:55:08.804            15.011               Magadan2           469.094
       457   04 Jun 2027 08:55:24.433   04 Jun 2027 08:55:39.570            15.137               Magadan1           473.031
       458   04 Jun 2027 08:55:42.876   04 Jun 2027 08:56:55.170            72.294                Norilsk          2259.188
       459   04 Jun 2027 08:57:08.582   04 Jun 2027 08:57:33.348            24.766                Irkutsk           773.937
       460   04 Jun 2027 08:57:41.199   04 Jun 2027 08:58:35.196            53.997               Magadan1          1687.406
       461   04 Jun 2027 08:58:41.612   04 Jun 2027 08:59:20.866            39.254                Irkutsk          1226.688
       462   04 Jun 2027 08:59:24.977   04 Jun 2027 08:59:30.586             5.609                Irkutsk           175.281
       463   04 Jun 2027 08:59:41.319   04 Jun 2027 08:59:56.320            15.001                Novosib           468.781
       464   04 Jun 2027 08:59:57.239   04 Jun 2027 09:00:38.554            41.315                Norilsk          1291.094
       465   04 Jun 2027 09:00:47.284   04 Jun 2027 09:00:57.284            10.000              Murmansk1           312.500
       466   04 Jun 2027 09:00:57.284   04 Jun 2027 09:01:09.169            11.885              Murmansk2           371.406
       467   04 Jun 2027 09:01:12.370   04 Jun 2027 09:01:40.321            27.951                Norilsk           873.469
       468   04 Jun 2027 09:07:06.281   04 Jun 2027 09:07:08.910             2.629              Murmansk2            82.156
       469   04 Jun 2027 09:07:42.255   04 Jun 2027 09:08:32.029            49.774              Murmansk1          1555.438
       470   04 Jun 2027 09:36:09.450   04 Jun 2027 09:37:12.153            62.703            RioGallegos          1959.469
       471   04 Jun 2027 10:12:11.524   04 Jun 2027 10:12:52.151            40.627                Sumatra          1269.594
       472   04 Jun 2027 10:31:32.996   04 Jun 2027 10:32:45.410            72.414                Irkutsk          2262.937
       473   04 Jun 2027 10:32:55.191   04 Jun 2027 10:33:16.888            21.697                Norilsk           678.031
       474   04 Jun 2027 10:33:37.790   04 Jun 2027 10:34:43.058            65.268                Novosib          2039.625
       475   04 Jun 2027 10:34:49.233   04 Jun 2027 10:34:56.082             6.849                Novosib           214.031
       476   04 Jun 2027 10:35:00.005   04 Jun 2027 10:36:18.787            78.782                Novosib          2461.938
       477   04 Jun 2027 10:36:24.754   04 Jun 2027 10:36:38.220            13.466                Irkutsk           420.812
       478   04 Jun 2027 10:36:38.909   04 Jun 2027 10:36:43.797             4.888              Murmansk1           152.750
       479   04 Jun 2027 10:36:53.042   04 Jun 2027 10:37:04.939            11.897                Novosib           371.781
       480   04 Jun 2027 10:37:05.703   04 Jun 2027 10:37:46.675            40.972                Norilsk          1280.375
       481   04 Jun 2027 10:40:23.996   04 Jun 2027 10:40:35.595            11.599              Murmansk1           362.469
       482   04 Jun 2027 11:13:06.074   04 Jun 2027 11:13:31.288            25.214            RioGallegos           787.938
