uniorb/output/strategy_1/Drop/Drop_KinoSat_111506.txt

KinoSat_111506
-------------------------
    Access    *     Start Time (UTCG)     *     Stop Time (UTCG)  *   Duration (s)        *       Station  *  Data (Mbytes)
         1   01 Jun 2027 03:10:14.907   01 Jun 2027 03:10:31.949            17.042              Murmansk1           532.562
         2   01 Jun 2027 03:10:36.989   01 Jun 2027 03:11:38.048            61.059                Irkutsk          1908.094
         3   01 Jun 2027 03:11:48.417   01 Jun 2027 03:12:53.762            65.345                 Moscow          2042.031
         4   01 Jun 2027 03:13:15.174   01 Jun 2027 03:15:27.008           131.834                 Moscow          4119.813
         5   01 Jun 2027 03:15:36.266   01 Jun 2027 03:15:56.727            20.461              Murmansk1           639.406
         6   01 Jun 2027 03:16:09.046   01 Jun 2027 03:16:30.126            21.080                Novosib           658.750
         7   01 Jun 2027 03:16:54.183   01 Jun 2027 03:20:03.806           189.623                  Delhi          5925.719
         8   01 Jun 2027 04:48:54.442   01 Jun 2027 04:49:13.247            18.805                Norilsk           587.656
         9   01 Jun 2027 04:49:15.883   01 Jun 2027 04:50:40.111            84.228              Murmansk1          2632.125
        10   01 Jun 2027 04:50:41.264   01 Jun 2027 04:51:27.631            46.367                 Moscow          1448.969
        11   01 Jun 2027 04:51:29.991   01 Jun 2027 04:51:43.678            13.687              Murmansk2           427.719
        12   01 Jun 2027 04:52:16.499   01 Jun 2027 04:52:49.608            33.109              Murmansk2          1034.656
        13   01 Jun 2027 04:54:24.632   01 Jun 2027 04:55:04.582            39.950                 Moscow          1248.438
        14   01 Jun 2027 06:11:26.676   01 Jun 2027 06:12:41.550            74.874               Magadan1          2339.813
        15   01 Jun 2027 06:12:41.550   01 Jun 2027 06:13:58.128            76.578               Magadan2          2393.063
        16   01 Jun 2027 06:14:32.247   01 Jun 2027 06:15:03.252            31.005               Magadan2           968.906
        17   01 Jun 2027 06:16:53.063   01 Jun 2027 06:17:00.072             7.009               Magadan1           219.031
        18   01 Jun 2027 07:48:44.326   01 Jun 2027 07:50:05.024            80.698                Anadyr1          2521.812
        19   01 Jun 2027 07:50:29.926   01 Jun 2027 07:51:35.482            65.556                Anadyr1          2048.625
        20   01 Jun 2027 07:51:35.482   01 Jun 2027 07:52:32.162            56.680                Anadyr2          1771.250
        21   01 Jun 2027 09:23:22.257   01 Jun 2027 09:24:07.433            45.176               Magadan2          1411.750
        22   01 Jun 2027 09:24:43.781   01 Jun 2027 09:25:41.871            58.090                Irkutsk          1815.312
        23   01 Jun 2027 09:25:43.766   01 Jun 2027 09:28:31.183           167.417               Magadan2          5231.781
        24   01 Jun 2027 09:32:06.927   01 Jun 2027 09:32:07.881             0.954                Norilsk            29.812
        25   01 Jun 2027 10:03:27.971   01 Jun 2027 10:04:29.111            61.140            RioGallegos          1910.625
        26   01 Jun 2027 10:39:23.674   01 Jun 2027 10:40:07.399            43.725                Sumatra          1366.406
        27   01 Jun 2027 11:00:10.517   01 Jun 2027 11:00:22.254            11.737                Irkutsk           366.781
        28   01 Jun 2027 11:00:53.188   01 Jun 2027 11:04:10.368           197.180                Novosib          6161.875
        29   01 Jun 2027 11:04:12.775   01 Jun 2027 11:04:42.768            29.993                Irkutsk           937.281
        30   01 Jun 2027 11:05:01.546   01 Jun 2027 11:05:55.773            54.227                Norilsk          1694.594
        31   01 Jun 2027 11:06:16.888   01 Jun 2027 11:07:52.339            95.451              Murmansk2          2982.844
        32   01 Jun 2027 11:40:31.772   01 Jun 2027 11:41:07.849            36.077            RioGallegos          1127.406
        33   01 Jun 2027 11:41:33.509   01 Jun 2027 11:42:13.397            39.888            RioGallegos          1246.500
        34   01 Jun 2027 11:43:24.962   01 Jun 2027 11:44:39.092            74.130            RioGallegos          2316.563
        35   01 Jun 2027 11:45:29.853   01 Jun 2027 11:45:31.861             2.008            RioGallegos            62.750
        36   01 Jun 2027 12:14:46.592   01 Jun 2027 12:16:09.652            83.060                Sumatra          2595.625
        37   01 Jun 2027 12:17:33.083   01 Jun 2027 12:19:17.198           104.115                Sumatra          3253.594
        38   01 Jun 2027 12:29:23.242   01 Jun 2027 12:30:17.581            54.339                Novosib          1698.094
        39   01 Jun 2027 12:30:19.523   01 Jun 2027 12:30:25.403             5.880                Irkutsk           183.750
        40   01 Jun 2027 12:30:47.903   01 Jun 2027 12:31:05.861            17.958                Novosib           561.188
        41   01 Jun 2027 12:31:07.310   01 Jun 2027 12:31:46.706            39.396                Irkutsk          1231.125
        42   01 Jun 2027 12:32:21.737   01 Jun 2027 12:32:53.846            32.109                Novosib          1003.406
        43   01 Jun 2027 12:33:17.253   01 Jun 2027 12:33:48.812            31.559                Norilsk           986.219
        44   01 Jun 2027 12:35:01.546   01 Jun 2027 12:35:02.214             0.668                Irkutsk            20.875
        45   01 Jun 2027 12:35:51.976   01 Jun 2027 12:36:04.350            12.374                Norilsk           386.687
        46   01 Jun 2027 13:59:42.878   01 Jun 2027 14:04:51.323           308.445                  Delhi          9638.906
        47   01 Jun 2027 14:08:07.691   01 Jun 2027 14:08:15.772             8.081                Novosib           252.531
        48   01 Jun 2027 14:09:19.793   01 Jun 2027 14:10:23.418            63.625                Novosib          1988.281
        49   01 Jun 2027 14:11:45.612   01 Jun 2027 14:11:50.176             4.564                Norilsk           142.625
        50   01 Jun 2027 14:12:32.284   01 Jun 2027 14:13:02.331            30.047                Novosib           938.969
        51   01 Jun 2027 14:13:13.484   01 Jun 2027 14:13:24.859            11.375                Norilsk           355.469
        52   01 Jun 2027 14:14:07.728   01 Jun 2027 14:15:23.682            75.954                Norilsk          2373.562
        53   01 Jun 2027 15:43:00.735   01 Jun 2027 15:44:56.277           115.542                 Moscow          3610.687
        54   01 Jun 2027 15:45:57.093   01 Jun 2027 15:46:52.053            54.960                 Moscow          1717.500
        55   01 Jun 2027 15:47:30.215   01 Jun 2027 15:48:20.810            50.595              Murmansk1          1581.094
        56   01 Jun 2027 15:49:26.169   01 Jun 2027 15:49:35.090             8.921              Murmansk2           278.781
        57   01 Jun 2027 15:53:18.500   01 Jun 2027 15:54:31.569            73.069                Norilsk          2283.406
        58   01 Jun 2027 15:55:44.864   01 Jun 2027 15:56:30.283            45.419                Norilsk          1419.344
        59   01 Jun 2027 16:02:28.173   01 Jun 2027 16:03:03.649            35.476                Anadyr1          1108.625
        60   01 Jun 2027 16:03:15.785   01 Jun 2027 16:03:31.080            15.295                Anadyr1           477.969
        61   01 Jun 2027 16:56:31.392   01 Jun 2027 16:58:18.777           107.385               CapeTown          3355.781
        62   01 Jun 2027 17:22:57.215   01 Jun 2027 17:23:41.515            44.300                 Moscow          1384.375
        63   01 Jun 2027 17:24:28.587   01 Jun 2027 17:26:28.357           119.770              Murmansk1          3742.813
        64   01 Jun 2027 17:27:41.349   01 Jun 2027 17:29:16.703            95.354              Murmansk2          2979.813
        65   01 Jun 2027 17:34:06.827   01 Jun 2027 17:34:20.721            13.894              Murmansk2           434.188
        66   01 Jun 2027 17:38:12.233   01 Jun 2027 17:38:29.536            17.303                Anadyr1           540.719
        67   01 Jun 2027 17:38:36.501   01 Jun 2027 17:38:38.865             2.364                Anadyr1            73.875
        68   01 Jun 2027 17:39:23.456   01 Jun 2027 17:39:27.328             3.872                Anadyr1           121.000
        69   01 Jun 2027 17:44:24.477   01 Jun 2027 17:44:51.731            27.254                Anadyr2           851.687
        70   01 Jun 2027 18:32:55.402   01 Jun 2027 18:34:23.016            87.614               CapeTown          2737.937
        71   01 Jun 2027 18:36:28.110   01 Jun 2027 18:37:29.300            61.190               CapeTown          1912.187
        72   01 Jun 2027 19:05:14.311   01 Jun 2027 19:09:47.919           273.608              Murmansk2          8550.250
        73   01 Jun 2027 19:15:34.846   01 Jun 2027 19:16:31.384            56.538               Magadan2          1766.813
        74   01 Jun 2027 19:19:37.431   01 Jun 2027 19:19:55.200            17.769               Magadan2           555.281
        75   01 Jun 2027 19:21:33.768   01 Jun 2027 19:21:39.773             6.005               Magadan1           187.656
        76   01 Jun 2027 19:21:58.187   01 Jun 2027 19:22:04.266             6.079               Magadan1           189.969
        77   01 Jun 2027 20:48:48.308   01 Jun 2027 20:50:53.515           125.207                Anadyr2          3912.719
        78   01 Jun 2027 20:51:04.559   01 Jun 2027 20:55:30.941           266.382               Magadan2          8324.437
        79   01 Jun 2027 20:57:23.687   01 Jun 2027 20:58:06.854            43.167               Magadan2          1348.969
        80   01 Jun 2027 21:43:44.289   01 Jun 2027 21:46:18.818           154.529            RioGallegos          4829.031
        81   01 Jun 2027 21:46:52.152   01 Jun 2027 21:46:52.787             0.635            RioGallegos            19.844
        82   01 Jun 2027 21:48:55.125   01 Jun 2027 21:50:16.729            81.604            RioGallegos          2550.125
        83   01 Jun 2027 22:24:31.608   01 Jun 2027 22:24:50.235            18.627                Anadyr1           582.094
        84   01 Jun 2027 22:26:06.775   01 Jun 2027 22:26:22.236            15.461                Anadyr1           483.156
        85   01 Jun 2027 22:26:39.353   01 Jun 2027 22:26:47.460             8.107                Norilsk           253.344
        86   01 Jun 2027 22:27:04.991   01 Jun 2027 22:28:55.520           110.529               Magadan1          3454.031
        87   01 Jun 2027 22:29:13.161   01 Jun 2027 22:29:34.505            21.344               Magadan2           667.000
        88   01 Jun 2027 22:29:50.067   01 Jun 2027 22:30:15.325            25.258                Norilsk           789.312
        89   01 Jun 2027 22:31:05.250   01 Jun 2027 22:32:12.660            67.410                Irkutsk          2106.563
        90   01 Jun 2027 22:33:26.925   01 Jun 2027 22:34:29.639            62.714                Irkutsk          1959.813
        91   01 Jun 2027 22:45:10.010   01 Jun 2027 22:48:12.641           182.631                Sumatra          5707.219
        92   01 Jun 2027 23:59:31.530   01 Jun 2027 23:59:35.622             4.092                Anadyr1           127.875
        93   02 Jun 2027 00:01:50.787   02 Jun 2027 00:02:15.537            24.750                Anadyr2           773.437
        94   02 Jun 2027 00:02:33.288   02 Jun 2027 00:03:44.303            71.015                Norilsk          2219.219
        95   02 Jun 2027 00:04:09.229   02 Jun 2027 00:05:11.058            61.829               Magadan1          1932.156
        96   02 Jun 2027 00:05:11.058   02 Jun 2027 00:06:05.282            54.224               Magadan2          1694.500
        97   02 Jun 2027 00:06:25.394   02 Jun 2027 00:07:48.294            82.900                Irkutsk          2590.625
        98   02 Jun 2027 00:08:02.431   02 Jun 2027 00:09:18.262            75.831                Novosib          2369.719
        99   02 Jun 2027 00:15:07.194   02 Jun 2027 00:15:26.250            19.056                  Delhi           595.500
       100   02 Jun 2027 00:15:56.895   02 Jun 2027 00:17:58.326           121.431                  Delhi          3794.719
       101   02 Jun 2027 01:33:17.904   02 Jun 2027 01:35:31.663           133.759                Anadyr2          4179.969
       102   02 Jun 2027 01:39:00.727   02 Jun 2027 01:39:51.349            50.622               Magadan1          1581.938
       103   02 Jun 2027 01:40:11.772   02 Jun 2027 01:40:54.487            42.715               Magadan1          1334.844
       104   02 Jun 2027 01:41:04.231   02 Jun 2027 01:42:28.930            84.699              Murmansk1          2646.844
       105   02 Jun 2027 01:42:29.668   02 Jun 2027 01:43:19.820            50.152              Murmansk2          1567.250
       106   02 Jun 2027 01:43:36.132   02 Jun 2027 01:44:03.328            27.196              Murmansk1           849.875
       107   02 Jun 2027 01:46:06.547   02 Jun 2027 01:46:10.960             4.413                Novosib           137.906
       108   02 Jun 2027 01:47:43.789   02 Jun 2027 01:47:51.328             7.539                 Moscow           235.594
       109   02 Jun 2027 01:49:44.210   02 Jun 2027 01:51:12.508            88.298                  Delhi          2759.312
       110   02 Jun 2027 02:32:39.469   02 Jun 2027 02:33:18.716            39.247            RioGallegos          1226.469
       111   02 Jun 2027 02:34:22.238   02 Jun 2027 02:35:27.329            65.091            RioGallegos          2034.094
       112   02 Jun 2027 02:35:51.965   02 Jun 2027 02:36:16.871            24.906            RioGallegos           778.312
       113   02 Jun 2027 03:22:16.656   02 Jun 2027 03:22:32.712            16.056              Murmansk2           501.750
       114   02 Jun 2027 03:22:41.778   02 Jun 2027 03:22:55.018            13.240                 Moscow           413.750
       115   02 Jun 2027 03:23:02.583   02 Jun 2027 03:23:23.071            20.488                 Moscow           640.250
       116   02 Jun 2027 03:23:23.391   02 Jun 2027 03:24:36.912            73.521                Norilsk          2297.531
       117   02 Jun 2027 03:24:40.098   02 Jun 2027 03:25:06.457            26.359              Murmansk1           823.719
       118   02 Jun 2027 03:25:29.856   02 Jun 2027 03:29:29.086           239.230                 Moscow          7475.938
       119   02 Jun 2027 03:29:33.136   02 Jun 2027 03:29:43.225            10.089                 Moscow           315.281
       120   02 Jun 2027 03:31:13.597   02 Jun 2027 03:31:44.055            30.458                 Moscow           951.812
       121   02 Jun 2027 03:45:07.430   02 Jun 2027 03:47:59.047           171.617               CapeTown          5363.031
       122   02 Jun 2027 04:42:00.177   02 Jun 2027 04:42:13.701            13.524                Anadyr1           422.625
       123   02 Jun 2027 05:00:13.890   02 Jun 2027 05:01:10.049            56.159              Murmansk1          1754.969
       124   02 Jun 2027 05:01:38.094   02 Jun 2027 05:05:34.529           236.435              Murmansk2          7388.594
       125   02 Jun 2027 05:06:40.334   02 Jun 2027 05:07:00.889            20.555                 Moscow           642.344
       126   02 Jun 2027 05:07:28.497   02 Jun 2027 05:08:28.886            60.389                 Moscow          1887.156
       127   02 Jun 2027 05:20:56.310   02 Jun 2027 05:21:55.115            58.805               CapeTown          1837.656
       128   02 Jun 2027 05:22:48.749   02 Jun 2027 05:24:33.597           104.848               CapeTown          3276.500
       129   02 Jun 2027 06:23:09.475   02 Jun 2027 06:23:43.962            34.487               Magadan2          1077.719
       130   02 Jun 2027 06:23:43.962   02 Jun 2027 06:23:50.295             6.333               Magadan1           197.906
       131   02 Jun 2027 06:24:04.726   02 Jun 2027 06:26:14.072           129.346               Magadan1          4042.062
       132   02 Jun 2027 06:28:52.195   02 Jun 2027 06:29:02.935            10.740               Magadan1           335.625
       133   02 Jun 2027 08:00:24.130   02 Jun 2027 08:00:34.416            10.286               Magadan2           321.438
       134   02 Jun 2027 08:00:48.019   02 Jun 2027 08:00:51.198             3.179                Norilsk            99.344
       135   02 Jun 2027 08:00:54.492   02 Jun 2027 08:01:10.368            15.876                Norilsk           496.125
       136   02 Jun 2027 08:01:17.953   02 Jun 2027 08:05:00.129           222.176               Magadan1          6943.000
       137   02 Jun 2027 09:35:11.529   02 Jun 2027 09:35:24.589            13.060                Novosib           408.125
       138   02 Jun 2027 09:35:28.733   02 Jun 2027 09:36:19.152            50.419               Magadan1          1575.594
       139   02 Jun 2027 09:36:43.434   02 Jun 2027 09:37:47.161            63.727                Irkutsk          1991.469
       140   02 Jun 2027 09:38:21.841   02 Jun 2027 09:38:46.203            24.362                Norilsk           761.313
       141   02 Jun 2027 09:38:53.403   02 Jun 2027 09:40:36.714           103.311                Irkutsk          3228.469
       142   02 Jun 2027 09:40:43.774   02 Jun 2027 09:42:07.468            83.694              Murmansk1          2615.437
       143   02 Jun 2027 09:43:41.076   02 Jun 2027 09:44:06.684            25.608                Norilsk           800.250
       144   02 Jun 2027 10:15:25.575   02 Jun 2027 10:17:43.964           138.389            RioGallegos          4324.656
       145   02 Jun 2027 10:50:58.487   02 Jun 2027 10:52:21.529            83.042                Sumatra          2595.063
       146   02 Jun 2027 11:12:24.889   02 Jun 2027 11:13:16.822            51.933                Novosib          1622.906
       147   02 Jun 2027 11:13:24.375   02 Jun 2027 11:14:12.046            47.671                Norilsk          1489.719
       148   02 Jun 2027 11:14:18.703   02 Jun 2027 11:14:55.407            36.704                Irkutsk          1147.000
       149   02 Jun 2027 11:15:02.878   02 Jun 2027 11:17:43.140           160.262                Norilsk          5008.187
       150   02 Jun 2027 11:17:52.574   02 Jun 2027 11:18:13.054            20.480                Novosib           640.000
       151   02 Jun 2027 11:53:01.438   02 Jun 2027 11:54:08.932            67.494            RioGallegos          2109.187
       152   02 Jun 2027 11:56:37.610   02 Jun 2027 11:58:11.510            93.900            RioGallegos          2934.375
       153   02 Jun 2027 12:27:14.134   02 Jun 2027 12:28:23.273            69.139                Sumatra          2160.594
       154   02 Jun 2027 12:28:30.984   02 Jun 2027 12:30:24.485           113.501                Sumatra          3546.906
       155   02 Jun 2027 12:42:43.678   02 Jun 2027 12:47:05.572           261.894                Irkutsk          8184.187
       156   02 Jun 2027 14:12:25.603   02 Jun 2027 14:17:18.251           292.648                  Delhi          9145.250
       157   02 Jun 2027 14:21:28.900   02 Jun 2027 14:22:01.534            32.634                Novosib          1019.813
       158   02 Jun 2027 14:22:25.629   02 Jun 2027 14:23:06.794            41.165              Murmansk1          1286.406
       159   02 Jun 2027 14:24:16.437   02 Jun 2027 14:24:33.176            16.739                Norilsk           523.094
       160   02 Jun 2027 14:26:09.652   02 Jun 2027 14:26:49.301            39.649                Norilsk          1239.031
       161   02 Jun 2027 14:27:41.628   02 Jun 2027 14:29:23.401           101.773                Norilsk          3180.406
       162   02 Jun 2027 15:55:12.385   02 Jun 2027 15:56:24.875            72.490                 Moscow          2265.312
       163   02 Jun 2027 15:58:41.798   02 Jun 2027 16:01:24.903           163.105              Murmansk2          5097.031
       164   02 Jun 2027 16:14:05.778   02 Jun 2027 16:14:54.907            49.129                Anadyr2          1535.281
       165   02 Jun 2027 16:15:17.302   02 Jun 2027 16:15:33.306            16.004                Anadyr1           500.125
       166   02 Jun 2027 16:17:19.145   02 Jun 2027 16:17:19.875             0.730                Anadyr2            22.813
       167   02 Jun 2027 17:08:26.182   02 Jun 2027 17:10:32.164           125.982               CapeTown          3936.937
       168   02 Jun 2027 17:35:12.581   02 Jun 2027 17:39:40.476           267.895                 Moscow          8371.719
       169   02 Jun 2027 17:41:38.038   02 Jun 2027 17:41:57.399            19.361              Murmansk1           605.031
       170   02 Jun 2027 17:49:47.505   02 Jun 2027 17:50:03.593            16.088                Anadyr1           502.750
       171   02 Jun 2027 17:50:18.459   02 Jun 2027 17:50:40.078            21.619                Anadyr1           675.594
       172   02 Jun 2027 18:45:16.856   02 Jun 2027 18:46:29.627            72.771               CapeTown          2274.094
       173   02 Jun 2027 18:47:39.102   02 Jun 2027 18:48:23.056            43.954               CapeTown          1373.562
       174   02 Jun 2027 18:49:21.118   02 Jun 2027 18:50:23.402            62.284               CapeTown          1946.375
       175   02 Jun 2027 19:18:18.687   02 Jun 2027 19:21:55.926           217.239              Murmansk1          6788.719
       176   02 Jun 2027 19:27:29.528   02 Jun 2027 19:28:43.583            74.055               Magadan2          2314.219
       177   02 Jun 2027 19:28:43.583   02 Jun 2027 19:29:02.722            19.139               Magadan1           598.094
       178   02 Jun 2027 19:32:04.227   02 Jun 2027 19:32:33.754            29.527               Magadan1           922.719
       179   02 Jun 2027 21:00:49.448   02 Jun 2027 21:04:31.892           222.444                Anadyr1          6951.375
       180   02 Jun 2027 21:04:40.477   02 Jun 2027 21:06:14.339            93.862               Magadan2          2933.188
       181   02 Jun 2027 21:06:14.339   02 Jun 2027 21:07:24.944            70.605               Magadan1          2206.406
       182   02 Jun 2027 21:10:05.591   02 Jun 2027 21:10:44.228            38.637               Magadan1          1207.406
       183   02 Jun 2027 21:13:25.699   02 Jun 2027 21:13:37.023            11.324               Magadan2           353.875
       184   02 Jun 2027 21:13:57.672   02 Jun 2027 21:14:08.028            10.356               Magadan2           323.625
       185   02 Jun 2027 21:55:27.443   02 Jun 2027 21:58:44.278           196.835            RioGallegos          6151.094
       186   02 Jun 2027 22:36:29.355   02 Jun 2027 22:39:13.168           163.813                Anadyr2          5119.156
       187   02 Jun 2027 22:39:15.434   02 Jun 2027 22:40:09.263            53.829               Magadan2          1682.156
       188   02 Jun 2027 22:40:15.086   02 Jun 2027 22:40:20.937             5.851                Norilsk           182.844
       189   02 Jun 2027 22:40:43.899   02 Jun 2027 22:40:58.246            14.347               Magadan1           448.344
       190   02 Jun 2027 22:41:49.599   02 Jun 2027 22:42:26.733            37.134               Magadan2          1160.438
       191   02 Jun 2027 22:42:36.399   02 Jun 2027 22:42:54.938            18.539               Magadan2           579.344
       192   02 Jun 2027 22:42:56.586   02 Jun 2027 22:44:13.133            76.547                Irkutsk          2392.094
       193   02 Jun 2027 22:47:56.415   02 Jun 2027 22:48:13.366            16.951                Novosib           529.719
       194   02 Jun 2027 22:56:48.891   02 Jun 2027 23:00:06.643           197.752                Sumatra          6179.750
       195   02 Jun 2027 23:32:26.751   02 Jun 2027 23:32:29.578             2.827            RioGallegos            88.344
       196   03 Jun 2027 00:11:20.903   03 Jun 2027 00:12:40.367            79.464                Anadyr1          2483.250
       197   03 Jun 2027 00:14:02.050   03 Jun 2027 00:14:15.234            13.184                Anadyr2           412.000
       198   03 Jun 2027 00:14:35.483   03 Jun 2027 00:14:44.700             9.217                Norilsk           288.031
       199   03 Jun 2027 00:15:15.086   03 Jun 2027 00:16:49.410            94.324               Magadan2          2947.625
       200   03 Jun 2027 00:18:27.493   03 Jun 2027 00:19:29.861            62.368                Irkutsk          1949.000
       201   03 Jun 2027 00:19:31.480   03 Jun 2027 00:21:33.487           122.007                Novosib          3812.719
       202   03 Jun 2027 00:23:18.376   03 Jun 2027 00:23:26.445             8.069                Novosib           252.156
       203   03 Jun 2027 00:24:46.597   03 Jun 2027 00:25:07.112            20.515                Novosib           641.094
       204   03 Jun 2027 00:26:40.972   03 Jun 2027 00:29:29.427           168.455                  Delhi          5264.219
       205   03 Jun 2027 01:08:00.657   03 Jun 2027 01:08:37.656            36.999            RioGallegos          1156.219
       206   03 Jun 2027 01:09:11.844   03 Jun 2027 01:09:59.260            47.416            RioGallegos          1481.750
       207   03 Jun 2027 01:17:32.461   03 Jun 2027 01:17:33.925             1.464            RioGallegos            45.750
       208   03 Jun 2027 01:44:59.296   03 Jun 2027 01:45:40.019            40.723                Anadyr1          1272.594
       209   03 Jun 2027 01:45:54.615   03 Jun 2027 01:46:34.366            39.751                Anadyr1          1242.219
       210   03 Jun 2027 01:47:19.040   03 Jun 2027 01:47:27.778             8.738                Anadyr2           273.063
       211   03 Jun 2027 01:47:36.591   03 Jun 2027 01:47:52.832            16.241                Anadyr2           507.531
       212   03 Jun 2027 01:50:35.624   03 Jun 2027 01:52:12.542            96.918                Norilsk          3028.688
       213   03 Jun 2027 01:53:00.113   03 Jun 2027 01:54:29.761            89.648              Murmansk2          2801.500
       214   03 Jun 2027 01:54:49.420   03 Jun 2027 01:55:26.874            37.454                Novosib          1170.437
       215   03 Jun 2027 01:57:11.512   03 Jun 2027 01:57:51.702            40.190                Novosib          1255.937
       216   03 Jun 2027 01:58:20.369   03 Jun 2027 01:58:38.297            17.928                 Moscow           560.250
       217   03 Jun 2027 02:01:52.834   03 Jun 2027 02:03:49.454           116.620                  Delhi          3644.375
       218   03 Jun 2027 03:21:08.187   03 Jun 2027 03:21:15.528             7.341                Anadyr1           229.406
       219   03 Jun 2027 03:26:37.563   03 Jun 2027 03:27:29.626            52.063                Anadyr1          1626.969
       220   03 Jun 2027 03:35:17.256   03 Jun 2027 03:36:50.951            93.695                Norilsk          2927.969
       221   03 Jun 2027 03:36:57.040   03 Jun 2027 03:37:41.941            44.901                 Moscow          1403.156
       222   03 Jun 2027 03:37:52.884   03 Jun 2027 03:40:37.925           165.041                Novosib          5157.531
       223   03 Jun 2027 03:41:33.190   03 Jun 2027 03:44:20.279           167.089                 Moscow          5221.531
       224   03 Jun 2027 03:56:42.256   03 Jun 2027 04:03:16.823           394.567               CapeTown         12330.219
       225   03 Jun 2027 04:04:02.428   03 Jun 2027 04:04:57.458            55.030               CapeTown          1719.688
       226   03 Jun 2027 04:53:24.734   03 Jun 2027 04:53:44.436            19.702                Anadyr2           615.687
       227   03 Jun 2027 04:53:49.672   03 Jun 2027 04:55:09.600            79.928                Anadyr2          2497.750
       228   03 Jun 2027 05:11:39.126   03 Jun 2027 05:13:03.105            83.979              Murmansk1          2624.344
       229   03 Jun 2027 05:13:13.377   03 Jun 2027 05:15:12.611           119.234              Murmansk1          3726.063
       230   03 Jun 2027 05:17:01.484   03 Jun 2027 05:17:08.884             7.400                 Moscow           231.250
       231   03 Jun 2027 05:17:28.614   03 Jun 2027 05:17:55.083            26.469                 Moscow           827.156
       232   03 Jun 2027 05:32:18.396   03 Jun 2027 05:33:52.034            93.638               CapeTown          2926.187
       233   03 Jun 2027 06:36:23.113   03 Jun 2027 06:41:25.534           302.421                Anadyr2          9450.656
       234   03 Jun 2027 06:44:18.688   03 Jun 2027 06:44:34.325            15.637                 Moscow           488.656
       235   03 Jun 2027 08:12:41.143   03 Jun 2027 08:14:16.792            95.649                Anadyr2          2989.031
       236   03 Jun 2027 08:14:16.792   03 Jun 2027 08:16:57.093           160.301                Anadyr1          5009.406
       237   03 Jun 2027 09:47:15.735   03 Jun 2027 09:49:47.673           151.938                Novosib          4748.063
       238   03 Jun 2027 09:50:07.399   03 Jun 2027 09:52:42.328           154.929                Irkutsk          4841.531
       239   03 Jun 2027 09:52:43.525   03 Jun 2027 09:53:44.823            61.298                Norilsk          1915.563
       240   03 Jun 2027 10:27:26.473   03 Jun 2027 10:29:52.412           145.939            RioGallegos          4560.594
       241   03 Jun 2027 11:02:41.054   03 Jun 2027 11:04:42.912           121.858                Sumatra          3808.062
       242   03 Jun 2027 11:22:43.710   03 Jun 2027 11:24:00.117            76.407                Irkutsk          2387.719
       243   03 Jun 2027 11:24:05.274   03 Jun 2027 11:24:27.590            22.316                Novosib           697.375
       244   03 Jun 2027 11:24:39.444   03 Jun 2027 11:25:17.383            37.939                Norilsk          1185.594
       245   03 Jun 2027 11:25:30.008   03 Jun 2027 11:25:47.801            17.793              Murmansk1           556.031
       246   03 Jun 2027 11:25:47.801   03 Jun 2027 11:26:04.932            17.131              Murmansk2           535.344
       247   03 Jun 2027 11:26:06.963   03 Jun 2027 11:26:11.328             4.365                Irkutsk           136.406
       248   03 Jun 2027 11:26:26.486   03 Jun 2027 11:27:04.592            38.106                Novosib          1190.812
       249   03 Jun 2027 11:27:05.646   03 Jun 2027 11:27:32.038            26.392              Murmansk1           824.750
       250   03 Jun 2027 11:27:34.118   03 Jun 2027 11:28:41.481            67.363                Irkutsk          2105.094
       251   03 Jun 2027 12:05:37.504   03 Jun 2027 12:06:01.163            23.659            RioGallegos           739.344
       252   03 Jun 2027 12:06:43.661   03 Jun 2027 12:07:23.507            39.846            RioGallegos          1245.188
       253   03 Jun 2027 12:39:53.292   03 Jun 2027 12:40:27.678            34.386                Sumatra          1074.563
       254   03 Jun 2027 12:42:38.256   03 Jun 2027 12:43:24.111            45.855                Sumatra          1432.969
       255   03 Jun 2027 12:49:42.017   03 Jun 2027 12:49:44.042             2.025                  Delhi            63.281
       256   03 Jun 2027 12:53:44.661   03 Jun 2027 12:54:54.985            70.324                Novosib          2197.625
       257   03 Jun 2027 12:55:59.587   03 Jun 2027 12:59:05.503           185.916                Irkutsk          5809.875
       258   03 Jun 2027 14:25:25.275   03 Jun 2027 14:27:27.291           122.016                  Delhi          3813.000
       259   03 Jun 2027 14:29:41.719   03 Jun 2027 14:29:54.701            12.982                  Delhi           405.687
       260   03 Jun 2027 14:31:11.314   03 Jun 2027 14:32:08.362            57.048                 Moscow          1782.750
       261   03 Jun 2027 14:32:15.798   03 Jun 2027 14:32:52.829            37.031                 Moscow          1157.219
       262   03 Jun 2027 14:33:55.917   03 Jun 2027 14:36:31.605           155.688                Novosib          4865.250
       263   03 Jun 2027 14:36:49.949   03 Jun 2027 14:37:20.814            30.865                Norilsk           964.531
       264   03 Jun 2027 14:38:11.356   03 Jun 2027 14:38:28.424            17.068                Norilsk           533.375
       265   03 Jun 2027 14:40:06.345   03 Jun 2027 14:40:52.232            45.887                Norilsk          1433.969
       266   03 Jun 2027 15:47:15.330   03 Jun 2027 15:48:45.534            90.204               CapeTown          2818.875
       267   03 Jun 2027 15:49:09.226   03 Jun 2027 15:49:22.728            13.502               CapeTown           421.938
       268   03 Jun 2027 16:07:27.514   03 Jun 2027 16:08:31.386            63.872                 Moscow          1996.000
       269   03 Jun 2027 16:10:53.532   03 Jun 2027 16:11:37.533            44.001              Murmansk2          1375.031
       270   03 Jun 2027 16:11:57.324   03 Jun 2027 16:12:29.189            31.865              Murmansk2           995.781
       271   03 Jun 2027 16:13:42.780   03 Jun 2027 16:13:46.668             3.888              Murmansk2           121.500
       272   03 Jun 2027 16:21:33.125   03 Jun 2027 16:22:08.616            35.491              Murmansk1          1109.094
       273   03 Jun 2027 16:25:51.254   03 Jun 2027 16:26:53.346            62.092                Anadyr1          1940.375
       274   03 Jun 2027 16:26:59.696   03 Jun 2027 16:28:25.726            86.030                Anadyr2          2688.438
       275   03 Jun 2027 16:29:08.194   03 Jun 2027 16:29:13.325             5.131                Anadyr2           160.344
       276   03 Jun 2027 16:32:07.915   03 Jun 2027 16:32:08.897             0.982                Anadyr2            30.688
       277   03 Jun 2027 17:20:24.042   03 Jun 2027 17:21:04.550            40.508               CapeTown          1265.875
       278   03 Jun 2027 17:22:43.258   03 Jun 2027 17:22:49.756             6.498               CapeTown           203.062
       279   03 Jun 2027 17:23:36.023   03 Jun 2027 17:23:55.806            19.783               CapeTown           618.219
       280   03 Jun 2027 17:26:04.184   03 Jun 2027 17:26:21.796            17.612               CapeTown           550.375
       281   03 Jun 2027 17:29:37.482   03 Jun 2027 17:29:58.722            21.240               CapeTown           663.750
       282   03 Jun 2027 17:48:28.494   03 Jun 2027 17:52:05.534           217.040                 Moscow          6782.500
       283   03 Jun 2027 17:53:40.243   03 Jun 2027 17:54:25.039            44.796              Murmansk2          1399.875
       284   03 Jun 2027 18:03:19.022   03 Jun 2027 18:03:25.846             6.824                Anadyr1           213.250
       285   03 Jun 2027 18:04:05.326   03 Jun 2027 18:04:45.338            40.012                Anadyr2          1250.375
       286   03 Jun 2027 18:05:54.156   03 Jun 2027 18:06:11.432            17.276               Magadan1           539.875
       287   03 Jun 2027 18:06:54.705   03 Jun 2027 18:08:13.589            78.884               Magadan1          2465.125
       288   03 Jun 2027 18:58:25.261   03 Jun 2027 18:58:39.261            14.000               CapeTown           437.500
       289   03 Jun 2027 19:03:33.084   03 Jun 2027 19:03:54.265            21.181               CapeTown           661.906
       290   03 Jun 2027 19:32:00.200   03 Jun 2027 19:33:04.775            64.575              Murmansk2          2017.969
       291   03 Jun 2027 19:36:55.537   03 Jun 2027 19:36:58.443             2.906                Anadyr1            90.812
       292   03 Jun 2027 19:36:58.443   03 Jun 2027 19:37:10.233            11.790                Anadyr2           368.438
       293   03 Jun 2027 19:37:53.179   03 Jun 2027 19:38:36.959            43.780                Anadyr1          1368.125
       294   03 Jun 2027 19:38:41.762   03 Jun 2027 19:40:34.585           112.823                Anadyr2          3525.719
       295   03 Jun 2027 19:41:04.621   03 Jun 2027 19:42:12.779            68.158               Magadan1          2129.937
       296   03 Jun 2027 19:42:47.608   03 Jun 2027 19:44:10.549            82.941               Magadan1          2591.906
       297   03 Jun 2027 19:49:55.816   03 Jun 2027 19:50:28.849            33.033               Magadan2          1032.281
       298   03 Jun 2027 21:12:50.367   03 Jun 2027 21:14:56.958           126.591                Anadyr1          3955.969
       299   03 Jun 2027 21:15:03.431   03 Jun 2027 21:16:32.027            88.596                Anadyr2          2768.625
       300   03 Jun 2027 21:17:18.641   03 Jun 2027 21:19:58.431           159.790                Norilsk          4993.438
       301   03 Jun 2027 21:22:02.819   03 Jun 2027 21:22:26.920            24.101               Magadan2           753.156
       302   03 Jun 2027 21:22:45.269   03 Jun 2027 21:23:15.602            30.333               Magadan1           947.906
       303   03 Jun 2027 21:25:12.683   03 Jun 2027 21:25:26.494            13.811               Magadan1           431.594
       304   03 Jun 2027 21:25:28.190   03 Jun 2027 21:25:44.007            15.817               Magadan1           494.281
       305   03 Jun 2027 22:07:14.953   03 Jun 2027 22:09:23.153           128.200            RioGallegos          4006.250
       306   03 Jun 2027 22:09:59.601   03 Jun 2027 22:10:38.042            38.441            RioGallegos          1201.281
       307   03 Jun 2027 22:15:56.079   03 Jun 2027 22:16:41.685            45.606            RioGallegos          1425.188
       308   03 Jun 2027 22:48:26.355   03 Jun 2027 22:48:53.702            27.347                Anadyr2           854.594
       309   03 Jun 2027 22:50:23.247   03 Jun 2027 22:51:39.191            75.944                Anadyr2          2373.250
       310   03 Jun 2027 22:52:09.686   03 Jun 2027 22:53:00.817            51.131               Magadan2          1597.844
       311   03 Jun 2027 22:54:22.202   03 Jun 2027 22:54:39.024            16.822               Magadan1           525.688
       312   03 Jun 2027 22:54:39.024   03 Jun 2027 22:54:52.115            13.091               Magadan2           409.094
       313   03 Jun 2027 22:54:53.903   03 Jun 2027 22:55:02.032             8.129               Magadan1           254.031
       314   03 Jun 2027 22:55:31.680   03 Jun 2027 22:56:02.118            30.438               Magadan2           951.188
       315   03 Jun 2027 22:56:15.615   03 Jun 2027 22:56:53.099            37.484                Irkutsk          1171.375
       316   03 Jun 2027 22:57:06.130   03 Jun 2027 22:57:40.868            34.738                Irkutsk          1085.562
       317   03 Jun 2027 22:58:01.778   03 Jun 2027 22:58:17.045            15.267                Novosib           477.094
       318   03 Jun 2027 23:04:06.100   03 Jun 2027 23:04:20.818            14.718                Irkutsk           459.938
       319   03 Jun 2027 23:05:15.846   03 Jun 2027 23:05:50.591            34.745                Irkutsk          1085.781
       320   03 Jun 2027 23:08:34.853   03 Jun 2027 23:09:15.052            40.199                Sumatra          1256.219
       321   03 Jun 2027 23:11:20.708   03 Jun 2027 23:12:06.325            45.617                Sumatra          1425.531
       322   03 Jun 2027 23:50:40.538   03 Jun 2027 23:51:31.747            51.209            RioGallegos          1600.281
       323   04 Jun 2027 00:23:08.956   04 Jun 2027 00:23:50.264            41.308                Anadyr1          1290.875
       324   04 Jun 2027 00:25:23.820   04 Jun 2027 00:25:59.625            35.805                Anadyr1          1118.906
       325   04 Jun 2027 00:26:37.722   04 Jun 2027 00:26:43.842             6.120                Norilsk           191.250
       326   04 Jun 2027 00:27:17.479   04 Jun 2027 00:29:35.661           138.182               Magadan1          4318.188
       327   04 Jun 2027 00:30:30.396   04 Jun 2027 00:31:16.373            45.977                Irkutsk          1436.781
       328   04 Jun 2027 00:31:31.083   04 Jun 2027 00:32:56.819            85.736                Novosib          2679.250
       329   04 Jun 2027 00:35:26.028   04 Jun 2027 00:36:07.004            40.976                Novosib          1280.500
       330   04 Jun 2027 00:38:13.500   04 Jun 2027 00:38:25.950            12.450                Novosib           389.062
       331   04 Jun 2027 00:38:29.966   04 Jun 2027 00:38:51.103            21.137                  Delhi           660.531
       332   04 Jun 2027 00:39:34.980   04 Jun 2027 00:40:08.764            33.784                  Delhi          1055.750
       333   04 Jun 2027 00:45:07.089   04 Jun 2027 00:45:17.419            10.330                  Delhi           322.813
       334   04 Jun 2027 00:45:35.067   04 Jun 2027 00:47:45.507           130.440                  Delhi          4076.250
       335   04 Jun 2027 01:56:40.405   04 Jun 2027 01:57:40.560            60.155                Anadyr1          1879.844
       336   04 Jun 2027 01:57:40.560   04 Jun 2027 01:57:53.598            13.038                Anadyr2           407.438
       337   04 Jun 2027 01:58:35.718   04 Jun 2027 01:59:17.303            41.585                Anadyr2          1299.531
       338   04 Jun 2027 02:02:37.258   04 Jun 2027 02:03:55.132            77.874                Norilsk          2433.562
       339   04 Jun 2027 02:04:05.856   04 Jun 2027 02:04:13.819             7.963                Norilsk           248.844
       340   04 Jun 2027 02:04:30.310   04 Jun 2027 02:04:33.728             3.418                Norilsk           106.813
       341   04 Jun 2027 02:04:57.520   04 Jun 2027 02:06:24.801            87.281              Murmansk1          2727.531
       342   04 Jun 2027 02:06:25.279   04 Jun 2027 02:06:33.239             7.960                Novosib           248.750
       343   04 Jun 2027 02:06:33.886   04 Jun 2027 02:07:01.007            27.121                Novosib           847.531
       344   04 Jun 2027 02:07:41.073   04 Jun 2027 02:08:10.114            29.041                Novosib           907.531
       345   04 Jun 2027 02:10:13.497   04 Jun 2027 02:10:42.245            28.748                 Moscow           898.375
       346   04 Jun 2027 02:14:05.305   04 Jun 2027 02:14:22.760            17.455                  Delhi           545.469
       347   04 Jun 2027 02:15:48.460   04 Jun 2027 02:16:17.211            28.751                  Delhi           898.469
       348   04 Jun 2027 02:20:36.416   04 Jun 2027 02:21:41.819            65.403                  Delhi          2043.844
       349   04 Jun 2027 03:47:20.155   04 Jun 2027 03:48:16.356            56.201              Murmansk1          1756.281
       350   04 Jun 2027 03:48:20.661   04 Jun 2027 03:50:41.319           140.658              Murmansk1          4395.563
       351   04 Jun 2027 03:50:41.319   04 Jun 2027 03:51:09.723            28.404              Murmansk2           887.625
       352   04 Jun 2027 03:51:24.880   04 Jun 2027 03:52:52.444            87.564              Murmansk1          2736.375
       353   04 Jun 2027 03:53:37.772   04 Jun 2027 03:56:34.651           176.879                 Moscow          5527.469
       354   04 Jun 2027 04:08:23.118   04 Jun 2027 04:11:40.195           197.077               CapeTown          6158.656
       355   04 Jun 2027 04:14:43.447   04 Jun 2027 04:15:25.612            42.165               CapeTown          1317.656
       356   04 Jun 2027 04:15:50.230   04 Jun 2027 04:16:14.464            24.234               CapeTown           757.312
       357   04 Jun 2027 04:16:22.286   04 Jun 2027 04:17:46.190            83.904               CapeTown          2622.000
       358   04 Jun 2027 05:12:00.750   04 Jun 2027 05:12:12.622            11.872                Anadyr1           371.000
       359   04 Jun 2027 05:12:33.894   04 Jun 2027 05:13:32.756            58.862               Magadan2          1839.438
       360   04 Jun 2027 05:13:45.925   04 Jun 2027 05:15:08.914            82.989               Magadan1          2593.406
       361   04 Jun 2027 05:15:22.253   04 Jun 2027 05:15:36.078            13.825                Anadyr1           432.031
       362   04 Jun 2027 05:17:16.205   04 Jun 2027 05:17:32.218            16.013                Anadyr1           500.406
       363   04 Jun 2027 05:23:13.660   04 Jun 2027 05:23:41.323            27.663                Norilsk           864.469
       364   04 Jun 2027 05:23:47.872   04 Jun 2027 05:24:33.523            45.651              Murmansk2          1426.594
       365   04 Jun 2027 05:25:44.732   04 Jun 2027 05:26:19.146            34.414              Murmansk2          1075.437
       366   04 Jun 2027 05:29:16.790   04 Jun 2027 05:29:40.719            23.929              Murmansk1           747.781
       367   04 Jun 2027 06:47:32.735   04 Jun 2027 06:51:45.338           252.603                Anadyr2          7893.844
       368   04 Jun 2027 08:21:45.824   04 Jun 2027 08:22:40.560            54.736                Anadyr2          1710.500
       369   04 Jun 2027 08:23:06.324   04 Jun 2027 08:23:28.743            22.419               Magadan2           700.594
       370   04 Jun 2027 08:23:28.743   04 Jun 2027 08:24:01.299            32.556               Magadan1          1017.375
       371   04 Jun 2027 08:24:06.401   04 Jun 2027 08:25:20.366            73.965               Magadan1          2311.406
       372   04 Jun 2027 08:25:22.402   04 Jun 2027 08:26:25.910            63.508                Anadyr1          1984.625
       373   04 Jun 2027 08:26:33.292   04 Jun 2027 08:26:41.038             7.746               Magadan1           242.063
       374   04 Jun 2027 08:26:41.038   04 Jun 2027 08:26:43.402             2.364               Magadan2            73.875
       375   04 Jun 2027 08:26:48.651   04 Jun 2027 08:27:26.295            37.644                Novosib          1176.375
       376   04 Jun 2027 08:27:37.109   04 Jun 2027 08:28:50.380            73.271                Anadyr1          2289.719
       377   04 Jun 2027 09:04:43.791   04 Jun 2027 09:05:13.972            30.181            RioGallegos           943.156
       378   04 Jun 2027 09:57:37.636   04 Jun 2027 09:59:25.035           107.399               Magadan2          3356.219
       379   04 Jun 2027 10:00:10.363   04 Jun 2027 10:00:39.421            29.058                Irkutsk           908.063
       380   04 Jun 2027 10:00:45.948   04 Jun 2027 10:00:51.765             5.817               Magadan1           181.781
       381   04 Jun 2027 10:00:53.603   04 Jun 2027 10:01:15.786            22.183                Irkutsk           693.219
       382   04 Jun 2027 10:01:24.206   04 Jun 2027 10:01:27.467             3.261                Norilsk           101.906
       383   04 Jun 2027 10:01:36.356   04 Jun 2027 10:01:52.836            16.480               Magadan1           515.000
       384   04 Jun 2027 10:01:55.411   04 Jun 2027 10:02:28.830            33.419                Norilsk          1044.344
       385   04 Jun 2027 10:02:46.629   04 Jun 2027 10:02:49.787             3.158                Irkutsk            98.687
       386   04 Jun 2027 10:02:55.753   04 Jun 2027 10:03:09.016            13.263                Novosib           414.469
       387   04 Jun 2027 10:03:10.411   04 Jun 2027 10:04:02.010            51.599               Magadan2          1612.469
       388   04 Jun 2027 10:04:09.277   04 Jun 2027 10:04:34.438            25.161                Novosib           786.281
       389   04 Jun 2027 10:04:40.070   04 Jun 2027 10:05:46.659            66.589                Norilsk          2080.906
       390   04 Jun 2027 10:39:30.770   04 Jun 2027 10:40:12.476            41.706            RioGallegos          1303.312
       391   04 Jun 2027 11:14:30.196   04 Jun 2027 11:15:09.453            39.257                Sumatra          1226.781
       392   04 Jun 2027 11:16:58.982   04 Jun 2027 11:17:13.487            14.505                Sumatra           453.281
       393   04 Jun 2027 11:21:56.504   04 Jun 2027 11:22:19.615            23.111                Sumatra           722.219
       394   04 Jun 2027 11:27:29.876   04 Jun 2027 11:27:49.823            19.947                  Delhi           623.344
       395   04 Jun 2027 11:34:37.771   04 Jun 2027 11:35:39.602            61.831                Novosib          1932.219
       396   04 Jun 2027 11:35:46.264   04 Jun 2027 11:35:51.066             4.802                Novosib           150.063
       397   04 Jun 2027 11:35:53.715   04 Jun 2027 11:37:29.694            95.979                Irkutsk          2999.344
       398   04 Jun 2027 11:37:43.854   04 Jun 2027 11:38:29.964            46.110              Murmansk2          1440.937
       399   04 Jun 2027 11:38:32.085   04 Jun 2027 11:39:05.789            33.704              Murmansk2          1053.250
       400   04 Jun 2027 11:39:07.934   04 Jun 2027 11:39:53.856            45.922                 Moscow          1435.063
       401   04 Jun 2027 11:39:58.162   04 Jun 2027 11:40:03.392             5.230                Norilsk           163.438
       402   04 Jun 2027 11:40:13.323   04 Jun 2027 11:40:48.099            34.776                Norilsk          1086.750
       403   04 Jun 2027 11:41:07.527   04 Jun 2027 11:41:40.731            33.204              Murmansk2          1037.625
       404   04 Jun 2027 12:18:21.582   04 Jun 2027 12:18:47.026            25.444            RioGallegos           795.125
       405   04 Jun 2027 12:20:15.075   04 Jun 2027 12:22:42.352           147.277            RioGallegos          4602.406
       406   04 Jun 2027 13:06:57.748   04 Jun 2027 13:07:29.087            31.339                Novosib           979.344
       407   04 Jun 2027 13:08:32.120   04 Jun 2027 13:09:36.664            64.544                Novosib          2017.000
       408   04 Jun 2027 13:10:04.328   04 Jun 2027 13:11:16.559            72.231                Norilsk          2257.219
       409   04 Jun 2027 13:11:42.535   04 Jun 2027 13:12:10.861            28.326                Norilsk           885.187
       410   04 Jun 2027 13:13:50.017   04 Jun 2027 13:14:13.756            23.739                Norilsk           741.844
       411   04 Jun 2027 13:18:01.105   04 Jun 2027 13:19:17.142            76.037                Norilsk          2376.156
       412   04 Jun 2027 14:39:01.484   04 Jun 2027 14:41:44.353           162.869                  Delhi          5089.656
       413   04 Jun 2027 14:44:45.910   04 Jun 2027 14:45:05.480            19.570                 Moscow           611.563
       414   04 Jun 2027 14:46:15.895   04 Jun 2027 14:46:42.770            26.875                 Moscow           839.844
       415   04 Jun 2027 14:47:18.414   04 Jun 2027 14:48:29.848            71.434                Novosib          2232.313
       416   04 Jun 2027 14:49:26.385   04 Jun 2027 14:51:35.453           129.068                Norilsk          4033.375
       417   04 Jun 2027 14:57:11.917   04 Jun 2027 14:57:34.575            22.658                Norilsk           708.062
       418   04 Jun 2027 15:58:24.280   04 Jun 2027 16:01:00.838           156.558               CapeTown          4892.438
       419   04 Jun 2027 16:20:30.087   04 Jun 2027 16:21:04.408            34.321                 Moscow          1072.531
       420   04 Jun 2027 16:23:07.177   04 Jun 2027 16:23:38.723            31.546              Murmansk1           985.812
       421   04 Jun 2027 16:25:44.710   04 Jun 2027 16:25:47.983             3.273              Murmansk1           102.281
       422   04 Jun 2027 16:25:47.983   04 Jun 2027 16:26:21.852            33.869              Murmansk2          1058.406
       423   04 Jun 2027 16:31:35.189   04 Jun 2027 16:32:00.257            25.068              Murmansk2           783.375
       424   04 Jun 2027 16:37:41.171   04 Jun 2027 16:38:52.471            71.300                Anadyr1          2228.125
       425   04 Jun 2027 16:39:35.952   04 Jun 2027 16:40:30.459            54.507                Anadyr2          1703.344
       426   04 Jun 2027 16:42:21.559   04 Jun 2027 16:42:39.414            17.855                Anadyr1           557.969
       427   04 Jun 2027 16:45:46.976   04 Jun 2027 16:46:01.271            14.295                Anadyr2           446.719
       428   04 Jun 2027 17:32:24.756   04 Jun 2027 17:34:49.798           145.042               CapeTown          4532.562
       429   04 Jun 2027 18:01:56.708   04 Jun 2027 18:02:23.132            26.424              Murmansk1           825.750
       430   04 Jun 2027 18:02:23.679   04 Jun 2027 18:05:11.359           167.680              Murmansk2          5240.000
       431   04 Jun 2027 18:14:07.222   04 Jun 2027 18:14:20.356            13.134                Anadyr2           410.438
       432   04 Jun 2027 18:14:27.991   04 Jun 2027 18:14:42.886            14.895                Anadyr2           465.469
       433   04 Jun 2027 18:16:17.783   04 Jun 2027 18:16:36.292            18.509                Anadyr1           578.406
       434   04 Jun 2027 18:17:05.850   04 Jun 2027 18:17:17.176            11.326               Magadan2           353.938
       435   04 Jun 2027 18:18:05.666   04 Jun 2027 18:20:52.837           167.171               Magadan1          5224.094
       436   04 Jun 2027 19:48:57.233   04 Jun 2027 19:50:37.867           100.634                Anadyr1          3144.813
       437   04 Jun 2027 19:50:38.365   04 Jun 2027 19:53:12.370           154.005                Anadyr2          4812.656
       438   04 Jun 2027 19:53:28.310   04 Jun 2027 19:53:34.767             6.457                Anadyr2           201.781
       439   04 Jun 2027 19:53:43.806   04 Jun 2027 19:54:37.230            53.424               Magadan2          1669.500
       440   04 Jun 2027 19:56:14.282   04 Jun 2027 19:56:28.503            14.221               Magadan2           444.406
       441   04 Jun 2027 19:59:57.790   04 Jun 2027 20:00:15.303            17.513               Magadan2           547.281
       442   04 Jun 2027 20:01:46.543   04 Jun 2027 20:01:57.590            11.047               Magadan1           345.219
       443   04 Jun 2027 20:02:52.937   04 Jun 2027 20:03:20.440            27.503               Magadan2           859.469
       444   04 Jun 2027 21:24:50.998   04 Jun 2027 21:26:58.534           127.536                Anadyr1          3985.500
       445   04 Jun 2027 21:27:03.686   04 Jun 2027 21:28:13.370            69.684                Anadyr2          2177.625
       446   04 Jun 2027 21:28:18.514   04 Jun 2027 21:28:56.898            38.384               Magadan2          1199.500
       447   04 Jun 2027 21:29:11.758   04 Jun 2027 21:30:26.671            74.913               Magadan1          2341.031
       448   04 Jun 2027 21:30:37.290   04 Jun 2027 21:30:44.494             7.204                Norilsk           225.125
       449   04 Jun 2027 21:31:04.734   04 Jun 2027 21:32:06.218            61.484               Magadan1          1921.375
       450   04 Jun 2027 21:33:29.900   04 Jun 2027 21:33:57.637            27.737               Magadan1           866.781
       451   04 Jun 2027 21:34:19.886   04 Jun 2027 21:35:42.819            82.933                Irkutsk          2591.656
       452   04 Jun 2027 21:37:46.397   04 Jun 2027 21:37:53.000             6.603                Irkutsk           206.344
       453   04 Jun 2027 22:19:05.654   04 Jun 2027 22:20:35.752            90.098            RioGallegos          2815.563
       454   04 Jun 2027 22:24:36.798   04 Jun 2027 22:25:09.234            32.436            RioGallegos          1013.625
       455   04 Jun 2027 22:28:34.382   04 Jun 2027 22:29:05.058            30.676            RioGallegos           958.625
       456   04 Jun 2027 23:00:22.517   04 Jun 2027 23:01:04.623            42.106                Anadyr1          1315.813
       457   04 Jun 2027 23:01:13.868   04 Jun 2027 23:01:33.390            19.522                Anadyr1           610.062
       458   04 Jun 2027 23:02:11.775   04 Jun 2027 23:02:44.666            32.891                Anadyr2          1027.844
       459   04 Jun 2027 23:02:54.320   04 Jun 2027 23:04:12.746            78.426                Norilsk          2450.813
       460   04 Jun 2027 23:04:57.057   04 Jun 2027 23:05:03.154             6.097               Magadan1           190.531
       461   04 Jun 2027 23:06:06.715   04 Jun 2027 23:06:21.149            14.434               Magadan1           451.062
       462   04 Jun 2027 23:06:28.534   04 Jun 2027 23:06:41.553            13.019               Magadan1           406.844
       463   04 Jun 2027 23:06:45.682   04 Jun 2027 23:07:32.079            46.397                Irkutsk          1449.906
       464   04 Jun 2027 23:08:06.661   04 Jun 2027 23:09:39.081            92.420                Novosib          2888.125
       465   04 Jun 2027 23:10:40.085   04 Jun 2027 23:10:48.450             8.365                Novosib           261.406
       466   04 Jun 2027 23:10:48.451   04 Jun 2027 23:11:31.268            42.817                Novosib          1338.031
       467   04 Jun 2027 23:20:27.017   04 Jun 2027 23:21:02.260            35.243                Sumatra          1101.344
       468   04 Jun 2027 23:27:12.022   04 Jun 2027 23:28:43.597            91.575                Sumatra          2861.719
       469   05 Jun 2027 00:34:55.712   05 Jun 2027 00:36:08.201            72.489                Anadyr1          2265.281
       470   05 Jun 2027 00:36:08.201   05 Jun 2027 00:36:10.492             2.291                Anadyr2            71.594
       471   05 Jun 2027 00:37:12.269   05 Jun 2027 00:37:40.701            28.432                Anadyr1           888.500
       472   05 Jun 2027 00:38:39.980   05 Jun 2027 00:38:43.822             3.842                Norilsk           120.062
       473   05 Jun 2027 00:39:19.497   05 Jun 2027 00:41:10.568           111.071               Magadan1          3470.969
       474   05 Jun 2027 00:41:10.568   05 Jun 2027 00:41:21.771            11.203               Magadan2           350.094
       475   05 Jun 2027 00:42:03.945   05 Jun 2027 00:42:34.313            30.368               Magadan1           949.000
       476   05 Jun 2027 00:42:34.833   05 Jun 2027 00:44:42.116           127.283                Novosib          3977.594
       477   05 Jun 2027 00:45:44.935   05 Jun 2027 00:45:52.498             7.563                Novosib           236.344
       478   05 Jun 2027 00:46:06.486   05 Jun 2027 00:46:39.255            32.769                Novosib          1024.031
       479   05 Jun 2027 00:50:08.822   05 Jun 2027 00:50:54.619            45.797                  Delhi          1431.156
       480   05 Jun 2027 00:56:44.230   05 Jun 2027 00:57:06.847            22.617                  Delhi           706.781
       481   05 Jun 2027 00:59:34.752   05 Jun 2027 01:00:24.319            49.567                Sumatra          1548.969
       482   05 Jun 2027 01:01:05.630   05 Jun 2027 01:03:27.762           142.132                Sumatra          4441.625
