uniorb/output/strategy_1/Drop/Drop_KinoSat_110708.txt

KinoSat_110708
-------------------------
    Access    *     Start Time (UTCG)     *     Stop Time (UTCG)  *   Duration (s)        *       Station  *  Data (Mbytes)
         1   01 Jun 2027 03:10:29.692   01 Jun 2027 03:11:34.269            64.577                Anadyr1          2018.031
         2   01 Jun 2027 03:11:34.269   01 Jun 2027 03:12:13.872            39.603                Anadyr2          1237.594
         3   01 Jun 2027 03:12:20.037   01 Jun 2027 03:12:47.740            27.703               Magadan1           865.719
         4   01 Jun 2027 03:13:02.893   01 Jun 2027 03:13:27.124            24.231                Anadyr1           757.219
         5   01 Jun 2027 03:13:34.003   01 Jun 2027 03:14:13.261            39.258               Magadan2          1226.813
         6   01 Jun 2027 03:14:19.730   01 Jun 2027 03:15:40.641            80.911                Anadyr1          2528.469
         7   01 Jun 2027 03:15:40.641   01 Jun 2027 03:16:42.579            61.938                Anadyr2          1935.562
         8   01 Jun 2027 03:17:25.819   01 Jun 2027 03:17:29.651             3.832                Anadyr1           119.750
         9   01 Jun 2027 04:46:52.521   01 Jun 2027 04:47:00.269             7.748                Irkutsk           242.125
        10   01 Jun 2027 04:47:15.917   01 Jun 2027 04:48:41.811            85.894                Irkutsk          2684.188
        11   01 Jun 2027 04:48:42.422   01 Jun 2027 04:49:54.573            72.151               Magadan1          2254.719
        12   01 Jun 2027 04:50:07.172   01 Jun 2027 04:50:29.232            22.060               Magadan1           689.375
        13   01 Jun 2027 04:50:35.350   01 Jun 2027 04:50:44.825             9.475               Magadan1           296.094
        14   01 Jun 2027 04:50:51.728   01 Jun 2027 04:51:20.420            28.692                Anadyr2           896.625
        15   01 Jun 2027 04:51:20.420   01 Jun 2027 04:52:45.246            84.826                Anadyr1          2650.813
        16   01 Jun 2027 05:29:25.333   01 Jun 2027 05:31:31.065           125.732            RioGallegos          3929.125
        17   01 Jun 2027 06:22:54.263   01 Jun 2027 06:23:31.559            37.296                Irkutsk          1165.500
        18   01 Jun 2027 06:23:45.434   01 Jun 2027 06:23:57.053            11.619               Magadan1           363.094
        19   01 Jun 2027 06:23:57.362   01 Jun 2027 06:24:14.210            16.848               Magadan1           526.500
        20   01 Jun 2027 06:24:33.069   01 Jun 2027 06:24:43.372            10.303               Magadan1           321.969
        21   01 Jun 2027 06:24:57.590   01 Jun 2027 06:28:58.284           240.694                Irkutsk          7521.688
        22   01 Jun 2027 06:29:12.255   01 Jun 2027 06:30:19.697            67.442              Murmansk2          2107.562
        23   01 Jun 2027 07:03:41.607   01 Jun 2027 07:04:17.090            35.483            RioGallegos          1108.844
        24   01 Jun 2027 07:05:15.137   01 Jun 2027 07:05:19.003             3.866            RioGallegos           120.813
        25   01 Jun 2027 07:38:40.345   01 Jun 2027 07:42:20.615           220.270                Sumatra          6883.438
        26   01 Jun 2027 07:49:57.097   01 Jun 2027 07:50:31.158            34.061                  Delhi          1064.406
        27   01 Jun 2027 07:50:57.625   01 Jun 2027 07:52:08.079            70.454                  Delhi          2201.688
        28   01 Jun 2027 08:00:46.512   01 Jun 2027 08:02:12.513            86.001                Irkutsk          2687.531
        29   01 Jun 2027 08:02:37.367   01 Jun 2027 08:05:18.938           161.571                Novosib          5049.094
        30   01 Jun 2027 08:05:28.973   01 Jun 2027 08:05:47.904            18.931              Murmansk1           591.594
        31   01 Jun 2027 08:06:58.709   01 Jun 2027 08:07:17.314            18.605              Murmansk2           581.406
        32   01 Jun 2027 08:07:43.021   01 Jun 2027 08:08:23.542            40.521              Murmansk2          1266.281
        33   01 Jun 2027 08:42:35.904   01 Jun 2027 08:43:43.887            67.983            RioGallegos          2124.469
        34   01 Jun 2027 09:17:05.128   01 Jun 2027 09:17:57.314            52.186                Sumatra          1630.812
        35   01 Jun 2027 09:19:10.375   01 Jun 2027 09:20:16.122            65.747                Sumatra          2054.594
        36   01 Jun 2027 09:22:44.950   01 Jun 2027 09:23:35.800            50.850                  Delhi          1589.063
        37   01 Jun 2027 09:26:39.354   01 Jun 2027 09:27:32.397            53.043                  Delhi          1657.594
        38   01 Jun 2027 09:38:13.055   01 Jun 2027 09:39:10.458            57.403                Novosib          1793.844
        39   01 Jun 2027 09:39:17.715   01 Jun 2027 09:39:36.680            18.965                 Moscow           592.656
        40   01 Jun 2027 09:39:46.739   01 Jun 2027 09:40:02.184            15.445                Novosib           482.656
        41   01 Jun 2027 09:40:02.547   01 Jun 2027 09:40:14.634            12.087                 Moscow           377.719
        42   01 Jun 2027 09:40:20.292   01 Jun 2027 09:41:29.089            68.797              Murmansk1          2149.906
        43   01 Jun 2027 09:41:29.089   01 Jun 2027 09:41:39.027             9.938              Murmansk2           310.562
        44   01 Jun 2027 11:03:21.181   01 Jun 2027 11:05:40.630           139.449                  Delhi          4357.781
        45   01 Jun 2027 11:12:03.800   01 Jun 2027 11:16:09.497           245.697                 Moscow          7678.031
        46   01 Jun 2027 11:16:46.888   01 Jun 2027 11:18:59.165           132.277                 Moscow          4133.656
        47   01 Jun 2027 11:18:59.626   01 Jun 2027 11:19:45.572            45.946                Norilsk          1435.813
        48   01 Jun 2027 11:19:46.859   01 Jun 2027 11:20:10.648            23.789              Murmansk1           743.406
        49   01 Jun 2027 11:20:43.384   01 Jun 2027 11:20:56.820            13.436              Murmansk2           419.875
        50   01 Jun 2027 11:21:03.889   01 Jun 2027 11:21:44.460            40.571              Murmansk2          1267.844
        51   01 Jun 2027 11:22:40.462   01 Jun 2027 11:22:41.587             1.125              Murmansk1            35.156
        52   01 Jun 2027 11:22:57.640   01 Jun 2027 11:23:32.084            34.444              Murmansk1          1076.375
        53   01 Jun 2027 12:22:34.269   01 Jun 2027 12:25:30.394           176.125               CapeTown          5503.906
        54   01 Jun 2027 12:29:24.341   01 Jun 2027 12:31:03.971            99.630               CapeTown          3113.437
        55   01 Jun 2027 12:43:58.320   01 Jun 2027 12:44:25.213            26.893                 Moscow           840.406
        56   01 Jun 2027 12:47:18.812   01 Jun 2027 12:49:52.839           154.027              Murmansk1          4813.344
        57   01 Jun 2027 12:51:02.461   01 Jun 2027 12:51:21.380            18.919              Murmansk1           591.219
        58   01 Jun 2027 12:51:27.964   01 Jun 2027 12:52:15.366            47.402              Murmansk1          1481.313
        59   01 Jun 2027 13:01:53.548   01 Jun 2027 13:08:02.556           369.008                Anadyr1         11531.500
        60   01 Jun 2027 14:27:01.453   01 Jun 2027 14:27:28.694            27.241              Murmansk2           851.281
        61   01 Jun 2027 14:29:08.551   01 Jun 2027 14:29:27.297            18.746              Murmansk1           585.813
        62   01 Jun 2027 14:37:14.698   01 Jun 2027 14:38:47.533            92.835                Anadyr2          2901.094
        63   01 Jun 2027 14:38:51.707   01 Jun 2027 14:41:08.313           136.606                Anadyr1          4268.938
        64   01 Jun 2027 14:41:18.490   01 Jun 2027 14:46:12.673           294.183               Magadan1          9193.219
        65   01 Jun 2027 14:46:12.673   01 Jun 2027 14:46:57.985            45.312               Magadan2          1416.000
        66   01 Jun 2027 16:13:16.218   01 Jun 2027 16:13:28.852            12.634                Anadyr1           394.813
        67   01 Jun 2027 16:15:34.122   01 Jun 2027 16:17:30.152           116.030               Magadan2          3625.938
        68   01 Jun 2027 16:17:43.407   01 Jun 2027 16:18:57.627            74.220               Magadan1          2319.375
        69   01 Jun 2027 17:49:00.478   01 Jun 2027 17:50:22.968            82.490                Anadyr1          2577.812
        70   01 Jun 2027 17:50:43.614   01 Jun 2027 17:52:04.663            81.049                Anadyr2          2532.781
        71   01 Jun 2027 17:52:09.891   01 Jun 2027 17:57:02.662           292.771                Norilsk          9149.094
        72   01 Jun 2027 17:57:42.357   01 Jun 2027 18:02:04.748           262.391                Irkutsk          8199.719
        73   01 Jun 2027 18:44:46.911   01 Jun 2027 18:46:18.582            91.671            RioGallegos          2864.719
        74   01 Jun 2027 19:26:52.854   01 Jun 2027 19:28:21.446            88.592                Norilsk          2768.500
        75   01 Jun 2027 19:32:13.855   01 Jun 2027 19:33:08.336            54.481                Irkutsk          1702.531
        76   01 Jun 2027 19:34:12.657   01 Jun 2027 19:39:38.113           325.456                Novosib         10170.500
        77   01 Jun 2027 19:46:35.996   01 Jun 2027 19:47:41.320            65.324                Sumatra          2041.375
        78   01 Jun 2027 21:06:45.624   01 Jun 2027 21:08:56.379           130.755                Novosib          4086.094
        79   01 Jun 2027 21:10:38.815   01 Jun 2027 21:12:12.859            94.044                Novosib          2938.875
        80   01 Jun 2027 21:14:19.122   01 Jun 2027 21:16:44.347           145.225                  Delhi          4538.281
        81   01 Jun 2027 22:40:00.804   01 Jun 2027 22:40:10.361             9.557               Magadan2           298.656
        82   01 Jun 2027 22:40:37.706   01 Jun 2027 22:40:39.282             1.576               Magadan2            49.250
        83   01 Jun 2027 22:41:08.217   01 Jun 2027 22:47:27.236           379.019              Murmansk2         11844.344
        84   01 Jun 2027 22:47:46.016   01 Jun 2027 22:52:08.071           262.055                 Moscow          8189.219
        85   01 Jun 2027 23:14:25.531   01 Jun 2027 23:16:13.646           108.115               CapeTown          3378.594
        86   02 Jun 2027 00:20:15.139   02 Jun 2027 00:22:29.246           134.107                 Moscow          4190.844
        87   02 Jun 2027 00:44:19.076   02 Jun 2027 00:46:59.687           160.611               CapeTown          5019.094
        88   02 Jun 2027 01:42:45.903   02 Jun 2027 01:43:00.155            14.252               Magadan2           445.375
        89   02 Jun 2027 01:43:00.155   02 Jun 2027 01:43:24.582            24.427               Magadan1           763.344
        90   02 Jun 2027 01:44:13.665   02 Jun 2027 01:44:23.789            10.124               Magadan2           316.375
        91   02 Jun 2027 01:48:01.657   02 Jun 2027 01:48:50.504            48.847               Magadan1          1526.469
        92   02 Jun 2027 01:52:55.473   02 Jun 2027 01:53:20.951            25.478              Murmansk1           796.188
        93   02 Jun 2027 01:53:46.739   02 Jun 2027 01:55:46.064           119.325              Murmansk2          3728.906
        94   02 Jun 2027 01:57:11.366   02 Jun 2027 01:57:26.466            15.100                 Moscow           471.875
        95   02 Jun 2027 02:21:28.335   02 Jun 2027 02:22:19.892            51.557               CapeTown          1611.156
        96   02 Jun 2027 02:23:39.891   02 Jun 2027 02:24:32.512            52.621               CapeTown          1644.406
        97   02 Jun 2027 03:17:34.771   02 Jun 2027 03:17:38.639             3.868                Anadyr2           120.875
        98   02 Jun 2027 03:18:07.177   02 Jun 2027 03:18:44.378            37.201                Anadyr2          1162.531
        99   02 Jun 2027 03:21:19.933   02 Jun 2027 03:22:15.129            55.196                Anadyr1          1724.875
       100   02 Jun 2027 03:22:20.786   02 Jun 2027 03:23:32.865            72.079                Anadyr1          2252.469
       101   02 Jun 2027 03:23:39.520   02 Jun 2027 03:25:36.178           116.658                Anadyr1          3645.563
       102   02 Jun 2027 03:25:45.845   02 Jun 2027 03:27:12.815            86.970                Anadyr2          2717.813
       103   02 Jun 2027 03:27:12.815   02 Jun 2027 03:28:21.565            68.750                Anadyr1          2148.437
       104   02 Jun 2027 03:29:23.227   02 Jun 2027 03:29:35.751            12.524                Anadyr2           391.375
       105   02 Jun 2027 04:58:40.536   02 Jun 2027 05:02:25.350           224.814                Anadyr2          7025.438
       106   02 Jun 2027 05:02:34.690   02 Jun 2027 05:03:09.885            35.195                Irkutsk          1099.844
       107   02 Jun 2027 05:03:18.017   02 Jun 2027 05:03:40.918            22.901               Magadan2           715.656
       108   02 Jun 2027 05:04:06.127   02 Jun 2027 05:04:23.024            16.897                Irkutsk           528.031
       109   02 Jun 2027 05:04:31.976   02 Jun 2027 05:05:07.881            35.905               Magadan1          1122.031
       110   02 Jun 2027 05:40:34.329   02 Jun 2027 05:41:18.880            44.551            RioGallegos          1392.219
       111   02 Jun 2027 05:41:22.228   02 Jun 2027 05:42:02.548            40.320            RioGallegos          1260.000
       112   02 Jun 2027 05:42:49.382   02 Jun 2027 05:43:42.750            53.368            RioGallegos          1667.750
       113   02 Jun 2027 06:34:51.662   02 Jun 2027 06:35:46.967            55.305               Magadan1          1728.281
       114   02 Jun 2027 06:36:14.718   02 Jun 2027 06:36:39.564            24.846                Novosib           776.437
       115   02 Jun 2027 06:36:46.665   02 Jun 2027 06:37:08.322            21.657               Magadan1           676.781
       116   02 Jun 2027 06:37:08.322   02 Jun 2027 06:38:49.129           100.807               Magadan2          3150.219
       117   02 Jun 2027 06:39:13.002   02 Jun 2027 06:39:50.262            37.260               Magadan2          1164.375
       118   02 Jun 2027 06:39:51.693   02 Jun 2027 06:42:12.257           140.564              Murmansk2          4392.625
       119   02 Jun 2027 06:44:32.304   02 Jun 2027 06:45:00.185            27.881              Murmansk2           871.281
       120   02 Jun 2027 07:15:49.403   02 Jun 2027 07:17:10.358            80.955            RioGallegos          2529.844
       121   02 Jun 2027 07:18:23.538   02 Jun 2027 07:18:54.383            30.845            RioGallegos           963.906
       122   02 Jun 2027 07:50:35.415   02 Jun 2027 07:53:33.013           177.598                Sumatra          5549.938
       123   02 Jun 2027 08:01:06.741   02 Jun 2027 08:02:41.786            95.045                  Delhi          2970.156
       124   02 Jun 2027 08:03:37.886   02 Jun 2027 08:03:45.695             7.809                  Delhi           244.031
       125   02 Jun 2027 08:12:44.120   02 Jun 2027 08:14:17.622            93.502                Novosib          2921.937
       126   02 Jun 2027 08:14:30.730   02 Jun 2027 08:16:44.417           133.687                Irkutsk          4177.719
       127   02 Jun 2027 08:16:57.999   02 Jun 2027 08:18:17.468            79.469                Novosib          2483.406
       128   02 Jun 2027 08:18:29.130   02 Jun 2027 08:20:17.271           108.141              Murmansk2          3379.406
       129   02 Jun 2027 09:31:02.190   02 Jun 2027 09:32:31.061            88.871                Sumatra          2777.219
       130   02 Jun 2027 09:34:49.626   02 Jun 2027 09:36:45.970           116.344                  Delhi          3635.750
       131   02 Jun 2027 09:38:20.132   02 Jun 2027 09:38:56.202            36.070                  Delhi          1127.188
       132   02 Jun 2027 09:50:42.161   02 Jun 2027 09:53:52.789           190.628                 Moscow          5957.125
       133   02 Jun 2027 09:54:20.876   02 Jun 2027 09:54:45.022            24.146              Murmansk1           754.562
       134   02 Jun 2027 09:54:45.022   02 Jun 2027 09:55:19.842            34.820              Murmansk2          1088.125
       135   02 Jun 2027 09:56:15.642   02 Jun 2027 09:56:44.897            29.255              Murmansk2           914.219
       136   02 Jun 2027 09:57:07.306   02 Jun 2027 09:57:24.314            17.008              Murmansk1           531.500
       137   02 Jun 2027 11:24:09.021   02 Jun 2027 11:30:15.776           366.755              Murmansk1         11461.094
       138   02 Jun 2027 11:30:15.776   02 Jun 2027 11:32:13.438           117.662              Murmansk2          3676.938
       139   02 Jun 2027 12:34:00.457   02 Jun 2027 12:38:48.782           288.325               CapeTown          9010.156
       140   02 Jun 2027 12:39:17.317   02 Jun 2027 12:41:02.912           105.595               CapeTown          3299.844
       141   02 Jun 2027 12:59:34.294   02 Jun 2027 13:00:02.132            27.838              Murmansk1           869.938
       142   02 Jun 2027 13:00:21.286   02 Jun 2027 13:00:59.125            37.839              Murmansk2          1182.469
       143   02 Jun 2027 13:01:05.048   02 Jun 2027 13:01:49.633            44.585              Murmansk2          1393.281
       144   02 Jun 2027 13:13:45.928   02 Jun 2027 13:19:43.799           357.871                Anadyr2         11183.469
       145   02 Jun 2027 13:19:52.535   02 Jun 2027 13:20:01.605             9.070                Anadyr2           283.438
       146   02 Jun 2027 13:21:34.012   02 Jun 2027 13:22:54.395            80.383                Anadyr2          2511.969
       147   02 Jun 2027 14:49:14.917   02 Jun 2027 14:50:43.607            88.690                Anadyr1          2771.562
       148   02 Jun 2027 14:51:41.827   02 Jun 2027 14:51:58.041            16.214                Anadyr1           506.688
       149   02 Jun 2027 14:52:35.733   02 Jun 2027 14:52:56.215            20.482                Anadyr1           640.062
       150   02 Jun 2027 14:53:00.987   02 Jun 2027 14:59:48.145           407.158               Magadan2         12723.688
       151   02 Jun 2027 16:27:32.067   02 Jun 2027 16:31:00.357           208.290               Magadan2          6509.063
       152   02 Jun 2027 18:01:00.429   02 Jun 2027 18:02:24.147            83.718                Anadyr2          2616.188
       153   02 Jun 2027 18:02:29.394   02 Jun 2027 18:04:06.142            96.748                Anadyr1          3023.375
       154   02 Jun 2027 18:04:35.535   02 Jun 2027 18:06:29.617           114.082               Magadan2          3565.062
       155   02 Jun 2027 18:06:36.317   02 Jun 2027 18:09:29.922           173.605                Norilsk          5425.156
       156   02 Jun 2027 18:10:21.842   02 Jun 2027 18:11:55.326            93.484                Irkutsk          2921.375
       157   02 Jun 2027 18:13:10.769   02 Jun 2027 18:13:35.092            24.323                Irkutsk           760.094
       158   02 Jun 2027 18:15:07.135   02 Jun 2027 18:15:27.301            20.166                Irkutsk           630.188
       159   02 Jun 2027 18:25:14.575   02 Jun 2027 18:29:43.425           268.850                Sumatra          8401.563
       160   02 Jun 2027 19:38:53.849   02 Jun 2027 19:40:19.411            85.562                Norilsk          2673.813
       161   02 Jun 2027 19:43:55.909   02 Jun 2027 19:47:31.156           215.247                Novosib          6726.469
       162   02 Jun 2027 19:48:36.157   02 Jun 2027 19:49:35.708            59.551                Novosib          1860.969
       163   02 Jun 2027 19:56:35.051   02 Jun 2027 19:57:53.949            78.898                Sumatra          2465.562
       164   02 Jun 2027 21:18:36.522   02 Jun 2027 21:21:19.725           163.203              Murmansk1          5100.094
       165   02 Jun 2027 21:26:10.199   02 Jun 2027 21:29:19.157           188.958                  Delhi          5904.937
       166   02 Jun 2027 22:51:01.715   02 Jun 2027 22:51:54.750            53.035               Magadan2          1657.344
       167   02 Jun 2027 22:53:07.162   02 Jun 2027 22:58:37.797           330.635              Murmansk1         10332.344
       168   02 Jun 2027 22:59:42.841   02 Jun 2027 23:02:29.607           166.766                 Moscow          5211.438
       169   02 Jun 2027 23:03:11.420   02 Jun 2027 23:03:27.261            15.841                 Moscow           495.031
       170   02 Jun 2027 23:24:37.904   02 Jun 2027 23:26:11.267            93.363               CapeTown          2917.594
       171   02 Jun 2027 23:28:53.531   02 Jun 2027 23:30:42.712           109.181               CapeTown          3411.906
       172   03 Jun 2027 00:31:21.851   03 Jun 2027 00:31:42.961            21.110              Murmansk1           659.687
       173   03 Jun 2027 00:32:14.345   03 Jun 2027 00:33:54.953           100.608                 Moscow          3144.000
       174   03 Jun 2027 00:40:25.060   03 Jun 2027 00:40:55.485            30.425                 Moscow           950.781
       175   03 Jun 2027 00:56:10.699   03 Jun 2027 00:57:30.931            80.232               CapeTown          2507.250
       176   03 Jun 2027 01:01:00.899   03 Jun 2027 01:02:02.684            61.785               CapeTown          1930.781
       177   03 Jun 2027 01:07:19.398   03 Jun 2027 01:08:22.312            62.914               CapeTown          1966.063
       178   03 Jun 2027 01:54:24.807   03 Jun 2027 01:55:42.332            77.525               Magadan1          2422.656
       179   03 Jun 2027 01:56:38.195   03 Jun 2027 01:56:55.726            17.531               Magadan1           547.844
       180   03 Jun 2027 01:57:42.928   03 Jun 2027 01:58:37.589            54.661               Magadan2          1708.156
       181   03 Jun 2027 02:04:56.753   03 Jun 2027 02:06:10.880            74.127              Murmansk2          2316.469
       182   03 Jun 2027 02:06:19.076   03 Jun 2027 02:06:53.506            34.430              Murmansk1          1075.938
       183   03 Jun 2027 02:08:15.937   03 Jun 2027 02:08:41.016            25.079                 Moscow           783.719
       184   03 Jun 2027 02:09:35.175   03 Jun 2027 02:10:10.362            35.187                 Moscow          1099.594
       185   03 Jun 2027 02:13:35.608   03 Jun 2027 02:13:59.258            23.650                 Moscow           739.062
       186   03 Jun 2027 02:17:06.196   03 Jun 2027 02:17:27.297            21.101                 Moscow           659.406
       187   03 Jun 2027 02:18:20.902   03 Jun 2027 02:19:03.677            42.775                 Moscow          1336.719
       188   03 Jun 2027 02:35:23.980   03 Jun 2027 02:36:30.273            66.293               CapeTown          2071.656
       189   03 Jun 2027 03:33:20.548   03 Jun 2027 03:38:49.125           328.577                Anadyr2         10268.031
       190   03 Jun 2027 03:38:49.125   03 Jun 2027 03:39:43.547            54.422                Anadyr1          1700.687
       191   03 Jun 2027 03:41:22.449   03 Jun 2027 03:41:25.557             3.108                Anadyr1            97.125
       192   03 Jun 2027 05:09:56.303   03 Jun 2027 05:10:45.940            49.637                Irkutsk          1551.156
       193   03 Jun 2027 05:10:55.708   03 Jun 2027 05:14:16.769           201.061                Anadyr1          6283.156
       194   03 Jun 2027 05:14:23.755   03 Jun 2027 05:14:47.246            23.491                Novosib           734.094
       195   03 Jun 2027 05:14:50.897   03 Jun 2027 05:16:33.327           102.430                Anadyr2          3200.938
       196   03 Jun 2027 05:16:34.488   03 Jun 2027 05:17:08.020            33.532               Magadan1          1047.875
       197   03 Jun 2027 05:20:23.905   03 Jun 2027 05:20:47.883            23.978                Norilsk           749.312
       198   03 Jun 2027 05:52:19.324   03 Jun 2027 05:53:16.091            56.767            RioGallegos          1773.969
       199   03 Jun 2027 05:54:54.941   03 Jun 2027 05:55:33.746            38.805            RioGallegos          1212.656
       200   03 Jun 2027 06:30:20.039   03 Jun 2027 06:31:57.608            97.569                Sumatra          3049.031
       201   03 Jun 2027 06:46:09.331   03 Jun 2027 06:46:43.137            33.806                Irkutsk          1056.437
       202   03 Jun 2027 06:47:47.282   03 Jun 2027 06:48:46.914            59.632                Irkutsk          1863.500
       203   03 Jun 2027 06:49:14.197   03 Jun 2027 06:51:22.109           127.912               Magadan1          3997.250
       204   03 Jun 2027 06:51:41.856   03 Jun 2027 06:55:13.371           211.515              Murmansk1          6609.844
       205   03 Jun 2027 06:56:18.550   03 Jun 2027 06:56:39.199            20.649                Norilsk           645.281
       206   03 Jun 2027 06:57:45.071   03 Jun 2027 06:58:02.961            17.890                Norilsk           559.062
       207   03 Jun 2027 07:28:00.880   03 Jun 2027 07:29:04.890            64.010            RioGallegos          2000.312
       208   03 Jun 2027 07:29:38.237   03 Jun 2027 07:30:49.347            71.110            RioGallegos          2222.188
       209   03 Jun 2027 08:02:36.082   03 Jun 2027 08:03:09.929            33.847                Sumatra          1057.719
       210   03 Jun 2027 08:05:44.283   03 Jun 2027 08:06:05.030            20.747                Sumatra           648.344
       211   03 Jun 2027 08:12:27.867   03 Jun 2027 08:14:58.609           150.742                  Delhi          4710.687
       212   03 Jun 2027 08:24:00.236   03 Jun 2027 08:25:27.964            87.728                Irkutsk          2741.500
       213   03 Jun 2027 08:26:21.168   03 Jun 2027 08:26:54.699            33.531                Irkutsk          1047.844
       214   03 Jun 2027 08:27:02.041   03 Jun 2027 08:27:26.480            24.439                 Moscow           763.719
       215   03 Jun 2027 08:27:35.728   03 Jun 2027 08:30:39.460           183.732              Murmansk1          5741.625
       216   03 Jun 2027 08:30:52.075   03 Jun 2027 08:30:57.881             5.806                 Moscow           181.437
       217   03 Jun 2027 08:31:04.714   03 Jun 2027 08:31:25.153            20.439              Murmansk2           638.719
       218   03 Jun 2027 09:09:43.478   03 Jun 2027 09:09:54.262            10.784            RioGallegos           337.000
       219   03 Jun 2027 09:10:53.959   03 Jun 2027 09:11:08.456            14.497            RioGallegos           453.031
       220   03 Jun 2027 09:46:59.933   03 Jun 2027 09:49:48.134           168.201                  Delhi          5256.281
       221   03 Jun 2027 09:51:08.531   03 Jun 2027 09:52:07.836            59.305                  Delhi          1853.281
       222   03 Jun 2027 10:01:36.333   03 Jun 2027 10:02:46.149            69.816                 Moscow          2181.750
       223   03 Jun 2027 10:03:06.738   03 Jun 2027 10:03:20.336            13.598              Murmansk1           424.938
       224   03 Jun 2027 10:03:20.734   03 Jun 2027 10:04:13.769            53.035                Norilsk          1657.344
       225   03 Jun 2027 10:04:19.400   03 Jun 2027 10:04:32.475            13.075                Norilsk           408.594
       226   03 Jun 2027 10:04:39.607   03 Jun 2027 10:05:55.847            76.240                Norilsk          2382.500
       227   03 Jun 2027 11:36:40.327   03 Jun 2027 11:37:07.842            27.515              Murmansk1           859.844
       228   03 Jun 2027 11:37:21.190   03 Jun 2027 11:37:59.358            38.168              Murmansk1          1192.750
       229   03 Jun 2027 11:38:02.275   03 Jun 2027 11:38:43.422            41.147              Murmansk1          1285.844
       230   03 Jun 2027 11:38:43.422   03 Jun 2027 11:39:13.391            29.969              Murmansk2           936.531
       231   03 Jun 2027 11:39:19.385   03 Jun 2027 11:40:20.622            61.237              Murmansk2          1913.656
       232   03 Jun 2027 11:40:26.098   03 Jun 2027 11:40:47.598            21.500                 Moscow           671.875
       233   03 Jun 2027 11:41:06.045   03 Jun 2027 11:41:15.813             9.768              Murmansk2           305.250
       234   03 Jun 2027 11:41:16.643   03 Jun 2027 11:41:36.597            19.954                Norilsk           623.563
       235   03 Jun 2027 12:45:36.217   03 Jun 2027 12:49:09.862           213.645               CapeTown          6676.406
       236   03 Jun 2027 12:49:56.345   03 Jun 2027 12:52:08.444           132.099               CapeTown          4128.094
       237   03 Jun 2027 13:11:51.819   03 Jun 2027 13:12:58.386            66.567              Murmansk2          2080.219
       238   03 Jun 2027 13:13:06.130   03 Jun 2027 13:13:11.811             5.681              Murmansk2           177.531
       239   03 Jun 2027 13:13:47.044   03 Jun 2027 13:13:57.252            10.208              Murmansk2           319.000
       240   03 Jun 2027 13:19:21.614   03 Jun 2027 13:19:41.452            19.838              Murmansk1           619.938
       241   03 Jun 2027 13:25:40.363   03 Jun 2027 13:28:07.285           146.922                Anadyr2          4591.313
       242   03 Jun 2027 13:28:44.967   03 Jun 2027 13:31:12.995           148.028                Anadyr1          4625.875
       243   03 Jun 2027 14:51:24.215   03 Jun 2027 14:52:54.822            90.607              Murmansk1          2831.469
       244   03 Jun 2027 14:58:39.567   03 Jun 2027 14:59:01.177            21.610              Murmansk1           675.313
       245   03 Jun 2027 15:01:15.452   03 Jun 2027 15:02:42.810            87.358                Anadyr2          2729.938
       246   03 Jun 2027 15:03:30.177   03 Jun 2027 15:04:08.183            38.006                Anadyr1          1187.687
       247   03 Jun 2027 15:04:32.370   03 Jun 2027 15:08:57.695           265.325               Magadan2          8291.406
       248   03 Jun 2027 15:08:57.695   03 Jun 2027 15:10:51.615           113.920               Magadan1          3560.000
       249   03 Jun 2027 16:38:18.417   03 Jun 2027 16:38:33.018            14.601                Anadyr1           456.281
       250   03 Jun 2027 16:39:30.802   03 Jun 2027 16:41:12.880           102.078               Magadan1          3189.938
       251   03 Jun 2027 16:41:51.548   03 Jun 2027 16:43:03.080            71.532               Magadan2          2235.375
       252   03 Jun 2027 16:43:06.577   03 Jun 2027 16:43:59.502            52.925               Magadan2          1653.906
       253   03 Jun 2027 17:34:06.432   03 Jun 2027 17:36:21.736           135.304            RioGallegos          4228.250
       254   03 Jun 2027 17:37:25.522   03 Jun 2027 17:37:58.772            33.250            RioGallegos          1039.063
       255   03 Jun 2027 18:13:18.324   03 Jun 2027 18:13:36.563            18.239                Anadyr2           569.969
       256   03 Jun 2027 18:13:46.158   03 Jun 2027 18:14:14.036            27.878                Anadyr2           871.188
       257   03 Jun 2027 18:15:13.856   03 Jun 2027 18:19:20.698           246.842                Norilsk          7713.812
       258   03 Jun 2027 18:20:20.431   03 Jun 2027 18:25:43.576           323.145                Irkutsk         10098.281
       259   03 Jun 2027 18:27:09.437   03 Jun 2027 18:27:22.253            12.816                Irkutsk           400.500
       260   03 Jun 2027 18:35:40.500   03 Jun 2027 18:37:44.755           124.255                Sumatra          3882.969
       261   03 Jun 2027 18:39:15.035   03 Jun 2027 18:39:25.341            10.306                Sumatra           322.062
       262   03 Jun 2027 18:41:24.177   03 Jun 2027 18:43:10.726           106.549                Sumatra          3329.656
       263   03 Jun 2027 19:58:19.774   03 Jun 2027 20:00:49.156           149.382                Novosib          4668.188
       264   03 Jun 2027 20:06:49.236   03 Jun 2027 20:08:57.170           127.934                  Delhi          3997.937
       265   03 Jun 2027 21:30:05.724   03 Jun 2027 21:34:33.933           268.209              Murmansk1          8381.531
       266   03 Jun 2027 23:02:06.388   03 Jun 2027 23:02:25.568            19.180               Magadan2           599.375
       267   03 Jun 2027 23:03:59.625   03 Jun 2027 23:04:11.276            11.651                Norilsk           364.094
       268   03 Jun 2027 23:04:15.558   03 Jun 2027 23:04:35.584            20.026               Magadan1           625.813
       269   03 Jun 2027 23:05:06.769   03 Jun 2027 23:06:52.890           106.121              Murmansk1          3316.281
       270   03 Jun 2027 23:07:06.483   03 Jun 2027 23:11:09.434           242.951              Murmansk1          7592.219
       271   03 Jun 2027 23:11:53.895   03 Jun 2027 23:14:08.214           134.319                 Moscow          4197.469
       272   03 Jun 2027 23:35:31.332   03 Jun 2027 23:37:40.769           129.437               CapeTown          4044.906
       273   03 Jun 2027 23:41:03.558   03 Jun 2027 23:43:11.613           128.055               CapeTown          4001.719
       274   04 Jun 2027 00:44:14.336   04 Jun 2027 00:45:39.733            85.397                 Moscow          2668.656
       275   04 Jun 2027 00:52:54.908   04 Jun 2027 00:53:02.138             7.230                 Moscow           225.938
       276   04 Jun 2027 00:54:59.646   04 Jun 2027 00:55:20.863            21.217                 Moscow           663.031
       277   04 Jun 2027 01:08:07.276   04 Jun 2027 01:08:30.377            23.101               CapeTown           721.906
       278   04 Jun 2027 01:10:42.041   04 Jun 2027 01:11:20.514            38.473               CapeTown          1202.281
       279   04 Jun 2027 01:16:37.352   04 Jun 2027 01:16:52.489            15.137               CapeTown           473.031
       280   04 Jun 2027 01:18:33.516   04 Jun 2027 01:18:59.350            25.834               CapeTown           807.313
       281   04 Jun 2027 02:04:51.447   04 Jun 2027 02:05:24.558            33.111                Anadyr1          1034.719
       282   04 Jun 2027 02:06:05.555   04 Jun 2027 02:06:46.877            41.322               Magadan1          1291.313
       283   04 Jun 2027 02:06:51.764   04 Jun 2027 02:07:45.035            53.271               Magadan2          1664.719
       284   04 Jun 2027 02:12:06.795   04 Jun 2027 02:12:10.639             3.844               Magadan2           120.125
       285   04 Jun 2027 02:12:47.422   04 Jun 2027 02:12:54.689             7.267               Magadan2           227.094
       286   04 Jun 2027 02:13:06.503   04 Jun 2027 02:13:23.825            17.322               Magadan1           541.312
       287   04 Jun 2027 02:15:02.320   04 Jun 2027 02:15:30.385            28.065                Norilsk           877.031
       288   04 Jun 2027 02:16:57.868   04 Jun 2027 02:18:10.885            73.017              Murmansk2          2281.781
       289   04 Jun 2027 02:18:11.858   04 Jun 2027 02:18:17.175             5.317              Murmansk1           166.156
       290   04 Jun 2027 02:19:35.158   04 Jun 2027 02:20:16.041            40.883              Murmansk1          1277.594
       291   04 Jun 2027 02:20:21.792   04 Jun 2027 02:20:56.604            34.812              Murmansk1          1087.875
       292   04 Jun 2027 02:25:33.007   04 Jun 2027 02:25:42.019             9.012              Murmansk1           281.625
       293   04 Jun 2027 02:27:03.408   04 Jun 2027 02:27:12.346             8.938                 Moscow           279.313
       294   04 Jun 2027 02:28:18.763   04 Jun 2027 02:28:24.618             5.855                 Moscow           182.969
       295   04 Jun 2027 02:29:04.515   04 Jun 2027 02:29:33.186            28.671              Murmansk2           895.969
       296   04 Jun 2027 02:47:12.929   04 Jun 2027 02:48:25.009            72.080               CapeTown          2252.500
       297   04 Jun 2027 03:47:10.494   04 Jun 2027 03:48:31.793            81.299               Magadan1          2540.594
       298   04 Jun 2027 03:48:31.793   04 Jun 2027 03:48:33.635             1.842               Magadan2            57.562
       299   04 Jun 2027 03:48:36.917   04 Jun 2027 03:48:43.860             6.943               Magadan2           216.969
       300   04 Jun 2027 03:48:53.110   04 Jun 2027 03:49:43.754            50.644                Anadyr2          1582.625
       301   04 Jun 2027 03:49:48.667   04 Jun 2027 03:50:13.512            24.845               Magadan2           776.406
       302   04 Jun 2027 03:50:34.991   04 Jun 2027 03:51:01.135            26.144               Magadan2           817.000
       303   04 Jun 2027 03:51:01.135   04 Jun 2027 03:53:24.404           143.269               Magadan1          4477.156
       304   04 Jun 2027 03:53:24.466   04 Jun 2027 03:53:33.977             9.511                Anadyr2           297.219
       305   04 Jun 2027 04:31:31.488   04 Jun 2027 04:31:39.521             8.033            RioGallegos           251.031
       306   04 Jun 2027 04:38:38.447   04 Jun 2027 04:39:50.427            71.980            RioGallegos          2249.375
       307   04 Jun 2027 05:22:40.322   04 Jun 2027 05:27:46.780           306.458                Irkutsk          9576.812
       308   04 Jun 2027 05:28:11.969   04 Jun 2027 05:29:16.790            64.821              Murmansk1          2025.656
       309   04 Jun 2027 05:29:16.790   04 Jun 2027 05:30:03.533            46.743              Murmansk2          1460.719
       310   04 Jun 2027 05:30:05.177   04 Jun 2027 05:30:19.127            13.950                Norilsk           435.938
       311   04 Jun 2027 05:30:55.390   04 Jun 2027 05:31:04.988             9.598              Murmansk2           299.937
       312   04 Jun 2027 05:31:23.403   04 Jun 2027 05:32:49.468            86.065                Norilsk          2689.531
       313   04 Jun 2027 06:04:07.506   04 Jun 2027 06:04:35.674            28.168            RioGallegos           880.250
       314   04 Jun 2027 06:06:08.824   04 Jun 2027 06:06:59.606            50.782            RioGallegos          1586.937
       315   04 Jun 2027 06:41:09.136   04 Jun 2027 06:42:36.710            87.574                Sumatra          2736.688
       316   04 Jun 2027 06:49:12.379   04 Jun 2027 06:49:39.087            26.708                Sumatra           834.625
       317   04 Jun 2027 06:58:34.479   04 Jun 2027 06:59:47.348            72.869                Irkutsk          2277.156
       318   04 Jun 2027 07:01:16.134   04 Jun 2027 07:02:03.409            47.275                Novosib          1477.344
       319   04 Jun 2027 07:02:18.989   04 Jun 2027 07:02:31.068            12.079               Magadan1           377.469
       320   04 Jun 2027 07:02:36.267   04 Jun 2027 07:06:19.751           223.484                Novosib          6983.875
       321   04 Jun 2027 07:07:22.634   04 Jun 2027 07:07:57.195            34.561              Murmansk1          1080.031
       322   04 Jun 2027 07:40:16.300   04 Jun 2027 07:41:02.635            46.335            RioGallegos          1447.969
       323   04 Jun 2027 07:41:47.286   04 Jun 2027 07:42:22.626            35.340            RioGallegos          1104.375
       324   04 Jun 2027 07:43:08.495   04 Jun 2027 07:43:25.366            16.871            RioGallegos           527.219
       325   04 Jun 2027 08:14:42.395   04 Jun 2027 08:16:34.237           111.842                Sumatra          3495.062
       326   04 Jun 2027 08:23:57.610   04 Jun 2027 08:24:26.928            29.318                  Delhi           916.188
       327   04 Jun 2027 08:25:28.082   04 Jun 2027 08:27:18.798           110.716                  Delhi          3459.875
       328   04 Jun 2027 08:35:57.556   04 Jun 2027 08:37:09.654            72.098                Novosib          2253.062
       329   04 Jun 2027 08:37:21.011   04 Jun 2027 08:38:31.280            70.269              Murmansk1          2195.906
       330   04 Jun 2027 08:38:38.303   04 Jun 2027 08:39:24.189            45.886              Murmansk1          1433.938
       331   04 Jun 2027 08:39:24.189   04 Jun 2027 08:40:10.996            46.807              Murmansk2          1462.719
       332   04 Jun 2027 08:40:21.162   04 Jun 2027 08:41:17.934            56.772              Murmansk1          1774.125
       333   04 Jun 2027 08:44:01.703   04 Jun 2027 08:44:06.887             5.184              Murmansk1           162.000
       334   04 Jun 2027 09:59:16.391   04 Jun 2027 10:03:17.025           240.634                  Delhi          7519.812
       335   04 Jun 2027 10:12:03.821   04 Jun 2027 10:12:35.731            31.910              Murmansk1           997.187
       336   04 Jun 2027 10:12:47.142   04 Jun 2027 10:13:10.320            23.178              Murmansk1           724.312
       337   04 Jun 2027 10:13:11.303   04 Jun 2027 10:13:17.127             5.824              Murmansk1           182.000
       338   04 Jun 2027 10:13:28.676   04 Jun 2027 10:14:12.675            43.999                 Moscow          1374.969
       339   04 Jun 2027 10:14:32.173   04 Jun 2027 10:15:04.237            32.064              Murmansk1          1002.000
       340   04 Jun 2027 10:15:22.642   04 Jun 2027 10:15:25.882             3.240                Norilsk           101.250
       341   04 Jun 2027 10:15:27.922   04 Jun 2027 10:15:43.829            15.907                Norilsk           497.094
       342   04 Jun 2027 10:15:46.566   04 Jun 2027 10:15:50.822             4.256              Murmansk2           133.000
       343   04 Jun 2027 10:15:51.124   04 Jun 2027 10:16:54.619            63.495                Novosib          1984.219
       344   04 Jun 2027 10:17:10.039   04 Jun 2027 10:17:47.618            37.579                 Moscow          1174.344
       345   04 Jun 2027 11:47:10.824   04 Jun 2027 11:47:55.345            44.521              Murmansk2          1391.281
       346   04 Jun 2027 11:48:40.064   04 Jun 2027 11:49:09.341            29.277              Murmansk1           914.906
       347   04 Jun 2027 11:49:14.811   04 Jun 2027 11:49:18.971             4.160                 Moscow           130.000
       348   04 Jun 2027 11:49:20.028   04 Jun 2027 11:49:50.455            30.427              Murmansk1           950.844
       349   04 Jun 2027 11:50:00.952   04 Jun 2027 11:50:11.761            10.809              Murmansk2           337.781
       350   04 Jun 2027 11:50:11.761   04 Jun 2027 11:50:35.938            24.177              Murmansk1           755.531
       351   04 Jun 2027 11:50:43.246   04 Jun 2027 11:50:48.159             4.913                 Moscow           153.531
       352   04 Jun 2027 11:50:58.751   04 Jun 2027 11:51:51.187            52.436                 Moscow          1638.625
       353   04 Jun 2027 12:57:18.536   04 Jun 2027 13:00:47.347           208.811               CapeTown          6525.344
       354   04 Jun 2027 13:06:50.938   04 Jun 2027 13:08:30.873            99.935               CapeTown          3122.969
       355   04 Jun 2027 13:24:11.469   04 Jun 2027 13:25:45.017            93.548              Murmansk1          2923.375
       356   04 Jun 2027 13:25:58.387   04 Jun 2027 13:26:24.329            25.942              Murmansk1           810.687
       357   04 Jun 2027 13:28:58.052   04 Jun 2027 13:28:58.960             0.908              Murmansk2            28.375
       358   04 Jun 2027 13:29:08.754   04 Jun 2027 13:29:24.351            15.597              Murmansk1           487.406
       359   04 Jun 2027 13:30:11.265   04 Jun 2027 13:30:55.924            44.659              Murmansk1          1395.594
       360   04 Jun 2027 13:33:04.815   04 Jun 2027 13:33:38.326            33.511              Murmansk2          1047.219
       361   04 Jun 2027 13:37:36.314   04 Jun 2027 13:39:44.621           128.307                Anadyr2          4009.594
       362   04 Jun 2027 13:40:46.257   04 Jun 2027 13:42:10.178            83.921                Anadyr1          2622.531
       363   04 Jun 2027 13:45:36.232   04 Jun 2027 13:46:03.675            27.443                Anadyr1           857.594
       364   04 Jun 2027 13:46:08.293   04 Jun 2027 13:46:20.783            12.490                Anadyr1           390.312
       365   04 Jun 2027 15:04:06.899   04 Jun 2027 15:04:56.365            49.466              Murmansk1          1545.812
       366   04 Jun 2027 15:05:12.488   04 Jun 2027 15:06:53.143           100.655              Murmansk1          3145.469
       367   04 Jun 2027 15:13:16.245   04 Jun 2027 15:14:41.635            85.390                Anadyr1          2668.437
       368   04 Jun 2027 15:16:10.188   04 Jun 2027 15:16:31.448            21.260                Anadyr2           664.375
       369   04 Jun 2027 15:16:36.369   04 Jun 2027 15:20:09.005           212.636               Magadan1          6644.875
       370   04 Jun 2027 15:21:27.278   04 Jun 2027 15:23:48.453           141.175               Magadan2          4411.719
       371   04 Jun 2027 16:51:30.201   04 Jun 2027 16:53:07.334            97.133               Magadan2          3035.406
       372   04 Jun 2027 16:53:10.867   04 Jun 2027 16:53:12.211             1.344               Magadan1            42.000
       373   04 Jun 2027 16:54:29.931   04 Jun 2027 16:55:36.844            66.913               Magadan2          2091.031
       374   04 Jun 2027 16:58:39.320   04 Jun 2027 16:59:00.199            20.879               Magadan1           652.469
       375   04 Jun 2027 17:00:01.288   04 Jun 2027 17:00:10.531             9.243               Magadan1           288.844
       376   04 Jun 2027 17:45:07.556   04 Jun 2027 17:48:05.371           177.815            RioGallegos          5556.719
       377   04 Jun 2027 17:51:14.625   04 Jun 2027 17:51:28.921            14.296            RioGallegos           446.750
       378   04 Jun 2027 18:24:59.127   04 Jun 2027 18:25:14.135            15.008                Anadyr2           469.000
       379   04 Jun 2027 18:26:21.515   04 Jun 2027 18:26:29.434             7.919                Anadyr2           247.469
       380   04 Jun 2027 18:27:10.385   04 Jun 2027 18:30:30.995           200.610                Norilsk          6269.062
       381   04 Jun 2027 18:31:58.992   04 Jun 2027 18:36:43.078           284.086                Irkutsk          8877.687
       382   04 Jun 2027 18:46:43.289   04 Jun 2027 18:49:24.927           161.638                Sumatra          5051.188
       383   04 Jun 2027 18:51:00.670   04 Jun 2027 18:53:24.339           143.669                Sumatra          4489.656
       384   04 Jun 2027 20:08:36.747   04 Jun 2027 20:08:54.539            17.792                Novosib           556.000
       385   04 Jun 2027 20:10:24.052   04 Jun 2027 20:11:19.568            55.516                Novosib          1734.875
       386   04 Jun 2027 20:17:02.036   04 Jun 2027 20:19:16.779           134.743                  Delhi          4210.719
       387   04 Jun 2027 20:22:56.217   04 Jun 2027 20:23:38.224            42.007                  Delhi          1312.719
       388   04 Jun 2027 21:41:49.479   04 Jun 2027 21:45:41.089           231.610              Murmansk1          7237.813
       389   04 Jun 2027 21:46:13.684   04 Jun 2027 21:47:31.539            77.855              Murmansk1          2432.969
       390   04 Jun 2027 23:12:44.234   04 Jun 2027 23:13:04.802            20.568                Anadyr1           642.750
       391   04 Jun 2027 23:13:16.341   04 Jun 2027 23:13:18.560             2.219                Anadyr1            69.344
       392   04 Jun 2027 23:13:30.811   04 Jun 2027 23:15:22.688           111.877               Magadan1          3496.156
       393   04 Jun 2027 23:17:06.894   04 Jun 2027 23:19:09.936           123.042              Murmansk2          3845.062
       394   04 Jun 2027 23:20:33.714   04 Jun 2027 23:21:13.862            40.148              Murmansk2          1254.625
       395   04 Jun 2027 23:21:23.152   04 Jun 2027 23:22:32.816            69.664              Murmansk1          2177.000
       396   04 Jun 2027 23:22:33.890   04 Jun 2027 23:23:57.377            83.487                 Moscow          2608.969
       397   04 Jun 2027 23:25:45.216   04 Jun 2027 23:27:14.103            88.887                 Moscow          2777.719
       398   04 Jun 2027 23:46:41.262   04 Jun 2027 23:47:57.049            75.787               CapeTown          2368.344
       399   04 Jun 2027 23:48:28.499   04 Jun 2027 23:49:16.843            48.344               CapeTown          1510.750
       400   04 Jun 2027 23:51:42.148   04 Jun 2027 23:52:57.224            75.076               CapeTown          2346.125
       401   05 Jun 2027 00:53:02.341   05 Jun 2027 00:54:20.845            78.504              Murmansk2          2453.250
       402   05 Jun 2027 00:56:15.010   05 Jun 2027 00:57:40.484            85.474                 Moscow          2671.063
       403   05 Jun 2027 01:20:08.815   05 Jun 2027 01:21:07.816            59.001               CapeTown          1843.781
       404   05 Jun 2027 01:24:16.381   05 Jun 2027 01:25:01.675            45.294               CapeTown          1415.437
       405   05 Jun 2027 02:16:55.736   05 Jun 2027 02:17:40.767            45.031                Anadyr2          1407.219
       406   05 Jun 2027 02:17:48.209   05 Jun 2027 02:18:17.206            28.997               Magadan2           906.156
       407   05 Jun 2027 02:18:32.509   05 Jun 2027 02:19:47.724            75.215               Magadan2          2350.469
       408   05 Jun 2027 02:23:41.544   05 Jun 2027 02:23:54.031            12.487               Magadan1           390.219
       409   05 Jun 2027 02:25:18.716   05 Jun 2027 02:25:20.034             1.318               Magadan2            41.187
       410   05 Jun 2027 02:25:26.694   05 Jun 2027 02:25:44.386            17.692                Norilsk           552.875
       411   05 Jun 2027 02:26:34.648   05 Jun 2027 02:26:38.719             4.071               Magadan1           127.219
       412   05 Jun 2027 02:26:51.392   05 Jun 2027 02:26:56.198             4.806                Norilsk           150.188
       413   05 Jun 2027 02:27:18.873   05 Jun 2027 02:27:25.810             6.937                Norilsk           216.781
       414   05 Jun 2027 02:27:30.768   05 Jun 2027 02:28:13.107            42.339                Norilsk          1323.094
       415   05 Jun 2027 02:28:58.796   05 Jun 2027 02:29:25.929            27.133              Murmansk1           847.906
       416   05 Jun 2027 02:31:15.479   05 Jun 2027 02:31:54.972            39.493              Murmansk1          1234.156
       417   05 Jun 2027 02:32:25.086   05 Jun 2027 02:32:50.182            25.096                 Moscow           784.250
       418   05 Jun 2027 02:34:04.332   05 Jun 2027 02:34:52.048            47.716                 Moscow          1491.125
       419   05 Jun 2027 02:43:09.026   05 Jun 2027 02:43:23.564            14.538                 Moscow           454.313
       420   05 Jun 2027 03:00:49.531   05 Jun 2027 03:02:06.974            77.443               CapeTown          2420.094
       421   05 Jun 2027 03:59:53.278   05 Jun 2027 04:00:02.778             9.500                Anadyr2           296.875
       422   05 Jun 2027 04:00:02.854   05 Jun 2027 04:00:05.879             3.025               Magadan2            94.531
       423   05 Jun 2027 04:00:05.879   05 Jun 2027 04:02:28.671           142.792               Magadan1          4462.250
       424   05 Jun 2027 04:02:36.369   05 Jun 2027 04:02:40.856             4.487               Magadan1           140.219
       425   05 Jun 2027 04:02:40.856   05 Jun 2027 04:03:55.658            74.802               Magadan2          2337.562
       426   05 Jun 2027 04:03:56.125   05 Jun 2027 04:04:17.531            21.406                Anadyr2           668.937
       427   05 Jun 2027 04:04:22.901   05 Jun 2027 04:04:46.044            23.143               Magadan2           723.219
       428   05 Jun 2027 04:04:46.044   05 Jun 2027 04:04:55.070             9.026               Magadan1           282.063
       429   05 Jun 2027 05:35:14.732   05 Jun 2027 05:35:44.381            29.649                Irkutsk           926.531
       430   05 Jun 2027 05:35:45.099   05 Jun 2027 05:37:25.298           100.199               Magadan1          3131.219
       431   05 Jun 2027 05:37:26.289   05 Jun 2027 05:39:31.763           125.474                Anadyr2          3921.063
       432   05 Jun 2027 05:39:39.292   05 Jun 2027 05:40:15.207            35.915               Magadan1          1122.344
       433   05 Jun 2027 05:40:17.723   05 Jun 2027 05:40:50.781            33.058                Irkutsk          1033.063
       434   05 Jun 2027 05:40:53.249   05 Jun 2027 05:41:00.714             7.465               Magadan2           233.281
       435   05 Jun 2027 05:41:04.067   05 Jun 2027 05:41:41.512            37.445              Murmansk1          1170.156
       436   05 Jun 2027 05:45:04.333   05 Jun 2027 05:45:31.679            27.346              Murmansk1           854.562
       437   05 Jun 2027 05:46:05.125   05 Jun 2027 05:46:18.138            13.013                Norilsk           406.656
       438   05 Jun 2027 06:15:58.853   05 Jun 2027 06:17:24.884            86.031            RioGallegos          2688.469
       439   05 Jun 2027 06:18:07.313   05 Jun 2027 06:18:40.158            32.845            RioGallegos          1026.406
       440   05 Jun 2027 06:20:01.509   05 Jun 2027 06:20:05.958             4.449            RioGallegos           139.031
       441   05 Jun 2027 06:52:21.560   05 Jun 2027 06:54:56.393           154.833                Sumatra          4838.531
       442   05 Jun 2027 06:58:54.917   05 Jun 2027 06:59:26.516            31.599                Sumatra           987.469
       443   05 Jun 2027 07:12:29.569   05 Jun 2027 07:13:50.789            81.220                Norilsk          2538.125
       444   05 Jun 2027 07:13:59.142   05 Jun 2027 07:14:31.806            32.664                Irkutsk          1020.750
       445   05 Jun 2027 07:14:34.482   05 Jun 2027 07:15:49.917            75.435              Murmansk1          2357.344
       446   05 Jun 2027 07:15:54.952   05 Jun 2027 07:17:08.020            73.068                Irkutsk          2283.375
       447   05 Jun 2027 07:17:39.249   05 Jun 2027 07:18:07.065            27.816              Murmansk1           869.250
       448   05 Jun 2027 07:18:18.160   05 Jun 2027 07:19:10.952            52.792              Murmansk2          1649.750
       449   05 Jun 2027 07:52:36.008   05 Jun 2027 07:53:03.646            27.638            RioGallegos           863.687
       450   05 Jun 2027 07:54:44.256   05 Jun 2027 07:55:12.105            27.849            RioGallegos           870.281
       451   05 Jun 2027 08:26:54.752   05 Jun 2027 08:28:17.163            82.411                Sumatra          2575.344
       452   05 Jun 2027 08:29:35.153   05 Jun 2027 08:30:51.736            76.583                Sumatra          2393.219
       453   05 Jun 2027 08:36:01.343   05 Jun 2027 08:37:07.207            65.864                  Delhi          2058.250
       454   05 Jun 2027 08:47:45.284   05 Jun 2027 08:48:22.152            36.868                Novosib          1152.125
       455   05 Jun 2027 08:48:29.585   05 Jun 2027 08:48:37.166             7.581                Irkutsk           236.906
       456   05 Jun 2027 08:48:37.435   05 Jun 2027 08:48:51.289            13.854              Murmansk2           432.937
       457   05 Jun 2027 08:49:19.425   05 Jun 2027 08:49:24.954             5.529                Novosib           172.781
       458   05 Jun 2027 08:49:30.539   05 Jun 2027 08:50:15.978            45.439              Murmansk1          1419.969
       459   05 Jun 2027 08:50:23.397   05 Jun 2027 08:50:34.424            11.027              Murmansk2           344.594
       460   05 Jun 2027 08:50:34.424   05 Jun 2027 08:50:56.178            21.754              Murmansk1           679.813
       461   05 Jun 2027 08:51:03.433   05 Jun 2027 08:51:27.142            23.709                Norilsk           740.906
       462   05 Jun 2027 08:51:32.713   05 Jun 2027 08:51:42.230             9.517                 Moscow           297.406
       463   05 Jun 2027 08:51:57.477   05 Jun 2027 08:53:11.813            74.336              Murmansk1          2323.000
       464   05 Jun 2027 10:11:39.900   05 Jun 2027 10:15:10.127           210.227                  Delhi          6569.594
       465   05 Jun 2027 10:24:22.867   05 Jun 2027 10:24:44.772            21.905              Murmansk2           684.531
       466   05 Jun 2027 10:24:47.007   05 Jun 2027 10:24:49.269             2.262              Murmansk2            70.688
       467   05 Jun 2027 10:25:00.242   05 Jun 2027 10:25:07.295             7.053              Murmansk2           220.406
       468   05 Jun 2027 10:25:12.759   05 Jun 2027 10:25:54.993            42.234              Murmansk2          1319.813
       469   05 Jun 2027 10:25:59.160   05 Jun 2027 10:26:01.208             2.048                Norilsk            64.000
       470   05 Jun 2027 10:26:01.378   05 Jun 2027 10:26:19.831            18.453                Novosib           576.656
       471   05 Jun 2027 10:26:31.067   05 Jun 2027 10:26:51.033            19.966                Novosib           623.937
       472   05 Jun 2027 10:27:16.727   05 Jun 2027 10:27:24.618             7.891                Norilsk           246.594
       473   05 Jun 2027 10:27:34.350   05 Jun 2027 10:27:59.755            25.405              Murmansk1           793.906
       474   05 Jun 2027 10:28:00.569   05 Jun 2027 10:28:31.020            30.451                 Moscow           951.594
       475   05 Jun 2027 10:28:37.548   05 Jun 2027 10:29:31.867            54.319              Murmansk1          1697.469
       476   05 Jun 2027 11:59:59.004   05 Jun 2027 12:00:01.207             2.203              Murmansk2            68.844
       477   05 Jun 2027 12:01:01.301   05 Jun 2027 12:01:10.718             9.417              Murmansk2           294.281
       478   05 Jun 2027 12:01:19.294   05 Jun 2027 12:01:26.306             7.012              Murmansk1           219.125
       479   05 Jun 2027 12:02:02.604   05 Jun 2027 12:02:29.219            26.615              Murmansk1           831.719
       480   05 Jun 2027 12:02:40.870   05 Jun 2027 12:02:56.915            16.045                 Moscow           501.406
       481   05 Jun 2027 12:03:19.356   05 Jun 2027 12:03:57.541            38.185                 Moscow          1193.281
       482   05 Jun 2027 12:04:49.163   05 Jun 2027 12:05:20.868            31.705                Norilsk           990.781
