uniorb/output/strategy_1/Drop/Drop_KinoSat_110601.txt

KinoSat_110601
-------------------------
    Access    *     Start Time (UTCG)     *     Stop Time (UTCG)  *   Duration (s)        *       Station  *  Data (Mbytes)
         1   01 Jun 2027 04:21:35.416   01 Jun 2027 04:22:37.746            62.330               Magadan1          1947.812
         2   01 Jun 2027 04:22:43.954   01 Jun 2027 04:24:22.622            98.668                Anadyr2          3083.375
         3   01 Jun 2027 04:24:23.920   01 Jun 2027 04:25:34.934            71.014                Anadyr2          2219.187
         4   01 Jun 2027 04:25:38.608   01 Jun 2027 04:27:21.644           103.036               Magadan2          3219.875
         5   01 Jun 2027 04:27:48.975   01 Jun 2027 04:28:07.825            18.850                Anadyr1           589.063
         6   01 Jun 2027 05:05:52.068   01 Jun 2027 05:06:17.719            25.651            RioGallegos           801.594
         7   01 Jun 2027 05:06:39.366   01 Jun 2027 05:07:35.813            56.447            RioGallegos          1763.969
         8   01 Jun 2027 05:59:35.708   01 Jun 2027 06:02:06.920           151.212               Magadan2          4725.375
         9   01 Jun 2027 06:02:23.899   01 Jun 2027 06:02:41.693            17.794              Murmansk2           556.062
        10   01 Jun 2027 06:02:41.693   01 Jun 2027 06:03:24.584            42.891              Murmansk1          1340.344
        11   01 Jun 2027 06:03:26.780   01 Jun 2027 06:04:30.977            64.197                Irkutsk          2006.156
        12   01 Jun 2027 06:06:10.037   01 Jun 2027 06:06:20.720            10.683                Norilsk           333.844
        13   01 Jun 2027 06:39:16.899   01 Jun 2027 06:40:32.516            75.617            RioGallegos          2363.031
        14   01 Jun 2027 06:44:13.168   01 Jun 2027 06:44:26.385            13.217            RioGallegos           413.031
        15   01 Jun 2027 07:14:06.225   01 Jun 2027 07:14:48.586            42.361                Sumatra          1323.781
        16   01 Jun 2027 07:15:07.921   01 Jun 2027 07:16:12.878            64.957                Sumatra          2029.906
        17   01 Jun 2027 07:17:12.572   01 Jun 2027 07:17:15.979             3.407                Sumatra           106.469
        18   01 Jun 2027 07:22:05.637   01 Jun 2027 07:23:39.603            93.966                Sumatra          2936.437
        19   01 Jun 2027 07:24:49.317   01 Jun 2027 07:26:34.902           105.585                  Delhi          3299.531
        20   01 Jun 2027 07:29:20.120   01 Jun 2027 07:29:35.198            15.078                  Delhi           471.188
        21   01 Jun 2027 07:32:54.728   01 Jun 2027 07:32:54.879             0.151                  Delhi             4.719
        22   01 Jun 2027 07:36:09.878   01 Jun 2027 07:37:28.334            78.456                Irkutsk          2451.750
        23   01 Jun 2027 07:38:06.758   01 Jun 2027 07:39:06.421            59.663                 Moscow          1864.469
        24   01 Jun 2027 07:39:19.110   01 Jun 2027 07:39:26.061             6.951                Norilsk           217.219
        25   01 Jun 2027 07:39:27.876   01 Jun 2027 07:41:33.132           125.256                 Moscow          3914.250
        26   01 Jun 2027 07:41:35.720   01 Jun 2027 07:42:15.051            39.331                Norilsk          1229.094
        27   01 Jun 2027 07:44:18.532   01 Jun 2027 07:44:37.627            19.095                Norilsk           596.719
        28   01 Jun 2027 08:18:44.961   01 Jun 2027 08:20:01.971            77.010            RioGallegos          2406.563
        29   01 Jun 2027 08:20:51.541   01 Jun 2027 08:21:55.906            64.365            RioGallegos          2011.406
        30   01 Jun 2027 08:53:45.728   01 Jun 2027 08:55:26.967           101.239                Sumatra          3163.719
        31   01 Jun 2027 08:58:17.795   01 Jun 2027 08:59:51.671            93.876                  Delhi          2933.625
        32   01 Jun 2027 09:14:01.898   01 Jun 2027 09:14:18.373            16.475                 Moscow           514.844
        33   01 Jun 2027 09:14:37.529   01 Jun 2027 09:18:41.308           243.779                 Moscow          7618.094
        34   01 Jun 2027 09:18:46.354   01 Jun 2027 09:19:01.053            14.699              Murmansk2           459.344
        35   01 Jun 2027 09:19:06.802   01 Jun 2027 09:19:20.172            13.370              Murmansk1           417.813
        36   01 Jun 2027 09:22:01.108   01 Jun 2027 09:22:14.249            13.141              Murmansk1           410.656
        37   01 Jun 2027 09:22:27.787   01 Jun 2027 09:22:52.109            24.322              Murmansk1           760.062
        38   01 Jun 2027 10:47:17.666   01 Jun 2027 10:47:29.398            11.732              Murmansk2           366.625
        39   01 Jun 2027 10:47:29.398   01 Jun 2027 10:48:19.517            50.119              Murmansk1          1566.219
        40   01 Jun 2027 10:48:28.544   01 Jun 2027 10:48:36.882             8.338              Murmansk1           260.563
        41   01 Jun 2027 10:48:36.882   01 Jun 2027 10:48:49.807            12.925              Murmansk2           403.906
        42   01 Jun 2027 10:49:12.960   01 Jun 2027 10:54:43.621           330.661                 Moscow         10333.156
        43   01 Jun 2027 10:58:01.252   01 Jun 2027 10:58:11.513            10.261              Murmansk2           320.656
        44   01 Jun 2027 11:57:38.719   01 Jun 2027 12:05:02.002           443.283               CapeTown         13852.594
        45   01 Jun 2027 12:23:50.018   01 Jun 2027 12:23:52.716             2.698              Murmansk2            84.313
        46   01 Jun 2027 12:24:07.950   01 Jun 2027 12:24:41.763            33.813              Murmansk2          1056.656
        47   01 Jun 2027 12:37:17.883   01 Jun 2027 12:46:14.132           536.249                Anadyr2         16757.781
        48   01 Jun 2027 14:12:44.853   01 Jun 2027 14:14:36.843           111.990                Anadyr1          3499.687
        49   01 Jun 2027 14:16:27.530   01 Jun 2027 14:23:14.130           406.600               Magadan1         12706.250
        50   01 Jun 2027 15:51:02.583   01 Jun 2027 15:53:27.228           144.645               Magadan2          4520.156
        51   01 Jun 2027 15:53:27.228   01 Jun 2027 15:54:55.005            87.777               Magadan1          2743.031
        52   01 Jun 2027 17:24:30.448   01 Jun 2027 17:24:54.339            23.891                Anadyr2           746.594
        53   01 Jun 2027 17:24:54.339   01 Jun 2027 17:25:17.933            23.594                Anadyr1           737.312
        54   01 Jun 2027 17:26:50.692   01 Jun 2027 17:28:18.520            87.828               Magadan1          2744.625
        55   01 Jun 2027 17:29:37.424   01 Jun 2027 17:32:03.646           146.222                Norilsk          4569.437
        56   01 Jun 2027 17:32:32.632   01 Jun 2027 17:38:37.616           364.984                Irkutsk         11405.750
        57   01 Jun 2027 17:49:30.064   01 Jun 2027 17:52:30.075           180.011                Sumatra          5625.344
        58   01 Jun 2027 19:07:31.469   01 Jun 2027 19:14:59.331           447.862                Novosib         13995.688
        59   01 Jun 2027 20:43:49.835   01 Jun 2027 20:44:20.929            31.094              Murmansk2           971.688
        60   01 Jun 2027 20:49:58.772   01 Jun 2027 20:51:30.623            91.851                  Delhi          2870.344
        61   01 Jun 2027 20:55:06.702   01 Jun 2027 20:55:33.947            27.245                  Delhi           851.406
        62   01 Jun 2027 21:00:38.641   01 Jun 2027 21:02:02.147            83.506                  Delhi          2609.563
        63   01 Jun 2027 22:16:37.448   01 Jun 2027 22:18:13.422            95.974              Murmansk2          2999.187
        64   01 Jun 2027 22:19:00.032   01 Jun 2027 22:22:21.646           201.614              Murmansk1          6300.437
        65   01 Jun 2027 22:22:27.408   01 Jun 2027 22:27:06.002           278.594                 Moscow          8706.062
        66   01 Jun 2027 22:48:31.056   01 Jun 2027 22:53:56.419           325.363               CapeTown         10167.594
        67   02 Jun 2027 01:28:26.413   02 Jun 2027 01:29:32.082            65.669              Murmansk1          2052.156
        68   02 Jun 2027 01:30:36.624   02 Jun 2027 01:31:34.658            58.034              Murmansk2          1813.562
        69   02 Jun 2027 01:33:40.094   02 Jun 2027 01:33:44.103             4.009              Murmansk1           125.281
        70   02 Jun 2027 01:34:16.382   02 Jun 2027 01:34:23.966             7.584                 Moscow           237.000
        71   02 Jun 2027 01:35:42.385   02 Jun 2027 01:36:03.488            21.103                 Moscow           659.469
        72   02 Jun 2027 01:40:05.523   02 Jun 2027 01:40:13.544             8.021                 Moscow           250.656
        73   02 Jun 2027 01:41:11.186   02 Jun 2027 01:41:22.640            11.454                 Moscow           357.938
        74   02 Jun 2027 01:57:28.847   02 Jun 2027 01:58:44.096            75.249               CapeTown          2351.531
        75   02 Jun 2027 02:52:03.854   02 Jun 2027 02:54:39.274           155.420               Magadan1          4856.875
        76   02 Jun 2027 02:55:16.487   02 Jun 2027 02:55:41.090            24.603               Magadan1           768.844
        77   02 Jun 2027 02:55:52.087   02 Jun 2027 02:56:17.848            25.761               Magadan1           805.031
        78   02 Jun 2027 02:57:45.667   02 Jun 2027 02:57:59.555            13.888               Magadan1           434.000
        79   02 Jun 2027 02:59:41.526   02 Jun 2027 03:00:19.390            37.864               Magadan1          1183.250
        80   02 Jun 2027 03:00:26.923   02 Jun 2027 03:00:32.486             5.563               Magadan1           173.844
        81   02 Jun 2027 03:00:36.965   02 Jun 2027 03:00:48.832            11.867                Anadyr2           370.844
        82   02 Jun 2027 03:00:48.832   02 Jun 2027 03:00:48.941             0.109                Anadyr1             3.406
        83   02 Jun 2027 03:01:02.078   02 Jun 2027 03:03:39.478           157.400               Magadan1          4918.750
        84   02 Jun 2027 03:03:51.792   02 Jun 2027 03:04:52.448            60.656               Magadan1          1895.500
        85   02 Jun 2027 04:30:44.360   02 Jun 2027 04:31:05.986            21.626                Irkutsk           675.812
        86   02 Jun 2027 04:31:46.801   02 Jun 2027 04:32:42.025            55.224                Irkutsk          1725.750
        87   02 Jun 2027 04:33:33.039   02 Jun 2027 04:34:07.808            34.769                Anadyr1          1086.531
        88   02 Jun 2027 04:34:28.606   02 Jun 2027 04:36:23.414           114.808               Magadan2          3587.750
        89   02 Jun 2027 04:36:24.088   02 Jun 2027 04:36:58.112            34.024                Anadyr2          1063.250
        90   02 Jun 2027 04:37:06.469   02 Jun 2027 04:37:33.781            27.312                Irkutsk           853.500
        91   02 Jun 2027 04:37:39.709   02 Jun 2027 04:37:55.058            15.349                Novosib           479.656
        92   02 Jun 2027 04:38:02.365   02 Jun 2027 04:40:07.761           125.396                Anadyr2          3918.625
        93   02 Jun 2027 04:40:21.397   02 Jun 2027 04:40:59.352            37.955              Murmansk1          1186.094
        94   02 Jun 2027 04:42:23.380   02 Jun 2027 04:42:43.620            20.240                Norilsk           632.500
        95   02 Jun 2027 04:44:20.822   02 Jun 2027 04:44:41.888            21.066              Murmansk1           658.312
        96   02 Jun 2027 05:15:53.141   02 Jun 2027 05:16:14.763            21.622            RioGallegos           675.687
        97   02 Jun 2027 05:17:00.101   02 Jun 2027 05:19:09.454           129.353            RioGallegos          4042.281
        98   02 Jun 2027 05:54:17.503   02 Jun 2027 05:56:43.994           146.491                Sumatra          4577.844
        99   02 Jun 2027 05:57:08.216   02 Jun 2027 05:59:09.410           121.194                Sumatra          3787.313
       100   02 Jun 2027 06:10:36.709   02 Jun 2027 06:11:23.906            47.197                Irkutsk          1474.906
       101   02 Jun 2027 06:11:46.404   02 Jun 2027 06:12:10.036            23.632                Novosib           738.500
       102   02 Jun 2027 06:12:12.483   02 Jun 2027 06:13:36.972            84.489               Magadan2          2640.281
       103   02 Jun 2027 06:13:37.869   02 Jun 2027 06:13:48.775            10.906               Magadan1           340.813
       104   02 Jun 2027 06:14:11.905   02 Jun 2027 06:15:01.100            49.195               Magadan2          1537.344
       105   02 Jun 2027 06:15:02.000   02 Jun 2027 06:15:45.272            43.272                Norilsk          1352.250
       106   02 Jun 2027 06:15:47.261   02 Jun 2027 06:16:34.006            46.745                Irkutsk          1460.781
       107   02 Jun 2027 06:16:46.012   02 Jun 2027 06:17:27.738            41.726              Murmansk1          1303.937
       108   02 Jun 2027 06:51:27.330   02 Jun 2027 06:52:25.212            57.882            RioGallegos          1808.812
       109   02 Jun 2027 06:54:23.073   02 Jun 2027 06:55:05.235            42.162            RioGallegos          1317.562
       110   02 Jun 2027 06:55:33.814   02 Jun 2027 06:56:29.574            55.760            RioGallegos          1742.500
       111   02 Jun 2027 07:26:05.335   02 Jun 2027 07:28:34.774           149.439                Sumatra          4669.969
       112   02 Jun 2027 07:36:07.653   02 Jun 2027 07:38:53.126           165.473                  Delhi          5171.031
       113   02 Jun 2027 07:47:45.614   02 Jun 2027 07:47:55.255             9.641                Novosib           301.281
       114   02 Jun 2027 07:48:18.741   02 Jun 2027 07:49:05.122            46.381              Murmansk2          1449.406
       115   02 Jun 2027 07:49:05.122   02 Jun 2027 07:50:05.830            60.708              Murmansk1          1897.125
       116   02 Jun 2027 07:50:08.297   02 Jun 2027 07:50:36.224            27.927                 Moscow           872.719
       117   02 Jun 2027 07:50:45.021   02 Jun 2027 07:53:02.244           137.223                Novosib          4288.219
       118   02 Jun 2027 07:53:10.425   02 Jun 2027 07:53:27.706            17.281                Norilsk           540.031
       119   02 Jun 2027 07:54:24.141   02 Jun 2027 07:54:32.962             8.821                 Moscow           275.656
       120   02 Jun 2027 09:10:26.494   02 Jun 2027 09:13:22.582           176.088                  Delhi          5502.750
       121   02 Jun 2027 09:14:19.556   02 Jun 2027 09:15:35.669            76.113                  Delhi          2378.531
       122   02 Jun 2027 09:26:17.103   02 Jun 2027 09:26:56.377            39.274              Murmansk1          1227.312
       123   02 Jun 2027 09:27:01.440   02 Jun 2027 09:27:49.984            48.544                Novosib          1517.000
       124   02 Jun 2027 09:27:54.371   02 Jun 2027 09:29:32.627            98.256              Murmansk2          3070.500
       125   02 Jun 2027 09:29:39.971   02 Jun 2027 09:30:39.071            59.100                 Moscow          1846.875
       126   02 Jun 2027 10:59:46.889   02 Jun 2027 11:02:21.430           154.541                 Moscow          4829.406
       127   02 Jun 2027 11:02:22.043   02 Jun 2027 11:02:30.715             8.672                Norilsk           271.000
       128   02 Jun 2027 11:02:36.523   02 Jun 2027 11:02:41.824             5.301              Murmansk2           165.656
       129   02 Jun 2027 11:02:41.824   02 Jun 2027 11:04:14.050            92.226              Murmansk1          2882.063
       130   02 Jun 2027 11:04:15.159   02 Jun 2027 11:04:37.031            21.872                Norilsk           683.500
       131   02 Jun 2027 12:09:12.211   02 Jun 2027 12:12:27.405           195.194               CapeTown          6099.813
       132   02 Jun 2027 12:12:41.729   02 Jun 2027 12:15:52.460           190.731               CapeTown          5960.344
       133   02 Jun 2027 12:49:11.796   02 Jun 2027 12:51:45.469           153.673                Anadyr1          4802.281
       134   02 Jun 2027 12:52:28.927   02 Jun 2027 12:54:50.369           141.442                Anadyr2          4420.062
       135   02 Jun 2027 12:55:40.825   02 Jun 2027 12:58:49.523           188.698                Anadyr1          5896.813
       136   02 Jun 2027 14:24:45.293   02 Jun 2027 14:26:00.369            75.076                Anadyr2          2346.125
       137   02 Jun 2027 14:28:06.972   02 Jun 2027 14:36:06.953           479.981               Magadan1         14999.406
       138   02 Jun 2027 16:03:01.104   02 Jun 2027 16:04:19.215            78.111               Magadan2          2440.969
       139   02 Jun 2027 16:04:49.959   02 Jun 2027 16:05:34.976            45.017               Magadan2          1406.781
       140   02 Jun 2027 16:07:07.142   02 Jun 2027 16:07:20.878            13.736               Magadan1           429.250
       141   02 Jun 2027 16:58:05.997   02 Jun 2027 17:00:50.006           164.009            RioGallegos          5125.281
       142   02 Jun 2027 17:36:30.119   02 Jun 2027 17:37:21.924            51.805                Anadyr2          1618.906
       143   02 Jun 2027 17:38:45.233   02 Jun 2027 17:39:41.972            56.739                Norilsk          1773.094
       144   02 Jun 2027 17:39:50.141   02 Jun 2027 17:41:17.329            87.188               Magadan1          2724.625
       145   02 Jun 2027 17:43:57.872   02 Jun 2027 17:51:39.068           461.196                Irkutsk         14412.375
       146   02 Jun 2027 17:59:31.104   02 Jun 2027 18:06:21.927           410.823                Sumatra         12838.219
       147   02 Jun 2027 19:21:16.275   02 Jun 2027 19:27:01.867           345.592                Novosib         10799.750
       148   02 Jun 2027 20:53:42.273   02 Jun 2027 20:57:45.587           243.314              Murmansk1          7603.563
       149   02 Jun 2027 22:28:36.870   02 Jun 2027 22:30:24.105           107.235              Murmansk1          3351.094
       150   02 Jun 2027 22:30:36.321   02 Jun 2027 22:34:00.190           203.869              Murmansk1          6370.906
       151   02 Jun 2027 22:34:03.074   02 Jun 2027 22:35:46.540           103.466                 Moscow          3233.312
       152   02 Jun 2027 22:35:48.059   02 Jun 2027 22:40:35.002           286.943                 Moscow          8966.969
       153   02 Jun 2027 22:59:17.634   02 Jun 2027 23:06:46.274           448.640               CapeTown         14020.000
       154   03 Jun 2027 03:10:30.264   03 Jun 2027 03:10:55.365            25.101                Anadyr1           784.406
       155   03 Jun 2027 03:10:59.863   03 Jun 2027 03:12:41.863           102.000               Magadan2          3187.500
       156   03 Jun 2027 03:12:46.360   03 Jun 2027 03:13:32.848            46.488               Magadan2          1452.750
       157   03 Jun 2027 03:13:48.418   03 Jun 2027 03:14:00.086            11.668               Magadan2           364.625
       158   03 Jun 2027 03:14:10.975   03 Jun 2027 03:17:04.317           173.342                Anadyr1          5416.938
       159   03 Jun 2027 04:45:29.738   03 Jun 2027 04:46:14.641            44.903               Magadan2          1403.219
       160   03 Jun 2027 04:46:16.237   03 Jun 2027 04:46:19.270             3.033                Anadyr2            94.781
       161   03 Jun 2027 04:46:32.508   03 Jun 2027 04:47:09.277            36.769               Magadan1          1149.031
       162   03 Jun 2027 04:47:09.277   03 Jun 2027 04:47:36.694            27.417               Magadan2           856.781
       163   03 Jun 2027 04:47:50.866   03 Jun 2027 04:49:48.820           117.954               Magadan2          3686.063
       164   03 Jun 2027 04:49:48.820   03 Jun 2027 04:50:42.689            53.869               Magadan1          1683.406
       165   03 Jun 2027 04:50:54.822   03 Jun 2027 04:51:30.409            35.587               Magadan1          1112.094
       166   03 Jun 2027 04:51:30.409   03 Jun 2027 04:52:35.864            65.455               Magadan2          2045.469
       167   03 Jun 2027 05:27:40.442   03 Jun 2027 05:28:52.818            72.376            RioGallegos          2261.750
       168   03 Jun 2027 05:29:52.260   03 Jun 2027 05:30:38.625            46.365            RioGallegos          1448.906
       169   03 Jun 2027 05:31:04.483   03 Jun 2027 05:31:28.798            24.315            RioGallegos           759.844
       170   03 Jun 2027 06:04:55.691   03 Jun 2027 06:06:30.374            94.683                Sumatra          2958.844
       171   03 Jun 2027 06:08:55.720   03 Jun 2027 06:11:07.052           131.332                Sumatra          4104.125
       172   03 Jun 2027 06:23:06.431   03 Jun 2027 06:28:26.592           320.161                Novosib         10005.031
       173   03 Jun 2027 06:28:34.070   03 Jun 2027 06:29:15.424            41.354              Murmansk2          1292.312
       174   03 Jun 2027 06:29:15.424   03 Jun 2027 06:29:44.574            29.150              Murmansk1           910.938
       175   03 Jun 2027 07:03:41.621   03 Jun 2027 07:04:21.083            39.462            RioGallegos          1233.187
       176   03 Jun 2027 07:06:08.794   03 Jun 2027 07:06:46.053            37.259            RioGallegos          1164.344
       177   03 Jun 2027 07:38:10.052   03 Jun 2027 07:40:04.981           114.929                Sumatra          3591.531
       178   03 Jun 2027 07:47:35.204   03 Jun 2027 07:48:51.044            75.840                  Delhi          2370.000
       179   03 Jun 2027 07:50:56.442   03 Jun 2027 07:51:18.714            22.272                  Delhi           696.000
       180   03 Jun 2027 07:53:01.972   03 Jun 2027 07:53:55.797            53.825                  Delhi          1682.031
       181   03 Jun 2027 08:00:25.284   03 Jun 2027 08:01:33.959            68.675                Irkutsk          2146.094
       182   03 Jun 2027 08:01:45.874   03 Jun 2027 08:02:46.596            60.722                Novosib          1897.563
       183   03 Jun 2027 08:02:53.112   03 Jun 2027 08:05:25.176           152.064                Novosib          4752.000
       184   03 Jun 2027 08:05:29.367   03 Jun 2027 08:06:46.626            77.259                 Moscow          2414.344
       185   03 Jun 2027 09:22:41.170   03 Jun 2027 09:23:41.123            59.953                  Delhi          1873.531
       186   03 Jun 2027 09:25:14.802   03 Jun 2027 09:26:30.156            75.354                  Delhi          2354.812
       187   03 Jun 2027 09:26:56.459   03 Jun 2027 09:27:26.653            30.194                  Delhi           943.562
       188   03 Jun 2027 09:37:09.484   03 Jun 2027 09:38:41.146            91.662              Murmansk2          2864.437
       189   03 Jun 2027 09:38:41.146   03 Jun 2027 09:39:04.601            23.455              Murmansk1           732.969
       190   03 Jun 2027 09:39:14.961   03 Jun 2027 09:39:34.446            19.485                Norilsk           608.906
       191   03 Jun 2027 09:39:42.513   03 Jun 2027 09:42:35.681           173.168                 Moscow          5411.500
       192   03 Jun 2027 11:12:17.488   03 Jun 2027 11:13:06.386            48.898                 Moscow          1528.063
       193   03 Jun 2027 11:13:08.480   03 Jun 2027 11:13:25.485            17.005              Murmansk2           531.406
       194   03 Jun 2027 11:13:30.484   03 Jun 2027 11:14:37.328            66.844              Murmansk2          2088.875
       195   03 Jun 2027 11:14:58.854   03 Jun 2027 11:15:26.388            27.534              Murmansk1           860.437
       196   03 Jun 2027 11:16:04.485   03 Jun 2027 11:16:10.758             6.273              Murmansk2           196.031
       197   03 Jun 2027 11:16:20.716   03 Jun 2027 11:16:27.714             6.998                 Moscow           218.688
       198   03 Jun 2027 11:18:15.167   03 Jun 2027 11:18:47.937            32.770              Murmansk1          1024.062
       199   03 Jun 2027 12:20:52.900   03 Jun 2027 12:24:40.618           227.718               CapeTown          7116.188
       200   03 Jun 2027 12:25:59.693   03 Jun 2027 12:27:10.142            70.449               CapeTown          2201.531
       201   03 Jun 2027 12:47:35.830   03 Jun 2027 12:48:09.843            34.013              Murmansk1          1062.906
       202   03 Jun 2027 12:48:46.436   03 Jun 2027 12:49:28.045            41.609              Murmansk1          1300.281
       203   03 Jun 2027 12:53:31.224   03 Jun 2027 12:53:50.197            18.973              Murmansk2           592.906
       204   03 Jun 2027 13:01:07.350   03 Jun 2027 13:07:10.046           362.696                Anadyr2         11334.250
       205   03 Jun 2027 13:08:51.942   03 Jun 2027 13:10:39.254           107.312                Anadyr2          3353.500
       206   03 Jun 2027 14:36:46.004   03 Jun 2027 14:37:59.874            73.870                Anadyr2          2308.438
       207   03 Jun 2027 14:38:44.899   03 Jun 2027 14:39:23.872            38.973                Anadyr1          1217.906
       208   03 Jun 2027 14:39:48.564   03 Jun 2027 14:39:54.045             5.481                Anadyr1           171.281
       209   03 Jun 2027 14:40:53.591   03 Jun 2027 14:45:56.846           303.255               Magadan2          9476.719
       210   03 Jun 2027 14:45:57.679   03 Jun 2027 14:48:51.084           173.405               Magadan1          5418.906
       211   03 Jun 2027 16:15:00.311   03 Jun 2027 16:17:22.807           142.496               Magadan2          4453.000
       212   03 Jun 2027 17:08:50.235   03 Jun 2027 17:14:37.913           347.678            RioGallegos         10864.938
       213   03 Jun 2027 17:51:58.183   03 Jun 2027 17:52:39.412            41.229                Norilsk          1288.406
       214   03 Jun 2027 17:55:34.306   03 Jun 2027 18:03:10.443           456.137                Irkutsk         14254.281
       215   03 Jun 2027 18:10:27.021   03 Jun 2027 18:19:19.948           532.927                Sumatra         16653.969
       216   03 Jun 2027 19:34:30.737   03 Jun 2027 19:39:04.906           274.169                Novosib          8567.781
       217   03 Jun 2027 19:40:52.816   03 Jun 2027 19:46:43.798           350.982                  Delhi         10968.187
       218   03 Jun 2027 21:05:23.341   03 Jun 2027 21:10:46.416           323.075              Murmansk2         10096.094
       219   03 Jun 2027 22:43:38.517   03 Jun 2027 22:45:58.651           140.134              Murmansk1          4379.187
       220   03 Jun 2027 22:48:47.056   03 Jun 2027 22:50:48.654           121.598                 Moscow          3799.937
       221   03 Jun 2027 23:10:23.859   03 Jun 2027 23:18:23.569           479.710               CapeTown         14990.937
       222   04 Jun 2027 03:22:54.978   04 Jun 2027 03:24:18.023            83.045               Magadan2          2595.156
       223   04 Jun 2027 03:24:26.406   04 Jun 2027 03:24:36.803            10.397               Magadan1           324.906
       224   04 Jun 2027 03:24:40.659   04 Jun 2027 03:27:00.580           139.921                Anadyr2          4372.531
       225   04 Jun 2027 03:27:36.222   04 Jun 2027 03:27:55.026            18.804                Anadyr2           587.625
       226   04 Jun 2027 03:28:06.288   04 Jun 2027 03:28:55.274            48.986               Magadan1          1530.812
       227   04 Jun 2027 04:58:30.599   04 Jun 2027 04:59:05.021            34.422                Irkutsk          1075.687
       228   04 Jun 2027 04:59:17.654   04 Jun 2027 05:01:46.378           148.724               Magadan1          4647.625
       229   04 Jun 2027 05:01:46.378   04 Jun 2027 05:02:50.863            64.485               Magadan2          2015.156
       230   04 Jun 2027 05:02:50.863   04 Jun 2027 05:03:36.661            45.798               Magadan1          1431.188
       231   04 Jun 2027 05:03:39.461   04 Jun 2027 05:04:01.323            21.862                Irkutsk           683.187
       232   04 Jun 2027 05:04:12.573   04 Jun 2027 05:04:31.963            19.390               Magadan1           605.938
       233   04 Jun 2027 05:04:37.588   04 Jun 2027 05:05:58.444            80.856              Murmansk2          2526.750
       234   04 Jun 2027 05:05:58.444   04 Jun 2027 05:06:05.743             7.299              Murmansk1           228.094
       235   04 Jun 2027 05:07:08.146   04 Jun 2027 05:08:00.646            52.500                Norilsk          1640.625
       236   04 Jun 2027 05:39:30.908   04 Jun 2027 05:41:39.614           128.706            RioGallegos          4022.063
       237   04 Jun 2027 05:41:50.694   04 Jun 2027 05:42:11.588            20.894            RioGallegos           652.938
       238   04 Jun 2027 05:42:32.439   04 Jun 2027 05:43:14.181            41.742            RioGallegos          1304.437
       239   04 Jun 2027 06:16:03.140   04 Jun 2027 06:18:51.705           168.565                Sumatra          5267.656
       240   04 Jun 2027 06:22:20.929   04 Jun 2027 06:23:10.276            49.347                Sumatra          1542.094
       241   04 Jun 2027 06:35:53.676   04 Jun 2027 06:39:47.924           234.248                Novosib          7320.250
       242   04 Jun 2027 06:39:51.293   04 Jun 2027 06:41:08.065            76.772                Norilsk          2399.125
       243   04 Jun 2027 06:41:31.128   04 Jun 2027 06:42:00.621            29.493                Novosib           921.656
       244   04 Jun 2027 07:50:20.657   04 Jun 2027 07:51:43.720            83.063                Sumatra          2595.719
       245   04 Jun 2027 07:53:01.996   04 Jun 2027 07:53:59.198            57.202                Sumatra          1787.563
       246   04 Jun 2027 07:59:10.188   04 Jun 2027 08:02:50.548           220.360                  Delhi          6886.250
       247   04 Jun 2027 08:12:10.805   04 Jun 2027 08:12:21.778            10.973                Novosib           342.906
       248   04 Jun 2027 08:12:30.997   04 Jun 2027 08:12:39.401             8.404                Irkutsk           262.625
       249   04 Jun 2027 08:12:45.004   04 Jun 2027 08:13:23.694            38.690              Murmansk2          1209.063
       250   04 Jun 2027 08:13:23.694   04 Jun 2027 08:13:50.049            26.355              Murmansk1           823.594
       251   04 Jun 2027 08:13:58.647   04 Jun 2027 08:14:04.331             5.684                 Moscow           177.625
       252   04 Jun 2027 08:14:04.845   04 Jun 2027 08:16:38.781           153.936                 Moscow          4810.500
       253   04 Jun 2027 08:18:54.994   04 Jun 2027 08:18:57.770             2.776                 Moscow            86.750
       254   04 Jun 2027 09:35:02.598   04 Jun 2027 09:37:02.774           120.176                  Delhi          3755.500
       255   04 Jun 2027 09:43:52.686   04 Jun 2027 09:44:59.940            67.254                  Delhi          2101.687
       256   04 Jun 2027 09:47:58.672   04 Jun 2027 09:48:56.313            57.641              Murmansk2          1801.281
       257   04 Jun 2027 09:49:01.502   04 Jun 2027 09:49:16.240            14.738                Norilsk           460.563
       258   04 Jun 2027 09:49:27.103   04 Jun 2027 09:49:39.809            12.706                Novosib           397.063
       259   04 Jun 2027 09:49:41.606   04 Jun 2027 09:50:19.430            37.824                Novosib          1182.000
       260   04 Jun 2027 09:50:32.398   04 Jun 2027 09:51:11.491            39.093              Murmansk1          1221.656
       261   04 Jun 2027 09:51:35.711   04 Jun 2027 09:52:14.403            38.692              Murmansk1          1209.125
       262   04 Jun 2027 09:52:15.594   04 Jun 2027 09:52:18.184             2.590                Novosib            80.937
       263   04 Jun 2027 09:52:19.725   04 Jun 2027 09:52:51.770            32.045                Norilsk          1001.406
       264   04 Jun 2027 11:25:49.243   04 Jun 2027 11:26:06.536            17.293                 Moscow           540.406
       265   04 Jun 2027 11:26:17.881   04 Jun 2027 11:26:32.611            14.730                 Moscow           460.313
       266   04 Jun 2027 11:26:34.709   04 Jun 2027 11:27:10.488            35.779              Murmansk1          1118.094
       267   04 Jun 2027 11:31:22.504   04 Jun 2027 11:31:35.988            13.484                 Moscow           421.375
       268   04 Jun 2027 11:39:33.475   04 Jun 2027 11:41:25.269           111.794                Anadyr2          3493.563
       269   04 Jun 2027 12:32:38.904   04 Jun 2027 12:34:37.704           118.800               CapeTown          3712.500
       270   04 Jun 2027 12:36:39.673   04 Jun 2027 12:36:51.245            11.572               CapeTown           361.625
       271   04 Jun 2027 12:44:03.366   04 Jun 2027 12:44:39.544            36.178               CapeTown          1130.562
       272   04 Jun 2027 12:59:57.070   04 Jun 2027 13:01:27.408            90.338              Murmansk2          2823.063
       273   04 Jun 2027 13:02:35.797   04 Jun 2027 13:03:03.748            27.951              Murmansk1           873.469
       274   04 Jun 2027 13:13:04.164   04 Jun 2027 13:13:52.284            48.120                Anadyr2          1503.750
       275   04 Jun 2027 13:13:52.284   04 Jun 2027 13:14:55.459            63.175                Anadyr1          1974.219
       276   04 Jun 2027 13:15:04.210   04 Jun 2027 13:18:34.418           210.208                Anadyr2          6569.000
       277   04 Jun 2027 14:40:10.910   04 Jun 2027 14:41:45.936            95.026              Murmansk2          2969.562
       278   04 Jun 2027 14:48:46.930   04 Jun 2027 14:49:58.930            72.000                Anadyr1          2250.000
       279   04 Jun 2027 14:50:02.374   04 Jun 2027 14:51:21.062            78.688                Anadyr2          2459.000
       280   04 Jun 2027 14:51:41.566   04 Jun 2027 14:57:33.617           352.051               Magadan2         11001.594
       281   04 Jun 2027 14:57:47.684   04 Jun 2027 15:01:28.712           221.028               Magadan1          6907.125
       282   04 Jun 2027 17:20:11.740   04 Jun 2027 17:27:45.368           453.628            RioGallegos         14175.875
       283   04 Jun 2027 18:07:17.218   04 Jun 2027 18:15:14.568           477.350                Irkutsk         14917.188
       284   04 Jun 2027 18:21:42.955   04 Jun 2027 18:21:46.418             3.463                Sumatra           108.219
       285   04 Jun 2027 18:23:47.417   04 Jun 2027 18:29:20.042           332.625                Sumatra         10394.531
       286   04 Jun 2027 19:51:50.577   04 Jun 2027 19:59:58.521           487.944                  Delhi         15248.250
       287   04 Jun 2027 21:17:11.780   04 Jun 2027 21:17:41.755            29.975              Murmansk2           936.719
       288   04 Jun 2027 21:18:26.854   04 Jun 2027 21:23:37.821           310.967              Murmansk1          9717.719
       289   04 Jun 2027 22:58:25.588   04 Jun 2027 22:58:57.291            31.703                 Moscow           990.719
       290   04 Jun 2027 23:21:41.825   04 Jun 2027 23:24:02.916           141.091               CapeTown          4409.094
       291   04 Jun 2027 23:25:34.716   04 Jun 2027 23:28:59.345           204.629               CapeTown          6394.656
       292   05 Jun 2027 01:04:09.851   05 Jun 2027 01:04:39.079            29.228               CapeTown           913.375
       293   05 Jun 2027 01:52:30.088   05 Jun 2027 01:52:39.508             9.420                Anadyr1           294.375
       294   05 Jun 2027 01:53:06.840   05 Jun 2027 01:54:28.083            81.243               Magadan2          2538.844
       295   05 Jun 2027 01:54:28.083   05 Jun 2027 01:54:35.248             7.165               Magadan1           223.906
       296   05 Jun 2027 01:54:45.629   05 Jun 2027 01:55:19.637            34.008               Magadan1          1062.750
       297   05 Jun 2027 02:00:50.537   05 Jun 2027 02:01:18.289            27.752                Norilsk           867.250
       298   05 Jun 2027 02:03:43.742   05 Jun 2027 02:04:01.383            17.641               Magadan2           551.281
       299   05 Jun 2027 02:04:29.299   05 Jun 2027 02:05:34.435            65.136              Murmansk1          2035.500
       300   05 Jun 2027 02:06:10.009   05 Jun 2027 02:06:25.243            15.234              Murmansk2           476.063
       301   05 Jun 2027 02:07:20.049   05 Jun 2027 02:07:40.850            20.801              Murmansk1           650.031
       302   05 Jun 2027 02:07:58.830   05 Jun 2027 02:08:50.877            52.047                 Moscow          1626.469
       303   05 Jun 2027 02:13:35.303   05 Jun 2027 02:13:49.006            13.703                 Moscow           428.219
       304   05 Jun 2027 02:15:27.594   05 Jun 2027 02:16:02.645            35.051                 Moscow          1095.344
       305   05 Jun 2027 03:35:02.310   05 Jun 2027 03:35:29.781            27.471               Magadan2           858.469
       306   05 Jun 2027 03:35:34.235   05 Jun 2027 03:35:57.755            23.520                Anadyr2           735.000
       307   05 Jun 2027 03:36:08.330   05 Jun 2027 03:38:12.141           123.811                Anadyr2          3869.094
       308   05 Jun 2027 03:38:12.141   05 Jun 2027 03:38:44.445            32.304                Anadyr1          1009.500
       309   05 Jun 2027 03:39:45.992   05 Jun 2027 03:39:54.396             8.404               Magadan2           262.625
       310   05 Jun 2027 03:40:03.557   05 Jun 2027 03:40:56.190            52.633               Magadan2          1644.781
       311   05 Jun 2027 05:12:00.262   05 Jun 2027 05:15:00.164           179.902               Magadan1          5621.937
       312   05 Jun 2027 05:15:14.361   05 Jun 2027 05:15:39.565            25.204               Magadan1           787.625
       313   05 Jun 2027 05:15:39.565   05 Jun 2027 05:16:11.402            31.837               Magadan2           994.906
       314   05 Jun 2027 05:16:32.183   05 Jun 2027 05:17:24.551            52.368                Norilsk          1636.500
       315   05 Jun 2027 05:17:24.599   05 Jun 2027 05:17:29.060             4.461                Novosib           139.406
       316   05 Jun 2027 05:17:38.572   05 Jun 2027 05:17:40.447             1.875                Norilsk            58.594
       317   05 Jun 2027 05:17:49.129   05 Jun 2027 05:18:59.756            70.627                Norilsk          2207.094
       318   05 Jun 2027 05:21:03.786   05 Jun 2027 05:21:39.772            35.986                Norilsk          1124.562
       319   05 Jun 2027 05:23:00.679   05 Jun 2027 05:23:07.382             6.703              Murmansk1           209.469
       320   05 Jun 2027 05:24:43.365   05 Jun 2027 05:24:44.528             1.163              Murmansk2            36.344
       321   05 Jun 2027 05:51:24.536   05 Jun 2027 05:54:35.615           191.079            RioGallegos          5971.219
       322   05 Jun 2027 05:56:05.149   05 Jun 2027 05:57:05.128            59.979            RioGallegos          1874.344
       323   05 Jun 2027 05:57:56.842   05 Jun 2027 05:59:00.116            63.274            RioGallegos          1977.312
       324   05 Jun 2027 06:27:25.781   05 Jun 2027 06:30:45.173           199.392                Sumatra          6231.000
       325   05 Jun 2027 06:48:00.363   05 Jun 2027 06:48:27.595            27.232                Norilsk           851.000
       326   05 Jun 2027 06:48:31.166   05 Jun 2027 06:50:25.456           114.290                Novosib          3571.563
       327   05 Jun 2027 06:50:28.621   05 Jun 2027 06:52:38.351           129.730                Irkutsk          4054.062
       328   05 Jun 2027 08:02:37.872   05 Jun 2027 08:03:29.452            51.580                Sumatra          1611.875
       329   05 Jun 2027 08:04:46.543   05 Jun 2027 08:04:59.472            12.929                Sumatra           404.031
       330   05 Jun 2027 08:06:15.211   05 Jun 2027 08:07:28.875            73.664                Sumatra          2302.000
       331   05 Jun 2027 08:10:51.575   05 Jun 2027 08:12:42.893           111.318                  Delhi          3478.687
       332   05 Jun 2027 08:13:24.082   05 Jun 2027 08:14:49.932            85.850                  Delhi          2682.813
       333   05 Jun 2027 08:24:41.784   05 Jun 2027 08:25:04.189            22.405              Murmansk1           700.156
       334   05 Jun 2027 08:25:04.189   05 Jun 2027 08:25:24.275            20.086              Murmansk2           627.687
       335   05 Jun 2027 08:25:35.597   05 Jun 2027 08:25:49.970            14.373                Novosib           449.156
       336   05 Jun 2027 08:25:54.938   05 Jun 2027 08:26:16.022            21.084              Murmansk1           658.875
       337   05 Jun 2027 08:26:17.384   05 Jun 2027 08:27:37.617            80.233                 Moscow          2507.281
       338   05 Jun 2027 08:27:48.532   05 Jun 2027 08:28:05.841            17.309                Novosib           540.906
       339   05 Jun 2027 08:28:18.861   05 Jun 2027 08:28:38.823            19.962              Murmansk1           623.812
       340   05 Jun 2027 08:28:54.281   05 Jun 2027 08:29:54.325            60.044                Novosib          1876.375
       341   05 Jun 2027 09:47:32.079   05 Jun 2027 09:50:12.304           160.225                  Delhi          5007.031
       342   05 Jun 2027 09:59:55.869   05 Jun 2027 10:00:33.886            38.017                Norilsk          1188.031
       343   05 Jun 2027 10:00:43.705   05 Jun 2027 10:00:59.794            16.089                Norilsk           502.781
       344   05 Jun 2027 10:01:03.317   05 Jun 2027 10:01:13.845            10.528                Norilsk           329.000
       345   05 Jun 2027 10:01:28.720   05 Jun 2027 10:02:00.666            31.946                 Moscow           998.313
       346   05 Jun 2027 10:02:11.718   05 Jun 2027 10:02:31.664            19.946                 Moscow           623.312
       347   05 Jun 2027 10:02:40.400   05 Jun 2027 10:02:51.586            11.186              Murmansk1           349.563
       348   05 Jun 2027 10:02:59.463   05 Jun 2027 10:03:27.488            28.025              Murmansk2           875.781
       349   05 Jun 2027 10:03:47.868   05 Jun 2027 10:04:03.817            15.949                 Moscow           498.406
       350   05 Jun 2027 10:04:38.796   05 Jun 2027 10:05:37.644            58.848              Murmansk1          1839.000
       351   05 Jun 2027 11:50:35.451   05 Jun 2027 11:55:04.907           269.456                Anadyr1          8420.500
       352   05 Jun 2027 12:47:04.389   05 Jun 2027 12:47:43.362            38.973               CapeTown          1217.906
       353   05 Jun 2027 13:12:20.610   05 Jun 2027 13:12:49.671            29.061              Murmansk2           908.156
       354   05 Jun 2027 13:14:11.397   05 Jun 2027 13:14:37.439            26.042              Murmansk1           813.813
       355   05 Jun 2027 13:14:59.948   05 Jun 2027 13:16:04.961            65.013              Murmansk1          2031.656
       356   05 Jun 2027 13:25:01.948   05 Jun 2027 13:28:51.206           229.258                Anadyr2          7164.313
       357   05 Jun 2027 13:31:38.551   05 Jun 2027 13:32:11.661            33.110                Anadyr2          1034.688
       358   05 Jun 2027 14:53:03.464   05 Jun 2027 14:54:17.920            74.456              Murmansk2          2326.750
       359   05 Jun 2027 14:54:28.602   05 Jun 2027 14:55:10.422            41.820              Murmansk2          1306.875
       360   05 Jun 2027 15:00:48.024   05 Jun 2027 15:01:58.530            70.506                Anadyr2          2203.312
       361   05 Jun 2027 15:02:52.095   05 Jun 2027 15:03:16.527            24.432                Anadyr1           763.500
       362   05 Jun 2027 15:03:33.463   05 Jun 2027 15:09:35.568           362.105               Magadan1         11315.781
       363   05 Jun 2027 15:10:58.584   05 Jun 2027 15:13:02.991           124.407               Magadan1          3887.719
       364   05 Jun 2027 16:39:00.418   05 Jun 2027 16:39:28.133            27.715               Magadan2           866.094
       365   05 Jun 2027 16:42:14.690   05 Jun 2027 16:42:28.689            13.999               Magadan2           437.469
       366   05 Jun 2027 16:43:04.726   05 Jun 2027 16:44:21.431            76.705               Magadan1          2397.031
       367   05 Jun 2027 17:31:46.126   05 Jun 2027 17:38:28.448           402.322            RioGallegos         12572.562
       368   05 Jun 2027 18:14:37.414   05 Jun 2027 18:15:38.176            60.762                Norilsk          1898.812
       369   05 Jun 2027 18:19:04.456   05 Jun 2027 18:22:24.847           200.391                Irkutsk          6262.219
       370   05 Jun 2027 18:23:21.322   05 Jun 2027 18:23:24.478             3.156                Irkutsk            98.625
       371   05 Jun 2027 18:29:43.581   05 Jun 2027 18:29:45.069             1.488                Irkutsk            46.500
       372   05 Jun 2027 18:33:11.157   05 Jun 2027 18:36:42.040           210.883                Sumatra          6590.094
       373   05 Jun 2027 18:37:59.304   05 Jun 2027 18:40:05.682           126.378                Sumatra          3949.313
       374   05 Jun 2027 19:54:43.304   05 Jun 2027 19:56:10.087            86.783                Novosib          2711.969
       375   05 Jun 2027 19:56:56.026   05 Jun 2027 19:57:19.102            23.076                Novosib           721.125
       376   05 Jun 2027 20:03:10.454   05 Jun 2027 20:10:43.471           453.017                  Delhi         14156.781
       377   05 Jun 2027 21:29:04.164   05 Jun 2027 21:36:23.211           439.047              Murmansk2         13720.219
       378   05 Jun 2027 23:09:30.698   05 Jun 2027 23:10:26.928            56.230                 Moscow          1757.188
       379   05 Jun 2027 23:14:13.705   05 Jun 2027 23:14:57.163            43.458                 Moscow          1358.063
       380   05 Jun 2027 23:33:08.403   05 Jun 2027 23:34:13.375            64.972               CapeTown          2030.375
       381   05 Jun 2027 23:36:22.653   05 Jun 2027 23:40:00.567           217.914               CapeTown          6809.812
       382   06 Jun 2027 00:47:03.291   06 Jun 2027 00:47:40.869            37.578                 Moscow          1174.313
       383   06 Jun 2027 00:52:13.853   06 Jun 2027 00:52:17.980             4.127                 Moscow           128.969
       384   06 Jun 2027 00:52:22.843   06 Jun 2027 00:52:49.212            26.369                 Moscow           824.031
       385   06 Jun 2027 01:07:53.568   06 Jun 2027 01:09:09.834            76.266               CapeTown          2383.313
       386   06 Jun 2027 01:11:55.535   06 Jun 2027 01:12:21.160            25.625               CapeTown           800.781
       387   06 Jun 2027 02:04:37.963   06 Jun 2027 02:04:46.948             8.985                Anadyr2           280.781
       388   06 Jun 2027 02:04:52.923   06 Jun 2027 02:06:47.154           114.231               Magadan2          3569.719
       389   06 Jun 2027 02:08:21.900   06 Jun 2027 02:08:31.420             9.520               Magadan1           297.500
       390   06 Jun 2027 02:10:14.773   06 Jun 2027 02:10:33.538            18.765               Magadan1           586.406
       391   06 Jun 2027 02:12:37.070   06 Jun 2027 02:12:44.469             7.399               Magadan1           231.219
       392   06 Jun 2027 02:12:49.067   06 Jun 2027 02:12:51.790             2.723                Norilsk            85.094
       393   06 Jun 2027 02:13:50.018   06 Jun 2027 02:13:56.463             6.445               Magadan1           201.406
       394   06 Jun 2027 02:14:43.586   06 Jun 2027 02:14:55.715            12.129                Norilsk           379.031
       395   06 Jun 2027 02:16:29.816   06 Jun 2027 02:17:11.095            41.279              Murmansk2          1289.969
       396   06 Jun 2027 02:18:35.461   06 Jun 2027 02:19:00.408            24.947              Murmansk1           779.594
       397   06 Jun 2027 02:20:02.624   06 Jun 2027 02:20:49.694            47.070              Murmansk1          1470.938
       398   06 Jun 2027 02:21:01.663   06 Jun 2027 02:21:31.076            29.413                 Moscow           919.156
       399   06 Jun 2027 02:22:21.609   06 Jun 2027 02:23:40.780            79.171                 Moscow          2474.094
       400   06 Jun 2027 03:47:13.492   06 Jun 2027 03:48:09.798            56.306                Anadyr2          1759.562
       401   06 Jun 2027 03:48:39.520   06 Jun 2027 03:49:19.710            40.190                Anadyr1          1255.938
       402   06 Jun 2027 03:49:19.710   06 Jun 2027 03:50:13.130            53.420                Anadyr2          1669.375
       403   06 Jun 2027 03:50:17.592   06 Jun 2027 03:51:57.145            99.553                Anadyr2          3111.031
       404   06 Jun 2027 03:51:57.145   06 Jun 2027 03:52:56.490            59.345                Anadyr1          1854.531
       405   06 Jun 2027 05:24:22.707   06 Jun 2027 05:24:47.660            24.953               Magadan2           779.781
       406   06 Jun 2027 05:24:50.965   06 Jun 2027 05:27:15.706           144.741               Magadan2          4523.156
       407   06 Jun 2027 05:27:26.042   06 Jun 2027 05:27:35.161             9.119              Murmansk1           284.969
       408   06 Jun 2027 05:27:37.266   06 Jun 2027 05:27:42.599             5.333               Magadan1           166.656
       409   06 Jun 2027 05:27:42.599   06 Jun 2027 05:28:19.631            37.032               Magadan2          1157.250
       410   06 Jun 2027 05:28:32.358   06 Jun 2027 05:28:57.708            25.350                Norilsk           792.188
       411   06 Jun 2027 05:29:26.960   06 Jun 2027 05:29:38.240            11.280                Novosib           352.500
       412   06 Jun 2027 05:32:58.684   06 Jun 2027 05:33:08.098             9.414              Murmansk1           294.187
       413   06 Jun 2027 05:33:32.116   06 Jun 2027 05:33:46.752            14.636                Norilsk           457.375
       414   06 Jun 2027 05:34:32.539   06 Jun 2027 05:34:42.569            10.030              Murmansk2           313.437
       415   06 Jun 2027 05:36:28.628   06 Jun 2027 05:37:01.646            33.018              Murmansk2          1031.812
       416   06 Jun 2027 06:03:21.351   06 Jun 2027 06:05:28.018           126.667            RioGallegos          3958.344
       417   06 Jun 2027 06:07:29.637   06 Jun 2027 06:07:49.556            19.919            RioGallegos           622.469
       418   06 Jun 2027 06:14:44.402   06 Jun 2027 06:15:13.383            28.981            RioGallegos           905.656
       419   06 Jun 2027 06:38:58.742   06 Jun 2027 06:42:40.321           221.579                Sumatra          6924.344
       420   06 Jun 2027 06:43:31.773   06 Jun 2027 06:44:05.970            34.197                Sumatra          1068.656
       421   06 Jun 2027 07:00:09.395   06 Jun 2027 07:00:40.978            31.583                Norilsk           986.969
       422   06 Jun 2027 07:00:44.522   06 Jun 2027 07:02:39.925           115.403                Irkutsk          3606.344
       423   06 Jun 2027 07:02:42.643   06 Jun 2027 07:02:45.179             2.536                Irkutsk            79.250
       424   06 Jun 2027 07:02:48.298   06 Jun 2027 07:03:17.294            28.996              Murmansk2           906.125
       425   06 Jun 2027 07:03:19.264   06 Jun 2027 07:03:28.517             9.253                Novosib           289.156
       426   06 Jun 2027 07:03:28.894   06 Jun 2027 07:04:24.302            55.408                Norilsk          1731.500
       427   06 Jun 2027 07:04:27.155   06 Jun 2027 07:04:59.402            32.247                Norilsk          1007.719
       428   06 Jun 2027 07:05:24.278   06 Jun 2027 07:06:18.562            54.284              Murmansk2          1696.375
       429   06 Jun 2027 07:42:01.154   06 Jun 2027 07:42:07.916             6.762            RioGallegos           211.313
       430   06 Jun 2027 07:42:34.811   06 Jun 2027 07:43:36.049            61.238            RioGallegos          1913.687
       431   06 Jun 2027 08:15:03.068   06 Jun 2027 08:15:21.317            18.249                Sumatra           570.281
       432   06 Jun 2027 08:16:23.896   06 Jun 2027 08:18:01.704            97.808                Sumatra          3056.500
       433   06 Jun 2027 08:24:31.151   06 Jun 2027 08:25:33.508            62.357                  Delhi          1948.656
       434   06 Jun 2027 08:36:20.507   06 Jun 2027 08:36:28.879             8.372                Novosib           261.625
       435   06 Jun 2027 08:36:34.038   06 Jun 2027 08:36:47.432            13.394                Norilsk           418.562
       436   06 Jun 2027 08:36:51.399   06 Jun 2027 08:37:04.512            13.113              Murmansk2           409.781
       437   06 Jun 2027 08:37:04.512   06 Jun 2027 08:37:24.514            20.002              Murmansk1           625.062
       438   06 Jun 2027 08:37:28.927   06 Jun 2027 08:37:42.126            13.199              Murmansk1           412.469
       439   06 Jun 2027 08:37:51.180   06 Jun 2027 08:37:53.882             2.702                Novosib            84.438
       440   06 Jun 2027 08:37:54.735   06 Jun 2027 08:38:05.684            10.949              Murmansk2           342.156
       441   06 Jun 2027 08:38:05.684   06 Jun 2027 08:38:47.990            42.306              Murmansk1          1322.063
       442   06 Jun 2027 08:39:06.064   06 Jun 2027 08:39:09.483             3.419                Novosib           106.844
       443   06 Jun 2027 08:39:21.140   06 Jun 2027 08:39:25.172             4.032              Murmansk1           126.000
       444   06 Jun 2027 08:39:40.110   06 Jun 2027 08:40:08.821            28.711                 Moscow           897.219
       445   06 Jun 2027 08:40:11.435   06 Jun 2027 08:40:54.725            43.290              Murmansk2          1352.812
       446   06 Jun 2027 08:40:54.725   06 Jun 2027 08:41:10.345            15.620              Murmansk1           488.125
       447   06 Jun 2027 10:00:11.973   06 Jun 2027 10:03:19.088           187.115                  Delhi          5847.344
       448   06 Jun 2027 10:12:04.802   06 Jun 2027 10:12:49.264            44.462              Murmansk2          1389.438
       449   06 Jun 2027 10:12:53.727   06 Jun 2027 10:12:59.493             5.766              Murmansk1           180.187
       450   06 Jun 2027 10:13:02.464   06 Jun 2027 10:13:13.762            11.298                Novosib           353.062
       451   06 Jun 2027 10:13:31.388   06 Jun 2027 10:14:47.222            75.834                Novosib          2369.813
       452   06 Jun 2027 10:14:54.827   06 Jun 2027 10:15:20.029            25.202              Murmansk2           787.563
       453   06 Jun 2027 10:15:26.711   06 Jun 2027 10:16:06.911            40.200                Norilsk          1256.250
       454   06 Jun 2027 10:16:35.842   06 Jun 2027 10:17:06.065            30.223              Murmansk2           944.469
       455   06 Jun 2027 10:17:07.432   06 Jun 2027 10:17:29.547            22.115                 Moscow           691.094
       456   06 Jun 2027 11:52:52.580   06 Jun 2027 11:53:30.734            38.154              Murmansk1          1192.312
       457   06 Jun 2027 12:02:09.035   06 Jun 2027 12:08:10.388           361.353                Anadyr1         11292.281
       458   06 Jun 2027 13:25:35.232   06 Jun 2027 13:26:12.310            37.078              Murmansk1          1158.687
       459   06 Jun 2027 13:31:37.327   06 Jun 2027 13:32:03.509            26.182              Murmansk1           818.188
       460   06 Jun 2027 13:33:49.816   06 Jun 2027 13:34:27.356            37.540              Murmansk1          1173.125
       461   06 Jun 2027 13:37:00.511   06 Jun 2027 13:38:33.621            93.110                Anadyr2          2909.688
       462   06 Jun 2027 13:38:43.549   06 Jun 2027 13:39:24.392            40.843                Anadyr1          1276.344
       463   06 Jun 2027 13:40:52.469   06 Jun 2027 13:42:07.144            74.675                Anadyr1          2333.594
       464   06 Jun 2027 13:44:05.068   06 Jun 2027 13:44:28.954            23.886                Anadyr1           746.437
       465   06 Jun 2027 13:45:37.717   06 Jun 2027 13:47:17.257            99.540                Anadyr2          3110.625
       466   06 Jun 2027 15:06:06.406   06 Jun 2027 15:06:19.087            12.681              Murmansk1           396.281
       467   06 Jun 2027 15:06:23.411   06 Jun 2027 15:07:58.858            95.447              Murmansk1          2982.719
       468   06 Jun 2027 15:12:49.232   06 Jun 2027 15:13:33.194            43.962                Anadyr1          1373.813
       469   06 Jun 2027 15:15:27.366   06 Jun 2027 15:17:48.507           141.141               Magadan1          4410.656
       470   06 Jun 2027 15:19:04.271   06 Jun 2027 15:21:05.586           121.315               Magadan2          3791.094
       471   06 Jun 2027 15:22:07.253   06 Jun 2027 15:23:51.695           104.442               Magadan1          3263.812
       472   06 Jun 2027 15:24:11.071   06 Jun 2027 15:26:28.905           137.834               Magadan1          4307.313
       473   06 Jun 2027 16:51:01.149   06 Jun 2027 16:51:02.672             1.523               Magadan2            47.594
       474   06 Jun 2027 16:51:20.827   06 Jun 2027 16:52:16.913            56.086               Magadan1          1752.687
       475   06 Jun 2027 17:00:18.188   06 Jun 2027 17:00:36.536            18.348               Magadan1           573.375
       476   06 Jun 2027 17:43:27.684   06 Jun 2027 17:49:43.074           375.390            RioGallegos         11730.937
       477   06 Jun 2027 18:27:07.886   06 Jun 2027 18:30:15.255           187.369                Norilsk          5855.281
       478   06 Jun 2027 18:30:54.833   06 Jun 2027 18:32:16.507            81.674                Irkutsk          2552.313
       479   06 Jun 2027 18:33:03.427   06 Jun 2027 18:33:59.532            56.105                Irkutsk          1753.281
       480   06 Jun 2027 18:34:20.862   06 Jun 2027 18:35:48.651            87.789                Novosib          2743.406
       481   06 Jun 2027 18:44:48.307   06 Jun 2027 18:46:23.536            95.229                Sumatra          2975.906
       482   06 Jun 2027 18:48:39.993   06 Jun 2027 18:50:35.540           115.547                Sumatra          3610.844
